[
    {
        "id": "4772070059712007369",
        "title": "公共厕所",
        "address": "黑龙江省七台河市桃山区大同街与大同路步行街交叉口西北方向64米",
        "tel": "",
        "category": "基础设施:公共设施:公共厕所",
        "type": 0,
        "location": {
            "lat": 45.770971,
            "lng": 131.009993
        },
        "ad_info": {
            "adcode": 230903,
            "province": "黑龙江省",
            "city": "七台河市",
            "district": "桃山区"
        }
    },
    {
        "id": "3244160832556115433",
        "title": "公共厕所",
        "address": "黑龙江省七台河市桃山区大同街与景丰路交叉口东南方向70米左右",
        "tel": "",
        "category": "基础设施:公共设施:公共厕所",
        "type": 0,
        "location": {
            "lat": 45.77016,
            "lng": 131.01886
        },
        "ad_info": {
            "adcode": 230903,
            "province": "黑龙江省",
            "city": "七台河市",
            "district": "桃山区"
        }
    },
    {
        "id": "7319171015384233169",
        "title": "公共厕所",
        "address": "黑龙江省七台河市桃山区同仁路52号",
        "tel": "",
        "category": "基础设施:公共设施:公共厕所",
        "type": 0,
        "location": {
            "lat": 45.773236,
            "lng": 131.023886
        },
        "ad_info": {
            "adcode": 230903,
            "province": "黑龙江省",
            "city": "七台河市",
            "district": "桃山区"
        }
    },
    {
        "id": "7952743854716695739",
        "title": "公共厕所",
        "address": "黑龙江省七台河市桃山区东进街与山湖路交叉口西南方向39米左右",
        "tel": "",
        "category": "基础设施:公共设施:公共厕所",
        "type": 0,
        "location": {
            "lat": 45.765087,
            "lng": 131.005508
        },
        "ad_info": {
            "adcode": 230903,
            "province": "黑龙江省",
            "city": "七台河市",
            "district": "桃山区"
        }
    },
    {
        "id": "6378346187272481108",
        "title": "公共厕所",
        "address": "黑龙江省七台河市桃山区学府街与法院巷交叉口正北方向150米左右",
        "tel": "",
        "category": "基础设施:公共设施:公共厕所",
        "type": 0,
        "location": {
            "lat": 45.777281,
            "lng": 131.018812
        },
        "ad_info": {
            "adcode": 230903,
            "province": "黑龙江省",
            "city": "七台河市",
            "district": "桃山区"
        }
    },
    {
        "id": "14325096906736835919",
        "title": "公共厕所",
        "address": "黑龙江省七台河市勃利县东河沿路与向阳街交叉口西北方向135米左右",
        "tel": "",
        "category": "基础设施:公共设施:公共厕所",
        "type": 0,
        "location": {
            "lat": 45.752348,
            "lng": 130.567031
        },
        "ad_info": {
            "adcode": 230921,
            "province": "黑龙江省",
            "city": "七台河市",
            "district": "勃利县"
        }
    },
    {
        "id": "8374772008476175577",
        "title": "公共厕所",
        "address": "黑龙江省七台河市勃利县勃利县人民医院核酸检测点西北侧180米",
        "tel": "",
        "category": "基础设施:公共设施:公共厕所",
        "type": 0,
        "location": {
            "lat": 45.756274,
            "lng": 130.59405
        },
        "ad_info": {
            "adcode": 230921,
            "province": "黑龙江省",
            "city": "七台河市",
            "district": "勃利县"
        }
    },
    {
        "id": "16180753667194710650",
        "title": "公共厕所",
        "address": "黑龙江省七台河市勃利县学府路与顺天街交叉口正西方向111米左右",
        "tel": "",
        "category": "基础设施:公共设施:公共厕所",
        "type": 0,
        "location": {
            "lat": 45.749101,
            "lng": 130.56986
        },
        "ad_info": {
            "adcode": 230921,
            "province": "黑龙江省",
            "city": "七台河市",
            "district": "勃利县"
        }
    },
    {
        "id": "11161919044080772585",
        "title": "公共厕所",
        "address": "黑龙江省七台河市勃利县友谊东街与镇安路交叉口正南方向90米左右",
        "tel": "",
        "category": "基础设施:公共设施:公共厕所",
        "type": 0,
        "location": {
            "lat": 45.756111,
            "lng": 130.577484
        },
        "ad_info": {
            "adcode": 230921,
            "province": "黑龙江省",
            "city": "七台河市",
            "district": "勃利县"
        }
    },
    {
        "id": "15626531822780232617",
        "title": "公共厕所",
        "address": "黑龙江省七台河市桃山区广平街与秋实路交叉口正西方向240米左右",
        "tel": "",
        "category": "基础设施:公共设施:公共厕所",
        "type": 0,
        "location": {
            "lat": 45.782057,
            "lng": 130.975035
        },
        "ad_info": {
            "adcode": 230903,
            "province": "黑龙江省",
            "city": "七台河市",
            "district": "桃山区"
        }
    },
    {
        "id": "3058149836287760834",
        "title": "公共厕所",
        "address": "黑龙江省七台河市勃利县高铁花海",
        "tel": "",
        "category": "基础设施:公共设施:公共厕所",
        "type": 0,
        "location": {
            "lat": 45.741748,
            "lng": 130.79129
        },
        "ad_info": {
            "adcode": 230921,
            "province": "黑龙江省",
            "city": "七台河市",
            "district": "勃利县"
        }
    },
    {
        "id": "4767603675364142818",
        "title": "公共厕所",
        "address": "黑龙江省七台河市勃利县双七线与财政路交叉口西北方向248米左右",
        "tel": "",
        "category": "基础设施:公共设施:公共厕所",
        "type": 0,
        "location": {
            "lat": 46.005996,
            "lng": 130.513002
        },
        "ad_info": {
            "adcode": 230921,
            "province": "黑龙江省",
            "city": "七台河市",
            "district": "勃利县"
        }
    },
    {
        "id": "13167035669174855730",
        "title": "公共厕所",
        "address": "黑龙江省七台河市桃山区旭日街与步行街交叉口正南方向147米左右",
        "tel": "",
        "category": "基础设施:公共设施:公共厕所",
        "type": 0,
        "location": {
            "lat": 45.772613,
            "lng": 131.009063
        },
        "ad_info": {
            "adcode": 230903,
            "province": "黑龙江省",
            "city": "七台河市",
            "district": "桃山区"
        }
    },
    {
        "id": "13827083649442559110",
        "title": "公共厕所",
        "address": "黑龙江省七台河市勃利县向阳街与新华路交叉口正南方向77米左右",
        "tel": "",
        "category": "基础设施:公共设施:公共厕所",
        "type": 0,
        "location": {
            "lat": 45.749669,
            "lng": 130.57625
        },
        "ad_info": {
            "adcode": 230921,
            "province": "黑龙江省",
            "city": "七台河市",
            "district": "勃利县"
        }
    },
    {
        "id": "13644835548991939886",
        "title": "公共厕所",
        "address": "黑龙江省七台河市勃利县南大直路与吉祥街交叉口东南方向29米左右",
        "tel": "",
        "category": "基础设施:公共设施:公共厕所",
        "type": 0,
        "location": {
            "lat": 45.745752,
            "lng": 130.57841
        },
        "ad_info": {
            "adcode": 230921,
            "province": "黑龙江省",
            "city": "七台河市",
            "district": "勃利县"
        }
    },
    {
        "id": "14876489411255551658",
        "title": "公共厕所",
        "address": "黑龙江省七台河市勃利县广西街与通天路交叉口东南方向43米左右",
        "tel": "",
        "category": "基础设施:公共设施:公共厕所",
        "type": 0,
        "location": {
            "lat": 45.752069,
            "lng": 130.562867
        },
        "ad_info": {
            "adcode": 230921,
            "province": "黑龙江省",
            "city": "七台河市",
            "district": "勃利县"
        }
    },
    {
        "id": "2641478958763555852",
        "title": "公共厕所",
        "address": "黑龙江省七台河市勃利县康华街与新起路交叉口正南方向78米左右",
        "tel": "",
        "category": "基础设施:公共设施:公共厕所",
        "type": 0,
        "location": {
            "lat": 45.753318,
            "lng": 130.582611
        },
        "ad_info": {
            "adcode": 230921,
            "province": "黑龙江省",
            "city": "七台河市",
            "district": "勃利县"
        }
    },
    {
        "id": "17175140141071390852",
        "title": "公共厕所",
        "address": "黑龙江省七台河市新兴区双叶大道欣源小区",
        "tel": "",
        "category": "基础设施:公共设施:公共厕所",
        "type": 0,
        "location": {
            "lat": 45.827238,
            "lng": 130.921506
        },
        "ad_info": {
            "adcode": 230902,
            "province": "黑龙江省",
            "city": "七台河市",
            "district": "新兴区"
        }
    },
    {
        "id": "8055210430779289291",
        "title": "公共厕所",
        "address": "黑龙江省七台河市勃利县南郊街与新华路交叉口西南方向67米左右",
        "tel": "",
        "category": "基础设施:公共设施:公共厕所",
        "type": 0,
        "location": {
            "lat": 45.742397,
            "lng": 130.574116
        },
        "ad_info": {
            "adcode": 230921,
            "province": "黑龙江省",
            "city": "七台河市",
            "district": "勃利县"
        }
    },
    {
        "id": "12604642254293439327",
        "title": "公共厕所",
        "address": "黑龙江省七台河市勃利县学府路与永安街交叉口正西方向140米左右",
        "tel": "",
        "category": "基础设施:公共设施:公共厕所",
        "type": 0,
        "location": {
            "lat": 45.746424,
            "lng": 130.568824
        },
        "ad_info": {
            "adcode": 230921,
            "province": "黑龙江省",
            "city": "七台河市",
            "district": "勃利县"
        }
    },
    {
        "id": "14535133494900677587",
        "title": "公共厕所",
        "address": "黑龙江省七台河市勃利县人民大道与吉祥街交叉口西北方向113米左右",
        "tel": "",
        "category": "基础设施:公共设施:公共厕所",
        "type": 0,
        "location": {
            "lat": 45.744633,
            "lng": 130.589302
        },
        "ad_info": {
            "adcode": 230921,
            "province": "黑龙江省",
            "city": "七台河市",
            "district": "勃利县"
        }
    },
    {
        "id": "4588031277850569147",
        "title": "公共厕所",
        "address": "黑龙江省七台河市勃利县农丰街与友谊西街交叉口正北方向783米左右",
        "tel": "",
        "category": "基础设施:公共设施:公共厕所",
        "type": 0,
        "location": {
            "lat": 45.766596,
            "lng": 130.557031
        },
        "ad_info": {
            "adcode": 230921,
            "province": "黑龙江省",
            "city": "七台河市",
            "district": "勃利县"
        }
    },
    {
        "id": "537771914029589629",
        "title": "公共厕所",
        "address": "黑龙江省七台河市新兴区石油大道与秋月路交叉口正北方向343米左右",
        "tel": "",
        "category": "基础设施:公共设施:公共厕所",
        "type": 0,
        "location": {
            "lat": 45.775857,
            "lng": 130.919545
        },
        "ad_info": {
            "adcode": 230902,
            "province": "黑龙江省",
            "city": "七台河市",
            "district": "新兴区"
        }
    },
    {
        "id": "15474190287378826175",
        "title": "公共厕所",
        "address": "黑龙江省七台河市茄子河区东进街与迎宾大道交叉口西南方向121米左右",
        "tel": "",
        "category": "基础设施:公共设施:公共厕所",
        "type": 0,
        "location": {
            "lat": 45.764406,
            "lng": 131.043378
        },
        "ad_info": {
            "adcode": 230904,
            "province": "黑龙江省",
            "city": "七台河市",
            "district": "茄子河区"
        }
    },
    {
        "id": "13256609803159753664",
        "title": "公共厕所",
        "address": "黑龙江省七台河市茄子河区杨杨街与湖东路交叉口正东方向148米左右",
        "tel": "",
        "category": "基础设施:公共设施:公共厕所",
        "type": 0,
        "location": {
            "lat": 45.774398,
            "lng": 131.068204
        },
        "ad_info": {
            "adcode": 230904,
            "province": "黑龙江省",
            "city": "七台河市",
            "district": "茄子河区"
        }
    },
    {
        "id": "12721839821076282527",
        "title": "公共厕所",
        "address": "黑龙江省七台河市勃利县中心大街与邮政巷交叉口正北方向60米左右",
        "tel": "",
        "category": "基础设施:公共设施:公共厕所",
        "type": 0,
        "location": {
            "lat": 45.755638,
            "lng": 130.56651
        },
        "ad_info": {
            "adcode": 230921,
            "province": "黑龙江省",
            "city": "七台河市",
            "district": "勃利县"
        }
    },
    {
        "id": "7000183748547409198",
        "title": "公共厕所(如意家园)",
        "address": "黑龙江省七台河市新兴区文府街与银岭路交叉口正南方向461米左右",
        "tel": "",
        "category": "基础设施:公共设施:公共厕所",
        "type": 0,
        "location": {
            "lat": 45.860492,
            "lng": 131.060542
        },
        "ad_info": {
            "adcode": 230902,
            "province": "黑龙江省",
            "city": "七台河市",
            "district": "新兴区"
        }
    },
    {
        "id": "15713604701292843516",
        "title": "公共厕所",
        "address": "黑龙江省七台河市新兴区思源路与环城公路交叉口西北方向322米",
        "tel": "",
        "category": "基础设施:公共设施:公共厕所",
        "type": 0,
        "location": {
            "lat": 45.811219,
            "lng": 130.948018
        },
        "ad_info": {
            "adcode": 230902,
            "province": "黑龙江省",
            "city": "七台河市",
            "district": "新兴区"
        }
    },
    {
        "id": "5597074035129881661",
        "title": "公共厕所",
        "address": "黑龙江省七台河市勃利县中心大街与亿达路交叉口正北方向178米左右",
        "tel": "",
        "category": "基础设施:公共设施:公共厕所",
        "type": 0,
        "location": {
            "lat": 45.756847,
            "lng": 130.565567
        },
        "ad_info": {
            "adcode": 230921,
            "province": "黑龙江省",
            "city": "七台河市",
            "district": "勃利县"
        }
    },
    {
        "id": "14137209901757784737",
        "title": "公共厕所",
        "address": "黑龙江省七台河市勃利县友谊东街与园明路交叉口正北方向131米左右",
        "tel": "",
        "category": "基础设施:公共设施:公共厕所",
        "type": 0,
        "location": {
            "lat": 45.758466,
            "lng": 130.575271
        },
        "ad_info": {
            "adcode": 230921,
            "province": "黑龙江省",
            "city": "七台河市",
            "district": "勃利县"
        }
    },
    {
        "id": "17855217850091392305",
        "title": "公共厕所",
        "address": "黑龙江省七台河市勃利县桦林公路与012县道交叉口西北100米",
        "tel": "",
        "category": "基础设施:公共设施:公共厕所",
        "type": 0,
        "location": {
            "lat": 45.600897,
            "lng": 130.594456
        },
        "ad_info": {
            "adcode": 230921,
            "province": "黑龙江省",
            "city": "七台河市",
            "district": "勃利县"
        }
    },
    {
        "id": "625693872229052150",
        "title": "公共厕所",
        "address": "黑龙江省七台河市勃利县永昌路与顺天街交叉口正南方向114米左右",
        "tel": "",
        "category": "基础设施:公共设施:公共厕所",
        "type": 0,
        "location": {
            "lat": 45.745516,
            "lng": 130.587153
        },
        "ad_info": {
            "adcode": 230921,
            "province": "黑龙江省",
            "city": "七台河市",
            "district": "勃利县"
        }
    },
    {
        "id": "11071586720716090450",
        "title": "公共厕所",
        "address": "黑龙江省七台河市勃利县农丰街与创业街交叉口西南方向48米左右",
        "tel": "",
        "category": "基础设施:公共设施:公共厕所",
        "type": 0,
        "location": {
            "lat": 45.762556,
            "lng": 130.546392
        },
        "ad_info": {
            "adcode": 230921,
            "province": "黑龙江省",
            "city": "七台河市",
            "district": "勃利县"
        }
    },
    {
        "id": "8974067734484396079",
        "title": "公共厕所",
        "address": "黑龙江省七台河市新兴区兴华路与站前街交叉口西北方向90米左右",
        "tel": "",
        "category": "基础设施:公共设施:公共厕所",
        "type": 0,
        "location": {
            "lat": 45.811029,
            "lng": 130.90078
        },
        "ad_info": {
            "adcode": 230902,
            "province": "黑龙江省",
            "city": "七台河市",
            "district": "新兴区"
        }
    },
    {
        "id": "16426564016930747555",
        "title": "公共厕所",
        "address": "黑龙江省七台河市新兴区繁辉装潢材料商店东侧110米",
        "tel": "",
        "category": "基础设施:公共设施:公共厕所",
        "type": 0,
        "location": {
            "lat": 45.814678,
            "lng": 130.936687
        },
        "ad_info": {
            "adcode": 230902,
            "province": "黑龙江省",
            "city": "七台河市",
            "district": "新兴区"
        }
    },
    {
        "id": "2147255767016207627",
        "title": "公共厕所",
        "address": "黑龙江省七台河市勃利县吉祥街与永盛路交叉口东北方向52米左右",
        "tel": "",
        "category": "基础设施:公共设施:公共厕所",
        "type": 0,
        "location": {
            "lat": 45.744708,
            "lng": 130.588117
        },
        "ad_info": {
            "adcode": 230921,
            "province": "黑龙江省",
            "city": "七台河市",
            "district": "勃利县"
        }
    },
    {
        "id": "10470402109015033650",
        "title": "公共厕所",
        "address": "黑龙江省七台河市勃利县友谊东街与太平路交叉口西南方向116米左右",
        "tel": "",
        "category": "基础设施:公共设施:公共厕所",
        "type": 0,
        "location": {
            "lat": 45.754786,
            "lng": 130.585502
        },
        "ad_info": {
            "adcode": 230921,
            "province": "黑龙江省",
            "city": "七台河市",
            "district": "勃利县"
        }
    },
    {
        "id": "7977979603972994443",
        "title": "公共厕所",
        "address": "黑龙江省七台河市勃利县广西街与站前路交叉口东北方向56米左右",
        "tel": "",
        "category": "基础设施:公共设施:公共厕所",
        "type": 0,
        "location": {
            "lat": 45.753231,
            "lng": 130.559896
        },
        "ad_info": {
            "adcode": 230921,
            "province": "黑龙江省",
            "city": "七台河市",
            "district": "勃利县"
        }
    },
    {
        "id": "3335483323775701166",
        "title": "公共厕所",
        "address": "黑龙江省七台河市勃利县永盛路与顺天街交叉口正北方向102米左右",
        "tel": "",
        "category": "基础设施:公共设施:公共厕所",
        "type": 0,
        "location": {
            "lat": 45.747263,
            "lng": 130.588665
        },
        "ad_info": {
            "adcode": 230921,
            "province": "黑龙江省",
            "city": "七台河市",
            "district": "勃利县"
        }
    },
    {
        "id": "6165650483468195791",
        "title": "公共厕所",
        "address": "黑龙江省七台河市勃利县城西街与广西街交叉口正北方向41米左右",
        "tel": "",
        "category": "基础设施:公共设施:公共厕所",
        "type": 0,
        "location": {
            "lat": 45.752597,
            "lng": 130.564102
        },
        "ad_info": {
            "adcode": 230921,
            "province": "黑龙江省",
            "city": "七台河市",
            "district": "勃利县"
        }
    },
    {
        "id": "12898548622513306570",
        "title": "公共厕所",
        "address": "黑龙江省七台河市勃利县X148与Y029交叉口西南方向813米左右",
        "tel": "",
        "category": "基础设施:公共设施:公共厕所",
        "type": 0,
        "location": {
            "lat": 45.823064,
            "lng": 130.688447
        },
        "ad_info": {
            "adcode": 230921,
            "province": "黑龙江省",
            "city": "七台河市",
            "district": "勃利县"
        }
    },
    {
        "id": "15256268592068128009",
        "title": "公共厕所",
        "address": "黑龙江省七台河市新兴区助学路与朝阳大街交叉口正南方向38米左右",
        "tel": "",
        "category": "基础设施:公共设施:公共厕所",
        "type": 0,
        "location": {
            "lat": 45.963432,
            "lng": 131.359852
        },
        "ad_info": {
            "adcode": 230902,
            "province": "黑龙江省",
            "city": "七台河市",
            "district": "新兴区"
        }
    },
    {
        "id": "8542151426486819272",
        "title": "公共厕所",
        "address": "黑龙江省七台河市新兴区劲松路与市场路交叉口正南方向172米左右",
        "tel": "",
        "category": "基础设施:公共设施:公共厕所",
        "type": 0,
        "location": {
            "lat": 45.792155,
            "lng": 130.888852
        },
        "ad_info": {
            "adcode": 230902,
            "province": "黑龙江省",
            "city": "七台河市",
            "district": "新兴区"
        }
    },
    {
        "id": "10383074931003836459",
        "title": "公共厕所",
        "address": "黑龙江省七台河市茄子河区Y203与保中大街交叉口东北方向40米左右",
        "tel": "",
        "category": "基础设施:公共设施:公共厕所",
        "type": 0,
        "location": {
            "lat": 46.04321,
            "lng": 131.633906
        },
        "ad_info": {
            "adcode": 230904,
            "province": "黑龙江省",
            "city": "七台河市",
            "district": "茄子河区"
        }
    },
    {
        "id": "13476794268828887605",
        "title": "公共厕所",
        "address": "黑龙江省七台河市勃利县S203与X012交叉口正西方向360米",
        "tel": "",
        "category": "基础设施:公共设施:公共厕所",
        "type": 0,
        "location": {
            "lat": 45.707549,
            "lng": 130.549221
        },
        "ad_info": {
            "adcode": 230921,
            "province": "黑龙江省",
            "city": "七台河市",
            "district": "勃利县"
        }
    },
    {
        "id": "17513244654067225299",
        "title": "公共厕所",
        "address": "黑龙江省七台河市勃利县广西街与通天路交叉口正南方向124米左右",
        "tel": "",
        "category": "基础设施:公共设施:公共厕所",
        "type": 0,
        "location": {
            "lat": 45.751317,
            "lng": 130.56248
        },
        "ad_info": {
            "adcode": 230921,
            "province": "黑龙江省",
            "city": "七台河市",
            "district": "勃利县"
        }
    },
    {
        "id": "13341238241254171123",
        "title": "公共厕所",
        "address": "黑龙江省七台河市茄子河区G229宏岚加油站(金沙湖垂钓园西南)",
        "tel": "",
        "category": "基础设施:公共设施:公共厕所",
        "type": 0,
        "location": {
            "lat": 45.814285,
            "lng": 131.18138
        },
        "ad_info": {
            "adcode": 230904,
            "province": "黑龙江省",
            "city": "七台河市",
            "district": "茄子河区"
        }
    },
    {
        "id": "15426448902316751675",
        "title": "公共厕所",
        "address": "黑龙江省七台河市新兴区Y602与新建街交叉口东南方向829米左右",
        "tel": "",
        "category": "基础设施:公共设施:公共厕所",
        "type": 0,
        "location": {
            "lat": 45.810943,
            "lng": 130.876261
        },
        "ad_info": {
            "adcode": 230902,
            "province": "黑龙江省",
            "city": "七台河市",
            "district": "新兴区"
        }
    },
    {
        "id": "13612790249756912446",
        "title": "公共厕所",
        "address": "黑龙江省七台河市新兴区石油大道与秋月路交叉口正东方向195米左右",
        "tel": "",
        "category": "基础设施:公共设施:公共厕所",
        "type": 0,
        "location": {
            "lat": 45.773182,
            "lng": 130.922387
        },
        "ad_info": {
            "adcode": 230902,
            "province": "黑龙江省",
            "city": "七台河市",
            "district": "新兴区"
        }
    },
    {
        "id": "6978545952314974000",
        "title": "公共厕所",
        "address": "黑龙江省七台河市茄子河区S202与富强路交叉口东南方向1598米左右",
        "tel": "",
        "category": "基础设施:公共设施:公共厕所",
        "type": 0,
        "location": {
            "lat": 45.761431,
            "lng": 131.130666
        },
        "ad_info": {
            "adcode": 230904,
            "province": "黑龙江省",
            "city": "七台河市",
            "district": "茄子河区"
        }
    },
    {
        "id": "18028788422157971717",
        "title": "公共厕所",
        "address": "黑龙江省七台河市新兴区站前街与越秀路交叉口正南方向976米左右",
        "tel": "",
        "category": "基础设施:公共设施:公共厕所",
        "type": 0,
        "location": {
            "lat": 45.798623,
            "lng": 130.90657
        },
        "ad_info": {
            "adcode": 230902,
            "province": "黑龙江省",
            "city": "七台河市",
            "district": "新兴区"
        }
    },
    {
        "id": "14706662681935779120",
        "title": "公共厕所",
        "address": "黑龙江省七台河市新兴区新立煤矿职工培训中心南侧180米",
        "tel": "",
        "category": "基础设施:公共设施:公共厕所",
        "type": 0,
        "location": {
            "lat": 45.799761,
            "lng": 130.907202
        },
        "ad_info": {
            "adcode": 230902,
            "province": "黑龙江省",
            "city": "七台河市",
            "district": "新兴区"
        }
    },
    {
        "id": "4552796932871817906",
        "title": "公共厕所",
        "address": "黑龙江省七台河市新兴区正阳街中国石油加油站",
        "tel": "",
        "category": "基础设施:公共设施:公共厕所",
        "type": 0,
        "location": {
            "lat": 45.802538,
            "lng": 130.864052
        },
        "ad_info": {
            "adcode": 230902,
            "province": "黑龙江省",
            "city": "七台河市",
            "district": "新兴区"
        }
    },
    {
        "id": "4195875324566536438",
        "title": "公共厕所",
        "address": "黑龙江省七台河市新兴区G229与Y601交叉口正西方向85米左右",
        "tel": "",
        "category": "基础设施:公共设施:公共厕所",
        "type": 0,
        "location": {
            "lat": 45.772713,
            "lng": 130.860134
        },
        "ad_info": {
            "adcode": 230902,
            "province": "黑龙江省",
            "city": "七台河市",
            "district": "新兴区"
        }
    },
    {
        "id": "6974062296006658711",
        "title": "公共厕所",
        "address": "黑龙江省七台河市茄子河区S202与富强路交叉口正南方向386米左右",
        "tel": "",
        "category": "基础设施:公共设施:公共厕所",
        "type": 0,
        "location": {
            "lat": 45.766496,
            "lng": 131.112706
        },
        "ad_info": {
            "adcode": 230904,
            "province": "黑龙江省",
            "city": "七台河市",
            "district": "茄子河区"
        }
    },
    {
        "id": "14399405292886096693",
        "title": "公共厕所",
        "address": "黑龙江省七台河市茄子河区G229与Y206交叉口东北方向418米左右",
        "tel": "",
        "category": "基础设施:公共设施:公共厕所",
        "type": 0,
        "location": {
            "lat": 46.057804,
            "lng": 131.803209
        },
        "ad_info": {
            "adcode": 230904,
            "province": "黑龙江省",
            "city": "七台河市",
            "district": "茄子河区"
        }
    },
    {
        "id": "5341834328959710131",
        "title": "公共厕所",
        "address": "黑龙江省七台河市勃利县徐家锅炉制造东北侧50米",
        "tel": "",
        "category": "基础设施:公共设施:公共厕所",
        "type": 0,
        "location": {
            "lat": 45.763431,
            "lng": 130.566941
        },
        "ad_info": {
            "adcode": 230921,
            "province": "黑龙江省",
            "city": "七台河市",
            "district": "勃利县"
        }
    },
    {
        "id": "13415545724687616314",
        "title": "新兴区北岸新城六号大道广场公共厕所驿站",
        "address": "黑龙江省七台河市新兴区乐业街与兴城路交叉口西北方向185米左右",
        "tel": "",
        "category": "基础设施:公共设施:公共厕所",
        "type": 0,
        "location": {
            "lat": 45.803945,
            "lng": 130.955053
        },
        "ad_info": {
            "adcode": 230902,
            "province": "黑龙江省",
            "city": "七台河市",
            "district": "新兴区"
        }
    },
    {
        "id": "6233578794726009459",
        "title": "公共厕所爱心驿站",
        "address": "黑龙江省七台河市新兴区七星花园B区步行街",
        "tel": "",
        "category": "基础设施:公共设施:公共厕所",
        "type": 0,
        "location": {
            "lat": 45.807954,
            "lng": 130.957811
        },
        "ad_info": {
            "adcode": 230902,
            "province": "黑龙江省",
            "city": "七台河市",
            "district": "新兴区"
        }
    },
    {
        "id": "15577415025041445226",
        "title": "勃利服务区公共厕所",
        "address": "黑龙江省七台河市勃利县G229与同庆路交叉口东北方向1461米左右",
        "tel": "",
        "category": "基础设施:公共设施:公共厕所",
        "type": 0,
        "location": {
            "lat": 45.795884,
            "lng": 130.542467
        },
        "ad_info": {
            "adcode": 230921,
            "province": "黑龙江省",
            "city": "七台河市",
            "district": "勃利县"
        }
    },
    {
        "id": "3717203034463887808",
        "title": "勃利服务区公共厕所",
        "address": "黑龙江省七台河市勃利县G229与同庆路交叉口东北方向1258米左右",
        "tel": "",
        "category": "基础设施:公共设施:公共厕所",
        "type": 0,
        "location": {
            "lat": 45.79409,
            "lng": 130.541602
        },
        "ad_info": {
            "adcode": 230921,
            "province": "黑龙江省",
            "city": "七台河市",
            "district": "勃利县"
        }
    }
]