[
    {
        "id": "2011200744768984294",
        "title": "公共厕所",
        "address": "海南省万宁市凤凰路与星悦路交叉口正南方向276米左右",
        "tel": "",
        "category": "基础设施:公共设施:公共厕所",
        "type": 0,
        "location": {
            "lat": 18.671911,
            "lng": 110.350925
        },
        "ad_info": {
            "adcode": 469006,
            "province": "海南省",
            "city": "",
            "district": "万宁市"
        }
    },
    {
        "id": "5760909286746550368",
        "title": "公共厕所",
        "address": "海南省万宁市Halo Wan日落餐厅&BAR(日月湾店)东北侧",
        "tel": "",
        "category": "基础设施:公共设施:公共厕所",
        "type": 0,
        "location": {
            "lat": 18.629354,
            "lng": 110.218151
        },
        "ad_info": {
            "adcode": 469006,
            "province": "海南省",
            "city": "",
            "district": "万宁市"
        }
    },
    {
        "id": "2321871282376255182",
        "title": "公共厕所",
        "address": "海南省万宁市沿河路与温泉大道交叉口正东方向94米左右",
        "tel": "",
        "category": "基础设施:公共设施:公共厕所",
        "type": 0,
        "location": {
            "lat": 18.746878,
            "lng": 110.213073
        },
        "ad_info": {
            "adcode": 469006,
            "province": "海南省",
            "city": "",
            "district": "万宁市"
        }
    },
    {
        "id": "16754123034488352004",
        "title": "公共厕所",
        "address": "海南省万宁市一号路与建设北路交叉口西南方向33米左右",
        "tel": "",
        "category": "基础设施:公共设施:公共厕所",
        "type": 0,
        "location": {
            "lat": 18.800322,
            "lng": 110.380529
        },
        "ad_info": {
            "adcode": 469006,
            "province": "海南省",
            "city": "",
            "district": "万宁市"
        }
    },
    {
        "id": "6863290658368177808",
        "title": "公共厕所",
        "address": "海南省万宁市海榆东线与红专路交叉口正东方向85米左右",
        "tel": "",
        "category": "基础设施:公共设施:公共厕所",
        "type": 0,
        "location": {
            "lat": 18.794789,
            "lng": 110.394599
        },
        "ad_info": {
            "adcode": 469006,
            "province": "海南省",
            "city": "",
            "district": "万宁市"
        }
    },
    {
        "id": "6889085627183566888",
        "title": "公共厕所",
        "address": "海南省万宁市环岛旅游公路与港北大桥交叉口西南方向234米左右",
        "tel": "",
        "category": "基础设施:公共设施:公共厕所",
        "type": 0,
        "location": {
            "lat": 18.884419,
            "lng": 110.506979
        },
        "ad_info": {
            "adcode": 469006,
            "province": "海南省",
            "city": "",
            "district": "万宁市"
        }
    },
    {
        "id": "16248209203001804488",
        "title": "公共厕所",
        "address": "海南省万宁市环市二东路与纵一路交叉口西南20米",
        "tel": "",
        "category": "基础设施:公共设施:公共厕所",
        "type": 0,
        "location": {
            "lat": 18.809086,
            "lng": 110.397436
        },
        "ad_info": {
            "adcode": 469006,
            "province": "海南省",
            "city": "",
            "district": "万宁市"
        }
    },
    {
        "id": "4646328166232351377",
        "title": "公共厕所",
        "address": "海南省万宁市建设北路与建设路交叉口正北方向171米左右",
        "tel": "",
        "category": "基础设施:公共设施:公共厕所",
        "type": 0,
        "location": {
            "lat": 18.808345,
            "lng": 110.382283
        },
        "ad_info": {
            "adcode": 469006,
            "province": "海南省",
            "city": "",
            "district": "万宁市"
        }
    },
    {
        "id": "17431069299232983699",
        "title": "公共厕所",
        "address": "海南省万宁市G223与健安路交叉口正南方向255米左右",
        "tel": "",
        "category": "基础设施:公共设施:公共厕所",
        "type": 0,
        "location": {
            "lat": 18.818136,
            "lng": 110.392649
        },
        "ad_info": {
            "adcode": 469006,
            "province": "海南省",
            "city": "",
            "district": "万宁市"
        }
    },
    {
        "id": "2162998868669503649",
        "title": "公共厕所",
        "address": "海南省万宁市侨乡路与兴梅大道交叉口正东方向256米左右",
        "tel": "",
        "category": "基础设施:公共设施:公共厕所",
        "type": 0,
        "location": {
            "lat": 18.703461,
            "lng": 110.253346
        },
        "ad_info": {
            "adcode": 469006,
            "province": "海南省",
            "city": "",
            "district": "万宁市"
        }
    },
    {
        "id": "5306757922484308624",
        "title": "公共厕所",
        "address": "海南省万宁市光明南路与红专中路交叉口正北方向109米左右",
        "tel": "",
        "category": "基础设施:公共设施:公共厕所",
        "type": 0,
        "location": {
            "lat": 18.792102,
            "lng": 110.38819
        },
        "ad_info": {
            "adcode": 469006,
            "province": "海南省",
            "city": "",
            "district": "万宁市"
        }
    },
    {
        "id": "11309676896616041230",
        "title": "公共厕所",
        "address": "海南省万宁市仁里河南路与建设北路交叉口西南方向146米左右",
        "tel": "",
        "category": "基础设施:公共设施:公共厕所",
        "type": 0,
        "location": {
            "lat": 18.804674,
            "lng": 110.380459
        },
        "ad_info": {
            "adcode": 469006,
            "province": "海南省",
            "city": "",
            "district": "万宁市"
        }
    },
    {
        "id": "12100441318114480721",
        "title": "公共厕所",
        "address": "海南省万宁市海榆东线与柳园街交叉口正南方向36米左右",
        "tel": "",
        "category": "基础设施:公共设施:公共厕所",
        "type": 0,
        "location": {
            "lat": 18.790412,
            "lng": 110.382694
        },
        "ad_info": {
            "adcode": 469006,
            "province": "海南省",
            "city": "",
            "district": "万宁市"
        }
    },
    {
        "id": "2815934508111167666",
        "title": "公共厕所",
        "address": "海南省万宁市万海街与红专东路交叉口正北方向98米左右",
        "tel": "",
        "category": "基础设施:公共设施:公共厕所",
        "type": 0,
        "location": {
            "lat": 18.797278,
            "lng": 110.396715
        },
        "ad_info": {
            "adcode": 469006,
            "province": "海南省",
            "city": "",
            "district": "万宁市"
        }
    },
    {
        "id": "10685113035897673141",
        "title": "公共厕所",
        "address": "海南省万宁市万宁南互通与万安大道交叉口东南方向137米左右",
        "tel": "",
        "category": "基础设施:公共设施:公共厕所",
        "type": 0,
        "location": {
            "lat": 18.794851,
            "lng": 110.360907
        },
        "ad_info": {
            "adcode": 469006,
            "province": "海南省",
            "city": "",
            "district": "万宁市"
        }
    },
    {
        "id": "58478666496734961",
        "title": "公共厕所",
        "address": "海南省万宁市振兴街与海榆东线交叉口东北方向218米左右",
        "tel": "",
        "category": "基础设施:公共设施:公共厕所",
        "type": 0,
        "location": {
            "lat": 18.919832,
            "lng": 110.472484
        },
        "ad_info": {
            "adcode": 469006,
            "province": "海南省",
            "city": "",
            "district": "万宁市"
        }
    },
    {
        "id": "12535618417115842825",
        "title": "公共厕所",
        "address": "海南省万宁市礼纪镇98国道神州站",
        "tel": "",
        "category": "基础设施:公共设施:公共厕所",
        "type": 0,
        "location": {
            "lat": 18.725053,
            "lng": 110.308309
        },
        "ad_info": {
            "adcode": 469006,
            "province": "海南省",
            "city": "",
            "district": "万宁市"
        }
    },
    {
        "id": "17236128308500111751",
        "title": "公共厕所",
        "address": "海南省万宁市乐园路与海榆东线交叉口正西方向549米左右",
        "tel": "",
        "category": "基础设施:公共设施:公共厕所",
        "type": 0,
        "location": {
            "lat": 18.851285,
            "lng": 110.391006
        },
        "ad_info": {
            "adcode": 469006,
            "province": "海南省",
            "city": "",
            "district": "万宁市"
        }
    },
    {
        "id": "16462643111526049715",
        "title": "公共厕所",
        "address": "海南省万宁市南林大道与海榆东线交叉口东北方向391米左右",
        "tel": "",
        "category": "基础设施:公共设施:公共厕所",
        "type": 0,
        "location": {
            "lat": 18.68544,
            "lng": 110.16168
        },
        "ad_info": {
            "adcode": 469006,
            "province": "海南省",
            "city": "",
            "district": "万宁市"
        }
    },
    {
        "id": "10935807698144788383",
        "title": "公共厕所",
        "address": "海南省万宁市侨乡路与兴梅大道交叉口正南方向1634米左右",
        "tel": "",
        "category": "基础设施:公共设施:公共厕所",
        "type": 0,
        "location": {
            "lat": 18.688969,
            "lng": 110.25514
        },
        "ad_info": {
            "adcode": 469006,
            "province": "海南省",
            "city": "",
            "district": "万宁市"
        }
    },
    {
        "id": "8816842590485869759",
        "title": "公共厕所",
        "address": "海南省万宁市万宁南互通与万安大道交叉口东北方向50米左右",
        "tel": "",
        "category": "基础设施:公共设施:公共厕所",
        "type": 0,
        "location": {
            "lat": 18.7957,
            "lng": 110.360147
        },
        "ad_info": {
            "adcode": 469006,
            "province": "海南省",
            "city": "",
            "district": "万宁市"
        }
    },
    {
        "id": "6345202868626015227",
        "title": "公共厕所",
        "address": "海南省万宁市万北线与解放路北二巷交叉口东400米",
        "tel": "",
        "category": "基础设施:公共设施:公共厕所",
        "type": 0,
        "location": {
            "lat": 18.800272,
            "lng": 110.407779
        },
        "ad_info": {
            "adcode": 469006,
            "province": "海南省",
            "city": "",
            "district": "万宁市"
        }
    },
    {
        "id": "5395603755145547058",
        "title": "公共厕所",
        "address": "海南省万宁市万海街与人民东路交叉口正南方向27米左右",
        "tel": "",
        "category": "基础设施:公共设施:公共厕所",
        "type": 0,
        "location": {
            "lat": 18.799707,
            "lng": 110.394962
        },
        "ad_info": {
            "adcode": 469006,
            "province": "海南省",
            "city": "",
            "district": "万宁市"
        }
    },
    {
        "id": "15644083206209426087",
        "title": "公共厕所",
        "address": "海南省万宁市兴安街与新安街交叉口正南方向85米左右",
        "tel": "",
        "category": "基础设施:公共设施:公共厕所",
        "type": 0,
        "location": {
            "lat": 18.867705,
            "lng": 110.446992
        },
        "ad_info": {
            "adcode": 469006,
            "province": "海南省",
            "city": "",
            "district": "万宁市"
        }
    },
    {
        "id": "3660027537465864176",
        "title": "公共厕所",
        "address": "海南省万宁市建设北路与建设路交叉口东北方向601米左右",
        "tel": "",
        "category": "基础设施:公共设施:公共厕所",
        "type": 0,
        "location": {
            "lat": 18.811325,
            "lng": 110.385454
        },
        "ad_info": {
            "adcode": 469006,
            "province": "海南省",
            "city": "",
            "district": "万宁市"
        }
    },
    {
        "id": "15841521619654267099",
        "title": "公共厕所",
        "address": "海南省万宁市自然资源和规划局西北100米(纵一北路东)",
        "tel": "",
        "category": "基础设施:公共设施:公共厕所",
        "type": 0,
        "location": {
            "lat": 18.825299,
            "lng": 110.399492
        },
        "ad_info": {
            "adcode": 469006,
            "province": "海南省",
            "city": "",
            "district": "万宁市"
        }
    },
    {
        "id": "2892020433786571899",
        "title": "公共厕所",
        "address": "海南省万宁市万州大道西50米",
        "tel": "",
        "category": "基础设施:公共设施:公共厕所",
        "type": 0,
        "location": {
            "lat": 18.816002,
            "lng": 110.392559
        },
        "ad_info": {
            "adcode": 469006,
            "province": "海南省",
            "city": "",
            "district": "万宁市"
        }
    },
    {
        "id": "18056923962062199968",
        "title": "公共厕所",
        "address": "海南省万宁市海榆东线与迎宾大道交叉口东北方向920米左右",
        "tel": "",
        "category": "基础设施:公共设施:公共厕所",
        "type": 0,
        "location": {
            "lat": 18.76685,
            "lng": 110.22866
        },
        "ad_info": {
            "adcode": 469006,
            "province": "海南省",
            "city": "",
            "district": "万宁市"
        }
    },
    {
        "id": "16412169423144349148",
        "title": "卫生间",
        "address": "海南省万宁市文明北路49号",
        "tel": "",
        "category": "基础设施:公共设施:公共厕所",
        "type": 0,
        "location": {
            "lat": 18.801668,
            "lng": 110.39023
        },
        "ad_info": {
            "adcode": 469006,
            "province": "海南省",
            "city": "",
            "district": "万宁市"
        }
    },
    {
        "id": "17283634109224366340",
        "title": "公共厕所",
        "address": "海南省万宁市和乐中学农场北侧250米",
        "tel": "",
        "category": "基础设施:公共设施:公共厕所",
        "type": 0,
        "location": {
            "lat": 18.966459,
            "lng": 110.432005
        },
        "ad_info": {
            "adcode": 469006,
            "province": "海南省",
            "city": "",
            "district": "万宁市"
        }
    },
    {
        "id": "14032302920627180508",
        "title": "石梅湾公共厕所",
        "address": "海南省万宁市滨海路石梅湾(西侧)",
        "tel": "",
        "category": "基础设施:公共设施:公共厕所",
        "type": 0,
        "location": {
            "lat": 18.66367,
            "lng": 110.271109
        },
        "ad_info": {
            "adcode": 469006,
            "province": "海南省",
            "city": "",
            "district": "万宁市"
        }
    },
    {
        "id": "8812817506303920854",
        "title": "日月湾海门游览区公共厕所",
        "address": "海南省万宁市日月湾互通与海南环岛高速交叉口正东方向397米左右",
        "tel": "",
        "category": "基础设施:公共设施:公共厕所",
        "type": 0,
        "location": {
            "lat": 18.627692,
            "lng": 110.216564
        },
        "ad_info": {
            "adcode": 469006,
            "province": "海南省",
            "city": "",
            "district": "万宁市"
        }
    },
    {
        "id": "15262375521180744086",
        "title": "公共厕所",
        "address": "海南省万宁市S304与南平桥交叉口西南方向365米左右",
        "tel": "",
        "category": "基础设施:公共设施:公共厕所",
        "type": 0,
        "location": {
            "lat": 18.862744,
            "lng": 110.12107
        },
        "ad_info": {
            "adcode": 469006,
            "province": "海南省",
            "city": "",
            "district": "万宁市"
        }
    },
    {
        "id": "17751560383755130305",
        "title": "燕子洞厕所",
        "address": "海南省万宁市X428与大罗小桥交叉口正南方向1406米左右",
        "tel": "",
        "category": "基础设施:公共设施:公共厕所",
        "type": 0,
        "location": {
            "lat": 19.043907,
            "lng": 110.552959
        },
        "ad_info": {
            "adcode": 469006,
            "province": "海南省",
            "city": "",
            "district": "万宁市"
        }
    },
    {
        "id": "17693223558253174165",
        "title": "桥海村公共厕所",
        "address": "海南省万宁市望海路与海南环岛旅游公路交叉口东南方向80米左右",
        "tel": "",
        "category": "基础设施:公共设施:公共厕所",
        "type": 0,
        "location": {
            "lat": 18.671068,
            "lng": 110.322525
        },
        "ad_info": {
            "adcode": 469006,
            "province": "海南省",
            "city": "",
            "district": "万宁市"
        }
    },
    {
        "id": "8403810897533509217",
        "title": "石梅湾至大花角游客中心公共厕所",
        "address": "海南省万宁市五月岭石梅湾至大花角旅游公路K20+500(游客服务中心)",
        "tel": "",
        "category": "基础设施:公共设施:公共厕所",
        "type": 0,
        "location": {
            "lat": 18.700754,
            "lng": 110.421801
        },
        "ad_info": {
            "adcode": 469006,
            "province": "海南省",
            "city": "",
            "district": "万宁市"
        }
    },
    {
        "id": "15473945994254192906",
        "title": "石梅湾艾美度假酒店-洗手间",
        "address": "海南省万宁市环岛旅游公路与海田路交叉口东南方向141米左右",
        "tel": "",
        "category": "基础设施:公共设施:公共厕所",
        "type": 0,
        "location": {
            "lat": 18.66924,
            "lng": 110.285021
        },
        "ad_info": {
            "adcode": 469006,
            "province": "海南省",
            "city": "",
            "district": "万宁市"
        }
    },
    {
        "id": "7159187002479702697",
        "title": "太阳河厕所",
        "address": "海南省万宁市旅游公路与海南环岛旅游公路交叉口东北方向1823米左右",
        "tel": "",
        "category": "基础设施:公共设施:公共厕所",
        "type": 0,
        "location": {
            "lat": 18.739998,
            "lng": 110.450007
        },
        "ad_info": {
            "adcode": 469006,
            "province": "海南省",
            "city": "",
            "district": "万宁市"
        }
    },
    {
        "id": "13818973134308121095",
        "title": "大花角段公共厕所",
        "address": "海南省万宁市X432与海南环岛旅游公路交叉口正东方向1815米左右",
        "tel": "",
        "category": "基础设施:公共设施:公共厕所",
        "type": 0,
        "location": {
            "lat": 18.789922,
            "lng": 110.53386
        },
        "ad_info": {
            "adcode": 469006,
            "province": "海南省",
            "city": "",
            "district": "万宁市"
        }
    },
    {
        "id": "5686062684411633602",
        "title": "中石化石梅湾加油站公共厕所",
        "address": "海南省万宁市兴梅大道与环岛旅游公路交叉口正南方向40米左右",
        "tel": "",
        "category": "基础设施:公共设施:公共厕所",
        "type": 0,
        "location": {
            "lat": 18.671143,
            "lng": 110.260368
        },
        "ad_info": {
            "adcode": 469006,
            "province": "海南省",
            "city": "",
            "district": "万宁市"
        }
    },
    {
        "id": "17333449472849865278",
        "title": "太阳河段公共厕所",
        "address": "海南省万宁市太阳河景观大桥与旅游公路交叉口东北方向323米左右",
        "tel": "",
        "category": "基础设施:公共设施:公共厕所",
        "type": 0,
        "location": {
            "lat": 18.742515,
            "lng": 110.454776
        },
        "ad_info": {
            "adcode": 469006,
            "province": "海南省",
            "city": "",
            "district": "万宁市"
        }
    },
    {
        "id": "3852299865275594134",
        "title": "正门岭停车区公共厕所",
        "address": "海南省万宁市正门岭停车区西南侧",
        "tel": "",
        "category": "基础设施:公共设施:公共厕所",
        "type": 0,
        "location": {
            "lat": 19.044313,
            "lng": 110.553662
        },
        "ad_info": {
            "adcode": 469006,
            "province": "海南省",
            "city": "",
            "district": "万宁市"
        }
    },
    {
        "id": "514967256084037565",
        "title": "椰林渔舍酒店公共厕所",
        "address": "海南省万宁市山根镇排溪村椰林渔舍",
        "tel": "",
        "category": "基础设施:公共设施:公共厕所",
        "type": 0,
        "location": {
            "lat": 18.985322,
            "lng": 110.519088
        },
        "ad_info": {
            "adcode": 469006,
            "province": "海南省",
            "city": "",
            "district": "万宁市"
        }
    },
    {
        "id": "4846416077723221791",
        "title": "莲花服务区公共厕所",
        "address": "海南省万宁市G98海南环岛高速与莲花服务区交叉口西140米",
        "tel": "",
        "category": "基础设施:公共设施:公共厕所",
        "type": 0,
        "location": {
            "lat": 18.710163,
            "lng": 110.291849
        },
        "ad_info": {
            "adcode": 469006,
            "province": "海南省",
            "city": "",
            "district": "万宁市"
        }
    },
    {
        "id": "5787568444741969516",
        "title": "莲花服务区公共厕所",
        "address": "海南省万宁市X425与莲兴路交叉口正南方向1526米左右",
        "tel": "",
        "category": "基础设施:公共设施:公共厕所",
        "type": 0,
        "location": {
            "lat": 18.709524,
            "lng": 110.292842
        },
        "ad_info": {
            "adcode": 469006,
            "province": "海南省",
            "city": "",
            "district": "万宁市"
        }
    },
    {
        "id": "9103223278247162789",
        "title": "公共厕所",
        "address": "海南省万宁市环岛旅游公路与港北大桥交叉口正南方向1125米左右",
        "tel": "",
        "category": "基础设施:公共设施:公共厕所",
        "type": 0,
        "location": {
            "lat": 18.876044,
            "lng": 110.511673
        },
        "ad_info": {
            "adcode": 469006,
            "province": "海南省",
            "city": "",
            "district": "万宁市"
        }
    },
    {
        "id": "10066024092993605413",
        "title": "公共厕所",
        "address": "海南省万宁市龙滚河停车区西南侧",
        "tel": "",
        "category": "基础设施:公共设施:公共厕所",
        "type": 0,
        "location": {
            "lat": 19.035875,
            "lng": 110.53922
        },
        "ad_info": {
            "adcode": 469006,
            "province": "海南省",
            "city": "",
            "district": "万宁市"
        }
    },
    {
        "id": "6883998527329528099",
        "title": "公共厕所",
        "address": "海南省万宁市环岛旅游公路与港北大桥交叉口正南方向1091米左右",
        "tel": "",
        "category": "基础设施:公共设施:公共厕所",
        "type": 0,
        "location": {
            "lat": 18.876366,
            "lng": 110.511661
        },
        "ad_info": {
            "adcode": 469006,
            "province": "海南省",
            "city": "",
            "district": "万宁市"
        }
    }
]