[
    {
        "id": "3185301933112425501",
        "title": "公共厕所",
        "address": "海南省三亚市吉阳区硕园南路与落笔洞路交叉口东南方向52米左右",
        "tel": "",
        "category": "基础设施:公共设施:公共厕所",
        "type": 0,
        "location": {
            "lat": 18.293242,
            "lng": 109.533127
        },
        "ad_info": {
            "adcode": 460203,
            "province": "海南省",
            "city": "三亚市",
            "district": "吉阳区"
        }
    },
    {
        "id": "7007933407844456258",
        "title": "公共厕所",
        "address": "海南省三亚市吉阳区卓达东路与古榕巷交叉口东北方向73米左右",
        "tel": "",
        "category": "基础设施:公共设施:公共厕所",
        "type": 0,
        "location": {
            "lat": 18.279054,
            "lng": 109.51911
        },
        "ad_info": {
            "adcode": 460203,
            "province": "海南省",
            "city": "三亚市",
            "district": "吉阳区"
        }
    },
    {
        "id": "17495892193725886599",
        "title": "公共厕所",
        "address": "海南省三亚市吉阳区榆亚路64号",
        "tel": "",
        "category": "基础设施:公共设施:公共厕所",
        "type": 0,
        "location": {
            "lat": 18.225126,
            "lng": 109.521506
        },
        "ad_info": {
            "adcode": 460203,
            "province": "海南省",
            "city": "三亚市",
            "district": "吉阳区"
        }
    },
    {
        "id": "5004883021237871867",
        "title": "公共厕所",
        "address": "海南省三亚市吉阳区荔枝沟路与落笔洞路交叉口正北方向54米左右",
        "tel": "",
        "category": "基础设施:公共设施:公共厕所",
        "type": 0,
        "location": {
            "lat": 18.298408,
            "lng": 109.531637
        },
        "ad_info": {
            "adcode": 460203,
            "province": "海南省",
            "city": "三亚市",
            "district": "吉阳区"
        }
    },
    {
        "id": "10292941415078065324",
        "title": "公共厕所",
        "address": "海南省三亚市天涯区三亚湾路与海坡十六横巷交叉口西南方向18米左右",
        "tel": "",
        "category": "基础设施:公共设施:公共厕所",
        "type": 0,
        "location": {
            "lat": 18.288272,
            "lng": 109.387991
        },
        "ad_info": {
            "adcode": 460204,
            "province": "海南省",
            "city": "三亚市",
            "district": "天涯区"
        }
    },
    {
        "id": "14282882638916676684",
        "title": "公共厕所",
        "address": "海南省三亚市吉阳区吉北路与高新路交叉口正北方向183米左右",
        "tel": "",
        "category": "基础设施:公共设施:公共厕所",
        "type": 0,
        "location": {
            "lat": 18.301929,
            "lng": 109.601497
        },
        "ad_info": {
            "adcode": 460203,
            "province": "海南省",
            "city": "三亚市",
            "district": "吉阳区"
        }
    },
    {
        "id": "11175333793316953572",
        "title": "公共厕所",
        "address": "海南省三亚市吉阳区春光四巷与春光路交叉口正西方向61米左右",
        "tel": "",
        "category": "基础设施:公共设施:公共厕所",
        "type": 0,
        "location": {
            "lat": 18.263448,
            "lng": 109.515379
        },
        "ad_info": {
            "adcode": 460203,
            "province": "海南省",
            "city": "三亚市",
            "district": "吉阳区"
        }
    },
    {
        "id": "2153350227398467059",
        "title": "公共厕所",
        "address": "海南省三亚市吉阳区三亚河东路22号",
        "tel": "",
        "category": "基础设施:公共设施:公共厕所",
        "type": 0,
        "location": {
            "lat": 18.249502,
            "lng": 109.511365
        },
        "ad_info": {
            "adcode": 460203,
            "province": "海南省",
            "city": "三亚市",
            "district": "吉阳区"
        }
    },
    {
        "id": "16283810949395709626",
        "title": "公共厕所",
        "address": "海南省三亚市吉阳区大东海旅游区东海路1号",
        "tel": "",
        "category": "基础设施:公共设施:公共厕所",
        "type": 0,
        "location": {
            "lat": 18.221348,
            "lng": 109.524445
        },
        "ad_info": {
            "adcode": 460203,
            "province": "海南省",
            "city": "三亚市",
            "district": "吉阳区"
        }
    },
    {
        "id": "7428225637380836702",
        "title": "公共厕所",
        "address": "海南省三亚市吉阳区育秀路三亚站停车场",
        "tel": "",
        "category": "基础设施:公共设施:公共厕所",
        "type": 0,
        "location": {
            "lat": 18.294777,
            "lng": 109.492843
        },
        "ad_info": {
            "adcode": 460203,
            "province": "海南省",
            "city": "三亚市",
            "district": "吉阳区"
        }
    },
    {
        "id": "7438402309693443639",
        "title": "公共厕所",
        "address": "海南省三亚市吉阳区海榆东线与迎宾路交叉口正西方向125米左右",
        "tel": "",
        "category": "基础设施:公共设施:公共厕所",
        "type": 0,
        "location": {
            "lat": 18.275062,
            "lng": 109.511394
        },
        "ad_info": {
            "adcode": 460203,
            "province": "海南省",
            "city": "三亚市",
            "district": "吉阳区"
        }
    },
    {
        "id": "17831773339836468781",
        "title": "公共厕所",
        "address": "海南省三亚市吉阳区丹州北路与抱坡路交叉口正东方向138米左右",
        "tel": "",
        "category": "基础设施:公共设施:公共厕所",
        "type": 0,
        "location": {
            "lat": 18.29332,
            "lng": 109.518902
        },
        "ad_info": {
            "adcode": 460203,
            "province": "海南省",
            "city": "三亚市",
            "district": "吉阳区"
        }
    },
    {
        "id": "15905269422557627427",
        "title": "公共厕所",
        "address": "海南省三亚市吉阳区海螺一路红树林生态公园1号停车场入口处",
        "tel": "",
        "category": "基础设施:公共设施:公共厕所",
        "type": 0,
        "location": {
            "lat": 18.271463,
            "lng": 109.525394
        },
        "ad_info": {
            "adcode": 460203,
            "province": "海南省",
            "city": "三亚市",
            "district": "吉阳区"
        }
    },
    {
        "id": "7117803146464843389",
        "title": "公共厕所",
        "address": "海南省三亚市吉阳区亚龙湾路与龙海路交叉口正南方向102米左右",
        "tel": "",
        "category": "基础设施:公共设施:公共厕所",
        "type": 0,
        "location": {
            "lat": 18.230436,
            "lng": 109.644609
        },
        "ad_info": {
            "adcode": 460203,
            "province": "海南省",
            "city": "三亚市",
            "district": "吉阳区"
        }
    },
    {
        "id": "263944121882842710",
        "title": "公共厕所",
        "address": "海南省三亚市吉阳区海润路与鹿城大道交叉口正南方向131米左右",
        "tel": "",
        "category": "基础设施:公共设施:公共厕所",
        "type": 0,
        "location": {
            "lat": 18.30458,
            "lng": 109.497754
        },
        "ad_info": {
            "adcode": 460203,
            "province": "海南省",
            "city": "三亚市",
            "district": "吉阳区"
        }
    },
    {
        "id": "17251902301199023097",
        "title": "公共厕所",
        "address": "海南省三亚市天涯区旺豪二巷与解放路交叉口正西方向78米左右",
        "tel": "",
        "category": "基础设施:公共设施:公共厕所",
        "type": 0,
        "location": {
            "lat": 18.248407,
            "lng": 109.504354
        },
        "ad_info": {
            "adcode": 460204,
            "province": "海南省",
            "city": "三亚市",
            "district": "天涯区"
        }
    },
    {
        "id": "3825277019944565685",
        "title": "公共厕所",
        "address": "海南省三亚市天涯区三亚湾路与光明街交叉口西北方向46米左右",
        "tel": "",
        "category": "基础设施:公共设施:公共厕所",
        "type": 0,
        "location": {
            "lat": 18.246519,
            "lng": 109.501055
        },
        "ad_info": {
            "adcode": 460204,
            "province": "海南省",
            "city": "三亚市",
            "district": "天涯区"
        }
    },
    {
        "id": "8591357487727276097",
        "title": "公共厕所",
        "address": "海南省三亚市吉阳区环岛高速与火车站互通交叉口西北方向270米左右",
        "tel": "",
        "category": "基础设施:公共设施:公共厕所",
        "type": 0,
        "location": {
            "lat": 18.325079,
            "lng": 109.496846
        },
        "ad_info": {
            "adcode": 460203,
            "province": "海南省",
            "city": "三亚市",
            "district": "吉阳区"
        }
    },
    {
        "id": "2046725404982116787",
        "title": "公共厕所",
        "address": "海南省三亚市吉阳区迎宾路90号月川桥41号",
        "tel": "",
        "category": "基础设施:公共设施:公共厕所",
        "type": 0,
        "location": {
            "lat": 18.264942,
            "lng": 109.502248
        },
        "ad_info": {
            "adcode": 460203,
            "province": "海南省",
            "city": "三亚市",
            "district": "吉阳区"
        }
    },
    {
        "id": "1199052357621714514",
        "title": "公共厕所",
        "address": "海南省三亚市吉阳区榆亚路与海韵路交叉口正南方向121米左右",
        "tel": "",
        "category": "基础设施:公共设施:公共厕所",
        "type": 0,
        "location": {
            "lat": 18.223114,
            "lng": 109.523813
        },
        "ad_info": {
            "adcode": 460203,
            "province": "海南省",
            "city": "三亚市",
            "district": "吉阳区"
        }
    },
    {
        "id": "6788762940668383509",
        "title": "公共厕所",
        "address": "海南省三亚市吉阳区榆亚路与蓝湾北巷交叉口西北方向25米左右",
        "tel": "",
        "category": "基础设施:公共设施:公共厕所",
        "type": 0,
        "location": {
            "lat": 18.240268,
            "lng": 109.55657
        },
        "ad_info": {
            "adcode": 460203,
            "province": "海南省",
            "city": "三亚市",
            "district": "吉阳区"
        }
    },
    {
        "id": "4756889703155579390",
        "title": "公共厕所",
        "address": "海南省三亚市吉阳区临春河路七巷与临春河路交叉口正北方向110米左右",
        "tel": "",
        "category": "基础设施:公共设施:公共厕所",
        "type": 0,
        "location": {
            "lat": 18.241592,
            "lng": 109.518299
        },
        "ad_info": {
            "adcode": 460203,
            "province": "海南省",
            "city": "三亚市",
            "district": "吉阳区"
        }
    },
    {
        "id": "7933325433959874703",
        "title": "公共厕所",
        "address": "海南省三亚市吉阳区丹州北路与抱坡路交叉口东南方向146米左右",
        "tel": "",
        "category": "基础设施:公共设施:公共厕所",
        "type": 0,
        "location": {
            "lat": 18.292648,
            "lng": 109.518773
        },
        "ad_info": {
            "adcode": 460203,
            "province": "海南省",
            "city": "三亚市",
            "district": "吉阳区"
        }
    },
    {
        "id": "13276806282609360512",
        "title": "公共厕所",
        "address": "海南省三亚市吉阳区荔仙园路与荔枝沟路交叉口西南方向97米左右",
        "tel": "",
        "category": "基础设施:公共设施:公共厕所",
        "type": 0,
        "location": {
            "lat": 18.292905,
            "lng": 109.544743
        },
        "ad_info": {
            "adcode": 460203,
            "province": "海南省",
            "city": "三亚市",
            "district": "吉阳区"
        }
    },
    {
        "id": "10797797664592714549",
        "title": "公共厕所",
        "address": "海南省三亚市吉阳区榆亚路与榆海路交叉口西南方向235米左右",
        "tel": "",
        "category": "基础设施:公共设施:公共厕所",
        "type": 0,
        "location": {
            "lat": 18.221561,
            "lng": 109.525852
        },
        "ad_info": {
            "adcode": 460203,
            "province": "海南省",
            "city": "三亚市",
            "district": "吉阳区"
        }
    },
    {
        "id": "5078305354392151746",
        "title": "公共厕所",
        "address": "海南省三亚市吉阳区荔仙园路与荔枝沟路交叉口正西方向108米左右",
        "tel": "",
        "category": "基础设施:公共设施:公共厕所",
        "type": 0,
        "location": {
            "lat": 18.293616,
            "lng": 109.544625
        },
        "ad_info": {
            "adcode": 460203,
            "province": "海南省",
            "city": "三亚市",
            "district": "吉阳区"
        }
    },
    {
        "id": "9295844056851673016",
        "title": "公共厕所",
        "address": "海南省三亚市吉阳区吉阳大道辅路与山营西路交叉口正东方向70米左右",
        "tel": "",
        "category": "基础设施:公共设施:公共厕所",
        "type": 0,
        "location": {
            "lat": 18.281983,
            "lng": 109.58765
        },
        "ad_info": {
            "adcode": 460203,
            "province": "海南省",
            "city": "三亚市",
            "district": "吉阳区"
        }
    },
    {
        "id": "10352773440826849284",
        "title": "公共厕所",
        "address": "海南省三亚市天涯区外贸路与迎宾路交叉口正西方向125米左右",
        "tel": "",
        "category": "基础设施:公共设施:公共厕所",
        "type": 0,
        "location": {
            "lat": 18.260936,
            "lng": 109.49512
        },
        "ad_info": {
            "adcode": 460204,
            "province": "海南省",
            "city": "三亚市",
            "district": "天涯区"
        }
    },
    {
        "id": "333897949904989153",
        "title": "公共厕所",
        "address": "海南省三亚市天涯区解放路与解放路步行街交叉口正西方向94米左右",
        "tel": "",
        "category": "基础设施:公共设施:公共厕所",
        "type": 0,
        "location": {
            "lat": 18.249612,
            "lng": 109.503891
        },
        "ad_info": {
            "adcode": 460204,
            "province": "海南省",
            "city": "三亚市",
            "district": "天涯区"
        }
    },
    {
        "id": "12898417180402367973",
        "title": "公共厕所",
        "address": "海南省三亚市天涯区三亚湾路与海坡一横巷交叉口东南方向38米左右",
        "tel": "",
        "category": "基础设施:公共设施:公共厕所",
        "type": 0,
        "location": {
            "lat": 18.288153,
            "lng": 109.434539
        },
        "ad_info": {
            "adcode": 460204,
            "province": "海南省",
            "city": "三亚市",
            "district": "天涯区"
        }
    },
    {
        "id": "15745537988200088403",
        "title": "公共厕所",
        "address": "海南省三亚市吉阳区农场路与师部农场路一横路交叉口东南方向417米左右",
        "tel": "",
        "category": "基础设施:公共设施:公共厕所",
        "type": 0,
        "location": {
            "lat": 18.291341,
            "lng": 109.51167
        },
        "ad_info": {
            "adcode": 460203,
            "province": "海南省",
            "city": "三亚市",
            "district": "吉阳区"
        }
    },
    {
        "id": "3155831039323580526",
        "title": "公共厕所",
        "address": "海南省三亚市吉阳区丹州北路与老郭园路交叉口西南方向186米左右",
        "tel": "",
        "category": "基础设施:公共设施:公共厕所",
        "type": 0,
        "location": {
            "lat": 18.284625,
            "lng": 109.517505
        },
        "ad_info": {
            "adcode": 460203,
            "province": "海南省",
            "city": "三亚市",
            "district": "吉阳区"
        }
    },
    {
        "id": "17892984526130703803",
        "title": "公共厕所",
        "address": "海南省三亚市天涯区三亚河东路515号",
        "tel": "",
        "category": "基础设施:公共设施:公共厕所",
        "type": 0,
        "location": {
            "lat": 18.276786,
            "lng": 109.497028
        },
        "ad_info": {
            "adcode": 460204,
            "province": "海南省",
            "city": "三亚市",
            "district": "天涯区"
        }
    },
    {
        "id": "425437288992600066",
        "title": "公共厕所",
        "address": "海南省三亚市吉阳区海润路与火车头大道中交叉口西北方向177米左右",
        "tel": "",
        "category": "基础设施:公共设施:公共厕所",
        "type": 0,
        "location": {
            "lat": 18.303414,
            "lng": 109.498741
        },
        "ad_info": {
            "adcode": 460203,
            "province": "海南省",
            "city": "三亚市",
            "district": "吉阳区"
        }
    },
    {
        "id": "11419998810434674743",
        "title": "公共厕所",
        "address": "海南省三亚市天涯区建设街65号",
        "tel": "",
        "category": "基础设施:公共设施:公共厕所",
        "type": 0,
        "location": {
            "lat": 18.243222,
            "lng": 109.507032
        },
        "ad_info": {
            "adcode": 460204,
            "province": "海南省",
            "city": "三亚市",
            "district": "天涯区"
        }
    },
    {
        "id": "16023045910498696414",
        "title": "公共厕所",
        "address": "海南省三亚市吉阳区三亚河东路与商品街十巷交叉口正北方向91米左右",
        "tel": "",
        "category": "基础设施:公共设施:公共厕所",
        "type": 0,
        "location": {
            "lat": 18.249196,
            "lng": 109.510764
        },
        "ad_info": {
            "adcode": 460203,
            "province": "海南省",
            "city": "三亚市",
            "district": "吉阳区"
        }
    },
    {
        "id": "3832490039677831455",
        "title": "公厕",
        "address": "海南省三亚市吉阳区龙海路",
        "tel": "",
        "category": "基础设施:公共设施:公共厕所",
        "type": 0,
        "location": {
            "lat": 18.229566,
            "lng": 109.644129
        },
        "ad_info": {
            "adcode": 460203,
            "province": "海南省",
            "city": "三亚市",
            "district": "吉阳区"
        }
    },
    {
        "id": "4305191890622653835",
        "title": "公共厕所",
        "address": "海南省三亚市海棠区林北巷与林旺大道交叉口正南方向165米左右",
        "tel": "",
        "category": "基础设施:公共设施:公共厕所",
        "type": 0,
        "location": {
            "lat": 18.316204,
            "lng": 109.704926
        },
        "ad_info": {
            "adcode": 460202,
            "province": "海南省",
            "city": "三亚市",
            "district": "海棠区"
        }
    },
    {
        "id": "3255172686132343890",
        "title": "公共厕所",
        "address": "海南省三亚市吉阳区亚龙湾路与龙海路交叉口正东方向170米左右",
        "tel": "",
        "category": "基础设施:公共设施:公共厕所",
        "type": 0,
        "location": {
            "lat": 18.230789,
            "lng": 109.646487
        },
        "ad_info": {
            "adcode": 460203,
            "province": "海南省",
            "city": "三亚市",
            "district": "吉阳区"
        }
    },
    {
        "id": "15037322871003629237",
        "title": "公共厕所",
        "address": "海南省三亚市吉阳区龙海路2号",
        "tel": "",
        "category": "基础设施:公共设施:公共厕所",
        "type": 0,
        "location": {
            "lat": 18.233506,
            "lng": 109.657455
        },
        "ad_info": {
            "adcode": 460203,
            "province": "海南省",
            "city": "三亚市",
            "district": "吉阳区"
        }
    },
    {
        "id": "4867736677253333930",
        "title": "公共厕所",
        "address": "海南省三亚市天涯区凤凰路与海榆西线交叉口正西方向655米左右",
        "tel": "",
        "category": "基础设施:公共设施:公共厕所",
        "type": 0,
        "location": {
            "lat": 18.300084,
            "lng": 109.436038
        },
        "ad_info": {
            "adcode": 460204,
            "province": "海南省",
            "city": "三亚市",
            "district": "天涯区"
        }
    },
    {
        "id": "591560519688055651",
        "title": "公共厕所",
        "address": "海南省三亚市天涯区羊栏农贸",
        "tel": "",
        "category": "基础设施:公共设施:公共厕所",
        "type": 0,
        "location": {
            "lat": 18.297273,
            "lng": 109.4532
        },
        "ad_info": {
            "adcode": 460204,
            "province": "海南省",
            "city": "三亚市",
            "district": "天涯区"
        }
    },
    {
        "id": "711113615742575795",
        "title": "公共厕所",
        "address": "海南省三亚市海棠区海棠北路与龙海路交叉口西南方向618米左右",
        "tel": "",
        "category": "基础设施:公共设施:公共厕所",
        "type": 0,
        "location": {
            "lat": 18.367596,
            "lng": 109.746596
        },
        "ad_info": {
            "adcode": 460202,
            "province": "海南省",
            "city": "三亚市",
            "district": "海棠区"
        }
    },
    {
        "id": "16974982727905536632",
        "title": "公共厕所",
        "address": "海南省三亚市吉阳区三亚河东路与金鸡岭街交叉口正南方向133米左右",
        "tel": "",
        "category": "基础设施:公共设施:公共厕所",
        "type": 0,
        "location": {
            "lat": 18.276643,
            "lng": 109.496703
        },
        "ad_info": {
            "adcode": 460203,
            "province": "海南省",
            "city": "三亚市",
            "district": "吉阳区"
        }
    },
    {
        "id": "10164606495779244492",
        "title": "公共厕所",
        "address": "海南省三亚市天涯区吉祥街与鸿文巷交叉口东北方向26米左右",
        "tel": "",
        "category": "基础设施:公共设施:公共厕所",
        "type": 0,
        "location": {
            "lat": 18.25952,
            "lng": 109.50148
        },
        "ad_info": {
            "adcode": 460204,
            "province": "海南省",
            "city": "三亚市",
            "district": "天涯区"
        }
    },
    {
        "id": "989915977355690586",
        "title": "公共厕所",
        "address": "海南省三亚市天涯区三亚湾路与金鸡岭街交叉口正西方向55米左右",
        "tel": "",
        "category": "基础设施:公共设施:公共厕所",
        "type": 0,
        "location": {
            "lat": 18.266308,
            "lng": 109.486823
        },
        "ad_info": {
            "adcode": 460204,
            "province": "海南省",
            "city": "三亚市",
            "district": "天涯区"
        }
    },
    {
        "id": "226029624386688683",
        "title": "公共厕所",
        "address": "海南省三亚市吉阳区直辖村级区划",
        "tel": "",
        "category": "基础设施:公共设施:公共厕所",
        "type": 0,
        "location": {
            "lat": 18.370991,
            "lng": 109.523126
        },
        "ad_info": {
            "adcode": 460203,
            "province": "海南省",
            "city": "三亚市",
            "district": "吉阳区"
        }
    },
    {
        "id": "2587626918002357564",
        "title": "公共厕所",
        "address": "海南省三亚市天涯区解放路与金鸡岭街交叉口正东方向60米左右",
        "tel": "",
        "category": "基础设施:公共设施:公共厕所",
        "type": 0,
        "location": {
            "lat": 18.272136,
            "lng": 109.493215
        },
        "ad_info": {
            "adcode": 460204,
            "province": "海南省",
            "city": "三亚市",
            "district": "天涯区"
        }
    },
    {
        "id": "8445229560939621856",
        "title": "公共厕所",
        "address": "海南省三亚市天涯区海榆西线与海湾路交叉口东南方向62米左右",
        "tel": "",
        "category": "基础设施:公共设施:公共厕所",
        "type": 0,
        "location": {
            "lat": 18.29833,
            "lng": 109.425054
        },
        "ad_info": {
            "adcode": 460204,
            "province": "海南省",
            "city": "三亚市",
            "district": "天涯区"
        }
    },
    {
        "id": "11348878601011412696",
        "title": "公共厕所",
        "address": "海南省三亚市天涯区三亚湾路与酸梅巷交叉口东南方向159米左右",
        "tel": "",
        "category": "基础设施:公共设施:公共厕所",
        "type": 0,
        "location": {
            "lat": 18.283647,
            "lng": 109.455347
        },
        "ad_info": {
            "adcode": 460204,
            "province": "海南省",
            "city": "三亚市",
            "district": "天涯区"
        }
    },
    {
        "id": "10529896044081224369",
        "title": "公共厕所",
        "address": "海南省三亚市天涯区三亚湾路三亚湾(东南角)",
        "tel": "",
        "category": "基础设施:公共设施:公共厕所",
        "type": 0,
        "location": {
            "lat": 18.2545,
            "lng": 109.498098
        },
        "ad_info": {
            "adcode": 460204,
            "province": "海南省",
            "city": "三亚市",
            "district": "天涯区"
        }
    },
    {
        "id": "5228930710149143464",
        "title": "公共厕所",
        "address": "海南省三亚市崖州区崖保路古崖州城",
        "tel": "",
        "category": "基础设施:公共设施:公共厕所",
        "type": 0,
        "location": {
            "lat": 18.370161,
            "lng": 109.166913
        },
        "ad_info": {
            "adcode": 460205,
            "province": "海南省",
            "city": "三亚市",
            "district": "崖州区"
        }
    },
    {
        "id": "16643826659350998760",
        "title": "公共厕所",
        "address": "海南省三亚市天涯区南山互通与海南环岛高速交叉口东北方向293米左右",
        "tel": "",
        "category": "基础设施:公共设施:公共厕所",
        "type": 0,
        "location": {
            "lat": 18.319838,
            "lng": 109.253394
        },
        "ad_info": {
            "adcode": 460204,
            "province": "海南省",
            "city": "三亚市",
            "district": "天涯区"
        }
    },
    {
        "id": "1005035451791004382",
        "title": "公共厕所",
        "address": "海南省三亚市天涯区三亚湾路193-2号",
        "tel": "",
        "category": "基础设施:公共设施:公共厕所",
        "type": 0,
        "location": {
            "lat": 18.288731,
            "lng": 109.427553
        },
        "ad_info": {
            "adcode": 460204,
            "province": "海南省",
            "city": "三亚市",
            "district": "天涯区"
        }
    },
    {
        "id": "5310281536576879495",
        "title": "公共厕所",
        "address": "海南省三亚市天涯区友谊街与胜利路交叉口东南方向62米左右",
        "tel": "",
        "category": "基础设施:公共设施:公共厕所",
        "type": 0,
        "location": {
            "lat": 18.265023,
            "lng": 109.495226
        },
        "ad_info": {
            "adcode": 460204,
            "province": "海南省",
            "city": "三亚市",
            "district": "天涯区"
        }
    },
    {
        "id": "6056028809279718895",
        "title": "公共厕所",
        "address": "海南省三亚市吉阳区中寥村阿爸茶舍",
        "tel": "",
        "category": "基础设施:公共设施:公共厕所",
        "type": 0,
        "location": {
            "lat": 18.331501,
            "lng": 109.637512
        },
        "ad_info": {
            "adcode": 460203,
            "province": "海南省",
            "city": "三亚市",
            "district": "吉阳区"
        }
    },
    {
        "id": "2571393825008497494",
        "title": "公共厕所",
        "address": "海南省三亚市天涯区交通巷与文明路交叉口正西方向29米左右",
        "tel": "",
        "category": "基础设施:公共设施:公共厕所",
        "type": 0,
        "location": {
            "lat": 18.247755,
            "lng": 109.50699
        },
        "ad_info": {
            "adcode": 460204,
            "province": "海南省",
            "city": "三亚市",
            "district": "天涯区"
        }
    },
    {
        "id": "8342357386248442637",
        "title": "公共厕所",
        "address": "海南省三亚市天涯区三亚河西路与丽河巷交叉口正北方向73米左右",
        "tel": "",
        "category": "基础设施:公共设施:公共厕所",
        "type": 0,
        "location": {
            "lat": 18.249565,
            "lng": 109.50859
        },
        "ad_info": {
            "adcode": 460204,
            "province": "海南省",
            "city": "三亚市",
            "district": "天涯区"
        }
    },
    {
        "id": "455033903334554137",
        "title": "公共厕所",
        "address": "海南省三亚市吉阳区亚龙湾路与龙塘路交叉口正北方向1514米左右",
        "tel": "",
        "category": "基础设施:公共设施:公共厕所",
        "type": 0,
        "location": {
            "lat": 18.25135,
            "lng": 109.641635
        },
        "ad_info": {
            "adcode": 460203,
            "province": "海南省",
            "city": "三亚市",
            "district": "吉阳区"
        }
    },
    {
        "id": "5075069283800037743",
        "title": "公共厕所",
        "address": "海南省三亚市崖州区保港路与龙港路交叉口东南方向257米左右",
        "tel": "",
        "category": "基础设施:公共设施:公共厕所",
        "type": 0,
        "location": {
            "lat": 18.352564,
            "lng": 109.13214
        },
        "ad_info": {
            "adcode": 460205,
            "province": "海南省",
            "city": "三亚市",
            "district": "崖州区"
        }
    },
    {
        "id": "4211852778530169320",
        "title": "公共厕所",
        "address": "海南省三亚市崖州区港口公路与观海路交叉口正南方向1594米左右",
        "tel": "",
        "category": "基础设施:公共设施:公共厕所",
        "type": 0,
        "location": {
            "lat": 18.303708,
            "lng": 109.153304
        },
        "ad_info": {
            "adcode": 460205,
            "province": "海南省",
            "city": "三亚市",
            "district": "崖州区"
        }
    },
    {
        "id": "7894474852271854545",
        "title": "公共厕所",
        "address": "海南省三亚市海棠区江前港路与英墩路交叉口西南方向333米左右",
        "tel": "",
        "category": "基础设施:公共设施:公共厕所",
        "type": 0,
        "location": {
            "lat": 18.279375,
            "lng": 109.719016
        },
        "ad_info": {
            "adcode": 460202,
            "province": "海南省",
            "city": "三亚市",
            "district": "海棠区"
        }
    },
    {
        "id": "8877349704101271510",
        "title": "公共厕所",
        "address": "海南省三亚市崖州区梅山中心大道与通海路交叉口正东方向88米左右",
        "tel": "",
        "category": "基础设施:公共设施:公共厕所",
        "type": 0,
        "location": {
            "lat": 18.366798,
            "lng": 109.015982
        },
        "ad_info": {
            "adcode": 460205,
            "province": "海南省",
            "city": "三亚市",
            "district": "崖州区"
        }
    },
    {
        "id": "12429876405845774712",
        "title": "公共厕所",
        "address": "海南省三亚市吉阳区迎宾路490号",
        "tel": "",
        "category": "基础设施:公共设施:公共厕所",
        "type": 0,
        "location": {
            "lat": 18.280351,
            "lng": 109.576469
        },
        "ad_info": {
            "adcode": 460203,
            "province": "海南省",
            "city": "三亚市",
            "district": "吉阳区"
        }
    },
    {
        "id": "10060545316997945372",
        "title": "公共厕所",
        "address": "海南省三亚市崖州区中心大道与保港中心大道交叉口东北方向256米左右",
        "tel": "",
        "category": "基础设施:公共设施:公共厕所",
        "type": 0,
        "location": {
            "lat": 18.367146,
            "lng": 109.141668
        },
        "ad_info": {
            "adcode": 460205,
            "province": "海南省",
            "city": "三亚市",
            "district": "崖州区"
        }
    },
    {
        "id": "3046111242729324806",
        "title": "公共厕所",
        "address": "海南省三亚市吉阳区临春河路与商品街二巷交叉口东南方向23米左右",
        "tel": "",
        "category": "基础设施:公共设施:公共厕所",
        "type": 0,
        "location": {
            "lat": 18.24543,
            "lng": 109.516753
        },
        "ad_info": {
            "adcode": 460203,
            "province": "海南省",
            "city": "三亚市",
            "district": "吉阳区"
        }
    },
    {
        "id": "7602579934788164754",
        "title": "公共厕所",
        "address": "海南省三亚市天涯区红旗一巷与红旗街交叉口西南方向27米左右",
        "tel": "",
        "category": "基础设施:公共设施:公共厕所",
        "type": 0,
        "location": {
            "lat": 18.236769,
            "lng": 109.507978
        },
        "ad_info": {
            "adcode": 460204,
            "province": "海南省",
            "city": "三亚市",
            "district": "天涯区"
        }
    },
    {
        "id": "10349785054841911800",
        "title": "公共厕所",
        "address": "海南省三亚市吉阳区祥瑞路9号商品街七小6号",
        "tel": "",
        "category": "基础设施:公共设施:公共厕所",
        "type": 0,
        "location": {
            "lat": 18.250721,
            "lng": 109.514725
        },
        "ad_info": {
            "adcode": 460203,
            "province": "海南省",
            "city": "三亚市",
            "district": "吉阳区"
        }
    },
    {
        "id": "16918194546734243388",
        "title": "公共厕所",
        "address": "海南省三亚市吉阳区凤凰路与溪泽中路交叉口西北方向117米左右",
        "tel": "",
        "category": "基础设施:公共设施:公共厕所",
        "type": 0,
        "location": {
            "lat": 18.272051,
            "lng": 109.516522
        },
        "ad_info": {
            "adcode": 460203,
            "province": "海南省",
            "city": "三亚市",
            "district": "吉阳区"
        }
    },
    {
        "id": "17910413267363400330",
        "title": "公共厕所",
        "address": "海南省三亚市天涯区机场路与解放路交叉口正西方向40米左右",
        "tel": "",
        "category": "基础设施:公共设施:公共厕所",
        "type": 0,
        "location": {
            "lat": 18.272036,
            "lng": 109.490107
        },
        "ad_info": {
            "adcode": 460204,
            "province": "海南省",
            "city": "三亚市",
            "district": "天涯区"
        }
    },
    {
        "id": "3960326954892429407",
        "title": "公共厕所",
        "address": "海南省三亚市吉阳区丹州北路与抱坡路交叉口西北方向29米左右",
        "tel": "",
        "category": "基础设施:公共设施:公共厕所",
        "type": 0,
        "location": {
            "lat": 18.293455,
            "lng": 109.517337
        },
        "ad_info": {
            "adcode": 460203,
            "province": "海南省",
            "city": "三亚市",
            "district": "吉阳区"
        }
    },
    {
        "id": "15769607790120346932",
        "title": "公共厕所",
        "address": "海南省三亚市海棠区江前港路与英墩路交叉口西北方向372米左右",
        "tel": "",
        "category": "基础设施:公共设施:公共厕所",
        "type": 0,
        "location": {
            "lat": 18.282891,
            "lng": 109.718771
        },
        "ad_info": {
            "adcode": 460202,
            "province": "海南省",
            "city": "三亚市",
            "district": "海棠区"
        }
    },
    {
        "id": "13866299291920085861",
        "title": "三亚半山半岛洲际度假酒店洗手间",
        "address": "海南省三亚市吉阳区洲际路1号三亚半山半岛洲际度假酒店",
        "tel": "",
        "category": "基础设施:公共设施:公共厕所",
        "type": 0,
        "location": {
            "lat": 18.211193,
            "lng": 109.50179
        },
        "ad_info": {
            "adcode": 460203,
            "province": "海南省",
            "city": "三亚市",
            "district": "吉阳区"
        }
    },
    {
        "id": "13099876928662433781",
        "title": "公共厕所",
        "address": "海南省三亚市吉阳区红沙人民街与红沙解放街西二路交叉口正西方向35米左右",
        "tel": "",
        "category": "基础设施:公共设施:公共厕所",
        "type": 0,
        "location": {
            "lat": 18.239692,
            "lng": 109.56052
        },
        "ad_info": {
            "adcode": 460203,
            "province": "海南省",
            "city": "三亚市",
            "district": "吉阳区"
        }
    },
    {
        "id": "10610374614255600020",
        "title": "公共厕所",
        "address": "海南省三亚市海棠区江前港路与沙园路交叉口正南方向99米左右",
        "tel": "",
        "category": "基础设施:公共设施:公共厕所",
        "type": 0,
        "location": {
            "lat": 18.279563,
            "lng": 109.715542
        },
        "ad_info": {
            "adcode": 460202,
            "province": "海南省",
            "city": "三亚市",
            "district": "海棠区"
        }
    },
    {
        "id": "263542705939232576",
        "title": "公共厕所",
        "address": "海南省三亚市天涯区文明路311号",
        "tel": "",
        "category": "基础设施:公共设施:公共厕所",
        "type": 0,
        "location": {
            "lat": 18.251013,
            "lng": 109.507045
        },
        "ad_info": {
            "adcode": 460204,
            "province": "海南省",
            "city": "三亚市",
            "district": "天涯区"
        }
    },
    {
        "id": "2847266275816542302",
        "title": "公共厕所",
        "address": "海南省三亚市崖州区",
        "tel": "",
        "category": "基础设施:公共设施:公共厕所",
        "type": 0,
        "location": {
            "lat": 18.297582,
            "lng": 109.158016
        },
        "ad_info": {
            "adcode": 460205,
            "province": "海南省",
            "city": "三亚市",
            "district": "崖州区"
        }
    },
    {
        "id": "12090725036679666402",
        "title": "公共厕所",
        "address": "海南省三亚市天涯区三亚湾路与海坡十四横巷交叉口西南20米",
        "tel": "",
        "category": "基础设施:公共设施:公共厕所",
        "type": 0,
        "location": {
            "lat": 18.288547,
            "lng": 109.393292
        },
        "ad_info": {
            "adcode": 460204,
            "province": "海南省",
            "city": "三亚市",
            "district": "天涯区"
        }
    },
    {
        "id": "17131376188247070109",
        "title": "三亚丽景海湾酒店(大东海)-洗手间",
        "address": "海南省三亚市吉阳区中国·三亚·大东海风景区海韵路23号",
        "tel": "",
        "category": "基础设施:公共设施:公共厕所",
        "type": 0,
        "location": {
            "lat": 18.219416,
            "lng": 109.514743
        },
        "ad_info": {
            "adcode": 460203,
            "province": "海南省",
            "city": "三亚市",
            "district": "吉阳区"
        }
    },
    {
        "id": "6914141026669075868",
        "title": "公共厕所",
        "address": "海南省三亚市天涯区三亚河西路与和平街交叉口正北方向81米左右",
        "tel": "",
        "category": "基础设施:公共设施:公共厕所",
        "type": 0,
        "location": {
            "lat": 18.244847,
            "lng": 109.509224
        },
        "ad_info": {
            "adcode": 460204,
            "province": "海南省",
            "city": "三亚市",
            "district": "天涯区"
        }
    },
    {
        "id": "7123388618294813102",
        "title": "无障碍公共厕所",
        "address": "海南省三亚市吉阳区人民街东段与胜利街中路交叉口正南方向111米左右",
        "tel": "",
        "category": "基础设施:公共设施:公共厕所",
        "type": 0,
        "location": {
            "lat": 18.237936,
            "lng": 109.565182
        },
        "ad_info": {
            "adcode": 460203,
            "province": "海南省",
            "city": "三亚市",
            "district": "吉阳区"
        }
    },
    {
        "id": "9210371248150540809",
        "title": "公共厕所",
        "address": "海南省三亚市天涯区中港路与光明街交叉口正北方向17米左右",
        "tel": "",
        "category": "基础设施:公共设施:公共厕所",
        "type": 0,
        "location": {
            "lat": 18.246472,
            "lng": 109.50256
        },
        "ad_info": {
            "adcode": 460204,
            "province": "海南省",
            "city": "三亚市",
            "district": "天涯区"
        }
    },
    {
        "id": "5116453160038300162",
        "title": "三亚柏瑞精品海景酒店-洗手间",
        "address": "海南省三亚市吉阳区大东海旅游度假区海韵路16号",
        "tel": "",
        "category": "基础设施:公共设施:公共厕所",
        "type": 0,
        "location": {
            "lat": 18.223322,
            "lng": 109.521178
        },
        "ad_info": {
            "adcode": 460203,
            "province": "海南省",
            "city": "三亚市",
            "district": "吉阳区"
        }
    },
    {
        "id": "4650366980737511950",
        "title": "公共厕所",
        "address": "海南省三亚市海棠区甘什岭自然保护区内",
        "tel": "",
        "category": "基础设施:公共设施:公共厕所",
        "type": 0,
        "location": {
            "lat": 18.39533,
            "lng": 109.666142
        },
        "ad_info": {
            "adcode": 460202,
            "province": "海南省",
            "city": "三亚市",
            "district": "海棠区"
        }
    },
    {
        "id": "15081092202374111073",
        "title": "海月广场公共厕所",
        "address": "海南省三亚市天涯区三亚湾路海月广场(东南角)",
        "tel": "",
        "category": "基础设施:公共设施:公共厕所",
        "type": 0,
        "location": {
            "lat": 18.258938,
            "lng": 109.494797
        },
        "ad_info": {
            "adcode": 460204,
            "province": "海南省",
            "city": "三亚市",
            "district": "天涯区"
        }
    },
    {
        "id": "11682208746789987629",
        "title": "公共厕所",
        "address": "海南省三亚市吉阳区三亚河东路与川北一横巷交叉口西南方向53米左右",
        "tel": "",
        "category": "基础设施:公共设施:公共厕所",
        "type": 0,
        "location": {
            "lat": 18.269859,
            "lng": 109.500039
        },
        "ad_info": {
            "adcode": 460203,
            "province": "海南省",
            "city": "三亚市",
            "district": "吉阳区"
        }
    },
    {
        "id": "4855898803270396322",
        "title": "南山文化旅游区公共厕所",
        "address": "海南省三亚市崖州区三亚南山文化旅游区内",
        "tel": "",
        "category": "基础设施:公共设施:公共厕所",
        "type": 0,
        "location": {
            "lat": 18.296616,
            "lng": 109.209946
        },
        "ad_info": {
            "adcode": 460205,
            "province": "海南省",
            "city": "三亚市",
            "district": "崖州区"
        }
    },
    {
        "id": "556766088272690215",
        "title": "公共厕所",
        "address": "海南省三亚市吉阳区三亚河东路与川河路交叉口西南方向30米左右",
        "tel": "",
        "category": "基础设施:公共设施:公共厕所",
        "type": 0,
        "location": {
            "lat": 18.259366,
            "lng": 109.509277
        },
        "ad_info": {
            "adcode": 460203,
            "province": "海南省",
            "city": "三亚市",
            "district": "吉阳区"
        }
    },
    {
        "id": "4075705693807107818",
        "title": "南滨路口环保公共厕所",
        "address": "海南省三亚市崖州区花园路与崖州大道交叉口西北方向135米左右",
        "tel": "",
        "category": "基础设施:公共设施:公共厕所",
        "type": 0,
        "location": {
            "lat": 18.349488,
            "lng": 109.17408
        },
        "ad_info": {
            "adcode": 460205,
            "province": "海南省",
            "city": "三亚市",
            "district": "崖州区"
        }
    },
    {
        "id": "15814332854666308795",
        "title": "宝盛海景大酒店-洗手间",
        "address": "海南省三亚市天涯区解放路与跃进街交叉口西北方向79米左右",
        "tel": "",
        "category": "基础设施:公共设施:公共厕所",
        "type": 0,
        "location": {
            "lat": 18.241545,
            "lng": 109.506148
        },
        "ad_info": {
            "adcode": 460204,
            "province": "海南省",
            "city": "三亚市",
            "district": "天涯区"
        }
    },
    {
        "id": "9320813497745257794",
        "title": "椰梦长廊公共厕所",
        "address": "海南省三亚市天涯区三亚湾路椰梦长廊(东南角)",
        "tel": "",
        "category": "基础设施:公共设施:公共厕所",
        "type": 0,
        "location": {
            "lat": 18.262018,
            "lng": 109.491502
        },
        "ad_info": {
            "adcode": 460204,
            "province": "海南省",
            "city": "三亚市",
            "district": "天涯区"
        }
    },
    {
        "id": "14397988467254275334",
        "title": "南中国大酒店-洗手间",
        "address": "海南省三亚市吉阳区榆海路大东海广场旁",
        "tel": "",
        "category": "基础设施:公共设施:公共厕所",
        "type": 0,
        "location": {
            "lat": 18.221558,
            "lng": 109.525841
        },
        "ad_info": {
            "adcode": 460203,
            "province": "海南省",
            "city": "三亚市",
            "district": "吉阳区"
        }
    },
    {
        "id": "12134182712594561046",
        "title": "公共厕所",
        "address": "海南省三亚市吉阳区三亚河东路与祥和路交叉口正北方向122米左右",
        "tel": "",
        "category": "基础设施:公共设施:公共厕所",
        "type": 0,
        "location": {
            "lat": 18.25758,
            "lng": 109.510404
        },
        "ad_info": {
            "adcode": 460203,
            "province": "海南省",
            "city": "三亚市",
            "district": "吉阳区"
        }
    },
    {
        "id": "7053507958916424383",
        "title": "南山文化旅游区公共厕所",
        "address": "海南省三亚市崖州区南山文化旅游区大门口",
        "tel": "",
        "category": "基础设施:公共设施:公共厕所",
        "type": 0,
        "location": {
            "lat": 18.304089,
            "lng": 109.209662
        },
        "ad_info": {
            "adcode": 460205,
            "province": "海南省",
            "city": "三亚市",
            "district": "崖州区"
        }
    },
    {
        "id": "16116177293206082710",
        "title": "南山大小洞天-公共厕所",
        "address": "海南省三亚市崖州区三亚自然博物馆北侧130米",
        "tel": "",
        "category": "基础设施:公共设施:公共厕所",
        "type": 0,
        "location": {
            "lat": 18.304176,
            "lng": 109.15461
        },
        "ad_info": {
            "adcode": 460205,
            "province": "海南省",
            "city": "三亚市",
            "district": "崖州区"
        }
    },
    {
        "id": "14736008021368367410",
        "title": "蜈支洲岛旅游风景区公共厕所",
        "address": "海南省三亚市海棠区海棠湾镇蜈支洲岛三亚蜈支洲岛度假中心内",
        "tel": "",
        "category": "基础设施:公共设施:公共厕所",
        "type": 0,
        "location": {
            "lat": 18.311434,
            "lng": 109.760408
        },
        "ad_info": {
            "adcode": 460202,
            "province": "海南省",
            "city": "三亚市",
            "district": "海棠区"
        }
    },
    {
        "id": "9585735441707448420",
        "title": "半山半岛凯悦酒店-洗手间",
        "address": "海南省三亚市吉阳区双海湾路与鹿回头路交叉口正西方向39米左右",
        "tel": "",
        "category": "基础设施:公共设施:公共厕所",
        "type": 0,
        "location": {
            "lat": 18.209247,
            "lng": 109.493819
        },
        "ad_info": {
            "adcode": 460203,
            "province": "海南省",
            "city": "三亚市",
            "district": "吉阳区"
        }
    },
    {
        "id": "1821363019984071512",
        "title": "金泰山屿湖国际度假酒店-洗手间",
        "address": "海南省三亚市吉阳区三亚旅游区溪泽南路18号",
        "tel": "",
        "category": "基础设施:公共设施:公共厕所",
        "type": 0,
        "location": {
            "lat": 18.278182,
            "lng": 109.522775
        },
        "ad_info": {
            "adcode": 460203,
            "province": "海南省",
            "city": "三亚市",
            "district": "吉阳区"
        }
    },
    {
        "id": "9510210321965321024",
        "title": "亚龙湾高尔夫球会-洗手间",
        "address": "海南省三亚市吉阳区亚龙湾国家旅游度假区内亚龙湾高尔夫球会",
        "tel": "",
        "category": "基础设施:公共设施:公共厕所",
        "type": 0,
        "location": {
            "lat": 18.229779,
            "lng": 109.631517
        },
        "ad_info": {
            "adcode": 460203,
            "province": "海南省",
            "city": "三亚市",
            "district": "吉阳区"
        }
    },
    {
        "id": "2736315846084736644",
        "title": "亚龙湾华宇度假酒店别墅区-洗手间",
        "address": "海南省三亚市吉阳区亚龙湾国家旅游度假区华宇皇冠会馆别墅",
        "tel": "",
        "category": "基础设施:公共设施:公共厕所",
        "type": 0,
        "location": {
            "lat": 18.233473,
            "lng": 109.641886
        },
        "ad_info": {
            "adcode": 460203,
            "province": "海南省",
            "city": "三亚市",
            "district": "吉阳区"
        }
    },
    {
        "id": "10682637682237690296",
        "title": "三亚国际购物中心-男洗手间",
        "address": "海南省三亚市天涯区解放路1号三亚国际购物中心F3",
        "tel": "",
        "category": "基础设施:公共设施:公共厕所",
        "type": 0,
        "location": {
            "lat": 18.236186,
            "lng": 109.507019
        },
        "ad_info": {
            "adcode": 460204,
            "province": "海南省",
            "city": "三亚市",
            "district": "天涯区"
        }
    },
    {
        "id": "13251207612852361530",
        "title": "上工谷公共厕所",
        "address": "海南省三亚市海棠区青田风情小镇南区",
        "tel": "",
        "category": "基础设施:公共设施:公共厕所",
        "type": 0,
        "location": {
            "lat": 18.282528,
            "lng": 109.677007
        },
        "ad_info": {
            "adcode": 460202,
            "province": "海南省",
            "city": "三亚市",
            "district": "海棠区"
        }
    },
    {
        "id": "7434552420372946802",
        "title": "女洗手间(cdf三亚国际免税城A区)",
        "address": "海南省三亚市海棠区海棠北路118号cdf三亚国际免税城A区2F层",
        "tel": "",
        "category": "基础设施:公共设施:公共厕所",
        "type": 0,
        "location": {
            "lat": 18.371075,
            "lng": 109.750521
        },
        "ad_info": {
            "adcode": 460202,
            "province": "海南省",
            "city": "三亚市",
            "district": "海棠区"
        }
    },
    {
        "id": "4755472053925202971",
        "title": "三亚美高梅度假酒店-洗手间",
        "address": "海南省三亚市吉阳区亚龙湾国家旅游度假区三亚美高梅度假酒店",
        "tel": "",
        "category": "基础设施:公共设施:公共厕所",
        "type": 0,
        "location": {
            "lat": 18.227825,
            "lng": 109.634724
        },
        "ad_info": {
            "adcode": 460203,
            "province": "海南省",
            "city": "三亚市",
            "district": "吉阳区"
        }
    },
    {
        "id": "3179812673034325883",
        "title": "三亚金棕榈度假酒店-洗手间",
        "address": "海南省三亚市吉阳区龙海路12号(亚龙湾国家旅游度假区内)",
        "tel": "",
        "category": "基础设施:公共设施:公共厕所",
        "type": 0,
        "location": {
            "lat": 18.232455,
            "lng": 109.64979
        },
        "ad_info": {
            "adcode": 460203,
            "province": "海南省",
            "city": "三亚市",
            "district": "吉阳区"
        }
    },
    {
        "id": "10733826056861654759",
        "title": "亚龙湾五号度假别墅酒店-公共厕所",
        "address": "海南省三亚市吉阳区龙海路三亚五号别墅度假酒店",
        "tel": "",
        "category": "基础设施:公共设施:公共厕所",
        "type": 0,
        "location": {
            "lat": 18.231828,
            "lng": 109.639564
        },
        "ad_info": {
            "adcode": 460203,
            "province": "海南省",
            "city": "三亚市",
            "district": "吉阳区"
        }
    },
    {
        "id": "13519581076319407066",
        "title": "三亚山海天万豪酒店-洗手间",
        "address": "海南省三亚市吉阳区海韵路与海马巷交叉口正南方向396米左右",
        "tel": "",
        "category": "基础设施:公共设施:公共厕所",
        "type": 0,
        "location": {
            "lat": 18.215984,
            "lng": 109.513786
        },
        "ad_info": {
            "adcode": 460203,
            "province": "海南省",
            "city": "三亚市",
            "district": "吉阳区"
        }
    },
    {
        "id": "15194428043214919119",
        "title": "男洗手间(cdf三亚国际免税城A区)",
        "address": "海南省三亚市海棠区海棠北路118号cdf三亚国际免税城A区2F层",
        "tel": "",
        "category": "基础设施:公共设施:公共厕所",
        "type": 0,
        "location": {
            "lat": 18.371169,
            "lng": 109.750402
        },
        "ad_info": {
            "adcode": 460202,
            "province": "海南省",
            "city": "三亚市",
            "district": "海棠区"
        }
    },
    {
        "id": "1557162376522180135",
        "title": "南山迎宾馆-洗手间",
        "address": "海南省三亚市崖州区冬瓜岭路与观海路交叉口西南方向684米左右",
        "tel": "",
        "category": "基础设施:公共设施:公共厕所",
        "type": 0,
        "location": {
            "lat": 18.298477,
            "lng": 109.212529
        },
        "ad_info": {
            "adcode": 460205,
            "province": "海南省",
            "city": "三亚市",
            "district": "崖州区"
        }
    },
    {
        "id": "12300711919379852271",
        "title": "三亚福朋喜来登酒店-洗手间",
        "address": "海南省三亚市天涯区三亚湾路78号",
        "tel": "",
        "category": "基础设施:公共设施:公共厕所",
        "type": 0,
        "location": {
            "lat": 18.261634,
            "lng": 109.493261
        },
        "ad_info": {
            "adcode": 460204,
            "province": "海南省",
            "city": "三亚市",
            "district": "天涯区"
        }
    },
    {
        "id": "15367248885745534104",
        "title": "三亚湾颐和大酒店-洗手间",
        "address": "海南省三亚市天涯区新城东路与酸梅巷交叉口西南方向201米左右",
        "tel": "",
        "category": "基础设施:公共设施:公共厕所",
        "type": 0,
        "location": {
            "lat": 18.287586,
            "lng": 109.454166
        },
        "ad_info": {
            "adcode": 460204,
            "province": "海南省",
            "city": "三亚市",
            "district": "天涯区"
        }
    },
    {
        "id": "15663665138845012283",
        "title": "三亚亚太国际会议中心-洗手间",
        "address": "海南省三亚市天涯区三亚湾路219号",
        "tel": "",
        "category": "基础设施:公共设施:公共厕所",
        "type": 0,
        "location": {
            "lat": 18.289623,
            "lng": 109.392359
        },
        "ad_info": {
            "adcode": 460204,
            "province": "海南省",
            "city": "三亚市",
            "district": "天涯区"
        }
    },
    {
        "id": "7723803028779012131",
        "title": "玉海国际度假酒店-洗手间",
        "address": "海南省三亚市天涯区三亚湾海坡度假区三亚湾路163号",
        "tel": "",
        "category": "基础设施:公共设施:公共厕所",
        "type": 0,
        "location": {
            "lat": 18.288032,
            "lng": 109.449711
        },
        "ad_info": {
            "adcode": 460204,
            "province": "海南省",
            "city": "三亚市",
            "district": "天涯区"
        }
    },
    {
        "id": "14126703223332546953",
        "title": "南田好汉坡温泉国际度假酒店洗手间",
        "address": "海南省三亚市海棠区海南国际旅游岛三亚海棠湾南田温泉旅游城",
        "tel": "",
        "category": "基础设施:公共设施:公共厕所",
        "type": 0,
        "location": {
            "lat": 18.40848,
            "lng": 109.733399
        },
        "ad_info": {
            "adcode": 460202,
            "province": "海南省",
            "city": "三亚市",
            "district": "海棠区"
        }
    },
    {
        "id": "9658528659076308010",
        "title": "三亚晋合艾迪逊酒店-洗手间",
        "address": "海南省三亚市海棠区海棠北路与石姆龙路交叉口东北方向894米左右",
        "tel": "",
        "category": "基础设施:公共设施:公共厕所",
        "type": 0,
        "location": {
            "lat": 18.363792,
            "lng": 109.749521
        },
        "ad_info": {
            "adcode": 460202,
            "province": "海南省",
            "city": "三亚市",
            "district": "海棠区"
        }
    },
    {
        "id": "17985478596932942767",
        "title": "三亚亚龙湾假日度假酒店-洗手间",
        "address": "海南省三亚市吉阳区三亚旅游区亚龙湾国家旅游度假区三亚亚龙湾假日度假酒店内",
        "tel": "",
        "category": "基础设施:公共设施:公共厕所",
        "type": 0,
        "location": {
            "lat": 18.232294,
            "lng": 109.65851
        },
        "ad_info": {
            "adcode": 460203,
            "province": "海南省",
            "city": "三亚市",
            "district": "吉阳区"
        }
    },
    {
        "id": "5236155884182025323",
        "title": "男洗手间",
        "address": "海南省三亚市天涯区凤凰路凤凰国际机场F2",
        "tel": "",
        "category": "基础设施:公共设施:男洗手间",
        "type": 0,
        "location": {
            "lat": 18.307462,
            "lng": 109.411575
        },
        "ad_info": {
            "adcode": 460204,
            "province": "海南省",
            "city": "三亚市",
            "district": "天涯区"
        }
    },
    {
        "id": "2024044881569800746",
        "title": "男洗手间",
        "address": "海南省三亚市吉阳区榆亚路136号1号港湾城(大菠萝店)F2",
        "tel": "",
        "category": "基础设施:公共设施:男洗手间",
        "type": 0,
        "location": {
            "lat": 18.222416,
            "lng": 109.528442
        },
        "ad_info": {
            "adcode": 460203,
            "province": "海南省",
            "city": "三亚市",
            "district": "吉阳区"
        }
    },
    {
        "id": "12188785013866330377",
        "title": "三亚爱琴海岸康年套房度假酒店(全套房)-洗手间",
        "address": "海南省三亚市吉阳区三亚旅游区亚龙湾度假区亚龙湾国家旅游度假区(亚龙湾中心广场旁)",
        "tel": "",
        "category": "基础设施:公共设施:公共厕所",
        "type": 0,
        "location": {
            "lat": 18.232385,
            "lng": 109.656421
        },
        "ad_info": {
            "adcode": 460203,
            "province": "海南省",
            "city": "三亚市",
            "district": "吉阳区"
        }
    },
    {
        "id": "1709616476566821532",
        "title": "公共厕所",
        "address": "海南省三亚市天涯区环岛旅游公路与黄龙街交叉口东北方向94米左右",
        "tel": "",
        "category": "基础设施:公共设施:公共厕所",
        "type": 0,
        "location": {
            "lat": 18.305909,
            "lng": 109.334231
        },
        "ad_info": {
            "adcode": 460204,
            "province": "海南省",
            "city": "三亚市",
            "district": "天涯区"
        }
    },
    {
        "id": "13682472149769561651",
        "title": "公共厕所",
        "address": "海南省三亚市天涯区南边海路与渔村路交叉口正东方向69米左右",
        "tel": "",
        "category": "基础设施:公共设施:公共厕所",
        "type": 0,
        "location": {
            "lat": 18.224375,
            "lng": 109.51276
        },
        "ad_info": {
            "adcode": 460204,
            "province": "海南省",
            "city": "三亚市",
            "district": "天涯区"
        }
    },
    {
        "id": "13681847435671450511",
        "title": "三亚凤凰国际机场-男洗手间",
        "address": "海南省三亚市天涯区凤凰路凤凰国际机场F2",
        "tel": "",
        "category": "基础设施:公共设施:男洗手间",
        "type": 0,
        "location": {
            "lat": 18.307824,
            "lng": 109.412342
        },
        "ad_info": {
            "adcode": 460204,
            "province": "海南省",
            "city": "三亚市",
            "district": "天涯区"
        }
    },
    {
        "id": "351569535667175985",
        "title": "万达嘉华度假酒店-洗手间",
        "address": "海南省三亚市海棠区海棠北路与龙江路交叉口正南方向511米左右",
        "tel": "",
        "category": "基础设施:公共设施:公共厕所",
        "type": 0,
        "location": {
            "lat": 18.332834,
            "lng": 109.736305
        },
        "ad_info": {
            "adcode": 460202,
            "province": "海南省",
            "city": "三亚市",
            "district": "海棠区"
        }
    },
    {
        "id": "4832906734986740758",
        "title": "女洗手间",
        "address": "海南省三亚市天涯区凤凰路凤凰国际机场F1",
        "tel": "",
        "category": "基础设施:公共设施:女洗手间",
        "type": 0,
        "location": {
            "lat": 18.307464,
            "lng": 109.413393
        },
        "ad_info": {
            "adcode": 460204,
            "province": "海南省",
            "city": "三亚市",
            "district": "天涯区"
        }
    },
    {
        "id": "12327861222146040201",
        "title": "无障碍洗手间",
        "address": "海南省三亚市天涯区三亚湾路与观海巷交叉口正东方向40米左右",
        "tel": "",
        "category": "基础设施:公共设施:公共厕所",
        "type": 0,
        "location": {
            "lat": 18.273949,
            "lng": 109.477922
        },
        "ad_info": {
            "adcode": 460204,
            "province": "海南省",
            "city": "三亚市",
            "district": "天涯区"
        }
    },
    {
        "id": "14540071694689507449",
        "title": "老瓜菜市场无障碍公共厕所",
        "address": "海南省三亚市崖州区兴滨一横路与海瑞路交叉口西北方向343米左右",
        "tel": "",
        "category": "基础设施:公共设施:公共厕所",
        "type": 0,
        "location": {
            "lat": 18.359931,
            "lng": 109.172221
        },
        "ad_info": {
            "adcode": 460205,
            "province": "海南省",
            "city": "三亚市",
            "district": "崖州区"
        }
    },
    {
        "id": "6347462426893039274",
        "title": "公共厕所(三亚学院北区店)",
        "address": "海南省三亚市吉阳区三亚学院艺术学院东北侧90米",
        "tel": "",
        "category": "基础设施:公共设施:公共厕所",
        "type": 0,
        "location": {
            "lat": 18.335404,
            "lng": 109.56339
        },
        "ad_info": {
            "adcode": 460203,
            "province": "海南省",
            "city": "三亚市",
            "district": "吉阳区"
        }
    },
    {
        "id": "1460283694411540481",
        "title": "无障碍-洗手间",
        "address": "海南省三亚市天涯区凤凰路凤凰国际机场F2",
        "tel": "",
        "category": "基础设施:公共设施:无障碍洗手间",
        "type": 0,
        "location": {
            "lat": 18.30696,
            "lng": 109.410758
        },
        "ad_info": {
            "adcode": 460204,
            "province": "海南省",
            "city": "三亚市",
            "district": "天涯区"
        }
    },
    {
        "id": "15232368564784859199",
        "title": "椰梦长廊06号公共厕所",
        "address": "海南省三亚市天涯区三亚湾路与观海巷交叉口正南方向54米左右",
        "tel": "",
        "category": "基础设施:公共设施:公共厕所",
        "type": 0,
        "location": {
            "lat": 18.273396,
            "lng": 109.477738
        },
        "ad_info": {
            "adcode": 460204,
            "province": "海南省",
            "city": "三亚市",
            "district": "天涯区"
        }
    },
    {
        "id": "14018679995441272252",
        "title": "公共厕所",
        "address": "海南省三亚市吉阳区三亚河东路与商品街一巷交叉口正南方向44米左右",
        "tel": "",
        "category": "基础设施:公共设施:公共厕所",
        "type": 0,
        "location": {
            "lat": 18.24459,
            "lng": 109.511933
        },
        "ad_info": {
            "adcode": 460203,
            "province": "海南省",
            "city": "三亚市",
            "district": "吉阳区"
        }
    },
    {
        "id": "10050114122898137527",
        "title": "男洗手间(cdf三亚国际免税城A区)",
        "address": "海南省三亚市海棠区海棠北路118号cdf三亚国际免税城A区1F层",
        "tel": "",
        "category": "基础设施:公共设施:公共厕所",
        "type": 0,
        "location": {
            "lat": 18.371197,
            "lng": 109.750405
        },
        "ad_info": {
            "adcode": 460202,
            "province": "海南省",
            "city": "三亚市",
            "district": "海棠区"
        }
    },
    {
        "id": "5701431536632070858",
        "title": "梅山办事处公共厕所",
        "address": "海南省三亚市崖州区梅东村梅山办事处",
        "tel": "",
        "category": "基础设施:公共设施:公共厕所",
        "type": 0,
        "location": {
            "lat": 18.367096,
            "lng": 109.015593
        },
        "ad_info": {
            "adcode": 460205,
            "province": "海南省",
            "city": "三亚市",
            "district": "崖州区"
        }
    },
    {
        "id": "11167026400992878645",
        "title": "男洗手间",
        "address": "海南省三亚市天涯区凤凰路凤凰国际机场F1",
        "tel": "",
        "category": "基础设施:公共设施:男洗手间",
        "type": 0,
        "location": {
            "lat": 18.307468,
            "lng": 109.413425
        },
        "ad_info": {
            "adcode": 460204,
            "province": "海南省",
            "city": "三亚市",
            "district": "天涯区"
        }
    },
    {
        "id": "8721831740957865563",
        "title": "男洗手间",
        "address": "海南省三亚市天涯区凤凰路凤凰国际机场F1",
        "tel": "",
        "category": "基础设施:公共设施:男洗手间",
        "type": 0,
        "location": {
            "lat": 18.307911,
            "lng": 109.412368
        },
        "ad_info": {
            "adcode": 460204,
            "province": "海南省",
            "city": "三亚市",
            "district": "天涯区"
        }
    },
    {
        "id": "12958728371830097801",
        "title": "公共厕所",
        "address": "海南省三亚市海棠区后海村蜈支洲岛码头附近",
        "tel": "",
        "category": "基础设施:公共设施:公共厕所",
        "type": 0,
        "location": {
            "lat": 18.27416,
            "lng": 109.728412
        },
        "ad_info": {
            "adcode": 460202,
            "province": "海南省",
            "city": "三亚市",
            "district": "海棠区"
        }
    },
    {
        "id": "7185474153005492755",
        "title": "公共厕所",
        "address": "海南省三亚市海棠区琼港经济合作三亚示范区东侧80米",
        "tel": "",
        "category": "基础设施:公共设施:公共厕所",
        "type": 0,
        "location": {
            "lat": 18.340195,
            "lng": 109.713553
        },
        "ad_info": {
            "adcode": 460202,
            "province": "海南省",
            "city": "三亚市",
            "district": "海棠区"
        }
    },
    {
        "id": "7405529966358902801",
        "title": "公共卫生间",
        "address": "海南省三亚市海棠区南田鸿洲共享农庄研学基地西北侧90米",
        "tel": "",
        "category": "基础设施:公共设施:公共厕所",
        "type": 0,
        "location": {
            "lat": 18.445478,
            "lng": 109.739346
        },
        "ad_info": {
            "adcode": 460202,
            "province": "海南省",
            "city": "三亚市",
            "district": "海棠区"
        }
    },
    {
        "id": "12502610892733617333",
        "title": "椰梦长廊05号公共厕所",
        "address": "海南省三亚市天涯区三亚湾路三亚湾内(东侧)",
        "tel": "",
        "category": "基础设施:公共设施:公共厕所",
        "type": 0,
        "location": {
            "lat": 18.268708,
            "lng": 109.484461
        },
        "ad_info": {
            "adcode": 460204,
            "province": "海南省",
            "city": "三亚市",
            "district": "天涯区"
        }
    },
    {
        "id": "16271700746687013387",
        "title": "公共厕所",
        "address": "海南省三亚市天涯区园艺巷与工业园路交叉口西南方向75米左右",
        "tel": "",
        "category": "基础设施:公共设施:公共厕所",
        "type": 0,
        "location": {
            "lat": 18.290028,
            "lng": 109.503093
        },
        "ad_info": {
            "adcode": 460204,
            "province": "海南省",
            "city": "三亚市",
            "district": "天涯区"
        }
    },
    {
        "id": "1255880308206468657",
        "title": "南山大小洞天旅游区-公共厕所",
        "address": "海南省三亚市崖州区三亚自然博物馆西北侧120米",
        "tel": "",
        "category": "基础设施:公共设施:公共厕所",
        "type": 0,
        "location": {
            "lat": 18.303814,
            "lng": 109.15367
        },
        "ad_info": {
            "adcode": 460205,
            "province": "海南省",
            "city": "三亚市",
            "district": "崖州区"
        }
    },
    {
        "id": "1321987509736178990",
        "title": "女洗手间",
        "address": "海南省三亚市天涯区凤凰路凤凰国际机场F1",
        "tel": "",
        "category": "基础设施:公共设施:女洗手间",
        "type": 0,
        "location": {
            "lat": 18.308188,
            "lng": 109.414607
        },
        "ad_info": {
            "adcode": 460204,
            "province": "海南省",
            "city": "三亚市",
            "district": "天涯区"
        }
    },
    {
        "id": "9468776944299327098",
        "title": "保平公共厕所",
        "address": "海南省三亚市崖州区保平路段(保平小学南50米)",
        "tel": "",
        "category": "基础设施:公共设施:公共厕所",
        "type": 0,
        "location": {
            "lat": 18.363313,
            "lng": 109.134095
        },
        "ad_info": {
            "adcode": 460205,
            "province": "海南省",
            "city": "三亚市",
            "district": "崖州区"
        }
    },
    {
        "id": "8192150211612644792",
        "title": "男洗手间",
        "address": "海南省三亚市天涯区凤凰路凤凰国际机场F2",
        "tel": "",
        "category": "基础设施:公共设施:男洗手间",
        "type": 0,
        "location": {
            "lat": 18.308045,
            "lng": 109.413877
        },
        "ad_info": {
            "adcode": 460204,
            "province": "海南省",
            "city": "三亚市",
            "district": "天涯区"
        }
    },
    {
        "id": "4710417725332735433",
        "title": "男洗手间",
        "address": "海南省三亚市天涯区凤凰路凤凰国际机场F2",
        "tel": "",
        "category": "基础设施:公共设施:男洗手间",
        "type": 0,
        "location": {
            "lat": 18.308172,
            "lng": 109.414667
        },
        "ad_info": {
            "adcode": 460204,
            "province": "海南省",
            "city": "三亚市",
            "district": "天涯区"
        }
    },
    {
        "id": "10661596026205351368",
        "title": "男洗手间",
        "address": "海南省三亚市天涯区凤凰路凤凰国际机场F1",
        "tel": "",
        "category": "基础设施:公共设施:男洗手间",
        "type": 0,
        "location": {
            "lat": 18.307875,
            "lng": 109.414178
        },
        "ad_info": {
            "adcode": 460204,
            "province": "海南省",
            "city": "三亚市",
            "district": "天涯区"
        }
    },
    {
        "id": "10412910031431268731",
        "title": "女洗手间",
        "address": "海南省三亚市天涯区凤凰路凤凰国际机场F2",
        "tel": "",
        "category": "基础设施:公共设施:女洗手间",
        "type": 0,
        "location": {
            "lat": 18.306967,
            "lng": 109.410733
        },
        "ad_info": {
            "adcode": 460204,
            "province": "海南省",
            "city": "三亚市",
            "district": "天涯区"
        }
    },
    {
        "id": "11896966219368955629",
        "title": "公共厕所",
        "address": "海南省三亚市吉阳区海韵路与蓝海巷交叉口东南方向171米左右",
        "tel": "",
        "category": "基础设施:公共设施:公共厕所",
        "type": 0,
        "location": {
            "lat": 18.22244,
            "lng": 109.523812
        },
        "ad_info": {
            "adcode": 460203,
            "province": "海南省",
            "city": "三亚市",
            "district": "吉阳区"
        }
    },
    {
        "id": "3570154323178654902",
        "title": "公共厕所",
        "address": "海南省三亚市吉阳区丹州北路与抱坡路交叉口东南方向261米左右",
        "tel": "",
        "category": "基础设施:公共设施:公共厕所",
        "type": 0,
        "location": {
            "lat": 18.291207,
            "lng": 109.51866
        },
        "ad_info": {
            "adcode": 460203,
            "province": "海南省",
            "city": "三亚市",
            "district": "吉阳区"
        }
    },
    {
        "id": "3404023951834289813",
        "title": "公共厕所",
        "address": "海南省三亚市天涯区G225(海榆西线)骏达车技表演馆西区看台下第二个",
        "tel": "",
        "category": "基础设施:公共设施:公共厕所",
        "type": 0,
        "location": {
            "lat": 18.300146,
            "lng": 109.430741
        },
        "ad_info": {
            "adcode": 460204,
            "province": "海南省",
            "city": "三亚市",
            "district": "天涯区"
        }
    },
    {
        "id": "4363667426402149829",
        "title": "男洗手间",
        "address": "海南省三亚市天涯区凤凰路凤凰国际机场F1",
        "tel": "",
        "category": "基础设施:公共设施:男洗手间",
        "type": 0,
        "location": {
            "lat": 18.307696,
            "lng": 109.411442
        },
        "ad_info": {
            "adcode": 460204,
            "province": "海南省",
            "city": "三亚市",
            "district": "天涯区"
        }
    },
    {
        "id": "194662504508205351",
        "title": "男洗手间(cdf三亚国际免税城B区)",
        "address": "海南省三亚市海棠区海棠北路118号cdf三亚国际免税城B区1F层",
        "tel": "",
        "category": "基础设施:公共设施:公共厕所",
        "type": 0,
        "location": {
            "lat": 18.372477,
            "lng": 109.751418
        },
        "ad_info": {
            "adcode": 460202,
            "province": "海南省",
            "city": "三亚市",
            "district": "海棠区"
        }
    },
    {
        "id": "15204523045792563229",
        "title": "无障碍-洗手间",
        "address": "海南省三亚市天涯区凤凰路凤凰国际机场F1",
        "tel": "",
        "category": "基础设施:公共设施:无障碍洗手间",
        "type": 0,
        "location": {
            "lat": 18.308262,
            "lng": 109.414659
        },
        "ad_info": {
            "adcode": 460204,
            "province": "海南省",
            "city": "三亚市",
            "district": "天涯区"
        }
    },
    {
        "id": "5757865318484206228",
        "title": "女洗手间(cdf三亚国际免税城B区)",
        "address": "海南省三亚市海棠区海棠北路118号cdf三亚国际免税城B区1F层",
        "tel": "",
        "category": "基础设施:公共设施:公共厕所",
        "type": 0,
        "location": {
            "lat": 18.372607,
            "lng": 109.751209
        },
        "ad_info": {
            "adcode": 460202,
            "province": "海南省",
            "city": "三亚市",
            "district": "海棠区"
        }
    },
    {
        "id": "13664544363994459845",
        "title": "铁炉港公共厕所",
        "address": "海南省三亚市海棠区竹落岭路与铁炉港路交叉口东南方向102米左右",
        "tel": "",
        "category": "基础设施:公共设施:公共厕所",
        "type": 0,
        "location": {
            "lat": 18.271131,
            "lng": 109.670095
        },
        "ad_info": {
            "adcode": 460202,
            "province": "海南省",
            "city": "三亚市",
            "district": "海棠区"
        }
    },
    {
        "id": "4188652312507211197",
        "title": "女洗手间",
        "address": "海南省三亚市吉阳区榆亚路136号1号港湾城(大菠萝店)F3",
        "tel": "",
        "category": "基础设施:公共设施:女洗手间",
        "type": 0,
        "location": {
            "lat": 18.222333,
            "lng": 109.528413
        },
        "ad_info": {
            "adcode": 460203,
            "province": "海南省",
            "city": "三亚市",
            "district": "吉阳区"
        }
    },
    {
        "id": "7264623709830810422",
        "title": "男洗手间",
        "address": "海南省三亚市吉阳区榆亚路136号1号港湾城(大菠萝店)F1",
        "tel": "",
        "category": "基础设施:公共设施:男洗手间",
        "type": 0,
        "location": {
            "lat": 18.222138,
            "lng": 109.529464
        },
        "ad_info": {
            "adcode": 460203,
            "province": "海南省",
            "city": "三亚市",
            "district": "吉阳区"
        }
    },
    {
        "id": "2293332148451652848",
        "title": "公共厕所",
        "address": "海南省三亚市海棠区铁炉港路",
        "tel": "",
        "category": "基础设施:公共设施:公共厕所",
        "type": 0,
        "location": {
            "lat": 18.259535,
            "lng": 109.681846
        },
        "ad_info": {
            "adcode": 460202,
            "province": "海南省",
            "city": "三亚市",
            "district": "海棠区"
        }
    },
    {
        "id": "2992321541639404185",
        "title": "租房3室1厅2厕所",
        "address": "海南省三亚市吉阳区榆亚路与网枝村西巷交叉口正南方向179米左右",
        "tel": "",
        "category": "基础设施:公共设施:公共厕所",
        "type": 0,
        "location": {
            "lat": 18.232131,
            "lng": 109.54235
        },
        "ad_info": {
            "adcode": 460203,
            "province": "海南省",
            "city": "三亚市",
            "district": "吉阳区"
        }
    },
    {
        "id": "1505406258786849773",
        "title": "女洗手间",
        "address": "海南省三亚市天涯区凤凰路凤凰国际机场F2",
        "tel": "",
        "category": "基础设施:公共设施:女洗手间",
        "type": 0,
        "location": {
            "lat": 18.307484,
            "lng": 109.411663
        },
        "ad_info": {
            "adcode": 460204,
            "province": "海南省",
            "city": "三亚市",
            "district": "天涯区"
        }
    },
    {
        "id": "17044371284342602435",
        "title": "男洗手间",
        "address": "海南省三亚市吉阳区榆亚路136号1号港湾城(大菠萝店)F3",
        "tel": "",
        "category": "基础设施:公共设施:男洗手间",
        "type": 0,
        "location": {
            "lat": 18.221415,
            "lng": 109.528512
        },
        "ad_info": {
            "adcode": 460203,
            "province": "海南省",
            "city": "三亚市",
            "district": "吉阳区"
        }
    },
    {
        "id": "13067142425775479535",
        "title": "公共厕所",
        "address": "海南省三亚市天涯区水珠路与解放路交叉口正南方向37米左右",
        "tel": "",
        "category": "基础设施:公共设施:公共厕所",
        "type": 0,
        "location": {
            "lat": 18.273338,
            "lng": 109.487062
        },
        "ad_info": {
            "adcode": 460204,
            "province": "海南省",
            "city": "三亚市",
            "district": "天涯区"
        }
    },
    {
        "id": "4232341003301989429",
        "title": "公共厕所",
        "address": "海南省三亚市天涯区凤凰路与景园巷交叉口西北方向55米左右",
        "tel": "",
        "category": "基础设施:公共设施:公共厕所",
        "type": 0,
        "location": {
            "lat": 18.288142,
            "lng": 109.489418
        },
        "ad_info": {
            "adcode": 460204,
            "province": "海南省",
            "city": "三亚市",
            "district": "天涯区"
        }
    },
    {
        "id": "8011123559309270826",
        "title": "公共厕所",
        "address": "海南省三亚市天涯区新城路115号",
        "tel": "",
        "category": "基础设施:公共设施:公共厕所",
        "type": 0,
        "location": {
            "lat": 18.291105,
            "lng": 109.412754
        },
        "ad_info": {
            "adcode": 460204,
            "province": "海南省",
            "city": "三亚市",
            "district": "天涯区"
        }
    },
    {
        "id": "4352225797201084743",
        "title": "无障碍-洗手间",
        "address": "海南省三亚市天涯区凤凰路凤凰国际机场F2",
        "tel": "",
        "category": "基础设施:公共设施:无障碍洗手间",
        "type": 0,
        "location": {
            "lat": 18.307443,
            "lng": 109.411617
        },
        "ad_info": {
            "adcode": 460204,
            "province": "海南省",
            "city": "三亚市",
            "district": "天涯区"
        }
    },
    {
        "id": "6643212864816246116",
        "title": "公共厕所",
        "address": "海南省三亚市海棠区东河河堤路与新民路交叉口西北方向22米左右",
        "tel": "",
        "category": "基础设施:公共设施:公共厕所",
        "type": 0,
        "location": {
            "lat": 18.407484,
            "lng": 109.756986
        },
        "ad_info": {
            "adcode": 460202,
            "province": "海南省",
            "city": "三亚市",
            "district": "海棠区"
        }
    },
    {
        "id": "12088512505326775178",
        "title": "男洗手间",
        "address": "海南省三亚市天涯区凤凰路凤凰国际机场F1",
        "tel": "",
        "category": "基础设施:公共设施:男洗手间",
        "type": 0,
        "location": {
            "lat": 18.307739,
            "lng": 109.414195
        },
        "ad_info": {
            "adcode": 460204,
            "province": "海南省",
            "city": "三亚市",
            "district": "天涯区"
        }
    },
    {
        "id": "2585215408212442479",
        "title": "公共厕所",
        "address": "海南省三亚市海棠区海岸大道与海棠北路交叉口正东方向379米左右",
        "tel": "",
        "category": "基础设施:公共设施:公共厕所",
        "type": 0,
        "location": {
            "lat": 18.316762,
            "lng": 109.733744
        },
        "ad_info": {
            "adcode": 460202,
            "province": "海南省",
            "city": "三亚市",
            "district": "海棠区"
        }
    },
    {
        "id": "716966709163025039",
        "title": "公共厕所",
        "address": "海南省三亚市吉阳区下新西路与亚龙湾路交叉口西北方向60米左右",
        "tel": "",
        "category": "基础设施:公共设施:公共厕所",
        "type": 0,
        "location": {
            "lat": 18.281823,
            "lng": 109.587897
        },
        "ad_info": {
            "adcode": 460203,
            "province": "海南省",
            "city": "三亚市",
            "district": "吉阳区"
        }
    },
    {
        "id": "16406579851538416582",
        "title": "男洗手间(cdf三亚国际免税城A区)",
        "address": "海南省三亚市海棠区海棠北路118号cdf三亚国际免税城A区3F层",
        "tel": "",
        "category": "基础设施:公共设施:公共厕所",
        "type": 0,
        "location": {
            "lat": 18.371111,
            "lng": 109.750614
        },
        "ad_info": {
            "adcode": 460202,
            "province": "海南省",
            "city": "三亚市",
            "district": "海棠区"
        }
    },
    {
        "id": "14928630935545058980",
        "title": "女洗手间",
        "address": "海南省三亚市天涯区凤凰路凤凰国际机场F2",
        "tel": "",
        "category": "基础设施:公共设施:女洗手间",
        "type": 0,
        "location": {
            "lat": 18.30784,
            "lng": 109.412467
        },
        "ad_info": {
            "adcode": 460204,
            "province": "海南省",
            "city": "三亚市",
            "district": "天涯区"
        }
    },
    {
        "id": "3490548703472921956",
        "title": "公共厕所",
        "address": "海南省三亚市吉阳区川北一横巷椰苑",
        "tel": "",
        "category": "基础设施:公共设施:公共厕所",
        "type": 0,
        "location": {
            "lat": 18.270045,
            "lng": 109.500208
        },
        "ad_info": {
            "adcode": 460203,
            "province": "海南省",
            "city": "三亚市",
            "district": "吉阳区"
        }
    },
    {
        "id": "14976513381294337960",
        "title": "女洗手间",
        "address": "海南省三亚市天涯区凤凰路凤凰国际机场F1",
        "tel": "",
        "category": "基础设施:公共设施:女洗手间",
        "type": 0,
        "location": {
            "lat": 18.30752,
            "lng": 109.412317
        },
        "ad_info": {
            "adcode": 460204,
            "province": "海南省",
            "city": "三亚市",
            "district": "天涯区"
        }
    },
    {
        "id": "14939021250504321611",
        "title": "女洗手间",
        "address": "海南省三亚市天涯区凤凰路凤凰国际机场F1",
        "tel": "",
        "category": "基础设施:公共设施:女洗手间",
        "type": 0,
        "location": {
            "lat": 18.307966,
            "lng": 109.413567
        },
        "ad_info": {
            "adcode": 460204,
            "province": "海南省",
            "city": "三亚市",
            "district": "天涯区"
        }
    },
    {
        "id": "16545468607576259222",
        "title": "公共厕所",
        "address": "海南省三亚市海棠区新民路与海榆东线交叉口正北方向868米左右",
        "tel": "",
        "category": "基础设施:公共设施:公共厕所",
        "type": 0,
        "location": {
            "lat": 18.422974,
            "lng": 109.785901
        },
        "ad_info": {
            "adcode": 460202,
            "province": "海南省",
            "city": "三亚市",
            "district": "海棠区"
        }
    },
    {
        "id": "12022647155515889100",
        "title": "公共卫生间",
        "address": "海南省三亚市吉阳区海螺岭路与迎宾路交叉口正西方向69米左右",
        "tel": "",
        "category": "基础设施:公共设施:公共厕所",
        "type": 0,
        "location": {
            "lat": 18.285288,
            "lng": 109.559094
        },
        "ad_info": {
            "adcode": 460203,
            "province": "海南省",
            "city": "三亚市",
            "district": "吉阳区"
        }
    },
    {
        "id": "7035196231542594666",
        "title": "珠江花园酒店-洗手间",
        "address": "海南省三亚市吉阳区大东海旅游区东海路1号",
        "tel": "",
        "category": "基础设施:公共设施:公共厕所",
        "type": 0,
        "location": {
            "lat": 18.221799,
            "lng": 109.523854
        },
        "ad_info": {
            "adcode": 460203,
            "province": "海南省",
            "city": "三亚市",
            "district": "吉阳区"
        }
    },
    {
        "id": "2676314478581414110",
        "title": "公共厕所",
        "address": "海南省三亚市天涯区育春路与辽家田路交叉口西北方向30米左右",
        "tel": "",
        "category": "基础设施:公共设施:公共厕所",
        "type": 0,
        "location": {
            "lat": 18.292487,
            "lng": 109.482709
        },
        "ad_info": {
            "adcode": 460204,
            "province": "海南省",
            "city": "三亚市",
            "district": "天涯区"
        }
    },
    {
        "id": "13759956267998935286",
        "title": "男洗手间",
        "address": "海南省三亚市天涯区凤凰路凤凰国际机场F2",
        "tel": "",
        "category": "基础设施:公共设施:男洗手间",
        "type": 0,
        "location": {
            "lat": 18.307671,
            "lng": 109.411405
        },
        "ad_info": {
            "adcode": 460204,
            "province": "海南省",
            "city": "三亚市",
            "district": "天涯区"
        }
    },
    {
        "id": "16092672209051817608",
        "title": "女洗手间",
        "address": "海南省三亚市吉阳区榆亚路136号1号港湾城(大菠萝店)F2",
        "tel": "",
        "category": "基础设施:公共设施:女洗手间",
        "type": 0,
        "location": {
            "lat": 18.222341,
            "lng": 109.52841
        },
        "ad_info": {
            "adcode": 460203,
            "province": "海南省",
            "city": "三亚市",
            "district": "吉阳区"
        }
    },
    {
        "id": "162830685471285244",
        "title": "公共厕所",
        "address": "海南省三亚市天涯区文艺路与黎韵路交叉口西南方向39米左右",
        "tel": "",
        "category": "基础设施:公共设施:公共厕所",
        "type": 0,
        "location": {
            "lat": 18.335216,
            "lng": 109.488523
        },
        "ad_info": {
            "adcode": 460204,
            "province": "海南省",
            "city": "三亚市",
            "district": "天涯区"
        }
    },
    {
        "id": "3159122266106197144",
        "title": "男洗手间",
        "address": "海南省三亚市天涯区凤凰路凤凰国际机场F2",
        "tel": "",
        "category": "基础设施:公共设施:男洗手间",
        "type": 0,
        "location": {
            "lat": 18.30693,
            "lng": 109.410745
        },
        "ad_info": {
            "adcode": 460204,
            "province": "海南省",
            "city": "三亚市",
            "district": "天涯区"
        }
    },
    {
        "id": "2725664887123872724",
        "title": "镇海村海边公共厕所",
        "address": "海南省三亚市崖州区海文路与镇海中路交叉口正南方向177米左右",
        "tel": "",
        "category": "基础设施:公共设施:公共厕所",
        "type": 0,
        "location": {
            "lat": 18.368448,
            "lng": 109.076054
        },
        "ad_info": {
            "adcode": 460205,
            "province": "海南省",
            "city": "三亚市",
            "district": "崖州区"
        }
    },
    {
        "id": "17925189915836685588",
        "title": "公共厕所",
        "address": "海南省三亚市天涯区109乡道",
        "tel": "",
        "category": "基础设施:公共设施:公共厕所",
        "type": 0,
        "location": {
            "lat": 18.395987,
            "lng": 109.49645
        },
        "ad_info": {
            "adcode": 460204,
            "province": "海南省",
            "city": "三亚市",
            "district": "天涯区"
        }
    },
    {
        "id": "65417272634699682",
        "title": "女洗手间",
        "address": "海南省三亚市吉阳区榆亚路136号1号港湾城(大菠萝店)F1",
        "tel": "",
        "category": "基础设施:公共设施:女洗手间",
        "type": 0,
        "location": {
            "lat": 18.22215,
            "lng": 109.529425
        },
        "ad_info": {
            "adcode": 460203,
            "province": "海南省",
            "city": "三亚市",
            "district": "吉阳区"
        }
    },
    {
        "id": "6608988338109285048",
        "title": "女洗手间",
        "address": "海南省三亚市吉阳区榆亚路136号1号港湾城(大菠萝店)F4",
        "tel": "",
        "category": "基础设施:公共设施:女洗手间",
        "type": 0,
        "location": {
            "lat": 18.222341,
            "lng": 109.528411
        },
        "ad_info": {
            "adcode": 460203,
            "province": "海南省",
            "city": "三亚市",
            "district": "吉阳区"
        }
    },
    {
        "id": "10952645994071895342",
        "title": "女洗手间",
        "address": "海南省三亚市天涯区凤凰路凤凰国际机场F1",
        "tel": "",
        "category": "基础设施:公共设施:女洗手间",
        "type": 0,
        "location": {
            "lat": 18.307669,
            "lng": 109.414204
        },
        "ad_info": {
            "adcode": 460204,
            "province": "海南省",
            "city": "三亚市",
            "district": "天涯区"
        }
    },
    {
        "id": "3179727537137499839",
        "title": "男洗手间(cdf三亚国际免税城B区)",
        "address": "海南省三亚市海棠区海棠北路118号cdf三亚国际免税城B区2F层",
        "tel": "",
        "category": "基础设施:公共设施:公共厕所",
        "type": 0,
        "location": {
            "lat": 18.372611,
            "lng": 109.751167
        },
        "ad_info": {
            "adcode": 460202,
            "province": "海南省",
            "city": "三亚市",
            "district": "海棠区"
        }
    },
    {
        "id": "17349548820645742374",
        "title": "移动厕所围挡租售",
        "address": "海南省三亚市吉阳区海螺一路与海螺一路十巷交叉口东南方向201米左右",
        "tel": "18889846353",
        "category": "基础设施:公共设施:公共厕所",
        "type": 0,
        "location": {
            "lat": 18.279265,
            "lng": 109.531344
        },
        "ad_info": {
            "adcode": 460203,
            "province": "海南省",
            "city": "三亚市",
            "district": "吉阳区"
        }
    },
    {
        "id": "7157699663076091182",
        "title": "男洗手间",
        "address": "海南省三亚市天涯区凤凰路凤凰国际机场F2",
        "tel": "",
        "category": "基础设施:公共设施:男洗手间",
        "type": 0,
        "location": {
            "lat": 18.307969,
            "lng": 109.413549
        },
        "ad_info": {
            "adcode": 460204,
            "province": "海南省",
            "city": "三亚市",
            "district": "天涯区"
        }
    },
    {
        "id": "15005396751756235512",
        "title": "无障碍-洗手间",
        "address": "海南省三亚市天涯区凤凰路凤凰国际机场F2",
        "tel": "",
        "category": "基础设施:公共设施:无障碍洗手间",
        "type": 0,
        "location": {
            "lat": 18.307943,
            "lng": 109.413463
        },
        "ad_info": {
            "adcode": 460204,
            "province": "海南省",
            "city": "三亚市",
            "district": "天涯区"
        }
    },
    {
        "id": "5038384628296380711",
        "title": "无障碍-洗手间",
        "address": "海南省三亚市天涯区凤凰路凤凰国际机场F2",
        "tel": "",
        "category": "基础设施:公共设施:无障碍洗手间",
        "type": 0,
        "location": {
            "lat": 18.308134,
            "lng": 109.414682
        },
        "ad_info": {
            "adcode": 460204,
            "province": "海南省",
            "city": "三亚市",
            "district": "天涯区"
        }
    },
    {
        "id": "9756516059963648933",
        "title": "男洗手间",
        "address": "海南省三亚市吉阳区榆亚路136号1号港湾城(大菠萝店)F3",
        "tel": "",
        "category": "基础设施:公共设施:男洗手间",
        "type": 0,
        "location": {
            "lat": 18.222414,
            "lng": 109.528449
        },
        "ad_info": {
            "adcode": 460203,
            "province": "海南省",
            "city": "三亚市",
            "district": "吉阳区"
        }
    },
    {
        "id": "17714349556536246660",
        "title": "男洗手间",
        "address": "海南省三亚市天涯区凤凰路凤凰国际机场F1",
        "tel": "",
        "category": "基础设施:公共设施:男洗手间",
        "type": 0,
        "location": {
            "lat": 18.307626,
            "lng": 109.411564
        },
        "ad_info": {
            "adcode": 460204,
            "province": "海南省",
            "city": "三亚市",
            "district": "天涯区"
        }
    },
    {
        "id": "6998987318212505783",
        "title": "卫生间",
        "address": "海南省三亚市天涯区长顺一巷与长顺二巷交叉口东南方向78米左右",
        "tel": "",
        "category": "基础设施:公共设施:公共厕所",
        "type": 0,
        "location": {
            "lat": 18.259949,
            "lng": 109.505206
        },
        "ad_info": {
            "adcode": 460204,
            "province": "海南省",
            "city": "三亚市",
            "district": "天涯区"
        }
    },
    {
        "id": "9252391797937456759",
        "title": "崖州火车站公厕",
        "address": "海南省三亚市崖州区古城北路与火车站路交叉口正北方向201米左右",
        "tel": "",
        "category": "基础设施:公共设施:公共厕所",
        "type": 0,
        "location": {
            "lat": 18.376518,
            "lng": 109.15757
        },
        "ad_info": {
            "adcode": 460205,
            "province": "海南省",
            "city": "三亚市",
            "district": "崖州区"
        }
    },
    {
        "id": "15710548902599702329",
        "title": "公共厕所",
        "address": "海南省三亚市天涯区解放路与迎宾路交叉口正东方向42米左右",
        "tel": "",
        "category": "基础设施:公共设施:公共厕所",
        "type": 0,
        "location": {
            "lat": 18.263655,
            "lng": 109.499731
        },
        "ad_info": {
            "adcode": 460204,
            "province": "海南省",
            "city": "三亚市",
            "district": "天涯区"
        }
    },
    {
        "id": "14704356472935742750",
        "title": "男洗手间",
        "address": "海南省三亚市天涯区凤凰路凤凰国际机场F2",
        "tel": "",
        "category": "基础设施:公共设施:男洗手间",
        "type": 0,
        "location": {
            "lat": 18.307735,
            "lng": 109.414431
        },
        "ad_info": {
            "adcode": 460204,
            "province": "海南省",
            "city": "三亚市",
            "district": "天涯区"
        }
    },
    {
        "id": "13100264661186156866",
        "title": "保港中学公共厕所",
        "address": "海南省三亚市崖州区疏港大道19号",
        "tel": "",
        "category": "基础设施:公共设施:公共厕所",
        "type": 0,
        "location": {
            "lat": 18.359058,
            "lng": 109.12949
        },
        "ad_info": {
            "adcode": 460205,
            "province": "海南省",
            "city": "三亚市",
            "district": "崖州区"
        }
    },
    {
        "id": "17138490281198315251",
        "title": "公共厕所",
        "address": "海南省三亚市海棠区海岸大道与海棠北路交叉口西南方向455米左右",
        "tel": "",
        "category": "基础设施:公共设施:公共厕所",
        "type": 0,
        "location": {
            "lat": 18.313659,
            "lng": 109.727157
        },
        "ad_info": {
            "adcode": 460202,
            "province": "海南省",
            "city": "三亚市",
            "district": "海棠区"
        }
    },
    {
        "id": "17563081334169890309",
        "title": "女洗手间(cdf三亚国际免税城A区)",
        "address": "海南省三亚市海棠区海棠北路118号cdf三亚国际免税城A区1F层",
        "tel": "",
        "category": "基础设施:公共设施:公共厕所",
        "type": 0,
        "location": {
            "lat": 18.371024,
            "lng": 109.750741
        },
        "ad_info": {
            "adcode": 460202,
            "province": "海南省",
            "city": "三亚市",
            "district": "海棠区"
        }
    },
    {
        "id": "3159122266106197144",
        "title": "男洗手间",
        "address": "海南省三亚市天涯区凤凰路凤凰国际机场F2",
        "tel": "",
        "category": "基础设施:公共设施:男洗手间",
        "type": 0,
        "location": {
            "lat": 18.30693,
            "lng": 109.410745
        },
        "ad_info": {
            "adcode": 460204,
            "province": "海南省",
            "city": "三亚市",
            "district": "天涯区"
        }
    },
    {
        "id": "2725664887123872724",
        "title": "镇海村海边公共厕所",
        "address": "海南省三亚市崖州区海文路与镇海中路交叉口正南方向177米左右",
        "tel": "",
        "category": "基础设施:公共设施:公共厕所",
        "type": 0,
        "location": {
            "lat": 18.368448,
            "lng": 109.076054
        },
        "ad_info": {
            "adcode": 460205,
            "province": "海南省",
            "city": "三亚市",
            "district": "崖州区"
        }
    },
    {
        "id": "17925189915836685588",
        "title": "公共厕所",
        "address": "海南省三亚市天涯区109乡道",
        "tel": "",
        "category": "基础设施:公共设施:公共厕所",
        "type": 0,
        "location": {
            "lat": 18.395987,
            "lng": 109.49645
        },
        "ad_info": {
            "adcode": 460204,
            "province": "海南省",
            "city": "三亚市",
            "district": "天涯区"
        }
    },
    {
        "id": "65417272634699682",
        "title": "女洗手间",
        "address": "海南省三亚市吉阳区榆亚路136号1号港湾城(大菠萝店)F1",
        "tel": "",
        "category": "基础设施:公共设施:女洗手间",
        "type": 0,
        "location": {
            "lat": 18.22215,
            "lng": 109.529425
        },
        "ad_info": {
            "adcode": 460203,
            "province": "海南省",
            "city": "三亚市",
            "district": "吉阳区"
        }
    },
    {
        "id": "6608988338109285048",
        "title": "女洗手间",
        "address": "海南省三亚市吉阳区榆亚路136号1号港湾城(大菠萝店)F4",
        "tel": "",
        "category": "基础设施:公共设施:女洗手间",
        "type": 0,
        "location": {
            "lat": 18.222341,
            "lng": 109.528411
        },
        "ad_info": {
            "adcode": 460203,
            "province": "海南省",
            "city": "三亚市",
            "district": "吉阳区"
        }
    },
    {
        "id": "10952645994071895342",
        "title": "女洗手间",
        "address": "海南省三亚市天涯区凤凰路凤凰国际机场F1",
        "tel": "",
        "category": "基础设施:公共设施:女洗手间",
        "type": 0,
        "location": {
            "lat": 18.307669,
            "lng": 109.414204
        },
        "ad_info": {
            "adcode": 460204,
            "province": "海南省",
            "city": "三亚市",
            "district": "天涯区"
        }
    },
    {
        "id": "3179727537137499839",
        "title": "男洗手间(cdf三亚国际免税城B区)",
        "address": "海南省三亚市海棠区海棠北路118号cdf三亚国际免税城B区2F层",
        "tel": "",
        "category": "基础设施:公共设施:公共厕所",
        "type": 0,
        "location": {
            "lat": 18.372611,
            "lng": 109.751167
        },
        "ad_info": {
            "adcode": 460202,
            "province": "海南省",
            "city": "三亚市",
            "district": "海棠区"
        }
    },
    {
        "id": "17349548820645742374",
        "title": "移动厕所围挡租售",
        "address": "海南省三亚市吉阳区海螺一路与海螺一路十巷交叉口东南方向201米左右",
        "tel": "18889846353",
        "category": "基础设施:公共设施:公共厕所",
        "type": 0,
        "location": {
            "lat": 18.279265,
            "lng": 109.531344
        },
        "ad_info": {
            "adcode": 460203,
            "province": "海南省",
            "city": "三亚市",
            "district": "吉阳区"
        }
    },
    {
        "id": "7157699663076091182",
        "title": "男洗手间",
        "address": "海南省三亚市天涯区凤凰路凤凰国际机场F2",
        "tel": "",
        "category": "基础设施:公共设施:男洗手间",
        "type": 0,
        "location": {
            "lat": 18.307969,
            "lng": 109.413549
        },
        "ad_info": {
            "adcode": 460204,
            "province": "海南省",
            "city": "三亚市",
            "district": "天涯区"
        }
    },
    {
        "id": "15005396751756235512",
        "title": "无障碍-洗手间",
        "address": "海南省三亚市天涯区凤凰路凤凰国际机场F2",
        "tel": "",
        "category": "基础设施:公共设施:无障碍洗手间",
        "type": 0,
        "location": {
            "lat": 18.307943,
            "lng": 109.413463
        },
        "ad_info": {
            "adcode": 460204,
            "province": "海南省",
            "city": "三亚市",
            "district": "天涯区"
        }
    },
    {
        "id": "5038384628296380711",
        "title": "无障碍-洗手间",
        "address": "海南省三亚市天涯区凤凰路凤凰国际机场F2",
        "tel": "",
        "category": "基础设施:公共设施:无障碍洗手间",
        "type": 0,
        "location": {
            "lat": 18.308134,
            "lng": 109.414682
        },
        "ad_info": {
            "adcode": 460204,
            "province": "海南省",
            "city": "三亚市",
            "district": "天涯区"
        }
    },
    {
        "id": "9756516059963648933",
        "title": "男洗手间",
        "address": "海南省三亚市吉阳区榆亚路136号1号港湾城(大菠萝店)F3",
        "tel": "",
        "category": "基础设施:公共设施:男洗手间",
        "type": 0,
        "location": {
            "lat": 18.222414,
            "lng": 109.528449
        },
        "ad_info": {
            "adcode": 460203,
            "province": "海南省",
            "city": "三亚市",
            "district": "吉阳区"
        }
    },
    {
        "id": "17714349556536246660",
        "title": "男洗手间",
        "address": "海南省三亚市天涯区凤凰路凤凰国际机场F1",
        "tel": "",
        "category": "基础设施:公共设施:男洗手间",
        "type": 0,
        "location": {
            "lat": 18.307626,
            "lng": 109.411564
        },
        "ad_info": {
            "adcode": 460204,
            "province": "海南省",
            "city": "三亚市",
            "district": "天涯区"
        }
    },
    {
        "id": "6998987318212505783",
        "title": "卫生间",
        "address": "海南省三亚市天涯区长顺一巷与长顺二巷交叉口东南方向78米左右",
        "tel": "",
        "category": "基础设施:公共设施:公共厕所",
        "type": 0,
        "location": {
            "lat": 18.259949,
            "lng": 109.505206
        },
        "ad_info": {
            "adcode": 460204,
            "province": "海南省",
            "city": "三亚市",
            "district": "天涯区"
        }
    },
    {
        "id": "9252391797937456759",
        "title": "崖州火车站公厕",
        "address": "海南省三亚市崖州区古城北路与火车站路交叉口正北方向201米左右",
        "tel": "",
        "category": "基础设施:公共设施:公共厕所",
        "type": 0,
        "location": {
            "lat": 18.376518,
            "lng": 109.15757
        },
        "ad_info": {
            "adcode": 460205,
            "province": "海南省",
            "city": "三亚市",
            "district": "崖州区"
        }
    },
    {
        "id": "15710548902599702329",
        "title": "公共厕所",
        "address": "海南省三亚市天涯区解放路与迎宾路交叉口正东方向42米左右",
        "tel": "",
        "category": "基础设施:公共设施:公共厕所",
        "type": 0,
        "location": {
            "lat": 18.263655,
            "lng": 109.499731
        },
        "ad_info": {
            "adcode": 460204,
            "province": "海南省",
            "city": "三亚市",
            "district": "天涯区"
        }
    },
    {
        "id": "14704356472935742750",
        "title": "男洗手间",
        "address": "海南省三亚市天涯区凤凰路凤凰国际机场F2",
        "tel": "",
        "category": "基础设施:公共设施:男洗手间",
        "type": 0,
        "location": {
            "lat": 18.307735,
            "lng": 109.414431
        },
        "ad_info": {
            "adcode": 460204,
            "province": "海南省",
            "city": "三亚市",
            "district": "天涯区"
        }
    },
    {
        "id": "13100264661186156866",
        "title": "保港中学公共厕所",
        "address": "海南省三亚市崖州区疏港大道19号",
        "tel": "",
        "category": "基础设施:公共设施:公共厕所",
        "type": 0,
        "location": {
            "lat": 18.359058,
            "lng": 109.12949
        },
        "ad_info": {
            "adcode": 460205,
            "province": "海南省",
            "city": "三亚市",
            "district": "崖州区"
        }
    },
    {
        "id": "17138490281198315251",
        "title": "公共厕所",
        "address": "海南省三亚市海棠区海岸大道与海棠北路交叉口西南方向455米左右",
        "tel": "",
        "category": "基础设施:公共设施:公共厕所",
        "type": 0,
        "location": {
            "lat": 18.313659,
            "lng": 109.727157
        },
        "ad_info": {
            "adcode": 460202,
            "province": "海南省",
            "city": "三亚市",
            "district": "海棠区"
        }
    },
    {
        "id": "17563081334169890309",
        "title": "女洗手间(cdf三亚国际免税城A区)",
        "address": "海南省三亚市海棠区海棠北路118号cdf三亚国际免税城A区1F层",
        "tel": "",
        "category": "基础设施:公共设施:公共厕所",
        "type": 0,
        "location": {
            "lat": 18.371024,
            "lng": 109.750741
        },
        "ad_info": {
            "adcode": 460202,
            "province": "海南省",
            "city": "三亚市",
            "district": "海棠区"
        }
    },
    {
        "id": "3159122266106197144",
        "title": "男洗手间",
        "address": "海南省三亚市天涯区凤凰路凤凰国际机场F2",
        "tel": "",
        "category": "基础设施:公共设施:男洗手间",
        "type": 0,
        "location": {
            "lat": 18.30693,
            "lng": 109.410745
        },
        "ad_info": {
            "adcode": 460204,
            "province": "海南省",
            "city": "三亚市",
            "district": "天涯区"
        }
    },
    {
        "id": "2725664887123872724",
        "title": "镇海村海边公共厕所",
        "address": "海南省三亚市崖州区海文路与镇海中路交叉口正南方向177米左右",
        "tel": "",
        "category": "基础设施:公共设施:公共厕所",
        "type": 0,
        "location": {
            "lat": 18.368448,
            "lng": 109.076054
        },
        "ad_info": {
            "adcode": 460205,
            "province": "海南省",
            "city": "三亚市",
            "district": "崖州区"
        }
    },
    {
        "id": "17925189915836685588",
        "title": "公共厕所",
        "address": "海南省三亚市天涯区109乡道",
        "tel": "",
        "category": "基础设施:公共设施:公共厕所",
        "type": 0,
        "location": {
            "lat": 18.395987,
            "lng": 109.49645
        },
        "ad_info": {
            "adcode": 460204,
            "province": "海南省",
            "city": "三亚市",
            "district": "天涯区"
        }
    },
    {
        "id": "65417272634699682",
        "title": "女洗手间",
        "address": "海南省三亚市吉阳区榆亚路136号1号港湾城(大菠萝店)F1",
        "tel": "",
        "category": "基础设施:公共设施:女洗手间",
        "type": 0,
        "location": {
            "lat": 18.22215,
            "lng": 109.529425
        },
        "ad_info": {
            "adcode": 460203,
            "province": "海南省",
            "city": "三亚市",
            "district": "吉阳区"
        }
    },
    {
        "id": "6608988338109285048",
        "title": "女洗手间",
        "address": "海南省三亚市吉阳区榆亚路136号1号港湾城(大菠萝店)F4",
        "tel": "",
        "category": "基础设施:公共设施:女洗手间",
        "type": 0,
        "location": {
            "lat": 18.222341,
            "lng": 109.528411
        },
        "ad_info": {
            "adcode": 460203,
            "province": "海南省",
            "city": "三亚市",
            "district": "吉阳区"
        }
    },
    {
        "id": "10952645994071895342",
        "title": "女洗手间",
        "address": "海南省三亚市天涯区凤凰路凤凰国际机场F1",
        "tel": "",
        "category": "基础设施:公共设施:女洗手间",
        "type": 0,
        "location": {
            "lat": 18.307669,
            "lng": 109.414204
        },
        "ad_info": {
            "adcode": 460204,
            "province": "海南省",
            "city": "三亚市",
            "district": "天涯区"
        }
    },
    {
        "id": "3179727537137499839",
        "title": "男洗手间(cdf三亚国际免税城B区)",
        "address": "海南省三亚市海棠区海棠北路118号cdf三亚国际免税城B区2F层",
        "tel": "",
        "category": "基础设施:公共设施:公共厕所",
        "type": 0,
        "location": {
            "lat": 18.372611,
            "lng": 109.751167
        },
        "ad_info": {
            "adcode": 460202,
            "province": "海南省",
            "city": "三亚市",
            "district": "海棠区"
        }
    },
    {
        "id": "17349548820645742374",
        "title": "移动厕所围挡租售",
        "address": "海南省三亚市吉阳区海螺一路与海螺一路十巷交叉口东南方向201米左右",
        "tel": "18889846353",
        "category": "基础设施:公共设施:公共厕所",
        "type": 0,
        "location": {
            "lat": 18.279265,
            "lng": 109.531344
        },
        "ad_info": {
            "adcode": 460203,
            "province": "海南省",
            "city": "三亚市",
            "district": "吉阳区"
        }
    },
    {
        "id": "7157699663076091182",
        "title": "男洗手间",
        "address": "海南省三亚市天涯区凤凰路凤凰国际机场F2",
        "tel": "",
        "category": "基础设施:公共设施:男洗手间",
        "type": 0,
        "location": {
            "lat": 18.307969,
            "lng": 109.413549
        },
        "ad_info": {
            "adcode": 460204,
            "province": "海南省",
            "city": "三亚市",
            "district": "天涯区"
        }
    },
    {
        "id": "15005396751756235512",
        "title": "无障碍-洗手间",
        "address": "海南省三亚市天涯区凤凰路凤凰国际机场F2",
        "tel": "",
        "category": "基础设施:公共设施:无障碍洗手间",
        "type": 0,
        "location": {
            "lat": 18.307943,
            "lng": 109.413463
        },
        "ad_info": {
            "adcode": 460204,
            "province": "海南省",
            "city": "三亚市",
            "district": "天涯区"
        }
    },
    {
        "id": "5038384628296380711",
        "title": "无障碍-洗手间",
        "address": "海南省三亚市天涯区凤凰路凤凰国际机场F2",
        "tel": "",
        "category": "基础设施:公共设施:无障碍洗手间",
        "type": 0,
        "location": {
            "lat": 18.308134,
            "lng": 109.414682
        },
        "ad_info": {
            "adcode": 460204,
            "province": "海南省",
            "city": "三亚市",
            "district": "天涯区"
        }
    },
    {
        "id": "9756516059963648933",
        "title": "男洗手间",
        "address": "海南省三亚市吉阳区榆亚路136号1号港湾城(大菠萝店)F3",
        "tel": "",
        "category": "基础设施:公共设施:男洗手间",
        "type": 0,
        "location": {
            "lat": 18.222414,
            "lng": 109.528449
        },
        "ad_info": {
            "adcode": 460203,
            "province": "海南省",
            "city": "三亚市",
            "district": "吉阳区"
        }
    },
    {
        "id": "17714349556536246660",
        "title": "男洗手间",
        "address": "海南省三亚市天涯区凤凰路凤凰国际机场F1",
        "tel": "",
        "category": "基础设施:公共设施:男洗手间",
        "type": 0,
        "location": {
            "lat": 18.307626,
            "lng": 109.411564
        },
        "ad_info": {
            "adcode": 460204,
            "province": "海南省",
            "city": "三亚市",
            "district": "天涯区"
        }
    },
    {
        "id": "6998987318212505783",
        "title": "卫生间",
        "address": "海南省三亚市天涯区长顺一巷与长顺二巷交叉口东南方向78米左右",
        "tel": "",
        "category": "基础设施:公共设施:公共厕所",
        "type": 0,
        "location": {
            "lat": 18.259949,
            "lng": 109.505206
        },
        "ad_info": {
            "adcode": 460204,
            "province": "海南省",
            "city": "三亚市",
            "district": "天涯区"
        }
    },
    {
        "id": "9252391797937456759",
        "title": "崖州火车站公厕",
        "address": "海南省三亚市崖州区古城北路与火车站路交叉口正北方向201米左右",
        "tel": "",
        "category": "基础设施:公共设施:公共厕所",
        "type": 0,
        "location": {
            "lat": 18.376518,
            "lng": 109.15757
        },
        "ad_info": {
            "adcode": 460205,
            "province": "海南省",
            "city": "三亚市",
            "district": "崖州区"
        }
    },
    {
        "id": "15710548902599702329",
        "title": "公共厕所",
        "address": "海南省三亚市天涯区解放路与迎宾路交叉口正东方向42米左右",
        "tel": "",
        "category": "基础设施:公共设施:公共厕所",
        "type": 0,
        "location": {
            "lat": 18.263655,
            "lng": 109.499731
        },
        "ad_info": {
            "adcode": 460204,
            "province": "海南省",
            "city": "三亚市",
            "district": "天涯区"
        }
    },
    {
        "id": "14704356472935742750",
        "title": "男洗手间",
        "address": "海南省三亚市天涯区凤凰路凤凰国际机场F2",
        "tel": "",
        "category": "基础设施:公共设施:男洗手间",
        "type": 0,
        "location": {
            "lat": 18.307735,
            "lng": 109.414431
        },
        "ad_info": {
            "adcode": 460204,
            "province": "海南省",
            "city": "三亚市",
            "district": "天涯区"
        }
    },
    {
        "id": "13100264661186156866",
        "title": "保港中学公共厕所",
        "address": "海南省三亚市崖州区疏港大道19号",
        "tel": "",
        "category": "基础设施:公共设施:公共厕所",
        "type": 0,
        "location": {
            "lat": 18.359058,
            "lng": 109.12949
        },
        "ad_info": {
            "adcode": 460205,
            "province": "海南省",
            "city": "三亚市",
            "district": "崖州区"
        }
    },
    {
        "id": "17138490281198315251",
        "title": "公共厕所",
        "address": "海南省三亚市海棠区海岸大道与海棠北路交叉口西南方向455米左右",
        "tel": "",
        "category": "基础设施:公共设施:公共厕所",
        "type": 0,
        "location": {
            "lat": 18.313659,
            "lng": 109.727157
        },
        "ad_info": {
            "adcode": 460202,
            "province": "海南省",
            "city": "三亚市",
            "district": "海棠区"
        }
    },
    {
        "id": "17563081334169890309",
        "title": "女洗手间(cdf三亚国际免税城A区)",
        "address": "海南省三亚市海棠区海棠北路118号cdf三亚国际免税城A区1F层",
        "tel": "",
        "category": "基础设施:公共设施:公共厕所",
        "type": 0,
        "location": {
            "lat": 18.371024,
            "lng": 109.750741
        },
        "ad_info": {
            "adcode": 460202,
            "province": "海南省",
            "city": "三亚市",
            "district": "海棠区"
        }
    },
    {
        "id": "3159122266106197144",
        "title": "男洗手间",
        "address": "海南省三亚市天涯区凤凰路凤凰国际机场F2",
        "tel": "",
        "category": "基础设施:公共设施:男洗手间",
        "type": 0,
        "location": {
            "lat": 18.30693,
            "lng": 109.410745
        },
        "ad_info": {
            "adcode": 460204,
            "province": "海南省",
            "city": "三亚市",
            "district": "天涯区"
        }
    },
    {
        "id": "2725664887123872724",
        "title": "镇海村海边公共厕所",
        "address": "海南省三亚市崖州区海文路与镇海中路交叉口正南方向177米左右",
        "tel": "",
        "category": "基础设施:公共设施:公共厕所",
        "type": 0,
        "location": {
            "lat": 18.368448,
            "lng": 109.076054
        },
        "ad_info": {
            "adcode": 460205,
            "province": "海南省",
            "city": "三亚市",
            "district": "崖州区"
        }
    },
    {
        "id": "17925189915836685588",
        "title": "公共厕所",
        "address": "海南省三亚市天涯区109乡道",
        "tel": "",
        "category": "基础设施:公共设施:公共厕所",
        "type": 0,
        "location": {
            "lat": 18.395987,
            "lng": 109.49645
        },
        "ad_info": {
            "adcode": 460204,
            "province": "海南省",
            "city": "三亚市",
            "district": "天涯区"
        }
    },
    {
        "id": "65417272634699682",
        "title": "女洗手间",
        "address": "海南省三亚市吉阳区榆亚路136号1号港湾城(大菠萝店)F1",
        "tel": "",
        "category": "基础设施:公共设施:女洗手间",
        "type": 0,
        "location": {
            "lat": 18.22215,
            "lng": 109.529425
        },
        "ad_info": {
            "adcode": 460203,
            "province": "海南省",
            "city": "三亚市",
            "district": "吉阳区"
        }
    },
    {
        "id": "6608988338109285048",
        "title": "女洗手间",
        "address": "海南省三亚市吉阳区榆亚路136号1号港湾城(大菠萝店)F4",
        "tel": "",
        "category": "基础设施:公共设施:女洗手间",
        "type": 0,
        "location": {
            "lat": 18.222341,
            "lng": 109.528411
        },
        "ad_info": {
            "adcode": 460203,
            "province": "海南省",
            "city": "三亚市",
            "district": "吉阳区"
        }
    },
    {
        "id": "10952645994071895342",
        "title": "女洗手间",
        "address": "海南省三亚市天涯区凤凰路凤凰国际机场F1",
        "tel": "",
        "category": "基础设施:公共设施:女洗手间",
        "type": 0,
        "location": {
            "lat": 18.307669,
            "lng": 109.414204
        },
        "ad_info": {
            "adcode": 460204,
            "province": "海南省",
            "city": "三亚市",
            "district": "天涯区"
        }
    },
    {
        "id": "3179727537137499839",
        "title": "男洗手间(cdf三亚国际免税城B区)",
        "address": "海南省三亚市海棠区海棠北路118号cdf三亚国际免税城B区2F层",
        "tel": "",
        "category": "基础设施:公共设施:公共厕所",
        "type": 0,
        "location": {
            "lat": 18.372611,
            "lng": 109.751167
        },
        "ad_info": {
            "adcode": 460202,
            "province": "海南省",
            "city": "三亚市",
            "district": "海棠区"
        }
    },
    {
        "id": "17349548820645742374",
        "title": "移动厕所围挡租售",
        "address": "海南省三亚市吉阳区海螺一路与海螺一路十巷交叉口东南方向201米左右",
        "tel": "18889846353",
        "category": "基础设施:公共设施:公共厕所",
        "type": 0,
        "location": {
            "lat": 18.279265,
            "lng": 109.531344
        },
        "ad_info": {
            "adcode": 460203,
            "province": "海南省",
            "city": "三亚市",
            "district": "吉阳区"
        }
    },
    {
        "id": "7157699663076091182",
        "title": "男洗手间",
        "address": "海南省三亚市天涯区凤凰路凤凰国际机场F2",
        "tel": "",
        "category": "基础设施:公共设施:男洗手间",
        "type": 0,
        "location": {
            "lat": 18.307969,
            "lng": 109.413549
        },
        "ad_info": {
            "adcode": 460204,
            "province": "海南省",
            "city": "三亚市",
            "district": "天涯区"
        }
    },
    {
        "id": "15005396751756235512",
        "title": "无障碍-洗手间",
        "address": "海南省三亚市天涯区凤凰路凤凰国际机场F2",
        "tel": "",
        "category": "基础设施:公共设施:无障碍洗手间",
        "type": 0,
        "location": {
            "lat": 18.307943,
            "lng": 109.413463
        },
        "ad_info": {
            "adcode": 460204,
            "province": "海南省",
            "city": "三亚市",
            "district": "天涯区"
        }
    },
    {
        "id": "5038384628296380711",
        "title": "无障碍-洗手间",
        "address": "海南省三亚市天涯区凤凰路凤凰国际机场F2",
        "tel": "",
        "category": "基础设施:公共设施:无障碍洗手间",
        "type": 0,
        "location": {
            "lat": 18.308134,
            "lng": 109.414682
        },
        "ad_info": {
            "adcode": 460204,
            "province": "海南省",
            "city": "三亚市",
            "district": "天涯区"
        }
    },
    {
        "id": "9756516059963648933",
        "title": "男洗手间",
        "address": "海南省三亚市吉阳区榆亚路136号1号港湾城(大菠萝店)F3",
        "tel": "",
        "category": "基础设施:公共设施:男洗手间",
        "type": 0,
        "location": {
            "lat": 18.222414,
            "lng": 109.528449
        },
        "ad_info": {
            "adcode": 460203,
            "province": "海南省",
            "city": "三亚市",
            "district": "吉阳区"
        }
    },
    {
        "id": "17714349556536246660",
        "title": "男洗手间",
        "address": "海南省三亚市天涯区凤凰路凤凰国际机场F1",
        "tel": "",
        "category": "基础设施:公共设施:男洗手间",
        "type": 0,
        "location": {
            "lat": 18.307626,
            "lng": 109.411564
        },
        "ad_info": {
            "adcode": 460204,
            "province": "海南省",
            "city": "三亚市",
            "district": "天涯区"
        }
    },
    {
        "id": "6998987318212505783",
        "title": "卫生间",
        "address": "海南省三亚市天涯区长顺一巷与长顺二巷交叉口东南方向78米左右",
        "tel": "",
        "category": "基础设施:公共设施:公共厕所",
        "type": 0,
        "location": {
            "lat": 18.259949,
            "lng": 109.505206
        },
        "ad_info": {
            "adcode": 460204,
            "province": "海南省",
            "city": "三亚市",
            "district": "天涯区"
        }
    },
    {
        "id": "9252391797937456759",
        "title": "崖州火车站公厕",
        "address": "海南省三亚市崖州区古城北路与火车站路交叉口正北方向201米左右",
        "tel": "",
        "category": "基础设施:公共设施:公共厕所",
        "type": 0,
        "location": {
            "lat": 18.376518,
            "lng": 109.15757
        },
        "ad_info": {
            "adcode": 460205,
            "province": "海南省",
            "city": "三亚市",
            "district": "崖州区"
        }
    },
    {
        "id": "15710548902599702329",
        "title": "公共厕所",
        "address": "海南省三亚市天涯区解放路与迎宾路交叉口正东方向42米左右",
        "tel": "",
        "category": "基础设施:公共设施:公共厕所",
        "type": 0,
        "location": {
            "lat": 18.263655,
            "lng": 109.499731
        },
        "ad_info": {
            "adcode": 460204,
            "province": "海南省",
            "city": "三亚市",
            "district": "天涯区"
        }
    },
    {
        "id": "14704356472935742750",
        "title": "男洗手间",
        "address": "海南省三亚市天涯区凤凰路凤凰国际机场F2",
        "tel": "",
        "category": "基础设施:公共设施:男洗手间",
        "type": 0,
        "location": {
            "lat": 18.307735,
            "lng": 109.414431
        },
        "ad_info": {
            "adcode": 460204,
            "province": "海南省",
            "city": "三亚市",
            "district": "天涯区"
        }
    },
    {
        "id": "13100264661186156866",
        "title": "保港中学公共厕所",
        "address": "海南省三亚市崖州区疏港大道19号",
        "tel": "",
        "category": "基础设施:公共设施:公共厕所",
        "type": 0,
        "location": {
            "lat": 18.359058,
            "lng": 109.12949
        },
        "ad_info": {
            "adcode": 460205,
            "province": "海南省",
            "city": "三亚市",
            "district": "崖州区"
        }
    },
    {
        "id": "17138490281198315251",
        "title": "公共厕所",
        "address": "海南省三亚市海棠区海岸大道与海棠北路交叉口西南方向455米左右",
        "tel": "",
        "category": "基础设施:公共设施:公共厕所",
        "type": 0,
        "location": {
            "lat": 18.313659,
            "lng": 109.727157
        },
        "ad_info": {
            "adcode": 460202,
            "province": "海南省",
            "city": "三亚市",
            "district": "海棠区"
        }
    },
    {
        "id": "17563081334169890309",
        "title": "女洗手间(cdf三亚国际免税城A区)",
        "address": "海南省三亚市海棠区海棠北路118号cdf三亚国际免税城A区1F层",
        "tel": "",
        "category": "基础设施:公共设施:公共厕所",
        "type": 0,
        "location": {
            "lat": 18.371024,
            "lng": 109.750741
        },
        "ad_info": {
            "adcode": 460202,
            "province": "海南省",
            "city": "三亚市",
            "district": "海棠区"
        }
    },
    {
        "id": "3159122266106197144",
        "title": "男洗手间",
        "address": "海南省三亚市天涯区凤凰路凤凰国际机场F2",
        "tel": "",
        "category": "基础设施:公共设施:男洗手间",
        "type": 0,
        "location": {
            "lat": 18.30693,
            "lng": 109.410745
        },
        "ad_info": {
            "adcode": 460204,
            "province": "海南省",
            "city": "三亚市",
            "district": "天涯区"
        }
    },
    {
        "id": "2725664887123872724",
        "title": "镇海村海边公共厕所",
        "address": "海南省三亚市崖州区海文路与镇海中路交叉口正南方向177米左右",
        "tel": "",
        "category": "基础设施:公共设施:公共厕所",
        "type": 0,
        "location": {
            "lat": 18.368448,
            "lng": 109.076054
        },
        "ad_info": {
            "adcode": 460205,
            "province": "海南省",
            "city": "三亚市",
            "district": "崖州区"
        }
    },
    {
        "id": "17925189915836685588",
        "title": "公共厕所",
        "address": "海南省三亚市天涯区109乡道",
        "tel": "",
        "category": "基础设施:公共设施:公共厕所",
        "type": 0,
        "location": {
            "lat": 18.395987,
            "lng": 109.49645
        },
        "ad_info": {
            "adcode": 460204,
            "province": "海南省",
            "city": "三亚市",
            "district": "天涯区"
        }
    },
    {
        "id": "65417272634699682",
        "title": "女洗手间",
        "address": "海南省三亚市吉阳区榆亚路136号1号港湾城(大菠萝店)F1",
        "tel": "",
        "category": "基础设施:公共设施:女洗手间",
        "type": 0,
        "location": {
            "lat": 18.22215,
            "lng": 109.529425
        },
        "ad_info": {
            "adcode": 460203,
            "province": "海南省",
            "city": "三亚市",
            "district": "吉阳区"
        }
    },
    {
        "id": "6608988338109285048",
        "title": "女洗手间",
        "address": "海南省三亚市吉阳区榆亚路136号1号港湾城(大菠萝店)F4",
        "tel": "",
        "category": "基础设施:公共设施:女洗手间",
        "type": 0,
        "location": {
            "lat": 18.222341,
            "lng": 109.528411
        },
        "ad_info": {
            "adcode": 460203,
            "province": "海南省",
            "city": "三亚市",
            "district": "吉阳区"
        }
    },
    {
        "id": "10952645994071895342",
        "title": "女洗手间",
        "address": "海南省三亚市天涯区凤凰路凤凰国际机场F1",
        "tel": "",
        "category": "基础设施:公共设施:女洗手间",
        "type": 0,
        "location": {
            "lat": 18.307669,
            "lng": 109.414204
        },
        "ad_info": {
            "adcode": 460204,
            "province": "海南省",
            "city": "三亚市",
            "district": "天涯区"
        }
    },
    {
        "id": "3179727537137499839",
        "title": "男洗手间(cdf三亚国际免税城B区)",
        "address": "海南省三亚市海棠区海棠北路118号cdf三亚国际免税城B区2F层",
        "tel": "",
        "category": "基础设施:公共设施:公共厕所",
        "type": 0,
        "location": {
            "lat": 18.372611,
            "lng": 109.751167
        },
        "ad_info": {
            "adcode": 460202,
            "province": "海南省",
            "city": "三亚市",
            "district": "海棠区"
        }
    },
    {
        "id": "17349548820645742374",
        "title": "移动厕所围挡租售",
        "address": "海南省三亚市吉阳区海螺一路与海螺一路十巷交叉口东南方向201米左右",
        "tel": "18889846353",
        "category": "基础设施:公共设施:公共厕所",
        "type": 0,
        "location": {
            "lat": 18.279265,
            "lng": 109.531344
        },
        "ad_info": {
            "adcode": 460203,
            "province": "海南省",
            "city": "三亚市",
            "district": "吉阳区"
        }
    },
    {
        "id": "7157699663076091182",
        "title": "男洗手间",
        "address": "海南省三亚市天涯区凤凰路凤凰国际机场F2",
        "tel": "",
        "category": "基础设施:公共设施:男洗手间",
        "type": 0,
        "location": {
            "lat": 18.307969,
            "lng": 109.413549
        },
        "ad_info": {
            "adcode": 460204,
            "province": "海南省",
            "city": "三亚市",
            "district": "天涯区"
        }
    },
    {
        "id": "15005396751756235512",
        "title": "无障碍-洗手间",
        "address": "海南省三亚市天涯区凤凰路凤凰国际机场F2",
        "tel": "",
        "category": "基础设施:公共设施:无障碍洗手间",
        "type": 0,
        "location": {
            "lat": 18.307943,
            "lng": 109.413463
        },
        "ad_info": {
            "adcode": 460204,
            "province": "海南省",
            "city": "三亚市",
            "district": "天涯区"
        }
    },
    {
        "id": "5038384628296380711",
        "title": "无障碍-洗手间",
        "address": "海南省三亚市天涯区凤凰路凤凰国际机场F2",
        "tel": "",
        "category": "基础设施:公共设施:无障碍洗手间",
        "type": 0,
        "location": {
            "lat": 18.308134,
            "lng": 109.414682
        },
        "ad_info": {
            "adcode": 460204,
            "province": "海南省",
            "city": "三亚市",
            "district": "天涯区"
        }
    },
    {
        "id": "9756516059963648933",
        "title": "男洗手间",
        "address": "海南省三亚市吉阳区榆亚路136号1号港湾城(大菠萝店)F3",
        "tel": "",
        "category": "基础设施:公共设施:男洗手间",
        "type": 0,
        "location": {
            "lat": 18.222414,
            "lng": 109.528449
        },
        "ad_info": {
            "adcode": 460203,
            "province": "海南省",
            "city": "三亚市",
            "district": "吉阳区"
        }
    },
    {
        "id": "17714349556536246660",
        "title": "男洗手间",
        "address": "海南省三亚市天涯区凤凰路凤凰国际机场F1",
        "tel": "",
        "category": "基础设施:公共设施:男洗手间",
        "type": 0,
        "location": {
            "lat": 18.307626,
            "lng": 109.411564
        },
        "ad_info": {
            "adcode": 460204,
            "province": "海南省",
            "city": "三亚市",
            "district": "天涯区"
        }
    },
    {
        "id": "6998987318212505783",
        "title": "卫生间",
        "address": "海南省三亚市天涯区长顺一巷与长顺二巷交叉口东南方向78米左右",
        "tel": "",
        "category": "基础设施:公共设施:公共厕所",
        "type": 0,
        "location": {
            "lat": 18.259949,
            "lng": 109.505206
        },
        "ad_info": {
            "adcode": 460204,
            "province": "海南省",
            "city": "三亚市",
            "district": "天涯区"
        }
    },
    {
        "id": "9252391797937456759",
        "title": "崖州火车站公厕",
        "address": "海南省三亚市崖州区古城北路与火车站路交叉口正北方向201米左右",
        "tel": "",
        "category": "基础设施:公共设施:公共厕所",
        "type": 0,
        "location": {
            "lat": 18.376518,
            "lng": 109.15757
        },
        "ad_info": {
            "adcode": 460205,
            "province": "海南省",
            "city": "三亚市",
            "district": "崖州区"
        }
    },
    {
        "id": "15710548902599702329",
        "title": "公共厕所",
        "address": "海南省三亚市天涯区解放路与迎宾路交叉口正东方向42米左右",
        "tel": "",
        "category": "基础设施:公共设施:公共厕所",
        "type": 0,
        "location": {
            "lat": 18.263655,
            "lng": 109.499731
        },
        "ad_info": {
            "adcode": 460204,
            "province": "海南省",
            "city": "三亚市",
            "district": "天涯区"
        }
    },
    {
        "id": "14704356472935742750",
        "title": "男洗手间",
        "address": "海南省三亚市天涯区凤凰路凤凰国际机场F2",
        "tel": "",
        "category": "基础设施:公共设施:男洗手间",
        "type": 0,
        "location": {
            "lat": 18.307735,
            "lng": 109.414431
        },
        "ad_info": {
            "adcode": 460204,
            "province": "海南省",
            "city": "三亚市",
            "district": "天涯区"
        }
    },
    {
        "id": "13100264661186156866",
        "title": "保港中学公共厕所",
        "address": "海南省三亚市崖州区疏港大道19号",
        "tel": "",
        "category": "基础设施:公共设施:公共厕所",
        "type": 0,
        "location": {
            "lat": 18.359058,
            "lng": 109.12949
        },
        "ad_info": {
            "adcode": 460205,
            "province": "海南省",
            "city": "三亚市",
            "district": "崖州区"
        }
    },
    {
        "id": "17138490281198315251",
        "title": "公共厕所",
        "address": "海南省三亚市海棠区海岸大道与海棠北路交叉口西南方向455米左右",
        "tel": "",
        "category": "基础设施:公共设施:公共厕所",
        "type": 0,
        "location": {
            "lat": 18.313659,
            "lng": 109.727157
        },
        "ad_info": {
            "adcode": 460202,
            "province": "海南省",
            "city": "三亚市",
            "district": "海棠区"
        }
    },
    {
        "id": "17563081334169890309",
        "title": "女洗手间(cdf三亚国际免税城A区)",
        "address": "海南省三亚市海棠区海棠北路118号cdf三亚国际免税城A区1F层",
        "tel": "",
        "category": "基础设施:公共设施:公共厕所",
        "type": 0,
        "location": {
            "lat": 18.371024,
            "lng": 109.750741
        },
        "ad_info": {
            "adcode": 460202,
            "province": "海南省",
            "city": "三亚市",
            "district": "海棠区"
        }
    },
    {
        "id": "3159122266106197144",
        "title": "男洗手间",
        "address": "海南省三亚市天涯区凤凰路凤凰国际机场F2",
        "tel": "",
        "category": "基础设施:公共设施:男洗手间",
        "type": 0,
        "location": {
            "lat": 18.30693,
            "lng": 109.410745
        },
        "ad_info": {
            "adcode": 460204,
            "province": "海南省",
            "city": "三亚市",
            "district": "天涯区"
        }
    },
    {
        "id": "2725664887123872724",
        "title": "镇海村海边公共厕所",
        "address": "海南省三亚市崖州区海文路与镇海中路交叉口正南方向177米左右",
        "tel": "",
        "category": "基础设施:公共设施:公共厕所",
        "type": 0,
        "location": {
            "lat": 18.368448,
            "lng": 109.076054
        },
        "ad_info": {
            "adcode": 460205,
            "province": "海南省",
            "city": "三亚市",
            "district": "崖州区"
        }
    },
    {
        "id": "17925189915836685588",
        "title": "公共厕所",
        "address": "海南省三亚市天涯区109乡道",
        "tel": "",
        "category": "基础设施:公共设施:公共厕所",
        "type": 0,
        "location": {
            "lat": 18.395987,
            "lng": 109.49645
        },
        "ad_info": {
            "adcode": 460204,
            "province": "海南省",
            "city": "三亚市",
            "district": "天涯区"
        }
    },
    {
        "id": "65417272634699682",
        "title": "女洗手间",
        "address": "海南省三亚市吉阳区榆亚路136号1号港湾城(大菠萝店)F1",
        "tel": "",
        "category": "基础设施:公共设施:女洗手间",
        "type": 0,
        "location": {
            "lat": 18.22215,
            "lng": 109.529425
        },
        "ad_info": {
            "adcode": 460203,
            "province": "海南省",
            "city": "三亚市",
            "district": "吉阳区"
        }
    },
    {
        "id": "6608988338109285048",
        "title": "女洗手间",
        "address": "海南省三亚市吉阳区榆亚路136号1号港湾城(大菠萝店)F4",
        "tel": "",
        "category": "基础设施:公共设施:女洗手间",
        "type": 0,
        "location": {
            "lat": 18.222341,
            "lng": 109.528411
        },
        "ad_info": {
            "adcode": 460203,
            "province": "海南省",
            "city": "三亚市",
            "district": "吉阳区"
        }
    },
    {
        "id": "10952645994071895342",
        "title": "女洗手间",
        "address": "海南省三亚市天涯区凤凰路凤凰国际机场F1",
        "tel": "",
        "category": "基础设施:公共设施:女洗手间",
        "type": 0,
        "location": {
            "lat": 18.307669,
            "lng": 109.414204
        },
        "ad_info": {
            "adcode": 460204,
            "province": "海南省",
            "city": "三亚市",
            "district": "天涯区"
        }
    },
    {
        "id": "3179727537137499839",
        "title": "男洗手间(cdf三亚国际免税城B区)",
        "address": "海南省三亚市海棠区海棠北路118号cdf三亚国际免税城B区2F层",
        "tel": "",
        "category": "基础设施:公共设施:公共厕所",
        "type": 0,
        "location": {
            "lat": 18.372611,
            "lng": 109.751167
        },
        "ad_info": {
            "adcode": 460202,
            "province": "海南省",
            "city": "三亚市",
            "district": "海棠区"
        }
    },
    {
        "id": "17349548820645742374",
        "title": "移动厕所围挡租售",
        "address": "海南省三亚市吉阳区海螺一路与海螺一路十巷交叉口东南方向201米左右",
        "tel": "18889846353",
        "category": "基础设施:公共设施:公共厕所",
        "type": 0,
        "location": {
            "lat": 18.279265,
            "lng": 109.531344
        },
        "ad_info": {
            "adcode": 460203,
            "province": "海南省",
            "city": "三亚市",
            "district": "吉阳区"
        }
    },
    {
        "id": "7157699663076091182",
        "title": "男洗手间",
        "address": "海南省三亚市天涯区凤凰路凤凰国际机场F2",
        "tel": "",
        "category": "基础设施:公共设施:男洗手间",
        "type": 0,
        "location": {
            "lat": 18.307969,
            "lng": 109.413549
        },
        "ad_info": {
            "adcode": 460204,
            "province": "海南省",
            "city": "三亚市",
            "district": "天涯区"
        }
    },
    {
        "id": "15005396751756235512",
        "title": "无障碍-洗手间",
        "address": "海南省三亚市天涯区凤凰路凤凰国际机场F2",
        "tel": "",
        "category": "基础设施:公共设施:无障碍洗手间",
        "type": 0,
        "location": {
            "lat": 18.307943,
            "lng": 109.413463
        },
        "ad_info": {
            "adcode": 460204,
            "province": "海南省",
            "city": "三亚市",
            "district": "天涯区"
        }
    },
    {
        "id": "5038384628296380711",
        "title": "无障碍-洗手间",
        "address": "海南省三亚市天涯区凤凰路凤凰国际机场F2",
        "tel": "",
        "category": "基础设施:公共设施:无障碍洗手间",
        "type": 0,
        "location": {
            "lat": 18.308134,
            "lng": 109.414682
        },
        "ad_info": {
            "adcode": 460204,
            "province": "海南省",
            "city": "三亚市",
            "district": "天涯区"
        }
    },
    {
        "id": "9756516059963648933",
        "title": "男洗手间",
        "address": "海南省三亚市吉阳区榆亚路136号1号港湾城(大菠萝店)F3",
        "tel": "",
        "category": "基础设施:公共设施:男洗手间",
        "type": 0,
        "location": {
            "lat": 18.222414,
            "lng": 109.528449
        },
        "ad_info": {
            "adcode": 460203,
            "province": "海南省",
            "city": "三亚市",
            "district": "吉阳区"
        }
    },
    {
        "id": "17714349556536246660",
        "title": "男洗手间",
        "address": "海南省三亚市天涯区凤凰路凤凰国际机场F1",
        "tel": "",
        "category": "基础设施:公共设施:男洗手间",
        "type": 0,
        "location": {
            "lat": 18.307626,
            "lng": 109.411564
        },
        "ad_info": {
            "adcode": 460204,
            "province": "海南省",
            "city": "三亚市",
            "district": "天涯区"
        }
    },
    {
        "id": "6998987318212505783",
        "title": "卫生间",
        "address": "海南省三亚市天涯区长顺一巷与长顺二巷交叉口东南方向78米左右",
        "tel": "",
        "category": "基础设施:公共设施:公共厕所",
        "type": 0,
        "location": {
            "lat": 18.259949,
            "lng": 109.505206
        },
        "ad_info": {
            "adcode": 460204,
            "province": "海南省",
            "city": "三亚市",
            "district": "天涯区"
        }
    },
    {
        "id": "9252391797937456759",
        "title": "崖州火车站公厕",
        "address": "海南省三亚市崖州区古城北路与火车站路交叉口正北方向201米左右",
        "tel": "",
        "category": "基础设施:公共设施:公共厕所",
        "type": 0,
        "location": {
            "lat": 18.376518,
            "lng": 109.15757
        },
        "ad_info": {
            "adcode": 460205,
            "province": "海南省",
            "city": "三亚市",
            "district": "崖州区"
        }
    },
    {
        "id": "15710548902599702329",
        "title": "公共厕所",
        "address": "海南省三亚市天涯区解放路与迎宾路交叉口正东方向42米左右",
        "tel": "",
        "category": "基础设施:公共设施:公共厕所",
        "type": 0,
        "location": {
            "lat": 18.263655,
            "lng": 109.499731
        },
        "ad_info": {
            "adcode": 460204,
            "province": "海南省",
            "city": "三亚市",
            "district": "天涯区"
        }
    },
    {
        "id": "14704356472935742750",
        "title": "男洗手间",
        "address": "海南省三亚市天涯区凤凰路凤凰国际机场F2",
        "tel": "",
        "category": "基础设施:公共设施:男洗手间",
        "type": 0,
        "location": {
            "lat": 18.307735,
            "lng": 109.414431
        },
        "ad_info": {
            "adcode": 460204,
            "province": "海南省",
            "city": "三亚市",
            "district": "天涯区"
        }
    },
    {
        "id": "13100264661186156866",
        "title": "保港中学公共厕所",
        "address": "海南省三亚市崖州区疏港大道19号",
        "tel": "",
        "category": "基础设施:公共设施:公共厕所",
        "type": 0,
        "location": {
            "lat": 18.359058,
            "lng": 109.12949
        },
        "ad_info": {
            "adcode": 460205,
            "province": "海南省",
            "city": "三亚市",
            "district": "崖州区"
        }
    },
    {
        "id": "17138490281198315251",
        "title": "公共厕所",
        "address": "海南省三亚市海棠区海岸大道与海棠北路交叉口西南方向455米左右",
        "tel": "",
        "category": "基础设施:公共设施:公共厕所",
        "type": 0,
        "location": {
            "lat": 18.313659,
            "lng": 109.727157
        },
        "ad_info": {
            "adcode": 460202,
            "province": "海南省",
            "city": "三亚市",
            "district": "海棠区"
        }
    },
    {
        "id": "17563081334169890309",
        "title": "女洗手间(cdf三亚国际免税城A区)",
        "address": "海南省三亚市海棠区海棠北路118号cdf三亚国际免税城A区1F层",
        "tel": "",
        "category": "基础设施:公共设施:公共厕所",
        "type": 0,
        "location": {
            "lat": 18.371024,
            "lng": 109.750741
        },
        "ad_info": {
            "adcode": 460202,
            "province": "海南省",
            "city": "三亚市",
            "district": "海棠区"
        }
    }
]