[
    {
        "id": "2545650217817458660",
        "title": "公共厕所",
        "address": "海南省东方市教育一横路与教育街交叉口东南方向319米左右",
        "tel": "",
        "category": "基础设施:公共设施:公共厕所",
        "type": 0,
        "location": {
            "lat": 19.094764,
            "lng": 108.681599
        },
        "ad_info": {
            "adcode": 469007,
            "province": "海南省",
            "city": "",
            "district": "东方市"
        }
    },
    {
        "id": "14732896768724562235",
        "title": "公共厕所",
        "address": "海南省东方市二环南路与解放东路交叉口西南方向32米左右",
        "tel": "",
        "category": "基础设施:公共设施:公共厕所",
        "type": 0,
        "location": {
            "lat": 19.095861,
            "lng": 108.666627
        },
        "ad_info": {
            "adcode": 469007,
            "province": "海南省",
            "city": "",
            "district": "东方市"
        }
    },
    {
        "id": "5878118004525994089",
        "title": "公共厕所",
        "address": "海南省东方市福民南路与福民南路东一巷交叉口东北方向94米左右",
        "tel": "",
        "category": "基础设施:公共设施:公共厕所",
        "type": 0,
        "location": {
            "lat": 19.107061,
            "lng": 108.665549
        },
        "ad_info": {
            "adcode": 469007,
            "province": "海南省",
            "city": "",
            "district": "东方市"
        }
    },
    {
        "id": "2970464931793241940",
        "title": "公共厕所",
        "address": "海南省东方市东方大道与感恩北路交叉口正西方向89米左右",
        "tel": "",
        "category": "基础设施:公共设施:公共厕所",
        "type": 0,
        "location": {
            "lat": 19.103062,
            "lng": 108.683927
        },
        "ad_info": {
            "adcode": 469007,
            "province": "海南省",
            "city": "",
            "district": "东方市"
        }
    },
    {
        "id": "5238320697594785870",
        "title": "公共厕所",
        "address": "海南省东方市东花梨街与海南环岛旅游公路交叉口东南方向58米左右",
        "tel": "",
        "category": "基础设施:公共设施:公共厕所",
        "type": 0,
        "location": {
            "lat": 19.09822,
            "lng": 108.653431
        },
        "ad_info": {
            "adcode": 469007,
            "province": "海南省",
            "city": "",
            "district": "东方市"
        }
    },
    {
        "id": "5308457908990163254",
        "title": "公共厕所",
        "address": "海南省东方市人民南路与人民南路西四巷交叉口西南方向68米左右",
        "tel": "",
        "category": "基础设施:公共设施:公共厕所",
        "type": 0,
        "location": {
            "lat": 19.096487,
            "lng": 108.644714
        },
        "ad_info": {
            "adcode": 469007,
            "province": "海南省",
            "city": "",
            "district": "东方市"
        }
    },
    {
        "id": "1620383690403828356",
        "title": "公共厕所",
        "address": "海南省东方市环岛旅游公路与海天路交叉口正北方向207米左右",
        "tel": "",
        "category": "基础设施:公共设施:公共厕所",
        "type": 0,
        "location": {
            "lat": 19.130436,
            "lng": 108.671548
        },
        "ad_info": {
            "adcode": 469007,
            "province": "海南省",
            "city": "",
            "district": "东方市"
        }
    },
    {
        "id": "5822168311021631398",
        "title": "公共厕所",
        "address": "海南省东方市感恩南路与永安东路交叉口正东方向649米左右",
        "tel": "",
        "category": "基础设施:公共设施:公共厕所",
        "type": 0,
        "location": {
            "lat": 19.090003,
            "lng": 108.689722
        },
        "ad_info": {
            "adcode": 469007,
            "province": "海南省",
            "city": "",
            "district": "东方市"
        }
    },
    {
        "id": "6489442160627332299",
        "title": "公共厕所",
        "address": "海南省东方市公爱农场中心学校龙潭东路17号",
        "tel": "",
        "category": "基础设施:公共设施:公共厕所",
        "type": 0,
        "location": {
            "lat": 18.855596,
            "lng": 108.775919
        },
        "ad_info": {
            "adcode": 469007,
            "province": "海南省",
            "city": "",
            "district": "东方市"
        }
    },
    {
        "id": "16668763593331167079",
        "title": "公共厕所",
        "address": "海南省东方市环岛旅游公路与解放西路南一巷交叉口正北方向49米左右",
        "tel": "",
        "category": "基础设施:公共设施:公共厕所",
        "type": 0,
        "location": {
            "lat": 19.09925,
            "lng": 108.647384
        },
        "ad_info": {
            "adcode": 469007,
            "province": "海南省",
            "city": "",
            "district": "东方市"
        }
    },
    {
        "id": "17394500789944520713",
        "title": "公共厕所",
        "address": "海南省东方市农科路与海南环岛旅游公路交叉口正南方向144米左右",
        "tel": "",
        "category": "基础设施:公共设施:公共厕所",
        "type": 0,
        "location": {
            "lat": 19.099404,
            "lng": 108.654628
        },
        "ad_info": {
            "adcode": 469007,
            "province": "海南省",
            "city": "",
            "district": "东方市"
        }
    },
    {
        "id": "16766279307118310210",
        "title": "公共厕所",
        "address": "海南省东方市东侨路与华海路交叉口东南方向163米左右",
        "tel": "",
        "category": "基础设施:公共设施:公共厕所",
        "type": 0,
        "location": {
            "lat": 18.98299,
            "lng": 108.687155
        },
        "ad_info": {
            "adcode": 469007,
            "province": "海南省",
            "city": "",
            "district": "东方市"
        }
    },
    {
        "id": "1572965733332569180",
        "title": "公共厕所",
        "address": "海南省东方市二环南路与园林中路交叉口西北方向19米左右",
        "tel": "",
        "category": "基础设施:公共设施:公共厕所",
        "type": 0,
        "location": {
            "lat": 19.101052,
            "lng": 108.669165
        },
        "ad_info": {
            "adcode": 469007,
            "province": "海南省",
            "city": "",
            "district": "东方市"
        }
    },
    {
        "id": "11342100320930845436",
        "title": "公共厕所",
        "address": "海南省东方市二环北路与海南环岛旅游公路交叉口东北方向59米左右",
        "tel": "",
        "category": "基础设施:公共设施:公共厕所",
        "type": 0,
        "location": {
            "lat": 19.119896,
            "lng": 108.665917
        },
        "ad_info": {
            "adcode": 469007,
            "province": "海南省",
            "city": "",
            "district": "东方市"
        }
    },
    {
        "id": "17720036817823381130",
        "title": "公共厕所",
        "address": "海南省东方市东风路与建设南路交叉口正北方向75米左右",
        "tel": "",
        "category": "基础设施:公共设施:公共厕所",
        "type": 0,
        "location": {
            "lat": 19.096016,
            "lng": 108.641352
        },
        "ad_info": {
            "adcode": 469007,
            "province": "海南省",
            "city": "",
            "district": "东方市"
        }
    },
    {
        "id": "209508064512844935",
        "title": "公共厕所",
        "address": "海南省东方市环岛旅游公路与疏港二北路交叉口正南方向51米左右",
        "tel": "",
        "category": "基础设施:公共设施:公共厕所",
        "type": 0,
        "location": {
            "lat": 19.096513,
            "lng": 108.628748
        },
        "ad_info": {
            "adcode": 469007,
            "province": "海南省",
            "city": "",
            "district": "东方市"
        }
    },
    {
        "id": "10747226072382964129",
        "title": "公共厕所",
        "address": "海南省东方市农科路东方市妇幼保健院旁",
        "tel": "",
        "category": "基础设施:公共设施:公共厕所",
        "type": 0,
        "location": {
            "lat": 19.100122,
            "lng": 108.65548
        },
        "ad_info": {
            "adcode": 469007,
            "province": "海南省",
            "city": "",
            "district": "东方市"
        }
    },
    {
        "id": "14608493755500787263",
        "title": "公共厕所",
        "address": "海南省东方市金月湾高铁站站前广场",
        "tel": "",
        "category": "基础设施:公共设施:公共厕所",
        "type": 0,
        "location": {
            "lat": 18.778875,
            "lng": 108.714916
        },
        "ad_info": {
            "adcode": 469007,
            "province": "海南省",
            "city": "",
            "district": "东方市"
        }
    },
    {
        "id": "6226557328678363573",
        "title": "公共厕所",
        "address": "海南省东方市东港路与滨海北路交叉口西南方向70米左右",
        "tel": "",
        "category": "基础设施:公共设施:公共厕所",
        "type": 0,
        "location": {
            "lat": 19.113691,
            "lng": 108.649435
        },
        "ad_info": {
            "adcode": 469007,
            "province": "海南省",
            "city": "",
            "district": "东方市"
        }
    },
    {
        "id": "12290502838452977842",
        "title": "公共厕所",
        "address": "海南省东方市环岛旅游公路与琼西路西三十一巷交叉口东南方向41米左右",
        "tel": "",
        "category": "基础设施:公共设施:公共厕所",
        "type": 0,
        "location": {
            "lat": 19.114912,
            "lng": 108.66307
        },
        "ad_info": {
            "adcode": 469007,
            "province": "海南省",
            "city": "",
            "district": "东方市"
        }
    },
    {
        "id": "1713736243990460481",
        "title": "公共厕所",
        "address": "海南省东方市东方大道与二环北路交叉口东100米",
        "tel": "",
        "category": "基础设施:公共设施:公共厕所",
        "type": 0,
        "location": {
            "lat": 19.106607,
            "lng": 108.672668
        },
        "ad_info": {
            "adcode": 469007,
            "province": "海南省",
            "city": "",
            "district": "东方市"
        }
    },
    {
        "id": "4345615336825463227",
        "title": "公共厕所",
        "address": "海南省东方市Y029与新兴路交叉口东南方向47米左右",
        "tel": "",
        "category": "基础设施:公共设施:公共厕所",
        "type": 0,
        "location": {
            "lat": 19.119888,
            "lng": 108.805518
        },
        "ad_info": {
            "adcode": 469007,
            "province": "海南省",
            "city": "",
            "district": "东方市"
        }
    },
    {
        "id": "12696350671090256678",
        "title": "公共厕所",
        "address": "海南省东方市二环北路与海南环岛旅游公路交叉口东南方向46米左右",
        "tel": "",
        "category": "基础设施:公共设施:公共厕所",
        "type": 0,
        "location": {
            "lat": 19.11935,
            "lng": 108.665666
        },
        "ad_info": {
            "adcode": 469007,
            "province": "海南省",
            "city": "",
            "district": "东方市"
        }
    },
    {
        "id": "13062437494048981408",
        "title": "公共厕所",
        "address": "海南省东方市福民A区西侧110米",
        "tel": "",
        "category": "基础设施:公共设施:公共厕所",
        "type": 0,
        "location": {
            "lat": 19.080792,
            "lng": 108.64656
        },
        "ad_info": {
            "adcode": 469007,
            "province": "海南省",
            "city": "",
            "district": "东方市"
        }
    },
    {
        "id": "9129715143033426491",
        "title": "公共厕所",
        "address": "海南省东方市浪沙街与海南环岛旅游公路交叉口西北方向20米左右",
        "tel": "",
        "category": "基础设施:公共设施:公共厕所",
        "type": 0,
        "location": {
            "lat": 19.111742,
            "lng": 108.660782
        },
        "ad_info": {
            "adcode": 469007,
            "province": "海南省",
            "city": "",
            "district": "东方市"
        }
    },
    {
        "id": "6854728265472155509",
        "title": "公共厕所",
        "address": "海南省东方市解放东路东方站F1",
        "tel": "",
        "category": "基础设施:公共设施:公共厕所",
        "type": 0,
        "location": {
            "lat": 19.086973,
            "lng": 108.690865
        },
        "ad_info": {
            "adcode": 469007,
            "province": "海南省",
            "city": "",
            "district": "东方市"
        }
    },
    {
        "id": "4045158149161905258",
        "title": "公共厕所",
        "address": "海南省东方市东方大道与北九龙路交叉口西南方向96米左右",
        "tel": "",
        "category": "基础设施:公共设施:公共厕所",
        "type": 0,
        "location": {
            "lat": 19.101662,
            "lng": 108.688512
        },
        "ad_info": {
            "adcode": 469007,
            "province": "海南省",
            "city": "",
            "district": "东方市"
        }
    },
    {
        "id": "12218836844139310198",
        "title": "公共厕所",
        "address": "海南省东方市S218与S292交叉口西南方向224米左右",
        "tel": "",
        "category": "基础设施:公共设施:公共厕所",
        "type": 0,
        "location": {
            "lat": 19.155406,
            "lng": 108.684374
        },
        "ad_info": {
            "adcode": 469007,
            "province": "海南省",
            "city": "",
            "district": "东方市"
        }
    },
    {
        "id": "9611179599538971074",
        "title": "公共厕所",
        "address": "海南省东方市建设北路与建设北路东四巷交叉口西北方向56米左右",
        "tel": "",
        "category": "基础设施:公共设施:公共厕所",
        "type": 0,
        "location": {
            "lat": 19.102157,
            "lng": 108.641237
        },
        "ad_info": {
            "adcode": 469007,
            "province": "海南省",
            "city": "",
            "district": "东方市"
        }
    },
    {
        "id": "2744593172624512586",
        "title": "公共厕所",
        "address": "海南省东方市园林西路与建设北路交叉口西北方向402米左右",
        "tel": "",
        "category": "基础设施:公共设施:公共厕所",
        "type": 0,
        "location": {
            "lat": 19.105672,
            "lng": 108.639833
        },
        "ad_info": {
            "adcode": 469007,
            "province": "海南省",
            "city": "",
            "district": "东方市"
        }
    },
    {
        "id": "15723965748853388242",
        "title": "公共厕所",
        "address": "海南省东方市公园街三巷与公园街交叉口正东方向22米左右",
        "tel": "",
        "category": "基础设施:公共设施:公共厕所",
        "type": 0,
        "location": {
            "lat": 19.10872,
            "lng": 108.661039
        },
        "ad_info": {
            "adcode": 469007,
            "province": "海南省",
            "city": "",
            "district": "东方市"
        }
    },
    {
        "id": "1058503454981717102",
        "title": "公共厕所",
        "address": "海南省东方市三家村西二巷与永宁街交叉口正北方向415米左右",
        "tel": "",
        "category": "基础设施:公共设施:公共厕所",
        "type": 0,
        "location": {
            "lat": 19.245339,
            "lng": 108.760164
        },
        "ad_info": {
            "adcode": 469007,
            "province": "海南省",
            "city": "",
            "district": "东方市"
        }
    },
    {
        "id": "8616144011649869493",
        "title": "公共厕所",
        "address": "海南省东方市友谊南路与疏港一北路交叉口正南方向417米左右",
        "tel": "",
        "category": "基础设施:公共设施:公共厕所",
        "type": 0,
        "location": {
            "lat": 19.089844,
            "lng": 108.634887
        },
        "ad_info": {
            "adcode": 469007,
            "province": "海南省",
            "city": "",
            "district": "东方市"
        }
    },
    {
        "id": "11488494121916425480",
        "title": "公共厕所",
        "address": "海南省东方市农机街与海南环岛旅游公路交叉口正东方向39米左右",
        "tel": "",
        "category": "基础设施:公共设施:公共厕所",
        "type": 0,
        "location": {
            "lat": 19.103289,
            "lng": 108.656497
        },
        "ad_info": {
            "adcode": 469007,
            "province": "海南省",
            "city": "",
            "district": "东方市"
        }
    },
    {
        "id": "12773820377048828248",
        "title": "公共厕所",
        "address": "海南省东方市八所镇八中门口对面",
        "tel": "",
        "category": "基础设施:公共设施:公共厕所",
        "type": 0,
        "location": {
            "lat": 19.089782,
            "lng": 108.631035
        },
        "ad_info": {
            "adcode": 469007,
            "province": "海南省",
            "city": "",
            "district": "东方市"
        }
    },
    {
        "id": "2279287925691277801",
        "title": "公共厕所",
        "address": "海南省东方市G225与锦绣路交叉口正南方向148米左右",
        "tel": "",
        "category": "基础设施:公共设施:公共厕所",
        "type": 0,
        "location": {
            "lat": 19.164593,
            "lng": 108.874747
        },
        "ad_info": {
            "adcode": 469007,
            "province": "海南省",
            "city": "",
            "district": "东方市"
        }
    },
    {
        "id": "1444859855456966920",
        "title": "公共厕所",
        "address": "海南省东方市X755与天安街交叉口东北方向866米左右",
        "tel": "",
        "category": "基础设施:公共设施:公共厕所",
        "type": 0,
        "location": {
            "lat": 19.018931,
            "lng": 108.911853
        },
        "ad_info": {
            "adcode": 469007,
            "province": "海南省",
            "city": "",
            "district": "东方市"
        }
    },
    {
        "id": "16529960586615712160",
        "title": "公共厕所",
        "address": "海南省东方市中心大道4号",
        "tel": "",
        "category": "基础设施:公共设施:公共厕所",
        "type": 0,
        "location": {
            "lat": 19.226545,
            "lng": 108.682349
        },
        "ad_info": {
            "adcode": 469007,
            "province": "海南省",
            "city": "",
            "district": "东方市"
        }
    },
    {
        "id": "5180624552952684174",
        "title": "公共厕所",
        "address": "海南省东方市G225与锦绣路交叉口西南方向321米左右",
        "tel": "",
        "category": "基础设施:公共设施:公共厕所",
        "type": 0,
        "location": {
            "lat": 19.16328,
            "lng": 108.873818
        },
        "ad_info": {
            "adcode": 469007,
            "province": "海南省",
            "city": "",
            "district": "东方市"
        }
    },
    {
        "id": "15483696618922104321",
        "title": "公共厕所",
        "address": "海南省东方市农科路与海南环岛旅游公路交叉口正西方向137米左右",
        "tel": "",
        "category": "基础设施:公共设施:公共厕所",
        "type": 0,
        "location": {
            "lat": 19.100422,
            "lng": 108.65336
        },
        "ad_info": {
            "adcode": 469007,
            "province": "海南省",
            "city": "",
            "district": "东方市"
        }
    },
    {
        "id": "8988804709428403119",
        "title": "公共厕所",
        "address": "海南省东方市G225与Y106交叉口西北方向74米左右",
        "tel": "",
        "category": "基础设施:公共设施:公共厕所",
        "type": 0,
        "location": {
            "lat": 19.205746,
            "lng": 108.917863
        },
        "ad_info": {
            "adcode": 469007,
            "province": "海南省",
            "city": "",
            "district": "东方市"
        }
    },
    {
        "id": "12556492041250451415",
        "title": "公共厕所",
        "address": "海南省东方市二环北路与海景路交叉口东北方向43米左右",
        "tel": "",
        "category": "基础设施:公共设施:公共厕所",
        "type": 0,
        "location": {
            "lat": 19.124729,
            "lng": 108.658363
        },
        "ad_info": {
            "adcode": 469007,
            "province": "海南省",
            "city": "",
            "district": "东方市"
        }
    },
    {
        "id": "9963336415202214153",
        "title": "公共厕所",
        "address": "海南省东方市Y109与安康路交叉口正北方向109米左右",
        "tel": "",
        "category": "基础设施:公共设施:公共厕所",
        "type": 0,
        "location": {
            "lat": 19.160092,
            "lng": 108.919907
        },
        "ad_info": {
            "adcode": 469007,
            "province": "海南省",
            "city": "",
            "district": "东方市"
        }
    },
    {
        "id": "487080969780777237",
        "title": "公共厕所",
        "address": "海南省东方市",
        "tel": "",
        "category": "基础设施:公共设施:公共厕所",
        "type": 0,
        "location": {
            "lat": 19.262811,
            "lng": 108.685067
        },
        "ad_info": {
            "adcode": 469007,
            "province": "海南省",
            "city": "",
            "district": "东方市"
        }
    },
    {
        "id": "3134246139248055079",
        "title": "公共厕所",
        "address": "海南省东方市G225与Y106交叉口西北方向829米左右",
        "tel": "",
        "category": "基础设施:公共设施:公共厕所",
        "type": 0,
        "location": {
            "lat": 19.211378,
            "lng": 108.91378
        },
        "ad_info": {
            "adcode": 469007,
            "province": "海南省",
            "city": "",
            "district": "东方市"
        }
    },
    {
        "id": "12889040855325251845",
        "title": "公共厕所",
        "address": "海南省东方市山海湾购物广场东侧260米",
        "tel": "",
        "category": "基础设施:公共设施:公共厕所",
        "type": 0,
        "location": {
            "lat": 19.089356,
            "lng": 108.691087
        },
        "ad_info": {
            "adcode": 469007,
            "province": "海南省",
            "city": "",
            "district": "东方市"
        }
    },
    {
        "id": "18378636471683694622",
        "title": "鱼鳞洲景区公共厕所",
        "address": "海南省东方市解放西路鱼鳞洲风景区停车场处",
        "tel": "",
        "category": "基础设施:公共设施:公共厕所",
        "type": 0,
        "location": {
            "lat": 19.096135,
            "lng": 108.619313
        },
        "ad_info": {
            "adcode": 469007,
            "province": "海南省",
            "city": "",
            "district": "东方市"
        }
    },
    {
        "id": "14588183710700694145",
        "title": "公共厕所",
        "address": "海南省东方市二环北路西二十一巷与岛西路交叉口西北方向18米左右",
        "tel": "",
        "category": "基础设施:公共设施:公共厕所",
        "type": 0,
        "location": {
            "lat": 19.11582,
            "lng": 108.669772
        },
        "ad_info": {
            "adcode": 469007,
            "province": "海南省",
            "city": "",
            "district": "东方市"
        }
    },
    {
        "id": "17796809408513934283",
        "title": "公共厕所",
        "address": "海南省东方市公园街与泰安街交叉口正西方向24米左右",
        "tel": "",
        "category": "基础设施:公共设施:公共厕所",
        "type": 0,
        "location": {
            "lat": 19.107626,
            "lng": 108.65837
        },
        "ad_info": {
            "adcode": 469007,
            "province": "海南省",
            "city": "",
            "district": "东方市"
        }
    },
    {
        "id": "3631726915491352767",
        "title": "公共厕所",
        "address": "海南省东方市东河刘建口腔诊所北侧240米",
        "tel": "",
        "category": "基础设施:公共设施:公共厕所",
        "type": 0,
        "location": {
            "lat": 19.049189,
            "lng": 108.941812
        },
        "ad_info": {
            "adcode": 469007,
            "province": "海南省",
            "city": "",
            "district": "东方市"
        }
    },
    {
        "id": "15636223964821764683",
        "title": "公共厕所",
        "address": "海南省东方市园林西路与海南环岛旅游公路交叉口西南方向68米左右",
        "tel": "",
        "category": "基础设施:公共设施:公共厕所",
        "type": 0,
        "location": {
            "lat": 19.10522,
            "lng": 108.656841
        },
        "ad_info": {
            "adcode": 469007,
            "province": "海南省",
            "city": "",
            "district": "东方市"
        }
    },
    {
        "id": "6300290440861443878",
        "title": "新村公共厕所",
        "address": "海南省东方市新龙镇新村村委会北200米",
        "tel": "",
        "category": "基础设施:公共设施:公共厕所",
        "type": 0,
        "location": {
            "lat": 18.95817,
            "lng": 108.664843
        },
        "ad_info": {
            "adcode": 469007,
            "province": "海南省",
            "city": "",
            "district": "东方市"
        }
    },
    {
        "id": "1690032594326109399",
        "title": "环保公共厕所",
        "address": "海南省东方市二环北路与东方大道交叉口北60米",
        "tel": "",
        "category": "基础设施:公共设施:公共厕所",
        "type": 0,
        "location": {
            "lat": 19.107039,
            "lng": 108.671653
        },
        "ad_info": {
            "adcode": 469007,
            "province": "海南省",
            "city": "",
            "district": "东方市"
        }
    },
    {
        "id": "13707368524101069258",
        "title": "扶室村公共厕所",
        "address": "海南省东方市商贸街与感恩街交叉口西北方向1684米左右",
        "tel": "",
        "category": "基础设施:公共设施:公共厕所",
        "type": 0,
        "location": {
            "lat": 18.859659,
            "lng": 108.63481
        },
        "ad_info": {
            "adcode": 469007,
            "province": "海南省",
            "city": "",
            "district": "东方市"
        }
    },
    {
        "id": "4281711867677016182",
        "title": "日新村公共厕所",
        "address": "海南省东方市四更镇日新村卫生室旁",
        "tel": "",
        "category": "基础设施:公共设施:公共厕所",
        "type": 0,
        "location": {
            "lat": 19.26271,
            "lng": 108.684517
        },
        "ad_info": {
            "adcode": 469007,
            "province": "海南省",
            "city": "",
            "district": "东方市"
        }
    },
    {
        "id": "11029621141063490830",
        "title": "砖混结构公共厕所",
        "address": "海南省东方市岭头揽胜停车区",
        "tel": "",
        "category": "基础设施:公共设施:公共厕所",
        "type": 0,
        "location": {
            "lat": 18.721445,
            "lng": 108.702177
        },
        "ad_info": {
            "adcode": 469007,
            "province": "海南省",
            "city": "",
            "district": "东方市"
        }
    },
    {
        "id": "3545848378131069277",
        "title": "富岛酒店公共厕所",
        "address": "海南省东方市八所镇富岛海湾大酒店",
        "tel": "",
        "category": "基础设施:公共设施:公共厕所",
        "type": 0,
        "location": {
            "lat": 19.118689,
            "lng": 108.654733
        },
        "ad_info": {
            "adcode": 469007,
            "province": "海南省",
            "city": "",
            "district": "东方市"
        }
    },
    {
        "id": "8525282951073477105",
        "title": "新街卫生院公共厕所",
        "address": "海南省东方市新街卫生院",
        "tel": "",
        "category": "基础设施:公共设施:公共厕所",
        "type": 0,
        "location": {
            "lat": 19.154001,
            "lng": 108.68403
        },
        "ad_info": {
            "adcode": 469007,
            "province": "海南省",
            "city": "",
            "district": "东方市"
        }
    },
    {
        "id": "11227892876844336447",
        "title": "环保公共厕所",
        "address": "海南省东方市环岛旅游公路与港卫路交叉口正西方向232米左右",
        "tel": "",
        "category": "基础设施:公共设施:公共厕所",
        "type": 0,
        "location": {
            "lat": 19.099179,
            "lng": 108.634666
        },
        "ad_info": {
            "adcode": 469007,
            "province": "海南省",
            "city": "",
            "district": "东方市"
        }
    },
    {
        "id": "13111107150007474411",
        "title": "感城福地停车区第一公共厕所",
        "address": "海南省东方市东方市停车区与海南环岛旅游公路交叉口南80米",
        "tel": "",
        "category": "基础设施:公共设施:公共厕所",
        "type": 0,
        "location": {
            "lat": 18.875757,
            "lng": 108.649759
        },
        "ad_info": {
            "adcode": 469007,
            "province": "海南省",
            "city": "",
            "district": "东方市"
        }
    },
    {
        "id": "1724714938484047653",
        "title": "铁路中学旁公共厕所",
        "address": "海南省东方市八所镇滨海南路铁路中学旁边",
        "tel": "",
        "category": "基础设施:公共设施:公共厕所",
        "type": 0,
        "location": {
            "lat": 19.105957,
            "lng": 108.63991
        },
        "ad_info": {
            "adcode": 469007,
            "province": "海南省",
            "city": "",
            "district": "东方市"
        }
    },
    {
        "id": "15563208195902559499",
        "title": "感城福地养护工区公共厕所",
        "address": "海南省东方市感城福地养护工区",
        "tel": "",
        "category": "基础设施:公共设施:公共厕所",
        "type": 0,
        "location": {
            "lat": 18.876214,
            "lng": 108.650237
        },
        "ad_info": {
            "adcode": 469007,
            "province": "海南省",
            "city": "",
            "district": "东方市"
        }
    },
    {
        "id": "8821121985895854885",
        "title": "八所服务区第一公共厕所",
        "address": "海南省东方市八所服务区与G98海南环岛高速出口交叉口东100米",
        "tel": "",
        "category": "基础设施:公共设施:公共厕所",
        "type": 0,
        "location": {
            "lat": 19.080459,
            "lng": 108.713617
        },
        "ad_info": {
            "adcode": 469007,
            "province": "海南省",
            "city": "",
            "district": "东方市"
        }
    },
    {
        "id": "11440622188706283499",
        "title": "八所服务区第二公共厕所",
        "address": "海南省东方市八所服务区与G98海南环岛高速入口交叉口西南80米",
        "tel": "",
        "category": "基础设施:公共设施:公共厕所",
        "type": 0,
        "location": {
            "lat": 19.080182,
            "lng": 108.712103
        },
        "ad_info": {
            "adcode": 469007,
            "province": "海南省",
            "city": "",
            "district": "东方市"
        }
    },
    {
        "id": "257791565807988263",
        "title": "八所服务区第二公共厕所",
        "address": "海南省东方市G98海南环线高速出口与八所服务区交叉口东南60米",
        "tel": "",
        "category": "基础设施:公共设施:公共厕所",
        "type": 0,
        "location": {
            "lat": 19.081069,
            "lng": 108.714434
        },
        "ad_info": {
            "adcode": 469007,
            "province": "海南省",
            "city": "",
            "district": "东方市"
        }
    },
    {
        "id": "10414709462329465854",
        "title": "感城福地停车区第二公共厕所",
        "address": "海南省东方市东方市停车区与海南环岛旅游公路交叉口南60米",
        "tel": "",
        "category": "基础设施:公共设施:公共厕所",
        "type": 0,
        "location": {
            "lat": 18.876264,
            "lng": 108.650627
        },
        "ad_info": {
            "adcode": 469007,
            "province": "海南省",
            "city": "",
            "district": "东方市"
        }
    },
    {
        "id": "13455921301481494638",
        "title": "八所服务区第一公共厕所",
        "address": "海南省东方市G98海南环岛高速入口与八所服务区交叉口东北约60米",
        "tel": "",
        "category": "基础设施:公共设施:公共厕所",
        "type": 0,
        "location": {
            "lat": 19.081066,
            "lng": 108.713154
        },
        "ad_info": {
            "adcode": 469007,
            "province": "海南省",
            "city": "",
            "district": "东方市"
        }
    },
    {
        "id": "10390612731681873710",
        "title": "公共厕所",
        "address": "海南省东方市环岛旅游公路与014乡道交叉口东北340米",
        "tel": "",
        "category": "基础设施:公共设施:公共厕所",
        "type": 0,
        "location": {
            "lat": 19.212771,
            "lng": 108.736378
        },
        "ad_info": {
            "adcode": 469007,
            "province": "海南省",
            "city": "",
            "district": "东方市"
        }
    }
]