[
    {
        "id": "1015802801851246816",
        "title": "公共厕所",
        "address": "宁夏回族自治区中卫市海原县北坪路与运通东街交叉口西南方向101米左右",
        "tel": "",
        "category": "基础设施:公共设施:公共厕所",
        "type": 0,
        "location": {
            "lat": 36.579964,
            "lng": 105.647095
        },
        "ad_info": {
            "adcode": 640522,
            "province": "宁夏回族自治区",
            "city": "中卫市",
            "district": "海原县"
        }
    },
    {
        "id": "17331969283632395446",
        "title": "公共卫生间",
        "address": "宁夏回族自治区中卫市海原县同海高速公路",
        "tel": "",
        "category": "基础设施:公共设施:公共厕所",
        "type": 0,
        "location": {
            "lat": 36.896908,
            "lng": 105.905423
        },
        "ad_info": {
            "adcode": 640522,
            "province": "宁夏回族自治区",
            "city": "中卫市",
            "district": "海原县"
        }
    },
    {
        "id": "13229996611886604367",
        "title": "公共厕所",
        "address": "宁夏回族自治区中卫市海原县东城路与复兴巷交叉口西南方向116米左右",
        "tel": "",
        "category": "基础设施:公共设施:公共厕所",
        "type": 0,
        "location": {
            "lat": 36.562665,
            "lng": 105.648294
        },
        "ad_info": {
            "adcode": 640522,
            "province": "宁夏回族自治区",
            "city": "中卫市",
            "district": "海原县"
        }
    },
    {
        "id": "17051812775883304987",
        "title": "公共厕所",
        "address": "宁夏回族自治区中卫市沙坡头区应理南街香山悦府西门",
        "tel": "",
        "category": "基础设施:公共设施:公共厕所",
        "type": 0,
        "location": {
            "lat": 37.49787,
            "lng": 105.180638
        },
        "ad_info": {
            "adcode": 640502,
            "province": "宁夏回族自治区",
            "city": "中卫市",
            "district": "沙坡头区"
        }
    },
    {
        "id": "16117674087535948615",
        "title": "公共厕所",
        "address": "宁夏回族自治区中卫市沙坡头区丰安东路与怀远南街交叉口西南方向138米左右",
        "tel": "",
        "category": "基础设施:公共设施:公共厕所",
        "type": 0,
        "location": {
            "lat": 37.498253,
            "lng": 105.204725
        },
        "ad_info": {
            "adcode": 640502,
            "province": "宁夏回族自治区",
            "city": "中卫市",
            "district": "沙坡头区"
        }
    },
    {
        "id": "2669330363614236881",
        "title": "公共厕所",
        "address": "宁夏回族自治区中卫市海原县建设路与永乐东街交叉口西南方向451米左右",
        "tel": "",
        "category": "基础设施:公共设施:公共厕所",
        "type": 0,
        "location": {
            "lat": 36.553968,
            "lng": 105.652614
        },
        "ad_info": {
            "adcode": 640522,
            "province": "宁夏回族自治区",
            "city": "中卫市",
            "district": "海原县"
        }
    },
    {
        "id": "12467194142871721048",
        "title": "公共厕所",
        "address": "宁夏回族自治区中卫市海原县广电巷与政府西街交叉口正北方向209米左右",
        "tel": "",
        "category": "基础设施:公共设施:公共厕所",
        "type": 0,
        "location": {
            "lat": 36.565664,
            "lng": 105.641067
        },
        "ad_info": {
            "adcode": 640522,
            "province": "宁夏回族自治区",
            "city": "中卫市",
            "district": "海原县"
        }
    },
    {
        "id": "7902055253356219830",
        "title": "公共厕所",
        "address": "宁夏回族自治区中卫市沙坡头区宁钢大道138号中转站公厕",
        "tel": "",
        "category": "基础设施:公共设施:公共厕所",
        "type": 0,
        "location": {
            "lat": 37.511859,
            "lng": 105.226524
        },
        "ad_info": {
            "adcode": 640502,
            "province": "宁夏回族自治区",
            "city": "中卫市",
            "district": "沙坡头区"
        }
    },
    {
        "id": "12805163386733968925",
        "title": "公共厕所",
        "address": "宁夏回族自治区中卫市海原县大巷子与建设路交叉口西南方向52米左右",
        "tel": "",
        "category": "基础设施:公共设施:公共厕所",
        "type": 0,
        "location": {
            "lat": 36.563377,
            "lng": 105.645546
        },
        "ad_info": {
            "adcode": 640522,
            "province": "宁夏回族自治区",
            "city": "中卫市",
            "district": "海原县"
        }
    },
    {
        "id": "2241704547689792372",
        "title": "公共厕所",
        "address": "宁夏回族自治区中卫市沙坡头区丰安东路与迎宾大道交叉口西南方向102米左右",
        "tel": "",
        "category": "基础设施:公共设施:公共厕所",
        "type": 0,
        "location": {
            "lat": 37.499657,
            "lng": 105.213815
        },
        "ad_info": {
            "adcode": 640502,
            "province": "宁夏回族自治区",
            "city": "中卫市",
            "district": "沙坡头区"
        }
    },
    {
        "id": "9413208312657552178",
        "title": "公共厕所",
        "address": "宁夏回族自治区中卫市沙坡头区新墩北街与新墩南街交叉口西北方向95米左右",
        "tel": "",
        "category": "基础设施:公共设施:公共厕所",
        "type": 0,
        "location": {
            "lat": 37.516185,
            "lng": 105.169395
        },
        "ad_info": {
            "adcode": 640502,
            "province": "宁夏回族自治区",
            "city": "中卫市",
            "district": "沙坡头区"
        }
    },
    {
        "id": "5351081752391321562",
        "title": "洗手间",
        "address": "宁夏回族自治区中卫市沙坡头区宁夏中卫沙坡头旅游景区时空之门",
        "tel": "",
        "category": "基础设施:公共设施:公共厕所",
        "type": 0,
        "location": {
            "lat": 37.509039,
            "lng": 104.969874
        },
        "ad_info": {
            "adcode": 640502,
            "province": "宁夏回族自治区",
            "city": "中卫市",
            "district": "沙坡头区"
        }
    },
    {
        "id": "11380336135408616620",
        "title": "公共厕所",
        "address": "宁夏回族自治区中卫市沙坡头区兴隆南街与香山西路交叉口正北方向70米左右",
        "tel": "",
        "category": "基础设施:公共设施:公共厕所",
        "type": 0,
        "location": {
            "lat": 37.513359,
            "lng": 105.186616
        },
        "ad_info": {
            "adcode": 640502,
            "province": "宁夏回族自治区",
            "city": "中卫市",
            "district": "沙坡头区"
        }
    },
    {
        "id": "11487176712278571767",
        "title": "公共厕所",
        "address": "宁夏回族自治区中卫市沙坡头区文昌北街119号",
        "tel": "",
        "category": "基础设施:公共设施:公共厕所",
        "type": 0,
        "location": {
            "lat": 37.518814,
            "lng": 105.194453
        },
        "ad_info": {
            "adcode": 640502,
            "province": "宁夏回族自治区",
            "city": "中卫市",
            "district": "沙坡头区"
        }
    },
    {
        "id": "16833295263354775683",
        "title": "公共厕所",
        "address": "宁夏回族自治区中卫市沙坡头区南苑东路与南苑西路交叉口正东方向53米左右",
        "tel": "",
        "category": "基础设施:公共设施:公共厕所",
        "type": 0,
        "location": {
            "lat": 37.512158,
            "lng": 105.190597
        },
        "ad_info": {
            "adcode": 640502,
            "province": "宁夏回族自治区",
            "city": "中卫市",
            "district": "沙坡头区"
        }
    },
    {
        "id": "15148515160889087922",
        "title": "公共厕所",
        "address": "宁夏回族自治区中卫市中宁县中央大道与中鸣线交叉口正东方向112米左右",
        "tel": "",
        "category": "基础设施:公共设施:公共厕所",
        "type": 0,
        "location": {
            "lat": 37.503304,
            "lng": 105.687634
        },
        "ad_info": {
            "adcode": 640521,
            "province": "宁夏回族自治区",
            "city": "中卫市",
            "district": "中宁县"
        }
    },
    {
        "id": "5501177628981531385",
        "title": "公共厕所",
        "address": "宁夏回族自治区中卫市中宁县柳青东路与柳青路交叉口正西方向16米左右",
        "tel": "",
        "category": "基础设施:公共设施:公共厕所",
        "type": 0,
        "location": {
            "lat": 37.4888,
            "lng": 105.676703
        },
        "ad_info": {
            "adcode": 640521,
            "province": "宁夏回族自治区",
            "city": "中卫市",
            "district": "中宁县"
        }
    },
    {
        "id": "12568023044593253631",
        "title": "公共厕所",
        "address": "宁夏回族自治区中卫市沙坡头区和睦巷与长城东路交叉口西北方向30米左右",
        "tel": "",
        "category": "基础设施:公共设施:公共厕所",
        "type": 0,
        "location": {
            "lat": 37.519214,
            "lng": 105.201069
        },
        "ad_info": {
            "adcode": 640502,
            "province": "宁夏回族自治区",
            "city": "中卫市",
            "district": "沙坡头区"
        }
    },
    {
        "id": "13247405439449032333",
        "title": "公共厕所",
        "address": "宁夏回族自治区中卫市沙坡头区厚德巷与鼓楼西街交叉口正西方向244米左右",
        "tel": "",
        "category": "基础设施:公共设施:公共厕所",
        "type": 0,
        "location": {
            "lat": 37.515838,
            "lng": 105.173546
        },
        "ad_info": {
            "adcode": 640502,
            "province": "宁夏回族自治区",
            "city": "中卫市",
            "district": "沙坡头区"
        }
    },
    {
        "id": "10872880132418537061",
        "title": "公共厕所",
        "address": "宁夏回族自治区中卫市沙坡头区团结路与雍楼路交叉口西北方向28米左右",
        "tel": "",
        "category": "基础设施:公共设施:公共厕所",
        "type": 0,
        "location": {
            "lat": 37.517627,
            "lng": 105.189839
        },
        "ad_info": {
            "adcode": 640502,
            "province": "宁夏回族自治区",
            "city": "中卫市",
            "district": "沙坡头区"
        }
    },
    {
        "id": "2386107071754886688",
        "title": "公共厕所",
        "address": "宁夏回族自治区中卫市沙坡头区长城东路596号",
        "tel": "",
        "category": "基础设施:公共设施:公共厕所",
        "type": 0,
        "location": {
            "lat": 37.519101,
            "lng": 105.213567
        },
        "ad_info": {
            "adcode": 640502,
            "province": "宁夏回族自治区",
            "city": "中卫市",
            "district": "沙坡头区"
        }
    },
    {
        "id": "4796936260561885917",
        "title": "公共厕所",
        "address": "宁夏回族自治区中卫市沙坡头区利民街与平安东路交叉口正北方向157米左右",
        "tel": "",
        "category": "基础设施:公共设施:公共厕所",
        "type": 0,
        "location": {
            "lat": 37.497392,
            "lng": 105.199035
        },
        "ad_info": {
            "adcode": 640502,
            "province": "宁夏回族自治区",
            "city": "中卫市",
            "district": "沙坡头区"
        }
    },
    {
        "id": "14555845993971366949",
        "title": "公共厕所",
        "address": "宁夏回族自治区中卫市沙坡头区文萃南街与沙坡头东大道交叉口正东方向140米左右",
        "tel": "",
        "category": "基础设施:公共设施:公共厕所",
        "type": 0,
        "location": {
            "lat": 37.506916,
            "lng": 105.212248
        },
        "ad_info": {
            "adcode": 640502,
            "province": "宁夏回族自治区",
            "city": "中卫市",
            "district": "沙坡头区"
        }
    },
    {
        "id": "9758515584048630830",
        "title": "公共厕所",
        "address": "宁夏回族自治区中卫市沙坡头区芙蓉街与鸣沙路交叉口正南方向152米左右",
        "tel": "",
        "category": "基础设施:公共设施:公共厕所",
        "type": 0,
        "location": {
            "lat": 37.500402,
            "lng": 105.192196
        },
        "ad_info": {
            "adcode": 640502,
            "province": "宁夏回族自治区",
            "city": "中卫市",
            "district": "沙坡头区"
        }
    },
    {
        "id": "11057526040266862592",
        "title": "公共厕所",
        "address": "宁夏回族自治区中卫市沙坡头区平安西路辅路与应理南街辅路交叉口正西方向234米左右",
        "tel": "",
        "category": "基础设施:公共设施:公共厕所",
        "type": 0,
        "location": {
            "lat": 37.494051,
            "lng": 105.176793
        },
        "ad_info": {
            "adcode": 640502,
            "province": "宁夏回族自治区",
            "city": "中卫市",
            "district": "沙坡头区"
        }
    },
    {
        "id": "15271820899374398",
        "title": "公共厕所",
        "address": "宁夏回族自治区中卫市沙坡头区沙坡头旅游新镇2号停车场",
        "tel": "",
        "category": "基础设施:公共设施:公共厕所",
        "type": 0,
        "location": {
            "lat": 37.496679,
            "lng": 105.092953
        },
        "ad_info": {
            "adcode": 640502,
            "province": "宁夏回族自治区",
            "city": "中卫市",
            "district": "沙坡头区"
        }
    },
    {
        "id": "14601650827376718001",
        "title": "公共厕所",
        "address": "宁夏回族自治区中卫市沙坡头区中山街与沙坡头西大道交叉口正东方向62米左右",
        "tel": "",
        "category": "基础设施:公共设施:公共厕所",
        "type": 0,
        "location": {
            "lat": 37.50505,
            "lng": 105.188756
        },
        "ad_info": {
            "adcode": 640502,
            "province": "宁夏回族自治区",
            "city": "中卫市",
            "district": "沙坡头区"
        }
    },
    {
        "id": "8085958276800466663",
        "title": "公共厕所",
        "address": "宁夏回族自治区中卫市沙坡头区长城东路与长城西路交叉口西北方向126米左右",
        "tel": "",
        "category": "基础设施:公共设施:公共厕所",
        "type": 0,
        "location": {
            "lat": 37.520096,
            "lng": 105.189364
        },
        "ad_info": {
            "adcode": 640502,
            "province": "宁夏回族自治区",
            "city": "中卫市",
            "district": "沙坡头区"
        }
    },
    {
        "id": "14923046885393978411",
        "title": "公共厕所",
        "address": "宁夏回族自治区中卫市沙坡头区Y227与迎大线交叉口西南方向303米左右",
        "tel": "",
        "category": "基础设施:公共设施:公共厕所",
        "type": 0,
        "location": {
            "lat": 37.504634,
            "lng": 105.129252
        },
        "ad_info": {
            "adcode": 640502,
            "province": "宁夏回族自治区",
            "city": "中卫市",
            "district": "沙坡头区"
        }
    },
    {
        "id": "15764049203749974152",
        "title": "公共厕所",
        "address": "宁夏回族自治区中卫市沙坡头区沙坡头旅游新镇1号停车场",
        "tel": "",
        "category": "基础设施:公共设施:公共厕所",
        "type": 0,
        "location": {
            "lat": 37.499197,
            "lng": 105.092197
        },
        "ad_info": {
            "adcode": 640502,
            "province": "宁夏回族自治区",
            "city": "中卫市",
            "district": "沙坡头区"
        }
    },
    {
        "id": "16206267298942781357",
        "title": "公共厕所",
        "address": "宁夏回族自治区中卫市中宁县元丰路与宁安北街交叉口正西方向105米左右",
        "tel": "",
        "category": "基础设施:公共设施:公共厕所",
        "type": 0,
        "location": {
            "lat": 37.493694,
            "lng": 105.672665
        },
        "ad_info": {
            "adcode": 640521,
            "province": "宁夏回族自治区",
            "city": "中卫市",
            "district": "中宁县"
        }
    },
    {
        "id": "15952276495951571887",
        "title": "公共厕所",
        "address": "宁夏回族自治区中卫市沙坡头区S218与迎闫公路交叉口正南方向206米左右",
        "tel": "",
        "category": "基础设施:公共设施:公共厕所",
        "type": 0,
        "location": {
            "lat": 37.57921,
            "lng": 105.024399
        },
        "ad_info": {
            "adcode": 640502,
            "province": "宁夏回族自治区",
            "city": "中卫市",
            "district": "沙坡头区"
        }
    },
    {
        "id": "2684668104142711012",
        "title": "公共厕所",
        "address": "宁夏回族自治区中卫市中宁县迎大线与长大路交叉口正东方向1106米左右",
        "tel": "",
        "category": "基础设施:公共设施:公共厕所",
        "type": 0,
        "location": {
            "lat": 37.400284,
            "lng": 105.561433
        },
        "ad_info": {
            "adcode": 640521,
            "province": "宁夏回族自治区",
            "city": "中卫市",
            "district": "中宁县"
        }
    },
    {
        "id": "3750846923955098304",
        "title": "公共厕所",
        "address": "宁夏回族自治区中卫市沙坡头区宁钢大道与滨河东路交叉口正东方向493米左右",
        "tel": "",
        "category": "基础设施:公共设施:公共厕所",
        "type": 0,
        "location": {
            "lat": 37.488063,
            "lng": 105.230841
        },
        "ad_info": {
            "adcode": 640502,
            "province": "宁夏回族自治区",
            "city": "中卫市",
            "district": "沙坡头区"
        }
    },
    {
        "id": "8468319309635461059",
        "title": "洗手间",
        "address": "宁夏回族自治区中卫市沙坡头区孟柳线",
        "tel": "",
        "category": "基础设施:公共设施:公共厕所",
        "type": 0,
        "location": {
            "lat": 37.407372,
            "lng": 104.932396
        },
        "ad_info": {
            "adcode": 640502,
            "province": "宁夏回族自治区",
            "city": "中卫市",
            "district": "沙坡头区"
        }
    },
    {
        "id": "3520755334171298383",
        "title": "洗手间",
        "address": "宁夏回族自治区中卫市沙坡头区",
        "tel": "",
        "category": "基础设施:公共设施:公共厕所",
        "type": 0,
        "location": {
            "lat": 37.459859,
            "lng": 105.022773
        },
        "ad_info": {
            "adcode": 640502,
            "province": "宁夏回族自治区",
            "city": "中卫市",
            "district": "沙坡头区"
        }
    },
    {
        "id": "4082401751126505611",
        "title": "公共厕所",
        "address": "宁夏回族自治区中卫市沙坡头区卫宁东路与卫宁中路交叉口正南方向16米左右",
        "tel": "",
        "category": "基础设施:公共设施:公共厕所",
        "type": 0,
        "location": {
            "lat": 37.471884,
            "lng": 105.437654
        },
        "ad_info": {
            "adcode": 640502,
            "province": "宁夏回族自治区",
            "city": "中卫市",
            "district": "沙坡头区"
        }
    },
    {
        "id": "16992588215462318590",
        "title": "公共厕所",
        "address": "宁夏回族自治区中卫市中宁县大庆路与育才路交叉口西北方向99米左右",
        "tel": "",
        "category": "基础设施:公共设施:公共厕所",
        "type": 0,
        "location": {
            "lat": 37.487064,
            "lng": 105.681766
        },
        "ad_info": {
            "adcode": 640521,
            "province": "宁夏回族自治区",
            "city": "中卫市",
            "district": "中宁县"
        }
    },
    {
        "id": "6026935016632071615",
        "title": "公共厕所",
        "address": "宁夏回族自治区中卫市中宁县宁安西街与新市街交叉口西南方向69米左右",
        "tel": "",
        "category": "基础设施:公共设施:公共厕所",
        "type": 0,
        "location": {
            "lat": 37.489072,
            "lng": 105.671406
        },
        "ad_info": {
            "adcode": 640521,
            "province": "宁夏回族自治区",
            "city": "中卫市",
            "district": "中宁县"
        }
    },
    {
        "id": "9531902767596247774",
        "title": "公共厕所",
        "address": "宁夏回族自治区中卫市沙坡头区定武高速公路",
        "tel": "",
        "category": "基础设施:公共设施:公共厕所",
        "type": 0,
        "location": {
            "lat": 37.468179,
            "lng": 105.204803
        },
        "ad_info": {
            "adcode": 640502,
            "province": "宁夏回族自治区",
            "city": "中卫市",
            "district": "沙坡头区"
        }
    },
    {
        "id": "17204230280691388487",
        "title": "公共厕所",
        "address": "宁夏回族自治区中卫市中宁县正大路与裕民路交叉口东北方向55米左右",
        "tel": "",
        "category": "基础设施:公共设施:公共厕所",
        "type": 0,
        "location": {
            "lat": 37.497008,
            "lng": 105.682829
        },
        "ad_info": {
            "adcode": 640521,
            "province": "宁夏回族自治区",
            "city": "中卫市",
            "district": "中宁县"
        }
    },
    {
        "id": "5303107700728965551",
        "title": "公共厕所",
        "address": "宁夏回族自治区中卫市沙坡头区迎水桥镇Z209沙坡头旅游区黄河区(东南角)",
        "tel": "",
        "category": "基础设施:公共设施:公共厕所",
        "type": 0,
        "location": {
            "lat": 37.457618,
            "lng": 105.010635
        },
        "ad_info": {
            "adcode": 640502,
            "province": "宁夏回族自治区",
            "city": "中卫市",
            "district": "沙坡头区"
        }
    },
    {
        "id": "9899697945226054876",
        "title": "公共厕所",
        "address": "宁夏回族自治区中卫市中宁县南环路与新河路交叉口东北方向149米左右",
        "tel": "",
        "category": "基础设施:公共设施:公共厕所",
        "type": 0,
        "location": {
            "lat": 37.481718,
            "lng": 105.685985
        },
        "ad_info": {
            "adcode": 640521,
            "province": "宁夏回族自治区",
            "city": "中卫市",
            "district": "中宁县"
        }
    },
    {
        "id": "14436908687279436313",
        "title": "公共厕所",
        "address": "宁夏回族自治区中卫市中宁县南环路与宁安南街交叉口西北方向50米左右",
        "tel": "",
        "category": "基础设施:公共设施:公共厕所",
        "type": 0,
        "location": {
            "lat": 37.481003,
            "lng": 105.678701
        },
        "ad_info": {
            "adcode": 640521,
            "province": "宁夏回族自治区",
            "city": "中卫市",
            "district": "中宁县"
        }
    },
    {
        "id": "12999733286719958582",
        "title": "公共厕所",
        "address": "宁夏回族自治区中卫市中宁县丰安街与南环路交叉口正南方向340米左右",
        "tel": "",
        "category": "基础设施:公共设施:公共厕所",
        "type": 0,
        "location": {
            "lat": 37.477748,
            "lng": 105.671569
        },
        "ad_info": {
            "adcode": 640521,
            "province": "宁夏回族自治区",
            "city": "中卫市",
            "district": "中宁县"
        }
    },
    {
        "id": "14743026280949610306",
        "title": "公共厕所",
        "address": "宁夏回族自治区中卫市中宁县正大路与裕民路交叉口正北方向102米左右",
        "tel": "",
        "category": "基础设施:公共设施:公共厕所",
        "type": 0,
        "location": {
            "lat": 37.49763,
            "lng": 105.682507
        },
        "ad_info": {
            "adcode": 640521,
            "province": "宁夏回族自治区",
            "city": "中卫市",
            "district": "中宁县"
        }
    },
    {
        "id": "9752602987404429809",
        "title": "公共厕所",
        "address": "宁夏回族自治区中卫市中宁县宁安东街与育才路交叉口正东方向60米左右",
        "tel": "",
        "category": "基础设施:公共设施:公共厕所",
        "type": 0,
        "location": {
            "lat": 37.491368,
            "lng": 105.68024
        },
        "ad_info": {
            "adcode": 640521,
            "province": "宁夏回族自治区",
            "city": "中卫市",
            "district": "中宁县"
        }
    },
    {
        "id": "2910898311522231694",
        "title": "公共厕所",
        "address": "宁夏回族自治区中卫市中宁县中央大道与裕民街交叉口西南方向61米左右",
        "tel": "",
        "category": "基础设施:公共设施:公共厕所",
        "type": 0,
        "location": {
            "lat": 37.497551,
            "lng": 105.688631
        },
        "ad_info": {
            "adcode": 640521,
            "province": "宁夏回族自治区",
            "city": "中卫市",
            "district": "中宁县"
        }
    },
    {
        "id": "9608365949946618748",
        "title": "公共厕所",
        "address": "宁夏回族自治区中卫市中宁县G109与S101交叉口正东方向114米左右",
        "tel": "",
        "category": "基础设施:公共设施:公共厕所",
        "type": 0,
        "location": {
            "lat": 37.477959,
            "lng": 105.702102
        },
        "ad_info": {
            "adcode": 640521,
            "province": "宁夏回族自治区",
            "city": "中卫市",
            "district": "中宁县"
        }
    },
    {
        "id": "1320939782614717207",
        "title": "公共厕所(NX-ZW-0028)",
        "address": "宁夏回族自治区中卫市沙坡头区迎湖路大漠边关旅游景区",
        "tel": "",
        "category": "基础设施:公共设施:公共厕所",
        "type": 0,
        "location": {
            "lat": 37.579472,
            "lng": 105.144613
        },
        "ad_info": {
            "adcode": 640502,
            "province": "宁夏回族自治区",
            "city": "中卫市",
            "district": "沙坡头区"
        }
    },
    {
        "id": "17886805595696279041",
        "title": "公共厕所",
        "address": "宁夏回族自治区中卫市中宁县富康路与西环路交叉口东北方向147米左右",
        "tel": "",
        "category": "基础设施:公共设施:公共厕所",
        "type": 0,
        "location": {
            "lat": 37.505101,
            "lng": 105.670763
        },
        "ad_info": {
            "adcode": 640521,
            "province": "宁夏回族自治区",
            "city": "中卫市",
            "district": "中宁县"
        }
    },
    {
        "id": "13403991906297820451",
        "title": "阳光家园(共享公厕)",
        "address": "宁夏回族自治区中卫市沙坡头区阳光家园北(南苑西路)",
        "tel": "",
        "category": "基础设施:公共设施:公共厕所",
        "type": 0,
        "location": {
            "lat": 37.511895,
            "lng": 105.182583
        },
        "ad_info": {
            "adcode": 640502,
            "province": "宁夏回族自治区",
            "city": "中卫市",
            "district": "沙坡头区"
        }
    },
    {
        "id": "6078384192849201318",
        "title": "公共厕所",
        "address": "宁夏回族自治区中卫市沙坡头区",
        "tel": "",
        "category": "基础设施:公共设施:公共厕所",
        "type": 0,
        "location": {
            "lat": 37.456676,
            "lng": 105.011083
        },
        "ad_info": {
            "adcode": 640502,
            "province": "宁夏回族自治区",
            "city": "中卫市",
            "district": "沙坡头区"
        }
    },
    {
        "id": "17422406581264339574",
        "title": "公共厕所",
        "address": "宁夏回族自治区中卫市中宁县育才北路与鸣雁东路交叉口东北方向78米左右",
        "tel": "",
        "category": "基础设施:公共设施:公共厕所",
        "type": 0,
        "location": {
            "lat": 37.50059,
            "lng": 105.677956
        },
        "ad_info": {
            "adcode": 640521,
            "province": "宁夏回族自治区",
            "city": "中卫市",
            "district": "中宁县"
        }
    },
    {
        "id": "4623070804792251051",
        "title": "公共厕所",
        "address": "宁夏回族自治区中卫市中宁县G109与迎大线交叉口正南方向266米左右",
        "tel": "",
        "category": "基础设施:公共设施:公共厕所",
        "type": 0,
        "location": {
            "lat": 37.384217,
            "lng": 105.612458
        },
        "ad_info": {
            "adcode": 640521,
            "province": "宁夏回族自治区",
            "city": "中卫市",
            "district": "中宁县"
        }
    },
    {
        "id": "8327638200201505643",
        "title": "公共厕所",
        "address": "宁夏回族自治区中卫市中宁县G109与长大路交叉口正北方向1292米左右",
        "tel": "",
        "category": "基础设施:公共设施:公共厕所",
        "type": 0,
        "location": {
            "lat": 37.369926,
            "lng": 105.605999
        },
        "ad_info": {
            "adcode": 640521,
            "province": "宁夏回族自治区",
            "city": "中卫市",
            "district": "中宁县"
        }
    },
    {
        "id": "3522977131091979675",
        "title": "公共厕所",
        "address": "宁夏回族自治区中卫市中宁县宁丰路与黄河路交叉口正东方向162米左右",
        "tel": "",
        "category": "基础设施:公共设施:公共厕所",
        "type": 0,
        "location": {
            "lat": 37.513192,
            "lng": 105.660942
        },
        "ad_info": {
            "adcode": 640521,
            "province": "宁夏回族自治区",
            "city": "中卫市",
            "district": "中宁县"
        }
    },
    {
        "id": "3111787770671481153",
        "title": "公共厕所",
        "address": "宁夏回族自治区中卫市中宁县S101与恩和南街交叉口西南方向274米左右",
        "tel": "",
        "category": "基础设施:公共设施:公共厕所",
        "type": 0,
        "location": {
            "lat": 37.492803,
            "lng": 105.761865
        },
        "ad_info": {
            "adcode": 640521,
            "province": "宁夏回族自治区",
            "city": "中卫市",
            "district": "中宁县"
        }
    },
    {
        "id": "18119828437170447113",
        "title": "收费公共厕所",
        "address": "宁夏回族自治区中卫市沙坡头区兴隆南街与香山西路交叉口东北方向97米左右",
        "tel": "",
        "category": "基础设施:公共设施:公共厕所",
        "type": 0,
        "location": {
            "lat": 37.513431,
            "lng": 105.187063
        },
        "ad_info": {
            "adcode": 640502,
            "province": "宁夏回族自治区",
            "city": "中卫市",
            "district": "沙坡头区"
        }
    },
    {
        "id": "10848607743637476305",
        "title": "公共厕所",
        "address": "宁夏回族自治区中卫市中宁县201省道南200米",
        "tel": "",
        "category": "基础设施:公共设施:公共厕所",
        "type": 0,
        "location": {
            "lat": 37.510806,
            "lng": 105.556406
        },
        "ad_info": {
            "adcode": 640521,
            "province": "宁夏回族自治区",
            "city": "中卫市",
            "district": "中宁县"
        }
    },
    {
        "id": "9109115691100118548",
        "title": "公共厕所",
        "address": "宁夏回族自治区中卫市中宁县G109与枣园线交叉口正东方向98米左右",
        "tel": "",
        "category": "基础设施:公共设施:公共厕所",
        "type": 0,
        "location": {
            "lat": 37.592255,
            "lng": 105.78509
        },
        "ad_info": {
            "adcode": 640521,
            "province": "宁夏回族自治区",
            "city": "中卫市",
            "district": "中宁县"
        }
    },
    {
        "id": "6359286089043040602",
        "title": "公共厕所",
        "address": "宁夏回族自治区中卫市中宁县G109与S101交叉口东南方向71米左右",
        "tel": "",
        "category": "基础设施:公共设施:公共厕所",
        "type": 0,
        "location": {
            "lat": 37.477456,
            "lng": 105.701376
        },
        "ad_info": {
            "adcode": 640521,
            "province": "宁夏回族自治区",
            "city": "中卫市",
            "district": "中宁县"
        }
    },
    {
        "id": "4287013231566287622",
        "title": "公共厕所",
        "address": "宁夏回族自治区中卫市中宁县西环路中国石油古城加油站",
        "tel": "",
        "category": "基础设施:公共设施:公共厕所",
        "type": 0,
        "location": {
            "lat": 37.454418,
            "lng": 105.650432
        },
        "ad_info": {
            "adcode": 640521,
            "province": "宁夏回族自治区",
            "city": "中卫市",
            "district": "中宁县"
        }
    },
    {
        "id": "1254477831187081461",
        "title": "公共厕所",
        "address": "宁夏回族自治区中卫市中宁县201省道南50米",
        "tel": "",
        "category": "基础设施:公共设施:公共厕所",
        "type": 0,
        "location": {
            "lat": 37.511148,
            "lng": 105.495726
        },
        "ad_info": {
            "adcode": 640521,
            "province": "宁夏回族自治区",
            "city": "中卫市",
            "district": "中宁县"
        }
    },
    {
        "id": "9312154850013926799",
        "title": "五环体育馆西侧公厕",
        "address": "宁夏回族自治区中卫市沙坡头区平安西路辅路与应理南街辅路交叉口西北方向360米左右",
        "tel": "",
        "category": "基础设施:公共设施:公共厕所",
        "type": 0,
        "location": {
            "lat": 37.496469,
            "lng": 105.176326
        },
        "ad_info": {
            "adcode": 640502,
            "province": "宁夏回族自治区",
            "city": "中卫市",
            "district": "沙坡头区"
        }
    },
    {
        "id": "5000666392788399963",
        "title": "新墩D区西北侧公厕",
        "address": "宁夏回族自治区中卫市沙坡头区中关村大街与新安路交叉口正西方向453米左右",
        "tel": "",
        "category": "基础设施:公共设施:公共厕所",
        "type": 0,
        "location": {
            "lat": 37.488125,
            "lng": 105.164651
        },
        "ad_info": {
            "adcode": 640502,
            "province": "宁夏回族自治区",
            "city": "中卫市",
            "district": "沙坡头区"
        }
    },
    {
        "id": "12404910156746615099",
        "title": "新华国际酒店南侧公厕",
        "address": "宁夏回族自治区中卫市沙坡头区迎宾大道与鼓楼东街交叉口正南方向189米左右",
        "tel": "",
        "category": "基础设施:公共设施:公共厕所",
        "type": 0,
        "location": {
            "lat": 37.514712,
            "lng": 105.21634
        },
        "ad_info": {
            "adcode": 640502,
            "province": "宁夏回族自治区",
            "city": "中卫市",
            "district": "沙坡头区"
        }
    },
    {
        "id": "1269569211229938218",
        "title": "公共厕所",
        "address": "宁夏回族自治区中卫市沙坡头区新墩北街与新墩南街交叉口正南方向104米左右",
        "tel": "",
        "category": "基础设施:公共设施:公共厕所",
        "type": 0,
        "location": {
            "lat": 37.514753,
            "lng": 105.170067
        },
        "ad_info": {
            "adcode": 640502,
            "province": "宁夏回族自治区",
            "city": "中卫市",
            "district": "沙坡头区"
        }
    },
    {
        "id": "1064219710470785296",
        "title": "中卫市体育馆西侧公厕",
        "address": "宁夏回族自治区中卫市沙坡头区平安西路辅路与应理南街辅路交叉口西北方向401米左右",
        "tel": "",
        "category": "基础设施:公共设施:公共厕所",
        "type": 0,
        "location": {
            "lat": 37.496801,
            "lng": 105.176065
        },
        "ad_info": {
            "adcode": 640502,
            "province": "宁夏回族自治区",
            "city": "中卫市",
            "district": "沙坡头区"
        }
    },
    {
        "id": "17654247375347881567",
        "title": "阳光悦府南门东侧公厕",
        "address": "宁夏回族自治区中卫市沙坡头区南苑东路与宁钢大道交叉口正东方向360米左右",
        "tel": "",
        "category": "基础设施:公共设施:公共厕所",
        "type": 0,
        "location": {
            "lat": 37.511759,
            "lng": 105.230939
        },
        "ad_info": {
            "adcode": 640502,
            "province": "宁夏回族自治区",
            "city": "中卫市",
            "district": "沙坡头区"
        }
    },
    {
        "id": "2128007195902871975",
        "title": "公共厕所",
        "address": "宁夏回族自治区中卫市沙坡头区中卫汽车客运总站",
        "tel": "",
        "category": "基础设施:公共设施:公共厕所",
        "type": 0,
        "location": {
            "lat": 37.515585,
            "lng": 105.218604
        },
        "ad_info": {
            "adcode": 640502,
            "province": "宁夏回族自治区",
            "city": "中卫市",
            "district": "沙坡头区"
        }
    },
    {
        "id": "13456754269535768596",
        "title": "云舟酒店2楼(共享公厕)",
        "address": "宁夏回族自治区中卫市沙坡头区南苑西路与应理南街交叉口正南方向19米左右",
        "tel": "",
        "category": "基础设施:公共设施:公共厕所",
        "type": 0,
        "location": {
            "lat": 37.511596,
            "lng": 105.180649
        },
        "ad_info": {
            "adcode": 640502,
            "province": "宁夏回族自治区",
            "city": "中卫市",
            "district": "沙坡头区"
        }
    },
    {
        "id": "7528192391963683851",
        "title": "公共厕所(NX-ZW-0331)",
        "address": "宁夏回族自治区中卫市中宁县Y302与宁舟线交叉口正西方向261米左右",
        "tel": "",
        "category": "基础设施:公共设施:公共厕所",
        "type": 0,
        "location": {
            "lat": 37.480328,
            "lng": 105.607143
        },
        "ad_info": {
            "adcode": 640521,
            "province": "宁夏回族自治区",
            "city": "中卫市",
            "district": "中宁县"
        }
    },
    {
        "id": "3085903567351909555",
        "title": "宁钢大道与丰安东路交汇处西北角公共厕所",
        "address": "宁夏回族自治区中卫市沙坡头区恒通路与迎宾大道交叉口正北方向163米左右",
        "tel": "",
        "category": "基础设施:公共设施:公共厕所",
        "type": 0,
        "location": {
            "lat": 37.493684,
            "lng": 105.213953
        },
        "ad_info": {
            "adcode": 640502,
            "province": "宁夏回族自治区",
            "city": "中卫市",
            "district": "沙坡头区"
        }
    },
    {
        "id": "3846510549824873980",
        "title": "中卫市第二幼儿园北侧公厕",
        "address": "宁夏回族自治区中卫市沙坡头区五里北街与长城东路交叉口东北方向126米左右",
        "tel": "",
        "category": "基础设施:公共设施:公共厕所",
        "type": 0,
        "location": {
            "lat": 37.520469,
            "lng": 105.223
        },
        "ad_info": {
            "adcode": 640502,
            "province": "宁夏回族自治区",
            "city": "中卫市",
            "district": "沙坡头区"
        }
    },
    {
        "id": "9280406922877553303",
        "title": "金佰川商场2楼东北侧共享公厕",
        "address": "宁夏回族自治区中卫市沙坡头区人民商场(鼓楼北街店)",
        "tel": "",
        "category": "基础设施:公共设施:公共厕所",
        "type": 0,
        "location": {
            "lat": 37.516239,
            "lng": 105.189087
        },
        "ad_info": {
            "adcode": 640502,
            "province": "宁夏回族自治区",
            "city": "中卫市",
            "district": "沙坡头区"
        }
    },
    {
        "id": "10097683945133954373",
        "title": "卫生间",
        "address": "宁夏回族自治区中卫市沙坡头区孟柳线",
        "tel": "",
        "category": "基础设施:公共设施:公共厕所",
        "type": 0,
        "location": {
            "lat": 37.414967,
            "lng": 104.960698
        },
        "ad_info": {
            "adcode": 640502,
            "province": "宁夏回族自治区",
            "city": "中卫市",
            "district": "沙坡头区"
        }
    },
    {
        "id": "15137758648458302786",
        "title": "双桥(共享公共厕所)",
        "address": "宁夏回族自治区中卫市沙坡头区丰安东路239号",
        "tel": "",
        "category": "基础设施:公共设施:公共厕所",
        "type": 0,
        "location": {
            "lat": 37.494942,
            "lng": 105.220595
        },
        "ad_info": {
            "adcode": 640502,
            "province": "宁夏回族自治区",
            "city": "中卫市",
            "district": "沙坡头区"
        }
    },
    {
        "id": "14376430350638210850",
        "title": "新华国际饭店1楼(共享公厕)",
        "address": "宁夏回族自治区中卫市沙坡头区迎宾大道辅路与鼓楼东街辅路交叉口西南方向102米左右",
        "tel": "",
        "category": "基础设施:公共设施:公共厕所",
        "type": 0,
        "location": {
            "lat": 37.515736,
            "lng": 105.216003
        },
        "ad_info": {
            "adcode": 640502,
            "province": "宁夏回族自治区",
            "city": "中卫市",
            "district": "沙坡头区"
        }
    },
    {
        "id": "17673335769901977562",
        "title": "迎宾大道中转站(共享公厕)",
        "address": "宁夏回族自治区中卫市沙坡头区丰安东路与迎宾大道交叉口正南方向90米左右",
        "tel": "",
        "category": "基础设施:公共设施:公共厕所",
        "type": 0,
        "location": {
            "lat": 37.499676,
            "lng": 105.214128
        },
        "ad_info": {
            "adcode": 640502,
            "province": "宁夏回族自治区",
            "city": "中卫市",
            "district": "沙坡头区"
        }
    },
    {
        "id": "4022259474289843969",
        "title": "中卫职业技术中学南门口对面公厕",
        "address": "宁夏回族自治区中卫市沙坡头区新墩南街与新墩桥交叉口正东方向220米左右",
        "tel": "",
        "category": "基础设施:公共设施:公共厕所",
        "type": 0,
        "location": {
            "lat": 37.505414,
            "lng": 105.172699
        },
        "ad_info": {
            "adcode": 640502,
            "province": "宁夏回族自治区",
            "city": "中卫市",
            "district": "沙坡头区"
        }
    },
    {
        "id": "16969210558444792590",
        "title": "无障碍公共厕所",
        "address": "宁夏回族自治区中卫市沙坡头区兴隆北街与兴隆南街交叉口正南方向72米左右",
        "tel": "",
        "category": "基础设施:公共设施:公共厕所",
        "type": 0,
        "location": {
            "lat": 37.514827,
            "lng": 105.186618
        },
        "ad_info": {
            "adcode": 640502,
            "province": "宁夏回族自治区",
            "city": "中卫市",
            "district": "沙坡头区"
        }
    },
    {
        "id": "1473687125921655653",
        "title": "高铁南站公共厕所",
        "address": "宁夏回族自治区中卫市沙坡头区高铁南站公交车下车点",
        "tel": "",
        "category": "基础设施:公共设施:公共厕所",
        "type": 0,
        "location": {
            "lat": 37.473472,
            "lng": 105.181176
        },
        "ad_info": {
            "adcode": 640502,
            "province": "宁夏回族自治区",
            "city": "中卫市",
            "district": "沙坡头区"
        }
    },
    {
        "id": "17972236535615494388",
        "title": "沙渠桥头(共享公厕)",
        "address": "宁夏回族自治区中卫市沙坡头区宜居北街与宜居南街交叉口西南方向186米左右",
        "tel": "",
        "category": "基础设施:公共设施:公共厕所",
        "type": 0,
        "location": {
            "lat": 37.51396,
            "lng": 105.161958
        },
        "ad_info": {
            "adcode": 640502,
            "province": "宁夏回族自治区",
            "city": "中卫市",
            "district": "沙坡头区"
        }
    },
    {
        "id": "14121827368879358851",
        "title": "公共厕所",
        "address": "宁夏回族自治区中卫市中宁县宁安北街与振兴东路交叉口东南方向44米左右",
        "tel": "",
        "category": "基础设施:公共设施:公共厕所",
        "type": 0,
        "location": {
            "lat": 37.491949,
            "lng": 105.674975
        },
        "ad_info": {
            "adcode": 640521,
            "province": "宁夏回族自治区",
            "city": "中卫市",
            "district": "中宁县"
        }
    },
    {
        "id": "3621316045199304307",
        "title": "同心服务区公共厕所",
        "address": "宁夏回族自治区中卫市海原县福银高速同心服务区",
        "tel": "",
        "category": "基础设施:公共设施:公共厕所",
        "type": 0,
        "location": {
            "lat": 36.869429,
            "lng": 105.953244
        },
        "ad_info": {
            "adcode": 640522,
            "province": "宁夏回族自治区",
            "city": "中卫市",
            "district": "海原县"
        }
    },
    {
        "id": "2077849912946871332",
        "title": "公共厕所",
        "address": "宁夏回族自治区中卫市沙坡头区中国石油中卫机场大道加油站",
        "tel": "",
        "category": "基础设施:公共设施:公共厕所",
        "type": 0,
        "location": {
            "lat": 37.48802,
            "lng": 105.159778
        },
        "ad_info": {
            "adcode": 640502,
            "province": "宁夏回族自治区",
            "city": "中卫市",
            "district": "沙坡头区"
        }
    },
    {
        "id": "2764314860092598893",
        "title": "平安大道与黄河街交会处西南角平安大道南侧公厕",
        "address": "宁夏回族自治区中卫市沙坡头区平安东路与黄河街交叉口正西方向250米左右",
        "tel": "",
        "category": "基础设施:公共设施:公共厕所",
        "type": 0,
        "location": {
            "lat": 37.495521,
            "lng": 105.207661
        },
        "ad_info": {
            "adcode": 640502,
            "province": "宁夏回族自治区",
            "city": "中卫市",
            "district": "沙坡头区"
        }
    },
    {
        "id": "399756620286410303",
        "title": "西安镇服务区公共厕所",
        "address": "宁夏回族自治区中卫市海原县海平高速与西安镇服务区交叉口西北380米",
        "tel": "",
        "category": "基础设施:公共设施:公共厕所",
        "type": 0,
        "location": {
            "lat": 36.646156,
            "lng": 105.476404
        },
        "ad_info": {
            "adcode": 640522,
            "province": "宁夏回族自治区",
            "city": "中卫市",
            "district": "海原县"
        }
    },
    {
        "id": "2954827212858249449",
        "title": "全民健身中心-共享公厕",
        "address": "宁夏回族自治区中卫市沙坡头区兆丰学府西南100米(平安东路北)",
        "tel": "",
        "category": "基础设施:公共设施:公共厕所",
        "type": 0,
        "location": {
            "lat": 37.49643,
            "lng": 105.211274
        },
        "ad_info": {
            "adcode": 640502,
            "province": "宁夏回族自治区",
            "city": "中卫市",
            "district": "沙坡头区"
        }
    },
    {
        "id": "16975712959359883632",
        "title": "海兴服务区公共厕所",
        "address": "宁夏回族自治区中卫市海原县福银高速海兴服务区",
        "tel": "",
        "category": "基础设施:公共设施:公共厕所",
        "type": 0,
        "location": {
            "lat": 36.333747,
            "lng": 106.105258
        },
        "ad_info": {
            "adcode": 640522,
            "province": "宁夏回族自治区",
            "city": "中卫市",
            "district": "海原县"
        }
    },
    {
        "id": "5420803849371085512",
        "title": "应理中转站(共享公共厕所)",
        "address": "宁夏回族自治区中卫市沙坡头区应理南街与瑞丰路交叉口正南方向115米左右",
        "tel": "",
        "category": "基础设施:公共设施:公共厕所",
        "type": 0,
        "location": {
            "lat": 37.506527,
            "lng": 105.180234
        },
        "ad_info": {
            "adcode": 640502,
            "province": "宁夏回族自治区",
            "city": "中卫市",
            "district": "沙坡头区"
        }
    },
    {
        "id": "2832870082090117639",
        "title": "公共厕所",
        "address": "宁夏回族自治区中卫市中宁县S101与白新路交叉口正西方向99米左右",
        "tel": "",
        "category": "基础设施:公共设施:公共厕所",
        "type": 0,
        "location": {
            "lat": 37.630742,
            "lng": 105.935376
        },
        "ad_info": {
            "adcode": 640521,
            "province": "宁夏回族自治区",
            "city": "中卫市",
            "district": "中宁县"
        }
    },
    {
        "id": "2077929570488138795",
        "title": "美丽广场公共卫生间",
        "address": "宁夏回族自治区中卫市沙坡头区沙坡头区人民政府西南50米(鼓楼西街北)",
        "tel": "",
        "category": "基础设施:公共设施:公共厕所",
        "type": 0,
        "location": {
            "lat": 37.516171,
            "lng": 105.172946
        },
        "ad_info": {
            "adcode": 640502,
            "province": "宁夏回族自治区",
            "city": "中卫市",
            "district": "沙坡头区"
        }
    },
    {
        "id": "7870370991464947097",
        "title": "红宝宾馆南门东侧公厕",
        "address": "宁夏回族自治区中卫市沙坡头区滨河西路与鼓楼南街辅路交叉口西北方向79米左右",
        "tel": "",
        "category": "基础设施:公共设施:公共厕所",
        "type": 0,
        "location": {
            "lat": 37.485503,
            "lng": 105.187618
        },
        "ad_info": {
            "adcode": 640502,
            "province": "宁夏回族自治区",
            "city": "中卫市",
            "district": "沙坡头区"
        }
    },
    {
        "id": "8915903622242191480",
        "title": "海兴服务区第一公共厕所",
        "address": "宁夏回族自治区中卫市海原县福银高速海兴服务区",
        "tel": "",
        "category": "基础设施:公共设施:公共厕所",
        "type": 0,
        "location": {
            "lat": 36.332934,
            "lng": 106.107207
        },
        "ad_info": {
            "adcode": 640522,
            "province": "宁夏回族自治区",
            "city": "中卫市",
            "district": "海原县"
        }
    },
    {
        "id": "15398561573669166202",
        "title": "公共厕所",
        "address": "宁夏回族自治区中卫市沙坡头区中山街与南苑西路交叉口正西方向37米左右",
        "tel": "",
        "category": "基础设施:公共设施:公共厕所",
        "type": 0,
        "location": {
            "lat": 37.512018,
            "lng": 105.187797
        },
        "ad_info": {
            "adcode": 640502,
            "province": "宁夏回族自治区",
            "city": "中卫市",
            "district": "沙坡头区"
        }
    },
    {
        "id": "1026322162856208752",
        "title": "滨河加油站-共享公厕",
        "address": "宁夏回族自治区中卫市沙坡头区中国石油中卫滨河加油站内",
        "tel": "",
        "category": "基础设施:公共设施:公共厕所",
        "type": 0,
        "location": {
            "lat": 37.487532,
            "lng": 105.210877
        },
        "ad_info": {
            "adcode": 640502,
            "province": "宁夏回族自治区",
            "city": "中卫市",
            "district": "沙坡头区"
        }
    },
    {
        "id": "17510476373465522465",
        "title": "五环广场东南侧(固定公厕)",
        "address": "宁夏回族自治区中卫市沙坡头区迎宾大道辅路与鼓楼东街辅路交叉口正西方向251米左右",
        "tel": "",
        "category": "基础设施:公共设施:公共厕所",
        "type": 0,
        "location": {
            "lat": 37.516792,
            "lng": 105.213928
        },
        "ad_info": {
            "adcode": 640502,
            "province": "宁夏回族自治区",
            "city": "中卫市",
            "district": "沙坡头区"
        }
    },
    {
        "id": "595252555548946338",
        "title": "四季鲜南门(共享公共厕所)",
        "address": "宁夏回族自治区中卫市沙坡头区中央东大道391号",
        "tel": "",
        "category": "基础设施:公共设施:公共厕所",
        "type": 0,
        "location": {
            "lat": 37.507488,
            "lng": 105.223189
        },
        "ad_info": {
            "adcode": 640502,
            "province": "宁夏回族自治区",
            "city": "中卫市",
            "district": "沙坡头区"
        }
    },
    {
        "id": "11355138888102317426",
        "title": "沙坡头服务区公共厕所",
        "address": "宁夏回族自治区中卫市沙坡头区G1816乌玛高速与沙坡头服务区交叉口西460米",
        "tel": "",
        "category": "基础设施:公共设施:公共厕所",
        "type": 0,
        "location": {
            "lat": 37.590927,
            "lng": 105.258626
        },
        "ad_info": {
            "adcode": 640502,
            "province": "宁夏回族自治区",
            "city": "中卫市",
            "district": "沙坡头区"
        }
    },
    {
        "id": "17667273809745037307",
        "title": "公共厕所",
        "address": "宁夏回族自治区中卫市沙坡头区沙坡头区假日酒店东门(宁夏中卫中学西)",
        "tel": "",
        "category": "基础设施:公共设施:公共厕所",
        "type": 0,
        "location": {
            "lat": 37.498548,
            "lng": 105.179872
        },
        "ad_info": {
            "adcode": 640502,
            "province": "宁夏回族自治区",
            "city": "中卫市",
            "district": "沙坡头区"
        }
    },
    {
        "id": "12898047268482464799",
        "title": "铁路广场东侧公共厕所",
        "address": "宁夏回族自治区中卫市沙坡头区长城东路与鼓楼北街交叉口正北方向237米左右",
        "tel": "",
        "category": "基础设施:公共设施:公共厕所",
        "type": 0,
        "location": {
            "lat": 37.521182,
            "lng": 105.190847
        },
        "ad_info": {
            "adcode": 640502,
            "province": "宁夏回族自治区",
            "city": "中卫市",
            "district": "沙坡头区"
        }
    },
    {
        "id": "7897706735389280391",
        "title": "中国人民保险2楼东侧共享公厕",
        "address": "宁夏回族自治区中卫市沙坡头区中国人民保险2楼",
        "tel": "",
        "category": "基础设施:公共设施:公共厕所",
        "type": 0,
        "location": {
            "lat": 37.505474,
            "lng": 105.18472
        },
        "ad_info": {
            "adcode": 640502,
            "province": "宁夏回族自治区",
            "city": "中卫市",
            "district": "沙坡头区"
        }
    },
    {
        "id": "2460065809196928154",
        "title": "公共厕所",
        "address": "宁夏回族自治区中卫市沙坡头区蔡桥街55号",
        "tel": "",
        "category": "基础设施:公共设施:公共厕所",
        "type": 0,
        "location": {
            "lat": 37.51122,
            "lng": 105.198893
        },
        "ad_info": {
            "adcode": 640502,
            "province": "宁夏回族自治区",
            "city": "中卫市",
            "district": "沙坡头区"
        }
    },
    {
        "id": "16411759214417519156",
        "title": "公共厕所",
        "address": "宁夏回族自治区中卫市沙坡头区南苑东路141号",
        "tel": "",
        "category": "基础设施:公共设施:公共厕所",
        "type": 0,
        "location": {
            "lat": 37.512068,
            "lng": 105.194823
        },
        "ad_info": {
            "adcode": 640502,
            "province": "宁夏回族自治区",
            "city": "中卫市",
            "district": "沙坡头区"
        }
    },
    {
        "id": "16989309545058147054",
        "title": "同心服务区公共厕所",
        "address": "宁夏回族自治区中卫市海原县G70福银高速与同心服务区交叉口南240米",
        "tel": "",
        "category": "基础设施:公共设施:公共厕所",
        "type": 0,
        "location": {
            "lat": 36.869446,
            "lng": 105.950797
        },
        "ad_info": {
            "adcode": 640522,
            "province": "宁夏回族自治区",
            "city": "中卫市",
            "district": "海原县"
        }
    },
    {
        "id": "8325960863411743557",
        "title": "沙坡头服务区公共厕所",
        "address": "宁夏回族自治区中卫市沙坡头区G1816乌玛高速与沙坡头服务区交叉口西500米",
        "tel": "",
        "category": "基础设施:公共设施:公共厕所",
        "type": 0,
        "location": {
            "lat": 37.593369,
            "lng": 105.258255
        },
        "ad_info": {
            "adcode": 640502,
            "province": "宁夏回族自治区",
            "city": "中卫市",
            "district": "沙坡头区"
        }
    },
    {
        "id": "7214802612193985178",
        "title": "金沙岛旅游区-公共厕所",
        "address": "宁夏回族自治区中卫市沙坡头区腾格里沙漠湿地旅游区西北角",
        "tel": "",
        "category": "基础设施:公共设施:公共厕所",
        "type": 0,
        "location": {
            "lat": 37.538831,
            "lng": 105.104
        },
        "ad_info": {
            "adcode": 640502,
            "province": "宁夏回族自治区",
            "city": "中卫市",
            "district": "沙坡头区"
        }
    },
    {
        "id": "4738140060669739683",
        "title": "渠口服务区公共厕所",
        "address": "宁夏回族自治区中卫市中宁县G1816乌玛高速与渠口服务区交叉口西南420米",
        "tel": "",
        "category": "基础设施:公共设施:公共厕所",
        "type": 0,
        "location": {
            "lat": 37.698317,
            "lng": 105.807939
        },
        "ad_info": {
            "adcode": 640521,
            "province": "宁夏回族自治区",
            "city": "中卫市",
            "district": "中宁县"
        }
    },
    {
        "id": "2278628106191910347",
        "title": "公共厕所",
        "address": "宁夏回族自治区中卫市沙坡头区中宁街与海城路交叉口东北方向276米左右",
        "tel": "",
        "category": "基础设施:公共设施:公共厕所",
        "type": 0,
        "location": {
            "lat": 37.474817,
            "lng": 105.177924
        },
        "ad_info": {
            "adcode": 640502,
            "province": "宁夏回族自治区",
            "city": "中卫市",
            "district": "沙坡头区"
        }
    },
    {
        "id": "529346568190042564",
        "title": "兴仁服务区公共厕所",
        "address": "宁夏回族自治区中卫市沙坡头区兴仁服务区南区加气站南(6国道)",
        "tel": "",
        "category": "基础设施:公共设施:公共厕所",
        "type": 0,
        "location": {
            "lat": 36.955431,
            "lng": 105.286357
        },
        "ad_info": {
            "adcode": 640502,
            "province": "宁夏回族自治区",
            "city": "中卫市",
            "district": "沙坡头区"
        }
    },
    {
        "id": "2974050094320945460",
        "title": "老年公寓西南侧-共享公厕",
        "address": "宁夏回族自治区中卫市沙坡头区沙坡头区建设局西南150米(滨河东路北)",
        "tel": "",
        "category": "基础设施:公共设施:公共厕所",
        "type": 0,
        "location": {
            "lat": 37.485382,
            "lng": 105.17978
        },
        "ad_info": {
            "adcode": 640502,
            "province": "宁夏回族自治区",
            "city": "中卫市",
            "district": "沙坡头区"
        }
    },
    {
        "id": "13509002952952744485",
        "title": "宜居中转站(共享公厕)",
        "address": "宁夏回族自治区中卫市沙坡头区南苑西路与宜居南街交叉口正东方向275米左右",
        "tel": "",
        "category": "基础设施:公共设施:公共厕所",
        "type": 0,
        "location": {
            "lat": 37.511152,
            "lng": 105.167035
        },
        "ad_info": {
            "adcode": 640502,
            "province": "宁夏回族自治区",
            "city": "中卫市",
            "district": "沙坡头区"
        }
    },
    {
        "id": "15987618547477136114",
        "title": "中博机电市场西北角移动公厕(康民花园)",
        "address": "宁夏回族自治区中卫市沙坡头区文萃北街与文萃南街交叉口正西方向121米左右",
        "tel": "",
        "category": "基础设施:公共设施:公共厕所",
        "type": 0,
        "location": {
            "lat": 37.51562,
            "lng": 105.209616
        },
        "ad_info": {
            "adcode": 640502,
            "province": "宁夏回族自治区",
            "city": "中卫市",
            "district": "沙坡头区"
        }
    },
    {
        "id": "5493374175437830837",
        "title": "中卫服务区公共厕所",
        "address": "宁夏回族自治区中卫市中宁县G338与迎大线交叉口东北方向1066米左右",
        "tel": "",
        "category": "基础设施:公共设施:公共厕所",
        "type": 0,
        "location": {
            "lat": 37.403006,
            "lng": 105.588359
        },
        "ad_info": {
            "adcode": 640521,
            "province": "宁夏回族自治区",
            "city": "中卫市",
            "district": "中宁县"
        }
    },
    {
        "id": "524036370745545392",
        "title": "宁夏大学中卫校区西北角新墩路东侧(公厕)",
        "address": "宁夏回族自治区中卫市沙坡头区中关村大街与新墩桥交叉口正南方向267米左右",
        "tel": "",
        "category": "基础设施:公共设施:公共厕所",
        "type": 0,
        "location": {
            "lat": 37.50172,
            "lng": 105.170181
        },
        "ad_info": {
            "adcode": 640502,
            "province": "宁夏回族自治区",
            "city": "中卫市",
            "district": "沙坡头区"
        }
    },
    {
        "id": "17790626664329395101",
        "title": "鸣沙服务区公共厕所",
        "address": "宁夏回族自治区中卫市中宁县鸣沙服务区餐厅(京藏高速公路东)",
        "tel": "",
        "category": "基础设施:公共设施:公共厕所",
        "type": 0,
        "location": {
            "lat": 37.568535,
            "lng": 105.913101
        },
        "ad_info": {
            "adcode": 640521,
            "province": "宁夏回族自治区",
            "city": "中卫市",
            "district": "中宁县"
        }
    },
    {
        "id": "8371319565924378837",
        "title": "五馆东北角移动公厕(应理南街)",
        "address": "宁夏回族自治区中卫市沙坡头区应理南街与沙坡头西大道交叉口正南方向198米左右",
        "tel": "",
        "category": "基础设施:公共设施:公共厕所",
        "type": 0,
        "location": {
            "lat": 37.503345,
            "lng": 105.179896
        },
        "ad_info": {
            "adcode": 640502,
            "province": "宁夏回族自治区",
            "city": "中卫市",
            "district": "沙坡头区"
        }
    },
    {
        "id": "63771500323684730",
        "title": "鸣沙服务区公共厕所",
        "address": "宁夏回族自治区中卫市中宁县福银高速鸣沙服务区",
        "tel": "",
        "category": "基础设施:公共设施:公共厕所",
        "type": 0,
        "location": {
            "lat": 37.570021,
            "lng": 105.91171
        },
        "ad_info": {
            "adcode": 640521,
            "province": "宁夏回族自治区",
            "city": "中卫市",
            "district": "中宁县"
        }
    },
    {
        "id": "1882125607503765367",
        "title": "中卫大酒店(共享公共厕所)",
        "address": "宁夏回族自治区中卫市沙坡头区中卫大酒店(鼓楼高庙保安寺店)",
        "tel": "",
        "category": "基础设施:公共设施:公共厕所",
        "type": 0,
        "location": {
            "lat": 37.518782,
            "lng": 105.190744
        },
        "ad_info": {
            "adcode": 640502,
            "province": "宁夏回族自治区",
            "city": "中卫市",
            "district": "沙坡头区"
        }
    },
    {
        "id": "10230869208666790228",
        "title": "公共厕所",
        "address": "宁夏回族自治区中卫市沙坡头区鼓楼北街159号",
        "tel": "",
        "category": "基础设施:公共设施:公共厕所",
        "type": 0,
        "location": {
            "lat": 37.521414,
            "lng": 105.190701
        },
        "ad_info": {
            "adcode": 640502,
            "province": "宁夏回族自治区",
            "city": "中卫市",
            "district": "沙坡头区"
        }
    },
    {
        "id": "11847833052538862096",
        "title": "公共厕所",
        "address": "宁夏回族自治区中卫市沙坡头区迎湖路与迎闫公路交叉口西北方向263米左右",
        "tel": "",
        "category": "基础设施:公共设施:公共厕所",
        "type": 0,
        "location": {
            "lat": 37.527152,
            "lng": 105.070834
        },
        "ad_info": {
            "adcode": 640502,
            "province": "宁夏回族自治区",
            "city": "中卫市",
            "district": "沙坡头区"
        }
    },
    {
        "id": "1326546591210814356",
        "title": "文昌镇人民政府1楼共享公厕",
        "address": "宁夏回族自治区中卫市沙坡头区文昌镇人民政府1楼",
        "tel": "",
        "category": "基础设施:公共设施:公共厕所",
        "type": 0,
        "location": {
            "lat": 37.507455,
            "lng": 105.211909
        },
        "ad_info": {
            "adcode": 640502,
            "province": "宁夏回族自治区",
            "city": "中卫市",
            "district": "沙坡头区"
        }
    },
    {
        "id": "15016316455920889345",
        "title": "公共卫生间",
        "address": "宁夏回族自治区中卫市沙坡头区",
        "tel": "",
        "category": "基础设施:公共设施:公共厕所",
        "type": 0,
        "location": {
            "lat": 37.420772,
            "lng": 105.206594
        },
        "ad_info": {
            "adcode": 640502,
            "province": "宁夏回族自治区",
            "city": "中卫市",
            "district": "沙坡头区"
        }
    },
    {
        "id": "8088177726511372158",
        "title": "公共卫生间",
        "address": "宁夏回族自治区中卫市海原县同海高速公路",
        "tel": "",
        "category": "基础设施:公共设施:公共厕所",
        "type": 0,
        "location": {
            "lat": 36.679449,
            "lng": 105.700573
        },
        "ad_info": {
            "adcode": 640522,
            "province": "宁夏回族自治区",
            "city": "中卫市",
            "district": "海原县"
        }
    },
    {
        "id": "17552301787913689585",
        "title": "公共厕所",
        "address": "宁夏回族自治区中卫市沙坡头区长城东路与长城西路交叉口正北方向167米左右",
        "tel": "",
        "category": "基础设施:公共设施:公共厕所",
        "type": 0,
        "location": {
            "lat": 37.520505,
            "lng": 105.189374
        },
        "ad_info": {
            "adcode": 640502,
            "province": "宁夏回族自治区",
            "city": "中卫市",
            "district": "沙坡头区"
        }
    },
    {
        "id": "8440910668654736688",
        "title": "公共厕所",
        "address": "宁夏回族自治区中卫市沙坡头区C298与Y237交叉口正东方向354米左右",
        "tel": "",
        "category": "基础设施:公共设施:公共厕所",
        "type": 0,
        "location": {
            "lat": 37.459042,
            "lng": 105.13732
        },
        "ad_info": {
            "adcode": 640502,
            "province": "宁夏回族自治区",
            "city": "中卫市",
            "district": "沙坡头区"
        }
    },
    {
        "id": "7230546413031475235",
        "title": "黄河金岸大酒店-共享公厕",
        "address": "宁夏回族自治区中卫市沙坡头区宁夏黄河金岸花园大酒店",
        "tel": "",
        "category": "基础设施:公共设施:公共厕所",
        "type": 0,
        "location": {
            "lat": 37.506138,
            "lng": 105.168255
        },
        "ad_info": {
            "adcode": 640502,
            "province": "宁夏回族自治区",
            "city": "中卫市",
            "district": "沙坡头区"
        }
    },
    {
        "id": "14439040339197610300",
        "title": "公共厕所",
        "address": "宁夏回族自治区中卫市沙坡头区新墩南街198号",
        "tel": "",
        "category": "基础设施:公共设施:公共厕所",
        "type": 0,
        "location": {
            "lat": 37.506838,
            "lng": 105.170442
        },
        "ad_info": {
            "adcode": 640502,
            "province": "宁夏回族自治区",
            "city": "中卫市",
            "district": "沙坡头区"
        }
    },
    {
        "id": "11763824058092420708",
        "title": "公共卫生间",
        "address": "宁夏回族自治区中卫市沙坡头区S201",
        "tel": "",
        "category": "基础设施:公共设施:公共厕所",
        "type": 0,
        "location": {
            "lat": 37.515286,
            "lng": 105.26221
        },
        "ad_info": {
            "adcode": 640502,
            "province": "宁夏回族自治区",
            "city": "中卫市",
            "district": "沙坡头区"
        }
    },
    {
        "id": "15297675356207499962",
        "title": "三森家居城1楼(共享公厕)",
        "address": "宁夏回族自治区中卫市沙坡头区文昌北街与文昌南街交叉口东北方向79米左右",
        "tel": "",
        "category": "基础设施:公共设施:公共厕所",
        "type": 0,
        "location": {
            "lat": 37.515568,
            "lng": 105.195497
        },
        "ad_info": {
            "adcode": 640502,
            "province": "宁夏回族自治区",
            "city": "中卫市",
            "district": "沙坡头区"
        }
    },
    {
        "id": "10378621400861782155",
        "title": "倾城壹品1楼(共享公厕)",
        "address": "宁夏回族自治区中卫市沙坡头区宁钢大道与鼓楼东街交叉口正西方向209米左右",
        "tel": "",
        "category": "基础设施:公共设施:公共厕所",
        "type": 0,
        "location": {
            "lat": 37.516385,
            "lng": 105.225019
        },
        "ad_info": {
            "adcode": 640502,
            "province": "宁夏回族自治区",
            "city": "中卫市",
            "district": "沙坡头区"
        }
    },
    {
        "id": "9643757206548796970",
        "title": "公共厕所",
        "address": "宁夏回族自治区中卫市沙坡头区中卫市第九中学西南(机场大道与美利渠交汇处北侧绿化带内)",
        "tel": "",
        "category": "基础设施:公共设施:公共厕所",
        "type": 0,
        "location": {
            "lat": 37.507518,
            "lng": 105.159189
        },
        "ad_info": {
            "adcode": 640502,
            "province": "宁夏回族自治区",
            "city": "中卫市",
            "district": "沙坡头区"
        }
    },
    {
        "id": "14353324822051824048",
        "title": "公共厕所",
        "address": "宁夏回族自治区中卫市沙坡头区文萃北街与长城东路交叉口东南方向119米左右",
        "tel": "",
        "category": "基础设施:公共设施:公共厕所",
        "type": 0,
        "location": {
            "lat": 37.518555,
            "lng": 105.212095
        },
        "ad_info": {
            "adcode": 640502,
            "province": "宁夏回族自治区",
            "city": "中卫市",
            "district": "沙坡头区"
        }
    },
    {
        "id": "1268427131361946612",
        "title": "公共厕所",
        "address": "宁夏回族自治区中卫市沙坡头区文萃南街东",
        "tel": "",
        "category": "基础设施:公共设施:公共厕所",
        "type": 0,
        "location": {
            "lat": 37.510255,
            "lng": 105.211077
        },
        "ad_info": {
            "adcode": 640502,
            "province": "宁夏回族自治区",
            "city": "中卫市",
            "district": "沙坡头区"
        }
    },
    {
        "id": "14028191692207078507",
        "title": "中卫市沙坡头时空之门公共厕所",
        "address": "宁夏回族自治区中卫市沙坡头区沙坡头旅游景区时空之门游客中心西侧",
        "tel": "",
        "category": "基础设施:公共设施:公共厕所",
        "type": 0,
        "location": {
            "lat": 37.531467,
            "lng": 104.991425
        },
        "ad_info": {
            "adcode": 640502,
            "province": "宁夏回族自治区",
            "city": "中卫市",
            "district": "沙坡头区"
        }
    },
    {
        "id": "2886157555326874206",
        "title": "中卫市十二小学东北侧围墙外公厕",
        "address": "宁夏回族自治区中卫市沙坡头区丰安东路与五里南街交叉口正北方向192米左右",
        "tel": "",
        "category": "基础设施:公共设施:公共厕所",
        "type": 0,
        "location": {
            "lat": 37.502917,
            "lng": 105.220593
        },
        "ad_info": {
            "adcode": 640502,
            "province": "宁夏回族自治区",
            "city": "中卫市",
            "district": "沙坡头区"
        }
    },
    {
        "id": "6783193479606908835",
        "title": "公共厕所",
        "address": "宁夏回族自治区中卫市中宁县G109与石空东街交叉口正北方向363米左右",
        "tel": "",
        "category": "基础设施:公共设施:公共厕所",
        "type": 0,
        "location": {
            "lat": 37.554118,
            "lng": 105.667873
        },
        "ad_info": {
            "adcode": 640521,
            "province": "宁夏回族自治区",
            "city": "中卫市",
            "district": "中宁县"
        }
    },
    {
        "id": "14058755924318368467",
        "title": "公共卫生间",
        "address": "宁夏回族自治区中卫市沙坡头区",
        "tel": "",
        "category": "基础设施:公共设施:公共厕所",
        "type": 0,
        "location": {
            "lat": 37.530922,
            "lng": 105.251784
        },
        "ad_info": {
            "adcode": 640502,
            "province": "宁夏回族自治区",
            "city": "中卫市",
            "district": "沙坡头区"
        }
    },
    {
        "id": "5029391822180628467",
        "title": "公共厕所",
        "address": "宁夏回族自治区中卫市海原县S202与S204交叉口正南方向440米左右",
        "tel": "",
        "category": "基础设施:公共设施:公共厕所",
        "type": 0,
        "location": {
            "lat": 36.230602,
            "lng": 105.882608
        },
        "ad_info": {
            "adcode": 640522,
            "province": "宁夏回族自治区",
            "city": "中卫市",
            "district": "海原县"
        }
    },
    {
        "id": "15341281322000859972",
        "title": "南苑路与阳光巷交汇处临时停车场内公共厕所",
        "address": "宁夏回族自治区中卫市沙坡头区兴隆北街与兴隆南街交叉口正南方向65米左右",
        "tel": "",
        "category": "基础设施:公共设施:公共厕所",
        "type": 0,
        "location": {
            "lat": 37.514892,
            "lng": 105.186623
        },
        "ad_info": {
            "adcode": 640502,
            "province": "宁夏回族自治区",
            "city": "中卫市",
            "district": "沙坡头区"
        }
    },
    {
        "id": "12020931292546735779",
        "title": "众一山水东门公共厕所",
        "address": "宁夏回族自治区中卫市沙坡头区鼓楼南街326号",
        "tel": "",
        "category": "基础设施:公共设施:公共厕所",
        "type": 0,
        "location": {
            "lat": 37.50156,
            "lng": 105.189458
        },
        "ad_info": {
            "adcode": 640502,
            "province": "宁夏回族自治区",
            "city": "中卫市",
            "district": "沙坡头区"
        }
    },
    {
        "id": "9621554000923262695",
        "title": "公共卫生间",
        "address": "宁夏回族自治区中卫市沙坡头区迎大线",
        "tel": "",
        "category": "基础设施:公共设施:公共厕所",
        "type": 0,
        "location": {
            "lat": 37.466795,
            "lng": 105.067331
        },
        "ad_info": {
            "adcode": 640502,
            "province": "宁夏回族自治区",
            "city": "中卫市",
            "district": "沙坡头区"
        }
    },
    {
        "id": "5456354216291713834",
        "title": "东方酒店1楼(共享公厕)",
        "address": "宁夏回族自治区中卫市沙坡头区文萃北街与文萃南街交叉口东北方向59米左右",
        "tel": "",
        "category": "基础设施:公共设施:公共厕所",
        "type": 0,
        "location": {
            "lat": 37.516346,
            "lng": 105.211345
        },
        "ad_info": {
            "adcode": 640502,
            "province": "宁夏回族自治区",
            "city": "中卫市",
            "district": "沙坡头区"
        }
    },
    {
        "id": "4883820033841707581",
        "title": "公共厕所",
        "address": "宁夏回族自治区中卫市海原县东城路与建设路交叉口正东方向256米左右",
        "tel": "",
        "category": "基础设施:公共设施:公共厕所",
        "type": 0,
        "location": {
            "lat": 36.561317,
            "lng": 105.650219
        },
        "ad_info": {
            "adcode": 640522,
            "province": "宁夏回族自治区",
            "city": "中卫市",
            "district": "海原县"
        }
    },
    {
        "id": "13219745248464631523",
        "title": "渠口服务区公共厕所",
        "address": "宁夏回族自治区中卫市中宁县G1816乌玛高速与渠口服务区交叉口西320米",
        "tel": "",
        "category": "基础设施:公共设施:公共厕所",
        "type": 0,
        "location": {
            "lat": 37.701141,
            "lng": 105.805901
        },
        "ad_info": {
            "adcode": 640521,
            "province": "宁夏回族自治区",
            "city": "中卫市",
            "district": "中宁县"
        }
    },
    {
        "id": "15681838613098502664",
        "title": "雍楼新村东门公共厕所",
        "address": "宁夏回族自治区中卫市沙坡头区迎宾大道18号",
        "tel": "",
        "category": "基础设施:公共设施:公共厕所",
        "type": 0,
        "location": {
            "lat": 37.514756,
            "lng": 105.216341
        },
        "ad_info": {
            "adcode": 640502,
            "province": "宁夏回族自治区",
            "city": "中卫市",
            "district": "沙坡头区"
        }
    },
    {
        "id": "3215522323465993269",
        "title": "公共厕所",
        "address": "宁夏回族自治区中卫市沙坡头区团结路与鼓楼北街交叉口西160米",
        "tel": "",
        "category": "基础设施:公共设施:公共厕所",
        "type": 0,
        "location": {
            "lat": 37.517333,
            "lng": 105.188222
        },
        "ad_info": {
            "adcode": 640502,
            "province": "宁夏回族自治区",
            "city": "中卫市",
            "district": "沙坡头区"
        }
    },
    {
        "id": "13740623589034749799",
        "title": "公共厕所",
        "address": "宁夏回族自治区中卫市沙坡头区中央西大道51号",
        "tel": "",
        "category": "基础设施:公共设施:公共厕所",
        "type": 0,
        "location": {
            "lat": 37.503926,
            "lng": 105.183521
        },
        "ad_info": {
            "adcode": 640502,
            "province": "宁夏回族自治区",
            "city": "中卫市",
            "district": "沙坡头区"
        }
    },
    {
        "id": "15101988897504972108",
        "title": "府后广场西北侧公共厕所",
        "address": "宁夏回族自治区中卫市沙坡头区鸣沙路53号府后广场西北角",
        "tel": "",
        "category": "基础设施:公共设施:公共厕所",
        "type": 0,
        "location": {
            "lat": 37.50378,
            "lng": 105.194712
        },
        "ad_info": {
            "adcode": 640502,
            "province": "宁夏回族自治区",
            "city": "中卫市",
            "district": "沙坡头区"
        }
    },
    {
        "id": "14709158395345840843",
        "title": "公共厕所",
        "address": "宁夏回族自治区中卫市沙坡头区中关村大街与滨河西路交叉口正北方向110米左右",
        "tel": "",
        "category": "基础设施:公共设施:公共厕所",
        "type": 0,
        "location": {
            "lat": 37.48512,
            "lng": 105.169322
        },
        "ad_info": {
            "adcode": 640502,
            "province": "宁夏回族自治区",
            "city": "中卫市",
            "district": "沙坡头区"
        }
    },
    {
        "id": "6903203936788518946",
        "title": "公共厕所",
        "address": "宁夏回族自治区中卫市沙坡头区科豪大道",
        "tel": "",
        "category": "基础设施:公共设施:公共厕所",
        "type": 0,
        "location": {
            "lat": 37.453758,
            "lng": 105.117831
        },
        "ad_info": {
            "adcode": 640502,
            "province": "宁夏回族自治区",
            "city": "中卫市",
            "district": "沙坡头区"
        }
    },
    {
        "id": "13398711981738051069",
        "title": "公共厕所",
        "address": "宁夏回族自治区中卫市沙坡头区中博山水大院(黄河街)360号",
        "tel": "18595116346",
        "category": "基础设施:公共设施:公共厕所",
        "type": 0,
        "location": {
            "lat": 37.491615,
            "lng": 105.209088
        },
        "ad_info": {
            "adcode": 640502,
            "province": "宁夏回族自治区",
            "city": "中卫市",
            "district": "沙坡头区"
        }
    },
    {
        "id": "7085806103863300865",
        "title": "滨河首末站(公交站)公共卫生间",
        "address": "宁夏回族自治区中卫市沙坡头区应理南街与滨河西路交叉口东北方向52米左右",
        "tel": "",
        "category": "基础设施:公共设施:公共厕所",
        "type": 0,
        "location": {
            "lat": 37.485396,
            "lng": 105.179779
        },
        "ad_info": {
            "adcode": 640502,
            "province": "宁夏回族自治区",
            "city": "中卫市",
            "district": "沙坡头区"
        }
    },
    {
        "id": "13216789738962952361",
        "title": "公共厕所",
        "address": "宁夏回族自治区中卫市沙坡头区",
        "tel": "",
        "category": "基础设施:公共设施:公共厕所",
        "type": 0,
        "location": {
            "lat": 37.472331,
            "lng": 105.135264
        },
        "ad_info": {
            "adcode": 640502,
            "province": "宁夏回族自治区",
            "city": "中卫市",
            "district": "沙坡头区"
        }
    },
    {
        "id": "1115320674647059638",
        "title": "公共厕所",
        "address": "宁夏回族自治区中卫市沙坡头区怀远北街西",
        "tel": "",
        "category": "基础设施:公共设施:公共厕所",
        "type": 0,
        "location": {
            "lat": 37.520105,
            "lng": 105.205007
        },
        "ad_info": {
            "adcode": 640502,
            "province": "宁夏回族自治区",
            "city": "中卫市",
            "district": "沙坡头区"
        }
    },
    {
        "id": "12441772094291407424",
        "title": "沙漠观景台停车区公共厕所",
        "address": "宁夏回族自治区中卫市沙坡头区G1816乌玛高速与沙漠观景台停车区交叉口西400米",
        "tel": "",
        "category": "基础设施:公共设施:公共厕所",
        "type": 0,
        "location": {
            "lat": 37.514865,
            "lng": 104.899874
        },
        "ad_info": {
            "adcode": 640502,
            "province": "宁夏回族自治区",
            "city": "中卫市",
            "district": "沙坡头区"
        }
    },
    {
        "id": "8122663490376881436",
        "title": "黄河花园东北角(共享公厕)",
        "address": "宁夏回族自治区中卫市沙坡头区沙坡头东大道与迎宾大道交叉口正南方向243米左右",
        "tel": "",
        "category": "基础设施:公共设施:公共厕所",
        "type": 0,
        "location": {
            "lat": 37.50369,
            "lng": 105.214581
        },
        "ad_info": {
            "adcode": 640502,
            "province": "宁夏回族自治区",
            "city": "中卫市",
            "district": "沙坡头区"
        }
    },
    {
        "id": "11596204173586552550",
        "title": "宁刚大道(共享公厕)",
        "address": "宁夏回族自治区中卫市沙坡头区宁钢大道与康平路交叉口正北方向97米左右",
        "tel": "",
        "category": "基础设施:公共设施:公共厕所",
        "type": 0,
        "location": {
            "lat": 37.499432,
            "lng": 105.225936
        },
        "ad_info": {
            "adcode": 640502,
            "province": "宁夏回族自治区",
            "city": "中卫市",
            "district": "沙坡头区"
        }
    },
    {
        "id": "12852122769274805926",
        "title": "沙坡头西大道草原往事2楼(共享公厕)",
        "address": "宁夏回族自治区中卫市沙坡头区沙坡头东大道与沙坡头西大道交叉口西北方向64米左右",
        "tel": "",
        "category": "基础设施:公共设施:公共厕所",
        "type": 0,
        "location": {
            "lat": 37.505671,
            "lng": 105.18948
        },
        "ad_info": {
            "adcode": 640502,
            "province": "宁夏回族自治区",
            "city": "中卫市",
            "district": "沙坡头区"
        }
    },
    {
        "id": "1312730013403306664",
        "title": "公共厕所",
        "address": "宁夏回族自治区中卫市沙坡头区滨河镇人民政府",
        "tel": "",
        "category": "基础设施:公共设施:公共厕所",
        "type": 0,
        "location": {
            "lat": 37.50514,
            "lng": 105.183484
        },
        "ad_info": {
            "adcode": 640502,
            "province": "宁夏回族自治区",
            "city": "中卫市",
            "district": "沙坡头区"
        }
    },
    {
        "id": "6320325588362023492",
        "title": "公共厕所",
        "address": "宁夏回族自治区中卫市海原县西安镇谢伟农机修理厂西侧110米",
        "tel": "",
        "category": "基础设施:公共设施:公共厕所",
        "type": 0,
        "location": {
            "lat": 36.596024,
            "lng": 105.488486
        },
        "ad_info": {
            "adcode": 640522,
            "province": "宁夏回族自治区",
            "city": "中卫市",
            "district": "海原县"
        }
    },
    {
        "id": "15090319743544293887",
        "title": "公共厕所",
        "address": "宁夏回族自治区中卫市沙坡头区宜居北街与宜居南街交叉口正西方向183米左右",
        "tel": "",
        "category": "基础设施:公共设施:公共厕所",
        "type": 0,
        "location": {
            "lat": 37.514045,
            "lng": 105.161948
        },
        "ad_info": {
            "adcode": 640502,
            "province": "宁夏回族自治区",
            "city": "中卫市",
            "district": "沙坡头区"
        }
    },
    {
        "id": "5177946011422427948",
        "title": "沙坡头区司法局2楼西侧-共享公厕",
        "address": "宁夏回族自治区中卫市沙坡头区人力资源和社会保障局(鼓楼西街北)",
        "tel": "",
        "category": "基础设施:公共设施:公共厕所",
        "type": 0,
        "location": {
            "lat": 37.51577,
            "lng": 105.18189
        },
        "ad_info": {
            "adcode": 640502,
            "province": "宁夏回族自治区",
            "city": "中卫市",
            "district": "沙坡头区"
        }
    },
    {
        "id": "18154735445420169547",
        "title": "公共卫生间",
        "address": "宁夏回族自治区中卫市沙坡头区",
        "tel": "",
        "category": "基础设施:公共设施:公共厕所",
        "type": 0,
        "location": {
            "lat": 37.496795,
            "lng": 105.248673
        },
        "ad_info": {
            "adcode": 640502,
            "province": "宁夏回族自治区",
            "city": "中卫市",
            "district": "沙坡头区"
        }
    },
    {
        "id": "3331058988576880491",
        "title": "公共厕所",
        "address": "宁夏回族自治区中卫市中宁县S201与石空西街交叉口正东方向726米左右",
        "tel": "",
        "category": "基础设施:公共设施:公共厕所",
        "type": 0,
        "location": {
            "lat": 37.548346,
            "lng": 105.657722
        },
        "ad_info": {
            "adcode": 640521,
            "province": "宁夏回族自治区",
            "city": "中卫市",
            "district": "中宁县"
        }
    },
    {
        "id": "2029481841891137508",
        "title": "中国石油中卫机场大道加油站西侧公厕",
        "address": "宁夏回族自治区中卫市沙坡头区机场大道与新安路交汇处东南角",
        "tel": "",
        "category": "基础设施:公共设施:公共厕所",
        "type": 0,
        "location": {
            "lat": 37.488124,
            "lng": 105.158907
        },
        "ad_info": {
            "adcode": 640502,
            "province": "宁夏回族自治区",
            "city": "中卫市",
            "district": "沙坡头区"
        }
    },
    {
        "id": "9917753575568202658",
        "title": "公共卫生间",
        "address": "宁夏回族自治区中卫市海原县S103",
        "tel": "",
        "category": "基础设施:公共设施:公共厕所",
        "type": 0,
        "location": {
            "lat": 36.780026,
            "lng": 105.793194
        },
        "ad_info": {
            "adcode": 640522,
            "province": "宁夏回族自治区",
            "city": "中卫市",
            "district": "海原县"
        }
    },
    {
        "id": "11127385584473925506",
        "title": "迎宾大道西侧公厕(山水大院东门向南宽幅绿化带内)",
        "address": "宁夏回族自治区中卫市沙坡头区山水巷与迎宾大道辅路交叉口西北方向36米左右",
        "tel": "",
        "category": "基础设施:公共设施:公共厕所",
        "type": 0,
        "location": {
            "lat": 37.490109,
            "lng": 105.213076
        },
        "ad_info": {
            "adcode": 640502,
            "province": "宁夏回族自治区",
            "city": "中卫市",
            "district": "沙坡头区"
        }
    },
    {
        "id": "13100474599799327338",
        "title": "洗手间",
        "address": "宁夏回族自治区中卫市沙坡头区",
        "tel": "",
        "category": "基础设施:公共设施:公共厕所",
        "type": 0,
        "location": {
            "lat": 37.469087,
            "lng": 105.037049
        },
        "ad_info": {
            "adcode": 640502,
            "province": "宁夏回族自治区",
            "city": "中卫市",
            "district": "沙坡头区"
        }
    },
    {
        "id": "4126894262124741916",
        "title": "公共厕所",
        "address": "宁夏回族自治区中卫市沙坡头区迎大线",
        "tel": "",
        "category": "基础设施:公共设施:公共厕所",
        "type": 0,
        "location": {
            "lat": 37.458539,
            "lng": 105.108199
        },
        "ad_info": {
            "adcode": 640502,
            "province": "宁夏回族自治区",
            "city": "中卫市",
            "district": "沙坡头区"
        }
    },
    {
        "id": "18131008643775185177",
        "title": "公共卫生间",
        "address": "宁夏回族自治区中卫市沙坡头区",
        "tel": "",
        "category": "基础设施:公共设施:公共厕所",
        "type": 0,
        "location": {
            "lat": 37.5311,
            "lng": 105.319249
        },
        "ad_info": {
            "adcode": 640502,
            "province": "宁夏回族自治区",
            "city": "中卫市",
            "district": "沙坡头区"
        }
    },
    {
        "id": "8991595145077683335",
        "title": "壹方城C区南侧公厕",
        "address": "宁夏回族自治区中卫市沙坡头区五里南街与滨河东路交叉口东北方向103米左右",
        "tel": "",
        "category": "基础设施:公共设施:公共厕所",
        "type": 0,
        "location": {
            "lat": 37.489397,
            "lng": 105.220614
        },
        "ad_info": {
            "adcode": 640502,
            "province": "宁夏回族自治区",
            "city": "中卫市",
            "district": "沙坡头区"
        }
    },
    {
        "id": "10219160535191098714",
        "title": "鼓楼南街(共享公厕)",
        "address": "宁夏回族自治区中卫市沙坡头区鸣沙路与鼓楼南街交叉口西南方向40米左右",
        "tel": "",
        "category": "基础设施:公共设施:公共厕所",
        "type": 0,
        "location": {
            "lat": 37.501566,
            "lng": 105.189631
        },
        "ad_info": {
            "adcode": 640502,
            "province": "宁夏回族自治区",
            "city": "中卫市",
            "district": "沙坡头区"
        }
    },
    {
        "id": "11653925759805963733",
        "title": "公共厕所",
        "address": "宁夏回族自治区中卫市沙坡头区中央东大道4号府后广场东北侧",
        "tel": "",
        "category": "基础设施:公共设施:公共厕所",
        "type": 0,
        "location": {
            "lat": 37.504014,
            "lng": 105.198873
        },
        "ad_info": {
            "adcode": 640502,
            "province": "宁夏回族自治区",
            "city": "中卫市",
            "district": "沙坡头区"
        }
    },
    {
        "id": "372033462708344734",
        "title": "关桥服务区公共厕所",
        "address": "宁夏回族自治区中卫市海原县与S40同海高速交叉口西北300米",
        "tel": "",
        "category": "基础设施:公共设施:公共厕所",
        "type": 0,
        "location": {
            "lat": 36.79316,
            "lng": 105.839202
        },
        "ad_info": {
            "adcode": 640522,
            "province": "宁夏回族自治区",
            "city": "中卫市",
            "district": "海原县"
        }
    },
    {
        "id": "9401255499561078707",
        "title": "四季鲜中转站移动公厕",
        "address": "宁夏回族自治区中卫市沙坡头区南苑东路与宁钢大道交叉口西南方向11米左右",
        "tel": "",
        "category": "基础设施:公共设施:公共厕所",
        "type": 0,
        "location": {
            "lat": 37.511556,
            "lng": 105.226784
        },
        "ad_info": {
            "adcode": 640502,
            "province": "宁夏回族自治区",
            "city": "中卫市",
            "district": "沙坡头区"
        }
    },
    {
        "id": "6569957151533677029",
        "title": "公共厕所",
        "address": "宁夏回族自治区中卫市海原县金城街与黎明路交叉口正东方向251米左右",
        "tel": "",
        "category": "基础设施:公共设施:公共厕所",
        "type": 0,
        "location": {
            "lat": 36.558419,
            "lng": 105.646351
        },
        "ad_info": {
            "adcode": 640522,
            "province": "宁夏回族自治区",
            "city": "中卫市",
            "district": "海原县"
        }
    },
    {
        "id": "1590419618785228216",
        "title": "宏伟百谦酒店-共享公厕",
        "address": "宁夏回族自治区中卫市沙坡头区紫金苑(丰安东路北)",
        "tel": "",
        "category": "基础设施:公共设施:公共厕所",
        "type": 0,
        "location": {
            "lat": 37.500997,
            "lng": 105.216102
        },
        "ad_info": {
            "adcode": 640502,
            "province": "宁夏回族自治区",
            "city": "中卫市",
            "district": "沙坡头区"
        }
    },
    {
        "id": "2026583256088009095",
        "title": "五环广场西北角公厕",
        "address": "宁夏回族自治区中卫市沙坡头区文萃北街与长城东路交叉口正东方向94米左右",
        "tel": "",
        "category": "基础设施:公共设施:公共厕所",
        "type": 0,
        "location": {
            "lat": 37.518859,
            "lng": 105.211971
        },
        "ad_info": {
            "adcode": 640502,
            "province": "宁夏回族自治区",
            "city": "中卫市",
            "district": "沙坡头区"
        }
    },
    {
        "id": "12269253532264245756",
        "title": "公共厕所",
        "address": "宁夏回族自治区中卫市沙坡头区香山东路39号",
        "tel": "",
        "category": "基础设施:公共设施:公共厕所",
        "type": 0,
        "location": {
            "lat": 37.513485,
            "lng": 105.191989
        },
        "ad_info": {
            "adcode": 640502,
            "province": "宁夏回族自治区",
            "city": "中卫市",
            "district": "沙坡头区"
        }
    },
    {
        "id": "11860106745488407510",
        "title": "公共厕所",
        "address": "宁夏回族自治区中卫市沙坡头区沙坡头旅游新镇3号停车场",
        "tel": "",
        "category": "基础设施:公共设施:公共厕所",
        "type": 0,
        "location": {
            "lat": 37.495472,
            "lng": 105.088907
        },
        "ad_info": {
            "adcode": 640502,
            "province": "宁夏回族自治区",
            "city": "中卫市",
            "district": "沙坡头区"
        }
    },
    {
        "id": "12399384105362840112",
        "title": "公共厕所",
        "address": "宁夏回族自治区中卫市沙坡头区瑞丰路与鼓楼西街交叉口正北方向21米左右",
        "tel": "",
        "category": "基础设施:公共设施:公共厕所",
        "type": 0,
        "location": {
            "lat": 37.515836,
            "lng": 105.176537
        },
        "ad_info": {
            "adcode": 640502,
            "province": "宁夏回族自治区",
            "city": "中卫市",
            "district": "沙坡头区"
        }
    },
    {
        "id": "16753989123255670128",
        "title": "官桥中转站公共厕所",
        "address": "宁夏回族自治区中卫市沙坡头区长城西街198号",
        "tel": "",
        "category": "基础设施:公共设施:公共厕所",
        "type": 0,
        "location": {
            "lat": 37.519417,
            "lng": 105.182159
        },
        "ad_info": {
            "adcode": 640502,
            "province": "宁夏回族自治区",
            "city": "中卫市",
            "district": "沙坡头区"
        }
    },
    {
        "id": "10281468403788690780",
        "title": "公共厕所",
        "address": "宁夏回族自治区中卫市中宁县团结路与新堡东街交叉口西北方向144米左右",
        "tel": "",
        "category": "基础设施:公共设施:公共厕所",
        "type": 0,
        "location": {
            "lat": 37.477643,
            "lng": 105.694534
        },
        "ad_info": {
            "adcode": 640521,
            "province": "宁夏回族自治区",
            "city": "中卫市",
            "district": "中宁县"
        }
    },
    {
        "id": "12618828626322151920",
        "title": "公共厕所",
        "address": "宁夏回族自治区中卫市海原县金城街与黎明路交叉口东南方向504米左右",
        "tel": "",
        "category": "基础设施:公共设施:公共厕所",
        "type": 0,
        "location": {
            "lat": 36.555695,
            "lng": 105.648147
        },
        "ad_info": {
            "adcode": 640522,
            "province": "宁夏回族自治区",
            "city": "中卫市",
            "district": "海原县"
        }
    },
    {
        "id": "1270213077427655856",
        "title": "公共厕所",
        "address": "宁夏回族自治区中卫市中宁县正大路与鸣雁东路交叉口正北方向260米左右",
        "tel": "",
        "category": "基础设施:公共设施:公共厕所",
        "type": 0,
        "location": {
            "lat": 37.503567,
            "lng": 105.680729
        },
        "ad_info": {
            "adcode": 640521,
            "province": "宁夏回族自治区",
            "city": "中卫市",
            "district": "中宁县"
        }
    },
    {
        "id": "4516369005770349361",
        "title": "公共厕所",
        "address": "宁夏回族自治区中卫市沙坡头区中山街14号",
        "tel": "",
        "category": "基础设施:公共设施:公共厕所",
        "type": 0,
        "location": {
            "lat": 37.514268,
            "lng": 105.187813
        },
        "ad_info": {
            "adcode": 640502,
            "province": "宁夏回族自治区",
            "city": "中卫市",
            "district": "沙坡头区"
        }
    },
    {
        "id": "11830974491728956655",
        "title": "公共厕所",
        "address": "宁夏回族自治区中卫市中宁县109国道西50米",
        "tel": "",
        "category": "基础设施:公共设施:公共厕所",
        "type": 0,
        "location": {
            "lat": 37.645151,
            "lng": 105.842124
        },
        "ad_info": {
            "adcode": 640521,
            "province": "宁夏回族自治区",
            "city": "中卫市",
            "district": "中宁县"
        }
    },
    {
        "id": "10314252263721757560",
        "title": "公共厕所",
        "address": "宁夏回族自治区中卫市中宁县G109与新水路交叉口西南方向1286米左右",
        "tel": "",
        "category": "基础设施:公共设施:公共厕所",
        "type": 0,
        "location": {
            "lat": 37.423191,
            "lng": 105.665559
        },
        "ad_info": {
            "adcode": 640521,
            "province": "宁夏回族自治区",
            "city": "中卫市",
            "district": "中宁县"
        }
    },
    {
        "id": "14730081445471013209",
        "title": "公共厕所",
        "address": "宁夏回族自治区中卫市沙坡头区常信南街与文化路交叉口东北方向28米左右",
        "tel": "",
        "category": "基础设施:公共设施:公共厕所",
        "type": 0,
        "location": {
            "lat": 37.470633,
            "lng": 105.435581
        },
        "ad_info": {
            "adcode": 640502,
            "province": "宁夏回族自治区",
            "city": "中卫市",
            "district": "沙坡头区"
        }
    },
    {
        "id": "2679924175096197115",
        "title": "中卫一千零一夜温泉秀水度假酒店-公共厕所",
        "address": "宁夏回族自治区中卫市沙坡头区腾格里沙漠湿地金沙岛旅游区秀水岛",
        "tel": "",
        "category": "基础设施:公共设施:公共厕所",
        "type": 0,
        "location": {
            "lat": 37.526335,
            "lng": 105.112412
        },
        "ad_info": {
            "adcode": 640502,
            "province": "宁夏回族自治区",
            "city": "中卫市",
            "district": "沙坡头区"
        }
    },
    {
        "id": "9535816902633351613",
        "title": "同心服务区第一公共厕所",
        "address": "宁夏回族自治区中卫市海原县同心服务区与G70福银高速交叉口西南160米",
        "tel": "",
        "category": "基础设施:公共设施:公共厕所",
        "type": 0,
        "location": {
            "lat": 36.870374,
            "lng": 105.950537
        },
        "ad_info": {
            "adcode": 640522,
            "province": "宁夏回族自治区",
            "city": "中卫市",
            "district": "海原县"
        }
    },
    {
        "id": "6410334016818837194",
        "title": "公共厕所",
        "address": "宁夏回族自治区中卫市中宁县团结路与平安东街交叉口东南方向254米左右",
        "tel": "",
        "category": "基础设施:公共设施:公共厕所",
        "type": 0,
        "location": {
            "lat": 37.488159,
            "lng": 105.688617
        },
        "ad_info": {
            "adcode": 640521,
            "province": "宁夏回族自治区",
            "city": "中卫市",
            "district": "中宁县"
        }
    },
    {
        "id": "2883015204565665016",
        "title": "公共厕所",
        "address": "宁夏回族自治区中卫市沙坡头区四季鲜农产品综合批发市场",
        "tel": "",
        "category": "基础设施:公共设施:公共厕所",
        "type": 0,
        "location": {
            "lat": 37.509493,
            "lng": 105.223913
        },
        "ad_info": {
            "adcode": 640502,
            "province": "宁夏回族自治区",
            "city": "中卫市",
            "district": "沙坡头区"
        }
    },
    {
        "id": "5349898550624731171",
        "title": "公共厕所",
        "address": "宁夏回族自治区中卫市沙坡头区五里南街与沙坡头东大道交叉口正东方向188米左右",
        "tel": "",
        "category": "基础设施:公共设施:公共厕所",
        "type": 0,
        "location": {
            "lat": 37.507486,
            "lng": 105.223268
        },
        "ad_info": {
            "adcode": 640502,
            "province": "宁夏回族自治区",
            "city": "中卫市",
            "district": "沙坡头区"
        }
    },
    {
        "id": "13043996503301590016",
        "title": "公共厕所",
        "address": "宁夏回族自治区中卫市中宁县正大路与鸣雁东路交叉口正南方向240米左右",
        "tel": "",
        "category": "基础设施:公共设施:公共厕所",
        "type": 0,
        "location": {
            "lat": 37.499193,
            "lng": 105.68214
        },
        "ad_info": {
            "adcode": 640521,
            "province": "宁夏回族自治区",
            "city": "中卫市",
            "district": "中宁县"
        }
    },
    {
        "id": "8812367551536733259",
        "title": "公共厕所",
        "address": "宁夏回族自治区中卫市中宁县丰安街与平安西街交叉口正西方向144米左右",
        "tel": "",
        "category": "基础设施:公共设施:公共厕所",
        "type": 0,
        "location": {
            "lat": 37.485167,
            "lng": 105.669134
        },
        "ad_info": {
            "adcode": 640521,
            "province": "宁夏回族自治区",
            "city": "中卫市",
            "district": "中宁县"
        }
    },
    {
        "id": "8519764646815952632",
        "title": "鸣沙服务区第二公共厕所",
        "address": "宁夏回族自治区中卫市中宁县福银高速",
        "tel": "",
        "category": "基础设施:公共设施:公共厕所",
        "type": 0,
        "location": {
            "lat": 37.56882,
            "lng": 105.911446
        },
        "ad_info": {
            "adcode": 640521,
            "province": "宁夏回族自治区",
            "city": "中卫市",
            "district": "中宁县"
        }
    },
    {
        "id": "2026583256088009095",
        "title": "五环广场西北角公厕",
        "address": "宁夏回族自治区中卫市沙坡头区文萃北街与长城东路交叉口正东方向94米左右",
        "tel": "",
        "category": "基础设施:公共设施:公共厕所",
        "type": 0,
        "location": {
            "lat": 37.518859,
            "lng": 105.211971
        },
        "ad_info": {
            "adcode": 640502,
            "province": "宁夏回族自治区",
            "city": "中卫市",
            "district": "沙坡头区"
        }
    },
    {
        "id": "12269253532264245756",
        "title": "公共厕所",
        "address": "宁夏回族自治区中卫市沙坡头区香山东路39号",
        "tel": "",
        "category": "基础设施:公共设施:公共厕所",
        "type": 0,
        "location": {
            "lat": 37.513485,
            "lng": 105.191989
        },
        "ad_info": {
            "adcode": 640502,
            "province": "宁夏回族自治区",
            "city": "中卫市",
            "district": "沙坡头区"
        }
    },
    {
        "id": "11860106745488407510",
        "title": "公共厕所",
        "address": "宁夏回族自治区中卫市沙坡头区沙坡头旅游新镇3号停车场",
        "tel": "",
        "category": "基础设施:公共设施:公共厕所",
        "type": 0,
        "location": {
            "lat": 37.495472,
            "lng": 105.088907
        },
        "ad_info": {
            "adcode": 640502,
            "province": "宁夏回族自治区",
            "city": "中卫市",
            "district": "沙坡头区"
        }
    },
    {
        "id": "12399384105362840112",
        "title": "公共厕所",
        "address": "宁夏回族自治区中卫市沙坡头区瑞丰路与鼓楼西街交叉口正北方向21米左右",
        "tel": "",
        "category": "基础设施:公共设施:公共厕所",
        "type": 0,
        "location": {
            "lat": 37.515836,
            "lng": 105.176537
        },
        "ad_info": {
            "adcode": 640502,
            "province": "宁夏回族自治区",
            "city": "中卫市",
            "district": "沙坡头区"
        }
    },
    {
        "id": "16753989123255670128",
        "title": "官桥中转站公共厕所",
        "address": "宁夏回族自治区中卫市沙坡头区长城西街198号",
        "tel": "",
        "category": "基础设施:公共设施:公共厕所",
        "type": 0,
        "location": {
            "lat": 37.519417,
            "lng": 105.182159
        },
        "ad_info": {
            "adcode": 640502,
            "province": "宁夏回族自治区",
            "city": "中卫市",
            "district": "沙坡头区"
        }
    },
    {
        "id": "10281468403788690780",
        "title": "公共厕所",
        "address": "宁夏回族自治区中卫市中宁县团结路与新堡东街交叉口西北方向144米左右",
        "tel": "",
        "category": "基础设施:公共设施:公共厕所",
        "type": 0,
        "location": {
            "lat": 37.477643,
            "lng": 105.694534
        },
        "ad_info": {
            "adcode": 640521,
            "province": "宁夏回族自治区",
            "city": "中卫市",
            "district": "中宁县"
        }
    },
    {
        "id": "12618828626322151920",
        "title": "公共厕所",
        "address": "宁夏回族自治区中卫市海原县金城街与黎明路交叉口东南方向504米左右",
        "tel": "",
        "category": "基础设施:公共设施:公共厕所",
        "type": 0,
        "location": {
            "lat": 36.555695,
            "lng": 105.648147
        },
        "ad_info": {
            "adcode": 640522,
            "province": "宁夏回族自治区",
            "city": "中卫市",
            "district": "海原县"
        }
    },
    {
        "id": "1270213077427655856",
        "title": "公共厕所",
        "address": "宁夏回族自治区中卫市中宁县正大路与鸣雁东路交叉口正北方向260米左右",
        "tel": "",
        "category": "基础设施:公共设施:公共厕所",
        "type": 0,
        "location": {
            "lat": 37.503567,
            "lng": 105.680729
        },
        "ad_info": {
            "adcode": 640521,
            "province": "宁夏回族自治区",
            "city": "中卫市",
            "district": "中宁县"
        }
    },
    {
        "id": "4516369005770349361",
        "title": "公共厕所",
        "address": "宁夏回族自治区中卫市沙坡头区中山街14号",
        "tel": "",
        "category": "基础设施:公共设施:公共厕所",
        "type": 0,
        "location": {
            "lat": 37.514268,
            "lng": 105.187813
        },
        "ad_info": {
            "adcode": 640502,
            "province": "宁夏回族自治区",
            "city": "中卫市",
            "district": "沙坡头区"
        }
    },
    {
        "id": "11830974491728956655",
        "title": "公共厕所",
        "address": "宁夏回族自治区中卫市中宁县109国道西50米",
        "tel": "",
        "category": "基础设施:公共设施:公共厕所",
        "type": 0,
        "location": {
            "lat": 37.645151,
            "lng": 105.842124
        },
        "ad_info": {
            "adcode": 640521,
            "province": "宁夏回族自治区",
            "city": "中卫市",
            "district": "中宁县"
        }
    },
    {
        "id": "10314252263721757560",
        "title": "公共厕所",
        "address": "宁夏回族自治区中卫市中宁县G109与新水路交叉口西南方向1286米左右",
        "tel": "",
        "category": "基础设施:公共设施:公共厕所",
        "type": 0,
        "location": {
            "lat": 37.423191,
            "lng": 105.665559
        },
        "ad_info": {
            "adcode": 640521,
            "province": "宁夏回族自治区",
            "city": "中卫市",
            "district": "中宁县"
        }
    },
    {
        "id": "14730081445471013209",
        "title": "公共厕所",
        "address": "宁夏回族自治区中卫市沙坡头区常信南街与文化路交叉口东北方向28米左右",
        "tel": "",
        "category": "基础设施:公共设施:公共厕所",
        "type": 0,
        "location": {
            "lat": 37.470633,
            "lng": 105.435581
        },
        "ad_info": {
            "adcode": 640502,
            "province": "宁夏回族自治区",
            "city": "中卫市",
            "district": "沙坡头区"
        }
    },
    {
        "id": "2679924175096197115",
        "title": "中卫一千零一夜温泉秀水度假酒店-公共厕所",
        "address": "宁夏回族自治区中卫市沙坡头区腾格里沙漠湿地金沙岛旅游区秀水岛",
        "tel": "",
        "category": "基础设施:公共设施:公共厕所",
        "type": 0,
        "location": {
            "lat": 37.526335,
            "lng": 105.112412
        },
        "ad_info": {
            "adcode": 640502,
            "province": "宁夏回族自治区",
            "city": "中卫市",
            "district": "沙坡头区"
        }
    },
    {
        "id": "9535816902633351613",
        "title": "同心服务区第一公共厕所",
        "address": "宁夏回族自治区中卫市海原县同心服务区与G70福银高速交叉口西南160米",
        "tel": "",
        "category": "基础设施:公共设施:公共厕所",
        "type": 0,
        "location": {
            "lat": 36.870374,
            "lng": 105.950537
        },
        "ad_info": {
            "adcode": 640522,
            "province": "宁夏回族自治区",
            "city": "中卫市",
            "district": "海原县"
        }
    },
    {
        "id": "6410334016818837194",
        "title": "公共厕所",
        "address": "宁夏回族自治区中卫市中宁县团结路与平安东街交叉口东南方向254米左右",
        "tel": "",
        "category": "基础设施:公共设施:公共厕所",
        "type": 0,
        "location": {
            "lat": 37.488159,
            "lng": 105.688617
        },
        "ad_info": {
            "adcode": 640521,
            "province": "宁夏回族自治区",
            "city": "中卫市",
            "district": "中宁县"
        }
    },
    {
        "id": "2883015204565665016",
        "title": "公共厕所",
        "address": "宁夏回族自治区中卫市沙坡头区四季鲜农产品综合批发市场",
        "tel": "",
        "category": "基础设施:公共设施:公共厕所",
        "type": 0,
        "location": {
            "lat": 37.509493,
            "lng": 105.223913
        },
        "ad_info": {
            "adcode": 640502,
            "province": "宁夏回族自治区",
            "city": "中卫市",
            "district": "沙坡头区"
        }
    },
    {
        "id": "5349898550624731171",
        "title": "公共厕所",
        "address": "宁夏回族自治区中卫市沙坡头区五里南街与沙坡头东大道交叉口正东方向188米左右",
        "tel": "",
        "category": "基础设施:公共设施:公共厕所",
        "type": 0,
        "location": {
            "lat": 37.507486,
            "lng": 105.223268
        },
        "ad_info": {
            "adcode": 640502,
            "province": "宁夏回族自治区",
            "city": "中卫市",
            "district": "沙坡头区"
        }
    },
    {
        "id": "13043996503301590016",
        "title": "公共厕所",
        "address": "宁夏回族自治区中卫市中宁县正大路与鸣雁东路交叉口正南方向240米左右",
        "tel": "",
        "category": "基础设施:公共设施:公共厕所",
        "type": 0,
        "location": {
            "lat": 37.499193,
            "lng": 105.68214
        },
        "ad_info": {
            "adcode": 640521,
            "province": "宁夏回族自治区",
            "city": "中卫市",
            "district": "中宁县"
        }
    },
    {
        "id": "8812367551536733259",
        "title": "公共厕所",
        "address": "宁夏回族自治区中卫市中宁县丰安街与平安西街交叉口正西方向144米左右",
        "tel": "",
        "category": "基础设施:公共设施:公共厕所",
        "type": 0,
        "location": {
            "lat": 37.485167,
            "lng": 105.669134
        },
        "ad_info": {
            "adcode": 640521,
            "province": "宁夏回族自治区",
            "city": "中卫市",
            "district": "中宁县"
        }
    },
    {
        "id": "8519764646815952632",
        "title": "鸣沙服务区第二公共厕所",
        "address": "宁夏回族自治区中卫市中宁县福银高速",
        "tel": "",
        "category": "基础设施:公共设施:公共厕所",
        "type": 0,
        "location": {
            "lat": 37.56882,
            "lng": 105.911446
        },
        "ad_info": {
            "adcode": 640521,
            "province": "宁夏回族自治区",
            "city": "中卫市",
            "district": "中宁县"
        }
    }
]