[
    {
        "id": "7058595971621299104",
        "title": "公共厕所",
        "address": "广东省中山市意发路与隆发路交叉口正北方向56米左右",
        "tel": "",
        "category": "基础设施:公共设施:公共厕所",
        "type": 0,
        "location": {
            "lat": 22.66522,
            "lng": 113.355906
        },
        "ad_info": {
            "adcode": 442000,
            "province": "广东省",
            "city": "中山市",
            "district": "中山市"
        }
    },
    {
        "id": "12702558731765357327",
        "title": "公共厕所",
        "address": "广东省中山市俊景路与朗安路交叉口正南方向45米左右",
        "tel": "",
        "category": "基础设施:公共设施:公共厕所",
        "type": 0,
        "location": {
            "lat": 22.496551,
            "lng": 113.530524
        },
        "ad_info": {
            "adcode": 442000,
            "province": "广东省",
            "city": "中山市",
            "district": "中山市"
        }
    },
    {
        "id": "8200773105283109299",
        "title": "公共厕所",
        "address": "广东省中山市嘉联路与彩虹路交叉口东北方向38米左右",
        "tel": "",
        "category": "基础设施:公共设施:公共厕所",
        "type": 0,
        "location": {
            "lat": 22.255229,
            "lng": 113.475166
        },
        "ad_info": {
            "adcode": 442000,
            "province": "广东省",
            "city": "中山市",
            "district": "中山市"
        }
    },
    {
        "id": "8446986483179557520",
        "title": "公共厕所",
        "address": "广东省中山市富康路与高雅商业街交叉口正南方向176米左右",
        "tel": "",
        "category": "基础设施:公共设施:公共厕所",
        "type": 0,
        "location": {
            "lat": 22.697899,
            "lng": 113.467703
        },
        "ad_info": {
            "adcode": 442000,
            "province": "广东省",
            "city": "中山市",
            "district": "中山市"
        }
    },
    {
        "id": "1192004893638477726",
        "title": "公共厕所",
        "address": "广东省中山市东兴东路与体育路交叉口正南方向223米左右",
        "tel": "",
        "category": "基础设施:公共设施:公共厕所",
        "type": 0,
        "location": {
            "lat": 22.610177,
            "lng": 113.191368
        },
        "ad_info": {
            "adcode": 442000,
            "province": "广东省",
            "city": "中山市",
            "district": "中山市"
        }
    },
    {
        "id": "11647436304055218233",
        "title": "公共厕所",
        "address": "广东省中山市顷六路与顷安北路交叉口正南方向126米左右",
        "tel": "",
        "category": "基础设施:公共设施:公共厕所",
        "type": 0,
        "location": {
            "lat": 22.613362,
            "lng": 113.249513
        },
        "ad_info": {
            "adcode": 442000,
            "province": "广东省",
            "city": "中山市",
            "district": "中山市"
        }
    },
    {
        "id": "10921718528027749792",
        "title": "公共厕所",
        "address": "广东省中山市万福路18正东方向120米",
        "tel": "",
        "category": "基础设施:公共设施:公共厕所",
        "type": 0,
        "location": {
            "lat": 22.61314,
            "lng": 113.302726
        },
        "ad_info": {
            "adcode": 442000,
            "province": "广东省",
            "city": "中山市",
            "district": "中山市"
        }
    },
    {
        "id": "17811089259894628707",
        "title": "公共厕所",
        "address": "广东省中山市小榄镇环镇南路小榄站",
        "tel": "",
        "category": "基础设施:公共设施:公共厕所",
        "type": 0,
        "location": {
            "lat": 22.647559,
            "lng": 113.270916
        },
        "ad_info": {
            "adcode": 442000,
            "province": "广东省",
            "city": "中山市",
            "district": "中山市"
        }
    },
    {
        "id": "401025544117489985",
        "title": "公共厕所",
        "address": "广东省中山市凤鸣路与南基路交叉口东北方向89米左右",
        "tel": "",
        "category": "基础设施:公共设施:公共厕所",
        "type": 0,
        "location": {
            "lat": 22.522401,
            "lng": 113.367745
        },
        "ad_info": {
            "adcode": 442000,
            "province": "广东省",
            "city": "中山市",
            "district": "中山市"
        }
    },
    {
        "id": "15248342481358124186",
        "title": "公共厕所",
        "address": "广东省中山市兴业街宥南休闲广场",
        "tel": "",
        "category": "基础设施:公共设施:公共厕所",
        "type": 0,
        "location": {
            "lat": 22.318166,
            "lng": 113.358096
        },
        "ad_info": {
            "adcode": 442000,
            "province": "广东省",
            "city": "中山市",
            "district": "中山市"
        }
    },
    {
        "id": "8525563782121283776",
        "title": "公共厕所",
        "address": "广东省中山市伟盛路与新村正街交叉口正西方向111米左右",
        "tel": "",
        "category": "基础设施:公共设施:公共厕所",
        "type": 0,
        "location": {
            "lat": 22.569147,
            "lng": 113.453896
        },
        "ad_info": {
            "adcode": 442000,
            "province": "广东省",
            "city": "中山市",
            "district": "中山市"
        }
    },
    {
        "id": "10534346255001369085",
        "title": "公共厕所",
        "address": "广东省中山市乐丰四路与益辉三路交叉口东南方向206米左右",
        "tel": "",
        "category": "基础设施:公共设施:公共厕所",
        "type": 0,
        "location": {
            "lat": 22.567985,
            "lng": 113.226367
        },
        "ad_info": {
            "adcode": 442000,
            "province": "广东省",
            "city": "中山市",
            "district": "中山市"
        }
    },
    {
        "id": "15763204948675251437",
        "title": "公共厕所",
        "address": "广东省中山市沿河三路与村桥头大街交叉口东北40米",
        "tel": "",
        "category": "基础设施:公共设施:公共厕所",
        "type": 0,
        "location": {
            "lat": 22.621927,
            "lng": 113.178227
        },
        "ad_info": {
            "adcode": 442000,
            "province": "广东省",
            "city": "中山市",
            "district": "中山市"
        }
    },
    {
        "id": "12536035368809388900",
        "title": "公共厕所",
        "address": "广东省中山市鸿运二街黄圃体育中心",
        "tel": "",
        "category": "基础设施:公共设施:公共厕所",
        "type": 0,
        "location": {
            "lat": 22.705631,
            "lng": 113.33743
        },
        "ad_info": {
            "adcode": 442000,
            "province": "广东省",
            "city": "中山市",
            "district": "中山市"
        }
    },
    {
        "id": "11933717770665438616",
        "title": "公共厕所",
        "address": "广东省中山市中兴大街与宏图大街交叉口正北方向18米左右",
        "tel": "",
        "category": "基础设施:公共设施:公共厕所",
        "type": 0,
        "location": {
            "lat": 22.536876,
            "lng": 113.385708
        },
        "ad_info": {
            "adcode": 442000,
            "province": "广东省",
            "city": "中山市",
            "district": "中山市"
        }
    },
    {
        "id": "3642397542599434397",
        "title": "公共厕所",
        "address": "广东省中山市宏丰商业楼13_15_16号正西方向110米",
        "tel": "",
        "category": "基础设施:公共设施:公共厕所",
        "type": 0,
        "location": {
            "lat": 22.35007,
            "lng": 113.4257
        },
        "ad_info": {
            "adcode": 442000,
            "province": "广东省",
            "city": "中山市",
            "district": "中山市"
        }
    },
    {
        "id": "14495830692069288458",
        "title": "公共厕所",
        "address": "广东省中山市城南一路120-122号",
        "tel": "",
        "category": "基础设施:公共设施:公共厕所",
        "type": 0,
        "location": {
            "lat": 22.491558,
            "lng": 113.357183
        },
        "ad_info": {
            "adcode": 442000,
            "province": "广东省",
            "city": "中山市",
            "district": "中山市"
        }
    },
    {
        "id": "15212915450716077156",
        "title": "公共厕所",
        "address": "广东省中山市宝珠东路与沙溪南路交叉口正东方向66米左右",
        "tel": "",
        "category": "基础设施:公共设施:公共厕所",
        "type": 0,
        "location": {
            "lat": 22.507933,
            "lng": 113.335644
        },
        "ad_info": {
            "adcode": 442000,
            "province": "广东省",
            "city": "中山市",
            "district": "中山市"
        }
    },
    {
        "id": "5653280303662820708",
        "title": "公共厕所",
        "address": "广东省中山市恒兴街与新顺街交叉口西南方向98米左右",
        "tel": "",
        "category": "基础设施:公共设施:公共厕所",
        "type": 0,
        "location": {
            "lat": 22.286647,
            "lng": 113.451448
        },
        "ad_info": {
            "adcode": 442000,
            "province": "广东省",
            "city": "中山市",
            "district": "中山市"
        }
    },
    {
        "id": "13451940800735198952",
        "title": "公共厕所",
        "address": "广东省中山市工业大道卢园-沙溪庐园公园",
        "tel": "",
        "category": "基础设施:公共设施:公共厕所",
        "type": 0,
        "location": {
            "lat": 22.506351,
            "lng": 113.314024
        },
        "ad_info": {
            "adcode": 442000,
            "province": "广东省",
            "city": "中山市",
            "district": "中山市"
        }
    },
    {
        "id": "13758855358046258881",
        "title": "公共厕所",
        "address": "广东省中山市东顺街东明花园",
        "tel": "",
        "category": "基础设施:公共设施:公共厕所",
        "type": 0,
        "location": {
            "lat": 22.541929,
            "lng": 113.385274
        },
        "ad_info": {
            "adcode": 442000,
            "province": "广东省",
            "city": "中山市",
            "district": "中山市"
        }
    },
    {
        "id": "9347284376986685883",
        "title": "公共厕所",
        "address": "广东省中山市敬业街与环镇西路交叉口正南方向87米左右",
        "tel": "",
        "category": "基础设施:公共设施:公共厕所",
        "type": 0,
        "location": {
            "lat": 22.636774,
            "lng": 113.220239
        },
        "ad_info": {
            "adcode": 442000,
            "province": "广东省",
            "city": "中山市",
            "district": "中山市"
        }
    },
    {
        "id": "16629884876433647969",
        "title": "公共厕所",
        "address": "广东省中山市翠澜道与飞虹街交叉口正东方向215米左右",
        "tel": "",
        "category": "基础设施:公共设施:公共厕所",
        "type": 0,
        "location": {
            "lat": 22.566273,
            "lng": 113.600541
        },
        "ad_info": {
            "adcode": 442000,
            "province": "广东省",
            "city": "中山市",
            "district": "中山市"
        }
    },
    {
        "id": "9712688446390454955",
        "title": "公共厕所",
        "address": "广东省中山市河边巷与环镇路交叉口东南方向35米左右",
        "tel": "",
        "category": "基础设施:公共设施:公共厕所",
        "type": 0,
        "location": {
            "lat": 22.351899,
            "lng": 113.430202
        },
        "ad_info": {
            "adcode": 442000,
            "province": "广东省",
            "city": "中山市",
            "district": "中山市"
        }
    },
    {
        "id": "9245681651252328449",
        "title": "公共厕所",
        "address": "广东省中山市华廷路与育才一路交叉口西北方向82米左右",
        "tel": "",
        "category": "基础设施:公共设施:公共厕所",
        "type": 0,
        "location": {
            "lat": 22.621903,
            "lng": 113.195749
        },
        "ad_info": {
            "adcode": 442000,
            "province": "广东省",
            "city": "中山市",
            "district": "中山市"
        }
    },
    {
        "id": "5091739147264178653",
        "title": "公共厕所",
        "address": "广东省中山市界狮北路与振兴南路三巷交叉口东北方向170米",
        "tel": "",
        "category": "基础设施:公共设施:公共厕所",
        "type": 0,
        "location": {
            "lat": 22.265749,
            "lng": 113.483766
        },
        "ad_info": {
            "adcode": 442000,
            "province": "广东省",
            "city": "中山市",
            "district": "中山市"
        }
    },
    {
        "id": "11500584240414633159",
        "title": "公共厕所",
        "address": "广东省中山市中兴大道与松兴中路交叉口西南方向107米左右",
        "tel": "",
        "category": "基础设施:公共设施:公共厕所",
        "type": 0,
        "location": {
            "lat": 22.606082,
            "lng": 113.188042
        },
        "ad_info": {
            "adcode": 442000,
            "province": "广东省",
            "city": "中山市",
            "district": "中山市"
        }
    },
    {
        "id": "16616389839649824754",
        "title": "公共厕所",
        "address": "广东省中山市迎龙街与迎龙街六巷交叉口西南方向115米左右",
        "tel": "",
        "category": "基础设施:公共设施:公共厕所",
        "type": 0,
        "location": {
            "lat": 22.67183,
            "lng": 113.176981
        },
        "ad_info": {
            "adcode": 442000,
            "province": "广东省",
            "city": "中山市",
            "district": "中山市"
        }
    },
    {
        "id": "7525579072860733888",
        "title": "公共厕所",
        "address": "广东省中山市康心路与沙中大街交叉口东南方向228米左右",
        "tel": "",
        "category": "基础设施:公共设施:公共厕所",
        "type": 0,
        "location": {
            "lat": 22.504212,
            "lng": 113.30158
        },
        "ad_info": {
            "adcode": 442000,
            "province": "广东省",
            "city": "中山市",
            "district": "中山市"
        }
    },
    {
        "id": "12319678765972455088",
        "title": "公共厕所",
        "address": "广东省中山市坦神北路50号",
        "tel": "",
        "category": "基础设施:公共设施:公共厕所",
        "type": 0,
        "location": {
            "lat": 22.263663,
            "lng": 113.473209
        },
        "ad_info": {
            "adcode": 442000,
            "province": "广东省",
            "city": "中山市",
            "district": "中山市"
        }
    },
    {
        "id": "3093548836888600117",
        "title": "公共厕所",
        "address": "广东省中山市广兴南路与民安南路交叉口东北方向72米左右",
        "tel": "",
        "category": "基础设施:公共设施:公共厕所",
        "type": 0,
        "location": {
            "lat": 22.654536,
            "lng": 113.260062
        },
        "ad_info": {
            "adcode": 442000,
            "province": "广东省",
            "city": "中山市",
            "district": "中山市"
        }
    },
    {
        "id": "13789801909904959196",
        "title": "公共厕所",
        "address": "广东省中山市学前路与育才一路交叉口东南方向130米左右",
        "tel": "",
        "category": "基础设施:公共设施:公共厕所",
        "type": 0,
        "location": {
            "lat": 22.620429,
            "lng": 113.201431
        },
        "ad_info": {
            "adcode": 442000,
            "province": "广东省",
            "city": "中山市",
            "district": "中山市"
        }
    },
    {
        "id": "9330028218019430026",
        "title": "公共厕所",
        "address": "广东省中山市康乐中路63号东南方向170米",
        "tel": "",
        "category": "基础设施:公共设施:公共厕所",
        "type": 0,
        "location": {
            "lat": 22.510324,
            "lng": 113.300306
        },
        "ad_info": {
            "adcode": 442000,
            "province": "广东省",
            "city": "中山市",
            "district": "中山市"
        }
    },
    {
        "id": "16061265121612616805",
        "title": "公共厕所",
        "address": "广东省中山市康祥路与颐岭路交叉口正南方向70米左右",
        "tel": "",
        "category": "基础设施:公共设施:公共厕所",
        "type": 0,
        "location": {
            "lat": 22.535635,
            "lng": 113.466616
        },
        "ad_info": {
            "adcode": 442000,
            "province": "广东省",
            "city": "中山市",
            "district": "中山市"
        }
    },
    {
        "id": "9265240818819878712",
        "title": "公共厕所",
        "address": "广东省中山市长尾涌北一路与长尾涌中心路交叉口西南方向60米",
        "tel": "",
        "category": "基础设施:公共设施:公共厕所",
        "type": 0,
        "location": {
            "lat": 22.626575,
            "lng": 113.184966
        },
        "ad_info": {
            "adcode": 442000,
            "province": "广东省",
            "city": "中山市",
            "district": "中山市"
        }
    },
    {
        "id": "10932455893175435400",
        "title": "公共厕所",
        "address": "广东省中山市东华路鸡笼小桥与鸡笼路交叉口正南方向148米左右",
        "tel": "",
        "category": "基础设施:公共设施:公共厕所",
        "type": 0,
        "location": {
            "lat": 22.616772,
            "lng": 113.295372
        },
        "ad_info": {
            "adcode": 442000,
            "province": "广东省",
            "city": "中山市",
            "district": "中山市"
        }
    },
    {
        "id": "14441560310912548224",
        "title": "公共厕所",
        "address": "广东省中山市前进一路与申堂一路交叉口正西方向140米左右",
        "tel": "",
        "category": "基础设施:公共设施:公共厕所",
        "type": 0,
        "location": {
            "lat": 22.29109,
            "lng": 113.439258
        },
        "ad_info": {
            "adcode": 442000,
            "province": "广东省",
            "city": "中山市",
            "district": "中山市"
        }
    },
    {
        "id": "12518096290364556515",
        "title": "公共厕所",
        "address": "广东省中山市新龙街与金龙路交叉口西北方向94米左右",
        "tel": "",
        "category": "基础设施:公共设施:公共厕所",
        "type": 0,
        "location": {
            "lat": 22.333134,
            "lng": 113.402084
        },
        "ad_info": {
            "adcode": 442000,
            "province": "广东省",
            "city": "中山市",
            "district": "中山市"
        }
    },
    {
        "id": "18406835264641968927",
        "title": "公共厕所",
        "address": "广东省中山市佰公路与广丰南路交叉口正西方向97米左右",
        "tel": "",
        "category": "基础设施:公共设施:公共厕所",
        "type": 0,
        "location": {
            "lat": 22.615643,
            "lng": 113.223852
        },
        "ad_info": {
            "adcode": 442000,
            "province": "广东省",
            "city": "中山市",
            "district": "中山市"
        }
    },
    {
        "id": "12873956860250031619",
        "title": "公共厕所",
        "address": "广东省中山市明德下街富民百货",
        "tel": "",
        "category": "基础设施:公共设施:公共厕所",
        "type": 0,
        "location": {
            "lat": 22.583713,
            "lng": 113.382703
        },
        "ad_info": {
            "adcode": 442000,
            "province": "广东省",
            "city": "中山市",
            "district": "中山市"
        }
    },
    {
        "id": "10752522537841263915",
        "title": "公共厕所",
        "address": "广东省中山市同兴路辅路与华安东路交叉口南200米",
        "tel": "",
        "category": "基础设施:公共设施:公共厕所",
        "type": 0,
        "location": {
            "lat": 22.599219,
            "lng": 113.20346
        },
        "ad_info": {
            "adcode": 442000,
            "province": "广东省",
            "city": "中山市",
            "district": "中山市"
        }
    },
    {
        "id": "14717967788724463416",
        "title": "公共厕所",
        "address": "广东省中山市兴华西路与永乐路交叉口正南方向83米左右",
        "tel": "",
        "category": "基础设施:公共设施:公共厕所",
        "type": 0,
        "location": {
            "lat": 22.686563,
            "lng": 113.250534
        },
        "ad_info": {
            "adcode": 442000,
            "province": "广东省",
            "city": "中山市",
            "district": "中山市"
        }
    },
    {
        "id": "5093825644358404608",
        "title": "公共厕所",
        "address": "广东省中山市镇安南路三巷与镇安南路交叉口东南方向105米左右",
        "tel": "",
        "category": "基础设施:公共设施:公共厕所",
        "type": 0,
        "location": {
            "lat": 22.683313,
            "lng": 113.251224
        },
        "ad_info": {
            "adcode": 442000,
            "province": "广东省",
            "city": "中山市",
            "district": "中山市"
        }
    },
    {
        "id": "3842263329418251823",
        "title": "公共厕所",
        "address": "广东省中山市兴港路与滨河南路交叉口正东方向189米左右",
        "tel": "",
        "category": "基础设施:公共设施:公共厕所",
        "type": 0,
        "location": {
            "lat": 22.53004,
            "lng": 113.33853
        },
        "ad_info": {
            "adcode": 442000,
            "province": "广东省",
            "city": "中山市",
            "district": "中山市"
        }
    },
    {
        "id": "1208837505849578986",
        "title": "公共厕所",
        "address": "广东省中山市东安大街与西安大街交叉口西南方向79米左右",
        "tel": "",
        "category": "基础设施:公共设施:公共厕所",
        "type": 0,
        "location": {
            "lat": 22.369155,
            "lng": 113.448184
        },
        "ad_info": {
            "adcode": 442000,
            "province": "广东省",
            "city": "中山市",
            "district": "中山市"
        }
    },
    {
        "id": "7488051081698012071",
        "title": "公共厕所",
        "address": "广东省中山市南三公路辅路与安居街交叉口正南方向31米左右",
        "tel": "",
        "category": "基础设施:公共设施:公共厕所",
        "type": 0,
        "location": {
            "lat": 22.710195,
            "lng": 113.3387
        },
        "ad_info": {
            "adcode": 442000,
            "province": "广东省",
            "city": "中山市",
            "district": "中山市"
        }
    },
    {
        "id": "11200026471068402436",
        "title": "公共厕所",
        "address": "广东省中山市建业路96号",
        "tel": "",
        "category": "基础设施:公共设施:公共厕所",
        "type": 0,
        "location": {
            "lat": 22.695884,
            "lng": 113.314446
        },
        "ad_info": {
            "adcode": 442000,
            "province": "广东省",
            "city": "中山市",
            "district": "中山市"
        }
    },
    {
        "id": "11594265687749294752",
        "title": "公共厕所",
        "address": "广东省中山市东海二路西一街与兴华中路三街交叉口西南方向54米左右",
        "tel": "",
        "category": "基础设施:公共设施:公共厕所",
        "type": 0,
        "location": {
            "lat": 22.693211,
            "lng": 113.25513
        },
        "ad_info": {
            "adcode": 442000,
            "province": "广东省",
            "city": "中山市",
            "district": "中山市"
        }
    },
    {
        "id": "18381965419000264829",
        "title": "公共厕所",
        "address": "广东省中山市福泽路与麦园街交叉口东北方向51米左右",
        "tel": "",
        "category": "基础设施:公共设施:公共厕所",
        "type": 0,
        "location": {
            "lat": 22.350408,
            "lng": 113.474348
        },
        "ad_info": {
            "adcode": 442000,
            "province": "广东省",
            "city": "中山市",
            "district": "中山市"
        }
    },
    {
        "id": "16690236198094546521",
        "title": "公共厕所",
        "address": "广东省中山市联荣路高沙第二综合市场",
        "tel": "",
        "category": "基础设施:公共设施:公共厕所",
        "type": 0,
        "location": {
            "lat": 22.627944,
            "lng": 113.271692
        },
        "ad_info": {
            "adcode": 442000,
            "province": "广东省",
            "city": "中山市",
            "district": "中山市"
        }
    },
    {
        "id": "7192507012517567920",
        "title": "公共厕所",
        "address": "广东省中山市中国石化马新加油站(兴圃大道东南)",
        "tel": "",
        "category": "基础设施:公共设施:公共厕所",
        "type": 0,
        "location": {
            "lat": 22.686955,
            "lng": 113.372456
        },
        "ad_info": {
            "adcode": 442000,
            "province": "广东省",
            "city": "中山市",
            "district": "中山市"
        }
    },
    {
        "id": "14677608630168213491",
        "title": "公共厕所",
        "address": "广东省中山市兴港中路166号",
        "tel": "",
        "category": "基础设施:公共设施:公共厕所",
        "type": 0,
        "location": {
            "lat": 22.586513,
            "lng": 113.385368
        },
        "ad_info": {
            "adcode": 442000,
            "province": "广东省",
            "city": "中山市",
            "district": "中山市"
        }
    },
    {
        "id": "9909785606012318459",
        "title": "公共厕所",
        "address": "广东省中山市共和路与达德路交叉口东南方向64米左右",
        "tel": "",
        "category": "基础设施:公共设施:公共厕所",
        "type": 0,
        "location": {
            "lat": 22.509973,
            "lng": 113.304932
        },
        "ad_info": {
            "adcode": 442000,
            "province": "广东省",
            "city": "中山市",
            "district": "中山市"
        }
    },
    {
        "id": "1328429465561506057",
        "title": "公共厕所",
        "address": "广东省中山市元福路与祥忠街交叉口东北方向30米左右",
        "tel": "",
        "category": "基础设施:公共设施:公共厕所",
        "type": 0,
        "location": {
            "lat": 22.660141,
            "lng": 113.210877
        },
        "ad_info": {
            "adcode": 442000,
            "province": "广东省",
            "city": "中山市",
            "district": "中山市"
        }
    },
    {
        "id": "17634172184541854858",
        "title": "公共厕所",
        "address": "广东省中山市富华路东与四埒涌路交叉口东40米",
        "tel": "",
        "category": "基础设施:公共设施:公共厕所",
        "type": 0,
        "location": {
            "lat": 22.692145,
            "lng": 113.252333
        },
        "ad_info": {
            "adcode": 442000,
            "province": "广东省",
            "city": "中山市",
            "district": "中山市"
        }
    },
    {
        "id": "1817568752016202825",
        "title": "公共厕所",
        "address": "广东省中山市广场路与景观大道交叉口正西方向48米左右",
        "tel": "",
        "category": "基础设施:公共设施:公共厕所",
        "type": 0,
        "location": {
            "lat": 22.3595,
            "lng": 113.441109
        },
        "ad_info": {
            "adcode": 442000,
            "province": "广东省",
            "city": "中山市",
            "district": "中山市"
        }
    },
    {
        "id": "11504648317412361608",
        "title": "公共厕所",
        "address": "广东省中山市乐丰大道与新丰中路交叉口正东方向54米左右",
        "tel": "",
        "category": "基础设施:公共设施:公共厕所",
        "type": 0,
        "location": {
            "lat": 22.628021,
            "lng": 113.193772
        },
        "ad_info": {
            "adcode": 442000,
            "province": "广东省",
            "city": "中山市",
            "district": "中山市"
        }
    },
    {
        "id": "2904377798961418627",
        "title": "公共厕所",
        "address": "广东省中山市安乐东一路10号",
        "tel": "",
        "category": "基础设施:公共设施:公共厕所",
        "type": 0,
        "location": {
            "lat": 22.714499,
            "lng": 113.25036
        },
        "ad_info": {
            "adcode": 442000,
            "province": "广东省",
            "city": "中山市",
            "district": "中山市"
        }
    },
    {
        "id": "13572694569443782153",
        "title": "公共厕所",
        "address": "广东省中山市南江街与岐关西路交叉口西北方向63米左右",
        "tel": "",
        "category": "基础设施:公共设施:公共厕所",
        "type": 0,
        "location": {
            "lat": 22.506444,
            "lng": 113.378855
        },
        "ad_info": {
            "adcode": 442000,
            "province": "广东省",
            "city": "中山市",
            "district": "中山市"
        }
    },
    {
        "id": "10184465071788654923",
        "title": "公共厕所",
        "address": "广东省中山市嘉惠路坦洲中心市场",
        "tel": "",
        "category": "基础设施:公共设施:公共厕所",
        "type": 0,
        "location": {
            "lat": 22.267376,
            "lng": 113.472777
        },
        "ad_info": {
            "adcode": 442000,
            "province": "广东省",
            "city": "中山市",
            "district": "中山市"
        }
    },
    {
        "id": "1360935525817087217",
        "title": "公共厕所",
        "address": "广东省中山市裕民大道辅路与兴华路交叉口东120米",
        "tel": "",
        "category": "基础设施:公共设施:公共厕所",
        "type": 0,
        "location": {
            "lat": 22.644182,
            "lng": 113.281489
        },
        "ad_info": {
            "adcode": 442000,
            "province": "广东省",
            "city": "中山市",
            "district": "中山市"
        }
    },
    {
        "id": "6633412677210584839",
        "title": "公共厕所",
        "address": "广东省中山市海傍路与红棉路交叉口东南方向102米左右",
        "tel": "",
        "category": "基础设施:公共设施:公共厕所",
        "type": 0,
        "location": {
            "lat": 22.678164,
            "lng": 113.256392
        },
        "ad_info": {
            "adcode": 442000,
            "province": "广东省",
            "city": "中山市",
            "district": "中山市"
        }
    },
    {
        "id": "2102429828590543866",
        "title": "公共厕所",
        "address": "广东省中山市体育街与体育路交叉口西南方向28米左右",
        "tel": "",
        "category": "基础设施:公共设施:公共厕所",
        "type": 0,
        "location": {
            "lat": 22.508422,
            "lng": 113.388306
        },
        "ad_info": {
            "adcode": 442000,
            "province": "广东省",
            "city": "中山市",
            "district": "中山市"
        }
    },
    {
        "id": "9216774904708789215",
        "title": "公共厕所",
        "address": "广东省中山市小榄工业大道北中佰时代广场",
        "tel": "",
        "category": "基础设施:公共设施:公共厕所",
        "type": 0,
        "location": {
            "lat": 22.637557,
            "lng": 113.268363
        },
        "ad_info": {
            "adcode": 442000,
            "province": "广东省",
            "city": "中山市",
            "district": "中山市"
        }
    },
    {
        "id": "17621501245789154048",
        "title": "公共厕所",
        "address": "广东省中山市东生西路与裕洲路交叉口东北方向194米左右",
        "tel": "",
        "category": "基础设施:公共设施:公共厕所",
        "type": 0,
        "location": {
            "lat": 22.651299,
            "lng": 113.241281
        },
        "ad_info": {
            "adcode": 442000,
            "province": "广东省",
            "city": "中山市",
            "district": "中山市"
        }
    },
    {
        "id": "3471800497262198952",
        "title": "公共厕所",
        "address": "广东省中山市博爱四路辅路与沙岗正街交叉口西南60米",
        "tel": "",
        "category": "基础设施:公共设施:公共厕所",
        "type": 0,
        "location": {
            "lat": 22.503357,
            "lng": 113.379729
        },
        "ad_info": {
            "adcode": 442000,
            "province": "广东省",
            "city": "中山市",
            "district": "中山市"
        }
    },
    {
        "id": "12216474027232101675",
        "title": "公共厕所",
        "address": "广东省中山市坦背西二马路中国石化(中山坦背加油站)",
        "tel": "",
        "category": "基础设施:公共设施:公共厕所",
        "type": 0,
        "location": {
            "lat": 22.591928,
            "lng": 113.312252
        },
        "ad_info": {
            "adcode": 442000,
            "province": "广东省",
            "city": "中山市",
            "district": "中山市"
        }
    },
    {
        "id": "4836568634789086651",
        "title": "公共厕所",
        "address": "广东省中山市紫马岭三横街与紫马岭下街交叉口正西方向89米左右",
        "tel": "",
        "category": "基础设施:公共设施:公共厕所",
        "type": 0,
        "location": {
            "lat": 22.512657,
            "lng": 113.408198
        },
        "ad_info": {
            "adcode": 442000,
            "province": "广东省",
            "city": "中山市",
            "district": "中山市"
        }
    },
    {
        "id": "14860972403571070315",
        "title": "公共厕所",
        "address": "广东省中山市悦来南路与白石路交叉口东北方向56米左右",
        "tel": "",
        "category": "基础设施:公共设施:公共厕所",
        "type": 0,
        "location": {
            "lat": 22.503585,
            "lng": 113.36877
        },
        "ad_info": {
            "adcode": 442000,
            "province": "广东省",
            "city": "中山市",
            "district": "中山市"
        }
    },
    {
        "id": "11113361455217974467",
        "title": "公共厕所",
        "address": "广东省中山市祥丰路与顺成大街交叉口西南方向113米左右",
        "tel": "",
        "category": "基础设施:公共设施:公共厕所",
        "type": 0,
        "location": {
            "lat": 22.622005,
            "lng": 113.248327
        },
        "ad_info": {
            "adcode": 442000,
            "province": "广东省",
            "city": "中山市",
            "district": "中山市"
        }
    },
    {
        "id": "13719287337507642314",
        "title": "公共厕所",
        "address": "广东省中山市兴业南路与南和西路交叉口东南方向91米左右",
        "tel": "",
        "category": "基础设施:公共设施:公共厕所",
        "type": 0,
        "location": {
            "lat": 22.710648,
            "lng": 113.283073
        },
        "ad_info": {
            "adcode": 442000,
            "province": "广东省",
            "city": "中山市",
            "district": "中山市"
        }
    },
    {
        "id": "7264788141978435914",
        "title": "公共厕所",
        "address": "广东省中山市东岸西路海洲健身广场(东侧)",
        "tel": "",
        "category": "基础设施:公共设施:公共厕所",
        "type": 0,
        "location": {
            "lat": 22.658819,
            "lng": 113.182046
        },
        "ad_info": {
            "adcode": 442000,
            "province": "广东省",
            "city": "中山市",
            "district": "中山市"
        }
    },
    {
        "id": "11607566669254217039",
        "title": "公共厕所",
        "address": "广东省中山市合兴路二处小区",
        "tel": "",
        "category": "基础设施:公共设施:公共厕所",
        "type": 0,
        "location": {
            "lat": 22.717346,
            "lng": 113.279458
        },
        "ad_info": {
            "adcode": 442000,
            "province": "广东省",
            "city": "中山市",
            "district": "中山市"
        }
    },
    {
        "id": "16944628037734951535",
        "title": "公共厕所",
        "address": "广东省中山市健业路与大滘正街交叉口东北方向233米左右",
        "tel": "",
        "category": "基础设施:公共设施:公共厕所",
        "type": 0,
        "location": {
            "lat": 22.725076,
            "lng": 113.331778
        },
        "ad_info": {
            "adcode": 442000,
            "province": "广东省",
            "city": "中山市",
            "district": "中山市"
        }
    },
    {
        "id": "15869621507380626062",
        "title": "公共厕所",
        "address": "广东省中山市企岭仔街与板埔路交叉口正北方向164米左右",
        "tel": "",
        "category": "基础设施:公共设施:公共厕所",
        "type": 0,
        "location": {
            "lat": 22.555168,
            "lng": 113.469183
        },
        "ad_info": {
            "adcode": 442000,
            "province": "广东省",
            "city": "中山市",
            "district": "中山市"
        }
    },
    {
        "id": "3615578546311175860",
        "title": "中山公共厕所",
        "address": "广东省中山市康乐大街与紫荆街交叉口西北方向19米左右",
        "tel": "",
        "category": "基础设施:公共设施:公共厕所",
        "type": 0,
        "location": {
            "lat": 22.515613,
            "lng": 113.388442
        },
        "ad_info": {
            "adcode": 442000,
            "province": "广东省",
            "city": "中山市",
            "district": "中山市"
        }
    },
    {
        "id": "17108981045269062181",
        "title": "公共厕所",
        "address": "广东省中山市南岐北路与西湖大街交叉口西北方向164米左右",
        "tel": "",
        "category": "基础设施:公共设施:公共厕所",
        "type": 0,
        "location": {
            "lat": 22.509472,
            "lng": 113.513809
        },
        "ad_info": {
            "adcode": 442000,
            "province": "广东省",
            "city": "中山市",
            "district": "中山市"
        }
    },
    {
        "id": "54602300602546350",
        "title": "公共厕所",
        "address": "广东省中山市G105与富华立交桥交叉口东北方向173米左右",
        "tel": "",
        "category": "基础设施:公共设施:公共厕所",
        "type": 0,
        "location": {
            "lat": 22.518981,
            "lng": 113.3448
        },
        "ad_info": {
            "adcode": 442000,
            "province": "广东省",
            "city": "中山市",
            "district": "中山市"
        }
    },
    {
        "id": "2201073195075097298",
        "title": "公共厕所",
        "address": "广东省中山市岐沙路与沙溪南路交叉口正东方向116米左右",
        "tel": "",
        "category": "基础设施:公共设施:公共厕所",
        "type": 0,
        "location": {
            "lat": 22.516968,
            "lng": 113.34268
        },
        "ad_info": {
            "adcode": 442000,
            "province": "广东省",
            "city": "中山市",
            "district": "中山市"
        }
    },
    {
        "id": "3850209233135186476",
        "title": "公共厕所",
        "address": "广东省中山市清沥路同安大坳市场",
        "tel": "",
        "category": "基础设施:公共设施:公共厕所",
        "type": 0,
        "location": {
            "lat": 22.729109,
            "lng": 113.257669
        },
        "ad_info": {
            "adcode": 442000,
            "province": "广东省",
            "city": "中山市",
            "district": "中山市"
        }
    },
    {
        "id": "3997715897675816469",
        "title": "公共厕所",
        "address": "广东省中山市岐港公路与彩虹大道交叉口正北方向114米左右",
        "tel": "",
        "category": "基础设施:公共设施:公共厕所",
        "type": 0,
        "location": {
            "lat": 22.538644,
            "lng": 113.361386
        },
        "ad_info": {
            "adcode": 442000,
            "province": "广东省",
            "city": "中山市",
            "district": "中山市"
        }
    },
    {
        "id": "2368273994511921369",
        "title": "公共厕所",
        "address": "广东省中山市升平路七巷与金怡南路三巷交叉口正东方向39米左右",
        "tel": "",
        "category": "基础设施:公共设施:公共厕所",
        "type": 0,
        "location": {
            "lat": 22.689605,
            "lng": 113.247151
        },
        "ad_info": {
            "adcode": 442000,
            "province": "广东省",
            "city": "中山市",
            "district": "中山市"
        }
    },
    {
        "id": "1898535207789588599",
        "title": "公共厕所",
        "address": "广东省中山市宝珠西路与正街第八巷交叉口西南方向80米左右",
        "tel": "",
        "category": "基础设施:公共设施:公共厕所",
        "type": 0,
        "location": {
            "lat": 22.50661,
            "lng": 113.30961
        },
        "ad_info": {
            "adcode": 442000,
            "province": "广东省",
            "city": "中山市",
            "district": "中山市"
        }
    },
    {
        "id": "17024938337910004852",
        "title": "公共厕所",
        "address": "广东省中山市宝安一路与盛裕路交叉口正南方向54米左右",
        "tel": "",
        "category": "基础设施:公共设施:公共厕所",
        "type": 0,
        "location": {
            "lat": 22.606455,
            "lng": 113.261005
        },
        "ad_info": {
            "adcode": 442000,
            "province": "广东省",
            "city": "中山市",
            "district": "中山市"
        }
    },
    {
        "id": "8756295450169813",
        "title": "公共厕所",
        "address": "广东省中山市志和二街与裕民大道交叉口西南方向64米左右",
        "tel": "",
        "category": "基础设施:公共设施:公共厕所",
        "type": 0,
        "location": {
            "lat": 22.635854,
            "lng": 113.286783
        },
        "ad_info": {
            "adcode": 442000,
            "province": "广东省",
            "city": "中山市",
            "district": "中山市"
        }
    },
    {
        "id": "4649754512768178648",
        "title": "公共厕所",
        "address": "广东省中山市东华路与公园路交叉口正东方向57米左右",
        "tel": "",
        "category": "基础设施:公共设施:公共厕所",
        "type": 0,
        "location": {
            "lat": 22.62016,
            "lng": 113.29402
        },
        "ad_info": {
            "adcode": 442000,
            "province": "广东省",
            "city": "中山市",
            "district": "中山市"
        }
    },
    {
        "id": "9978482070516334203",
        "title": "公共厕所",
        "address": "广东省中山市七冲三巷中油BP(中山沙朗加油站)",
        "tel": "",
        "category": "基础设施:公共设施:公共厕所",
        "type": 0,
        "location": {
            "lat": 22.564222,
            "lng": 113.335354
        },
        "ad_info": {
            "adcode": 442000,
            "province": "广东省",
            "city": "中山市",
            "district": "中山市"
        }
    },
    {
        "id": "4385882810890325996",
        "title": "公共厕所",
        "address": "广东省中山市殷诚街与汇泉街交叉口东北方向19米左右",
        "tel": "",
        "category": "基础设施:公共设施:公共厕所",
        "type": 0,
        "location": {
            "lat": 22.471414,
            "lng": 113.284971
        },
        "ad_info": {
            "adcode": 442000,
            "province": "广东省",
            "city": "中山市",
            "district": "中山市"
        }
    },
    {
        "id": "3563047961866179446",
        "title": "张家边公园公共厕所",
        "address": "广东省中山市蠔蚝棚头街张家边公园南门西北侧约30米",
        "tel": "",
        "category": "基础设施:公共设施:公共厕所",
        "type": 0,
        "location": {
            "lat": 22.546385,
            "lng": 113.461285
        },
        "ad_info": {
            "adcode": 442000,
            "province": "广东省",
            "city": "中山市",
            "district": "中山市"
        }
    },
    {
        "id": "12433356470891895509",
        "title": "公共厕所",
        "address": "广东省中山市永谊二路与沙古公路交叉口正东方向150米左右",
        "tel": "",
        "category": "基础设施:公共设施:公共厕所",
        "type": 0,
        "location": {
            "lat": 22.552077,
            "lng": 113.262319
        },
        "ad_info": {
            "adcode": 442000,
            "province": "广东省",
            "city": "中山市",
            "district": "中山市"
        }
    },
    {
        "id": "8448914801704838086",
        "title": "公共厕所",
        "address": "广东省中山市凤仪路东凤文体艺术中心",
        "tel": "",
        "category": "基础设施:公共设施:公共厕所",
        "type": 0,
        "location": {
            "lat": 22.702414,
            "lng": 113.253567
        },
        "ad_info": {
            "adcode": 442000,
            "province": "广东省",
            "city": "中山市",
            "district": "中山市"
        }
    },
    {
        "id": "1136103805856086096",
        "title": "古一村公共厕所",
        "address": "广东省中山市新滘河边路与顺康大道交叉口西南方向39米左右",
        "tel": "",
        "category": "基础设施:公共设施:公共厕所",
        "type": 0,
        "location": {
            "lat": 22.629532,
            "lng": 113.188273
        },
        "ad_info": {
            "adcode": 442000,
            "province": "广东省",
            "city": "中山市",
            "district": "中山市"
        }
    },
    {
        "id": "4043927281828346415",
        "title": "麦当劳南头大道得来速-洗手间",
        "address": "广东省中山市南头镇南头大道金湾广场超级商场首层1-2号",
        "tel": "",
        "category": "基础设施:公共设施:公共厕所",
        "type": 0,
        "location": {
            "lat": 22.717366,
            "lng": 113.288556
        },
        "ad_info": {
            "adcode": 442000,
            "province": "广东省",
            "city": "中山市",
            "district": "中山市"
        }
    },
    {
        "id": "16913818800833294037",
        "title": "瓮菜塘公共厕所",
        "address": "广东省中山市悦来大街新艺棉布旁",
        "tel": "",
        "category": "基础设施:公共设施:公共厕所",
        "type": 0,
        "location": {
            "lat": 22.520882,
            "lng": 113.369089
        },
        "ad_info": {
            "adcode": 442000,
            "province": "广东省",
            "city": "中山市",
            "district": "中山市"
        }
    },
    {
        "id": "6998885362474126040",
        "title": "公共厕所",
        "address": "广东省中山市工业大道低沙市场",
        "tel": "",
        "category": "基础设施:公共设施:公共厕所",
        "type": 0,
        "location": {
            "lat": 22.73071,
            "lng": 113.305498
        },
        "ad_info": {
            "adcode": 442000,
            "province": "广东省",
            "city": "中山市",
            "district": "中山市"
        }
    },
    {
        "id": "17731466112933645127",
        "title": "公共厕所",
        "address": "广东省中山市东福北路与合益东路交叉口正西方向136米左右",
        "tel": "",
        "category": "基础设施:公共设施:公共厕所",
        "type": 0,
        "location": {
            "lat": 22.714695,
            "lng": 113.317645
        },
        "ad_info": {
            "adcode": 442000,
            "province": "广东省",
            "city": "中山市",
            "district": "中山市"
        }
    },
    {
        "id": "5748407849706800331",
        "title": "大中堂公共厕所",
        "address": "广东省中山市太平路与孙文中路交叉口正南方向75米左右",
        "tel": "",
        "category": "基础设施:公共设施:公共厕所",
        "type": 0,
        "location": {
            "lat": 22.520918,
            "lng": 113.372397
        },
        "ad_info": {
            "adcode": 442000,
            "province": "广东省",
            "city": "中山市",
            "district": "中山市"
        }
    },
    {
        "id": "8755454502554298387",
        "title": "公共厕所",
        "address": "广东省中山市长安北路三沙综合市场",
        "tel": "",
        "category": "基础设施:公共设施:公共厕所",
        "type": 0,
        "location": {
            "lat": 22.585837,
            "lng": 113.213715
        },
        "ad_info": {
            "adcode": 442000,
            "province": "广东省",
            "city": "中山市",
            "district": "中山市"
        }
    },
    {
        "id": "8608734096283504408",
        "title": "男洗手间",
        "address": "广东省中山市三乡镇文昌路与沙坦路交叉口顺昌购物广场F2",
        "tel": "",
        "category": "基础设施:公共设施:公共厕所",
        "type": 0,
        "location": {
            "lat": 22.363975,
            "lng": 113.442392
        },
        "ad_info": {
            "adcode": 442000,
            "province": "广东省",
            "city": "中山市",
            "district": "中山市"
        }
    },
    {
        "id": "12308222196680313745",
        "title": "鸦岗市场厕所",
        "address": "广东省中山市安庆街一巷与安庆街三巷交叉口北100米",
        "tel": "",
        "category": "基础设施:公共设施:公共厕所",
        "type": 0,
        "location": {
            "lat": 22.340271,
            "lng": 113.44917
        },
        "ad_info": {
            "adcode": 442000,
            "province": "广东省",
            "city": "中山市",
            "district": "中山市"
        }
    },
    {
        "id": "2064137876622500617",
        "title": "麦当劳(中山港大道店)-洗手间",
        "address": "广东省中山市火炬开发区中山港大道西侧壹加壹超市首层",
        "tel": "",
        "category": "基础设施:公共设施:公共厕所",
        "type": 0,
        "location": {
            "lat": 22.558468,
            "lng": 113.463397
        },
        "ad_info": {
            "adcode": 442000,
            "province": "广东省",
            "city": "中山市",
            "district": "中山市"
        }
    },
    {
        "id": "630871888277361086",
        "title": "中山利和希尔顿酒店-洗手间",
        "address": "广东省中山市中山三路16号中山利和希尔顿酒店内",
        "tel": "",
        "category": "基础设施:公共设施:公共厕所",
        "type": 0,
        "location": {
            "lat": 22.512894,
            "lng": 113.383451
        },
        "ad_info": {
            "adcode": 442000,
            "province": "广东省",
            "city": "中山市",
            "district": "中山市"
        }
    },
    {
        "id": "16269603874415596924",
        "title": "公共厕所",
        "address": "广东省中山市市场后街平东农副产品批发市场",
        "tel": "",
        "category": "基础设施:公共设施:公共厕所",
        "type": 0,
        "location": {
            "lat": 22.336777,
            "lng": 113.431978
        },
        "ad_info": {
            "adcode": 442000,
            "province": "广东省",
            "city": "中山市",
            "district": "中山市"
        }
    },
    {
        "id": "6110454363115088175",
        "title": "公共厕所",
        "address": "广东省中山市福田五街与老杨山工业路交叉口正北方向79米左右",
        "tel": "",
        "category": "基础设施:公共设施:公共厕所",
        "type": 0,
        "location": {
            "lat": 22.49677,
            "lng": 113.42416
        },
        "ad_info": {
            "adcode": 442000,
            "province": "广东省",
            "city": "中山市",
            "district": "中山市"
        }
    },
    {
        "id": "4451136252687287406",
        "title": "得能湖公园公共厕所",
        "address": "广东省中山市得能东路得能湖公园(东北角)",
        "tel": "",
        "category": "基础设施:公共设施:公共厕所",
        "type": 0,
        "location": {
            "lat": 22.55811,
            "lng": 113.481697
        },
        "ad_info": {
            "adcode": 442000,
            "province": "广东省",
            "city": "中山市",
            "district": "中山市"
        }
    },
    {
        "id": "15936783320304677409",
        "title": "公共厕所",
        "address": "广东省中山市恒乐街与穗兴街交叉口正西方向27米左右",
        "tel": "",
        "category": "基础设施:公共设施:公共厕所",
        "type": 0,
        "location": {
            "lat": 22.556723,
            "lng": 113.341744
        },
        "ad_info": {
            "adcode": 442000,
            "province": "广东省",
            "city": "中山市",
            "district": "中山市"
        }
    },
    {
        "id": "7804714595443493241",
        "title": "公共厕所",
        "address": "广东省中山市联兴路30号",
        "tel": "",
        "category": "基础设施:公共设施:公共厕所",
        "type": 0,
        "location": {
            "lat": 22.260588,
            "lng": 113.461493
        },
        "ad_info": {
            "adcode": 442000,
            "province": "广东省",
            "city": "中山市",
            "district": "中山市"
        }
    },
    {
        "id": "852528924089274844",
        "title": "公共厕所",
        "address": "广东省中山市S268与Y008交叉口西北方向115米左右",
        "tel": "",
        "category": "基础设施:公共设施:公共厕所",
        "type": 0,
        "location": {
            "lat": 22.360821,
            "lng": 113.479908
        },
        "ad_info": {
            "adcode": 442000,
            "province": "广东省",
            "city": "中山市",
            "district": "中山市"
        }
    },
    {
        "id": "2904326531793478349",
        "title": "怡建公共厕所",
        "address": "广东省中山市美景街与观景街交叉口西南方向26米左右",
        "tel": "",
        "category": "基础设施:公共设施:公共厕所",
        "type": 0,
        "location": {
            "lat": 22.504462,
            "lng": 113.36547
        },
        "ad_info": {
            "adcode": 442000,
            "province": "广东省",
            "city": "中山市",
            "district": "中山市"
        }
    },
    {
        "id": "3364471329154155962",
        "title": "公共厕所",
        "address": "广东省中山市下闸路与香山大街交叉口西南方向23米左右",
        "tel": "",
        "category": "基础设施:公共设施:公共厕所",
        "type": 0,
        "location": {
            "lat": 22.519452,
            "lng": 113.359766
        },
        "ad_info": {
            "adcode": 442000,
            "province": "广东省",
            "city": "中山市",
            "district": "中山市"
        }
    },
    {
        "id": "16225989483457644925",
        "title": "公共厕所",
        "address": "广东省中山市孙文中路与月华坊交叉口正南方向114米左右",
        "tel": "",
        "category": "基础设施:公共设施:公共厕所",
        "type": 0,
        "location": {
            "lat": 22.522571,
            "lng": 113.37986
        },
        "ad_info": {
            "adcode": 442000,
            "province": "广东省",
            "city": "中山市",
            "district": "中山市"
        }
    },
    {
        "id": "3266903546065366452",
        "title": "公共厕所",
        "address": "广东省中山市Y008",
        "tel": "",
        "category": "基础设施:公共设施:公共厕所",
        "type": 0,
        "location": {
            "lat": 22.354883,
            "lng": 113.47277
        },
        "ad_info": {
            "adcode": 442000,
            "province": "广东省",
            "city": "中山市",
            "district": "中山市"
        }
    },
    {
        "id": "14284428586957773411",
        "title": "东升服务区公共厕所",
        "address": "广东省中山市创盈路与创益路交叉口西北方向261米左右",
        "tel": "",
        "category": "基础设施:公共设施:公共厕所",
        "type": 0,
        "location": {
            "lat": 22.586015,
            "lng": 113.284522
        },
        "ad_info": {
            "adcode": 442000,
            "province": "广东省",
            "city": "中山市",
            "district": "中山市"
        }
    },
    {
        "id": "9520573859987370552",
        "title": "东升服务区公共厕所",
        "address": "广东省中山市创盈路与创益路交叉口西北方向255米左右",
        "tel": "",
        "category": "基础设施:公共设施:公共厕所",
        "type": 0,
        "location": {
            "lat": 22.586702,
            "lng": 113.285256
        },
        "ad_info": {
            "adcode": 442000,
            "province": "广东省",
            "city": "中山市",
            "district": "中山市"
        }
    },
    {
        "id": "13129898622497419555",
        "title": "无障碍公共厕所",
        "address": "广东省中山市新兴二街与聚福北路交叉口正东方向16米左右",
        "tel": "",
        "category": "基础设施:公共设施:公共厕所",
        "type": 0,
        "location": {
            "lat": 22.419429,
            "lng": 113.3201
        },
        "ad_info": {
            "adcode": 442000,
            "province": "广东省",
            "city": "中山市",
            "district": "中山市"
        }
    },
    {
        "id": "4372580654547719272",
        "title": "鼎鼎鼎洗手间",
        "address": "广东省中山市大信南路与水街口交叉口正南方向55米左右",
        "tel": "",
        "category": "基础设施:公共设施:公共厕所",
        "type": 0,
        "location": {
            "lat": 22.530172,
            "lng": 113.380298
        },
        "ad_info": {
            "adcode": 442000,
            "province": "广东省",
            "city": "中山市",
            "district": "中山市"
        }
    },
    {
        "id": "4713592336883835512",
        "title": "民众服务区-公共厕所",
        "address": "广东省中山市三益路与丙申街交叉口西北方向424米左右",
        "tel": "",
        "category": "基础设施:公共设施:公共厕所",
        "type": 0,
        "location": {
            "lat": 22.637681,
            "lng": 113.450684
        },
        "ad_info": {
            "adcode": 442000,
            "province": "广东省",
            "city": "中山市",
            "district": "中山市"
        }
    },
    {
        "id": "18395127956195632927",
        "title": "中山兴中广场-女洗手间",
        "address": "广东省中山市凤鸣路3号中山兴中广场F2",
        "tel": "",
        "category": "基础设施:公共设施:女洗手间",
        "type": 0,
        "location": {
            "lat": 22.522596,
            "lng": 113.367018
        },
        "ad_info": {
            "adcode": 442000,
            "province": "广东省",
            "city": "中山市",
            "district": "中山市"
        }
    },
    {
        "id": "6249015258892422774",
        "title": "利和广场-男洗手间",
        "address": "广东省中山市中山三路16号利和广场购物中心F5",
        "tel": "",
        "category": "基础设施:公共设施:男洗手间",
        "type": 0,
        "location": {
            "lat": 22.511921,
            "lng": 113.38459
        },
        "ad_info": {
            "adcode": 442000,
            "province": "广东省",
            "city": "中山市",
            "district": "中山市"
        }
    },
    {
        "id": "4710332192446067133",
        "title": "公共厕所",
        "address": "广东省中山市S268与东苑南路交叉口正西方向173米左右",
        "tel": "",
        "category": "基础设施:公共设施:公共厕所",
        "type": 0,
        "location": {
            "lat": 22.494704,
            "lng": 113.394631
        },
        "ad_info": {
            "adcode": 442000,
            "province": "广东省",
            "city": "中山市",
            "district": "中山市"
        }
    },
    {
        "id": "14615925723342269596",
        "title": "公共厕所",
        "address": "广东省中山市连乐街与连福路交叉口正西方向49米左右",
        "tel": "",
        "category": "基础设施:公共设施:公共厕所",
        "type": 0,
        "location": {
            "lat": 22.585017,
            "lng": 113.323158
        },
        "ad_info": {
            "adcode": 442000,
            "province": "广东省",
            "city": "中山市",
            "district": "中山市"
        }
    },
    {
        "id": "540221815554709312",
        "title": "公共厕所",
        "address": "广东省中山市白兰桥正街与石榴坑下街交叉口正南方向136米左右",
        "tel": "",
        "category": "基础设施:公共设施:公共厕所",
        "type": 0,
        "location": {
            "lat": 22.483955,
            "lng": 113.415035
        },
        "ad_info": {
            "adcode": 442000,
            "province": "广东省",
            "city": "中山市",
            "district": "中山市"
        }
    },
    {
        "id": "9192586782173652822",
        "title": "方基涌公共厕所",
        "address": "广东省中山市南安路与方基涌大街交叉口西北方向47米左右",
        "tel": "",
        "category": "基础设施:公共设施:公共厕所",
        "type": 0,
        "location": {
            "lat": 22.510254,
            "lng": 113.371347
        },
        "ad_info": {
            "adcode": 442000,
            "province": "广东省",
            "city": "中山市",
            "district": "中山市"
        }
    },
    {
        "id": "174413491050953768",
        "title": "松苑公共厕所",
        "address": "广东省中山市松苑金龙街",
        "tel": "",
        "category": "基础设施:公共设施:公共厕所",
        "type": 0,
        "location": {
            "lat": 22.514997,
            "lng": 113.392778
        },
        "ad_info": {
            "adcode": 442000,
            "province": "广东省",
            "city": "中山市",
            "district": "中山市"
        }
    },
    {
        "id": "10517418665409516260",
        "title": "公共厕所",
        "address": "广东省中山市万埠大街与西田大街交叉口东北方向74米",
        "tel": "",
        "category": "基础设施:公共设施:公共厕所",
        "type": 0,
        "location": {
            "lat": 22.663886,
            "lng": 113.240939
        },
        "ad_info": {
            "adcode": 442000,
            "province": "广东省",
            "city": "中山市",
            "district": "中山市"
        }
    },
    {
        "id": "17991199395935603819",
        "title": "公共厕所",
        "address": "广东省中山市联安西街一巷与荣兴路西一巷交叉口东南方向33米左右",
        "tel": "",
        "category": "基础设施:公共设施:公共厕所",
        "type": 0,
        "location": {
            "lat": 22.643665,
            "lng": 113.249153
        },
        "ad_info": {
            "adcode": 442000,
            "province": "广东省",
            "city": "中山市",
            "district": "中山市"
        }
    },
    {
        "id": "4124828551895099905",
        "title": "公共厕所",
        "address": "广东省中山市官朗路中山南朗旗风学校",
        "tel": "",
        "category": "基础设施:公共设施:公共厕所",
        "type": 0,
        "location": {
            "lat": 22.491036,
            "lng": 113.530696
        },
        "ad_info": {
            "adcode": 442000,
            "province": "广东省",
            "city": "中山市",
            "district": "中山市"
        }
    },
    {
        "id": "15227917618938936289",
        "title": "公共厕所",
        "address": "广东省中山市宏基路与起湾道交叉口西北方向44米左右",
        "tel": "",
        "category": "基础设施:公共设施:公共厕所",
        "type": 0,
        "location": {
            "lat": 22.533669,
            "lng": 113.399603
        },
        "ad_info": {
            "adcode": 442000,
            "province": "广东省",
            "city": "中山市",
            "district": "中山市"
        }
    },
    {
        "id": "2775479714803001216",
        "title": "公共厕所",
        "address": "广东省中山市创业路与太乐路交叉口正北方向99米左右",
        "tel": "",
        "category": "基础设施:公共设施:公共厕所",
        "type": 0,
        "location": {
            "lat": 22.672406,
            "lng": 113.210984
        },
        "ad_info": {
            "adcode": 442000,
            "province": "广东省",
            "city": "中山市",
            "district": "中山市"
        }
    },
    {
        "id": "14032316983395416303",
        "title": "公共厕所",
        "address": "广东省中山市兆洋路与汇泉街交叉口正南方向61米左右",
        "tel": "",
        "category": "基础设施:公共设施:公共厕所",
        "type": 0,
        "location": {
            "lat": 22.469138,
            "lng": 113.284479
        },
        "ad_info": {
            "adcode": 442000,
            "province": "广东省",
            "city": "中山市",
            "district": "中山市"
        }
    },
    {
        "id": "10435368154807425688",
        "title": "公共厕所",
        "address": "广东省中山市小榄工业大道中金泰广场",
        "tel": "",
        "category": "基础设施:公共设施:公共厕所",
        "type": 0,
        "location": {
            "lat": 22.585254,
            "lng": 113.263004
        },
        "ad_info": {
            "adcode": 442000,
            "province": "广东省",
            "city": "中山市",
            "district": "中山市"
        }
    },
    {
        "id": "15898489601539846755",
        "title": "公共厕所",
        "address": "广东省中山市东阜路与聚财街交叉口西北方向60米左右",
        "tel": "",
        "category": "基础设施:公共设施:公共厕所",
        "type": 0,
        "location": {
            "lat": 22.669345,
            "lng": 113.315195
        },
        "ad_info": {
            "adcode": 442000,
            "province": "广东省",
            "city": "中山市",
            "district": "中山市"
        }
    },
    {
        "id": "2612243483419057919",
        "title": "公共厕所",
        "address": "广东省中山市东宁路与东成路交叉口西南方向29米左右",
        "tel": "",
        "category": "基础设施:公共设施:公共厕所",
        "type": 0,
        "location": {
            "lat": 22.661019,
            "lng": 113.233034
        },
        "ad_info": {
            "adcode": 442000,
            "province": "广东省",
            "city": "中山市",
            "district": "中山市"
        }
    },
    {
        "id": "4396796196977346161",
        "title": "悦来桥公共厕所",
        "address": "广东省中山市和平新街与悦来中路交叉口正西方向17米左右",
        "tel": "",
        "category": "基础设施:公共设施:公共厕所",
        "type": 0,
        "location": {
            "lat": 22.518575,
            "lng": 113.370457
        },
        "ad_info": {
            "adcode": 442000,
            "province": "广东省",
            "city": "中山市",
            "district": "中山市"
        }
    },
    {
        "id": "3675536426677898111",
        "title": "三级石公共厕所",
        "address": "广东省中山市三级石与中山二路交叉口正南方向59米左右",
        "tel": "",
        "category": "基础设施:公共设施:公共厕所",
        "type": 0,
        "location": {
            "lat": 22.513129,
            "lng": 113.375904
        },
        "ad_info": {
            "adcode": 442000,
            "province": "广东省",
            "city": "中山市",
            "district": "中山市"
        }
    },
    {
        "id": "17628964938657884153",
        "title": "公共厕所",
        "address": "广东省中山市东宝北路中国石化联安加油站",
        "tel": "",
        "category": "基础设施:公共设施:公共厕所",
        "type": 0,
        "location": {
            "lat": 22.61868,
            "lng": 113.247808
        },
        "ad_info": {
            "adcode": 442000,
            "province": "广东省",
            "city": "中山市",
            "district": "中山市"
        }
    },
    {
        "id": "17813728599125659483",
        "title": "公共厕所",
        "address": "广东省中山市华源街与广益路交叉口正东方向42米左右",
        "tel": "",
        "category": "基础设施:公共设施:公共厕所",
        "type": 0,
        "location": {
            "lat": 22.727781,
            "lng": 113.241758
        },
        "ad_info": {
            "adcode": 442000,
            "province": "广东省",
            "city": "中山市",
            "district": "中山市"
        }
    },
    {
        "id": "5300157482393944128",
        "title": "公共厕所",
        "address": "广东省中山市金菊东街金菊花园",
        "tel": "",
        "category": "基础设施:公共设施:公共厕所",
        "type": 0,
        "location": {
            "lat": 22.669125,
            "lng": 113.251935
        },
        "ad_info": {
            "adcode": 442000,
            "province": "广东省",
            "city": "中山市",
            "district": "中山市"
        }
    },
    {
        "id": "3914261458343250391",
        "title": "公共厕所",
        "address": "广东省中山市怡胜街中山市双冠电器制品有限公司",
        "tel": "",
        "category": "基础设施:公共设施:公共厕所",
        "type": 0,
        "location": {
            "lat": 22.617053,
            "lng": 113.264508
        },
        "ad_info": {
            "adcode": 442000,
            "province": "广东省",
            "city": "中山市",
            "district": "中山市"
        }
    },
    {
        "id": "3999951664651980766",
        "title": "公共厕所",
        "address": "广东省中山市曹三大街与曹兴中路交叉口正北方向83米左右",
        "tel": "",
        "category": "基础设施:公共设施:公共厕所",
        "type": 0,
        "location": {
            "lat": 22.629017,
            "lng": 113.201615
        },
        "ad_info": {
            "adcode": 442000,
            "province": "广东省",
            "city": "中山市",
            "district": "中山市"
        }
    },
    {
        "id": "3558414916110846259",
        "title": "公共厕所",
        "address": "广东省中山市同安大道西同安市场",
        "tel": "",
        "category": "基础设施:公共设施:公共厕所",
        "type": 0,
        "location": {
            "lat": 22.725248,
            "lng": 113.253357
        },
        "ad_info": {
            "adcode": 442000,
            "province": "广东省",
            "city": "中山市",
            "district": "中山市"
        }
    },
    {
        "id": "3136548459634353214",
        "title": "公共厕所",
        "address": "广东省中山市金港路辅路与港隆南路交叉口东北180米",
        "tel": "",
        "category": "基础设施:公共设施:公共厕所",
        "type": 0,
        "location": {
            "lat": 22.562625,
            "lng": 113.345802
        },
        "ad_info": {
            "adcode": 442000,
            "province": "广东省",
            "city": "中山市",
            "district": "中山市"
        }
    },
    {
        "id": "4641974320419828938",
        "title": "街心公园公共厕所",
        "address": "广东省中山市南岐中路与龙穴路交叉口正西方向30米左右",
        "tel": "",
        "category": "基础设施:公共设施:公共厕所",
        "type": 0,
        "location": {
            "lat": 22.491937,
            "lng": 113.535099
        },
        "ad_info": {
            "adcode": 442000,
            "province": "广东省",
            "city": "中山市",
            "district": "中山市"
        }
    },
    {
        "id": "16833342575079452513",
        "title": "公共厕所",
        "address": "广东省中山市天龙街与宝丰西路交叉口东南方向111米左右",
        "tel": "",
        "category": "基础设施:公共设施:公共厕所",
        "type": 0,
        "location": {
            "lat": 22.59248,
            "lng": 113.251926
        },
        "ad_info": {
            "adcode": 442000,
            "province": "广东省",
            "city": "中山市",
            "district": "中山市"
        }
    },
    {
        "id": "6876589523703152003",
        "title": "男洗手间",
        "address": "广东省中山市古镇镇新兴大道东161号大信新都汇F3",
        "tel": "",
        "category": "基础设施:公共设施:公共厕所",
        "type": 0,
        "location": {
            "lat": 22.640018,
            "lng": 113.20526
        },
        "ad_info": {
            "adcode": 442000,
            "province": "广东省",
            "city": "中山市",
            "district": "中山市"
        }
    },
    {
        "id": "238897416004339414",
        "title": "公共厕所",
        "address": "广东省中山市安定北街一巷一横巷与安悦北路二街交叉口正东方向45米左右",
        "tel": "",
        "category": "基础设施:公共设施:公共厕所",
        "type": 0,
        "location": {
            "lat": 22.607549,
            "lng": 113.249905
        },
        "ad_info": {
            "adcode": 442000,
            "province": "广东省",
            "city": "中山市",
            "district": "中山市"
        }
    },
    {
        "id": "15537355761242577342",
        "title": "公共厕所",
        "address": "广东省中山市东兴西路与东升街交叉口西南方向58米左右",
        "tel": "",
        "category": "基础设施:公共设施:公共厕所",
        "type": 0,
        "location": {
            "lat": 22.617794,
            "lng": 113.17771
        },
        "ad_info": {
            "adcode": 442000,
            "province": "广东省",
            "city": "中山市",
            "district": "中山市"
        }
    },
    {
        "id": "3577704749262795824",
        "title": "公共厕所",
        "address": "广东省中山市星康街一巷与顺康街交叉口正东方向63米左右",
        "tel": "",
        "category": "基础设施:公共设施:公共厕所",
        "type": 0,
        "location": {
            "lat": 22.628851,
            "lng": 113.259425
        },
        "ad_info": {
            "adcode": 442000,
            "province": "广东省",
            "city": "中山市",
            "district": "中山市"
        }
    },
    {
        "id": "13370035423997590457",
        "title": "公共厕所",
        "address": "广东省中山市横西二三街与顺兴北路交叉口东南160米",
        "tel": "",
        "category": "基础设施:公共设施:公共厕所",
        "type": 0,
        "location": {
            "lat": 22.532181,
            "lng": 113.255838
        },
        "ad_info": {
            "adcode": 442000,
            "province": "广东省",
            "city": "中山市",
            "district": "中山市"
        }
    },
    {
        "id": "1230975826113647500",
        "title": "公共厕所",
        "address": "广东省中山市林屋门前三巷与金光大道交叉口正西方向53米左右",
        "tel": "",
        "category": "基础设施:公共设施:公共厕所",
        "type": 0,
        "location": {
            "lat": 22.356002,
            "lng": 113.432777
        },
        "ad_info": {
            "adcode": 442000,
            "province": "广东省",
            "city": "中山市",
            "district": "中山市"
        }
    },
    {
        "id": "7968106634583019916",
        "title": "公共厕所",
        "address": "广东省中山市广珠公路与文化中路交叉口西南方向177米左右",
        "tel": "",
        "category": "基础设施:公共设施:公共厕所",
        "type": 0,
        "location": {
            "lat": 22.354672,
            "lng": 113.362585
        },
        "ad_info": {
            "adcode": 442000,
            "province": "广东省",
            "city": "中山市",
            "district": "中山市"
        }
    },
    {
        "id": "16145632180686202737",
        "title": "公共厕所",
        "address": "广东省中山市阜沙镇福永路北端浮虚山公园(南侧)",
        "tel": "",
        "category": "基础设施:公共设施:公共厕所",
        "type": 0,
        "location": {
            "lat": 22.66936,
            "lng": 113.355946
        },
        "ad_info": {
            "adcode": 442000,
            "province": "广东省",
            "city": "中山市",
            "district": "中山市"
        }
    },
    {
        "id": "16733057735541553979",
        "title": "公共厕所",
        "address": "广东省中山市民鸿一巷与民鸿路交叉口西南方向43米左右",
        "tel": "",
        "category": "基础设施:公共设施:公共厕所",
        "type": 0,
        "location": {
            "lat": 22.708532,
            "lng": 113.26316
        },
        "ad_info": {
            "adcode": 442000,
            "province": "广东省",
            "city": "中山市",
            "district": "中山市"
        }
    },
    {
        "id": "2837522295896062255",
        "title": "麦当劳(大信店)-洗手间",
        "address": "广东省中山市大信北路与莲塘北路交叉口西南方向65米左右",
        "tel": "",
        "category": "基础设施:公共设施:公共厕所",
        "type": 0,
        "location": {
            "lat": 22.533161,
            "lng": 113.383413
        },
        "ad_info": {
            "adcode": 442000,
            "province": "广东省",
            "city": "中山市",
            "district": "中山市"
        }
    },
    {
        "id": "14790265990878432308",
        "title": "公共厕所",
        "address": "广东省中山市体育路与南岐中路交叉口正东方向154米左右",
        "tel": "",
        "category": "基础设施:公共设施:公共厕所",
        "type": 0,
        "location": {
            "lat": 22.500635,
            "lng": 113.53333
        },
        "ad_info": {
            "adcode": 442000,
            "province": "广东省",
            "city": "中山市",
            "district": "中山市"
        }
    },
    {
        "id": "13011750862733734594",
        "title": "公共厕所",
        "address": "广东省中山市孙文东路30号",
        "tel": "",
        "category": "基础设施:公共设施:公共厕所",
        "type": 0,
        "location": {
            "lat": 22.523374,
            "lng": 113.383216
        },
        "ad_info": {
            "adcode": 442000,
            "province": "广东省",
            "city": "中山市",
            "district": "中山市"
        }
    },
    {
        "id": "16715440516206871906",
        "title": "男洗手间",
        "address": "广东省中山市凤鸣路3号百盛购物中心F4",
        "tel": "",
        "category": "基础设施:公共设施:公共厕所",
        "type": 0,
        "location": {
            "lat": 22.524214,
            "lng": 113.367043
        },
        "ad_info": {
            "adcode": 442000,
            "province": "广东省",
            "city": "中山市",
            "district": "中山市"
        }
    },
    {
        "id": "3344587499507941535",
        "title": "老安山公共厕所",
        "address": "广东省中山市南安路老安山",
        "tel": "",
        "category": "基础设施:公共设施:公共厕所",
        "type": 0,
        "location": {
            "lat": 22.510056,
            "lng": 113.362948
        },
        "ad_info": {
            "adcode": 442000,
            "province": "广东省",
            "city": "中山市",
            "district": "中山市"
        }
    },
    {
        "id": "11587925408233014460",
        "title": "公共厕所",
        "address": "广东省中山市下闸路与富华道交叉口东南方向56米左右",
        "tel": "",
        "category": "基础设施:公共设施:公共厕所",
        "type": 0,
        "location": {
            "lat": 22.521095,
            "lng": 113.360117
        },
        "ad_info": {
            "adcode": 442000,
            "province": "广东省",
            "city": "中山市",
            "district": "中山市"
        }
    },
    {
        "id": "3902648040419291833",
        "title": "公共厕所",
        "address": "广东省中山市德秀路28号",
        "tel": "",
        "category": "基础设施:公共设施:公共厕所",
        "type": 0,
        "location": {
            "lat": 22.273802,
            "lng": 113.462639
        },
        "ad_info": {
            "adcode": 442000,
            "province": "广东省",
            "city": "中山市",
            "district": "中山市"
        }
    },
    {
        "id": "9476141900848175012",
        "title": "美加酒店-洗手间",
        "address": "广东省中山市小榄镇民安南路138号(小榄轻轨站旁)",
        "tel": "",
        "category": "基础设施:公共设施:公共厕所",
        "type": 0,
        "location": {
            "lat": 22.648042,
            "lng": 113.264285
        },
        "ad_info": {
            "adcode": 442000,
            "province": "广东省",
            "city": "中山市",
            "district": "中山市"
        }
    },
    {
        "id": "12946139683604477109",
        "title": "富竹街公共厕所",
        "address": "广东省中山市富竹一横街与起湾道交叉口正东方向132米左右",
        "tel": "",
        "category": "基础设施:公共设施:公共厕所",
        "type": 0,
        "location": {
            "lat": 22.517732,
            "lng": 113.40126
        },
        "ad_info": {
            "adcode": 442000,
            "province": "广东省",
            "city": "中山市",
            "district": "中山市"
        }
    },
    {
        "id": "6343502924149020631",
        "title": "永盛市场公共厕所",
        "address": "广东省中山市三丰一路与三沙益丰二街交叉口东南方向176米左右",
        "tel": "",
        "category": "基础设施:公共设施:公共厕所",
        "type": 0,
        "location": {
            "lat": 22.573715,
            "lng": 113.214683
        },
        "ad_info": {
            "adcode": 442000,
            "province": "广东省",
            "city": "中山市",
            "district": "中山市"
        }
    },
    {
        "id": "16629011554738640175",
        "title": "公共厕所",
        "address": "广东省中山市中山北站与兴畅路交叉口西北方向105米左右",
        "tel": "",
        "category": "基础设施:公共设施:公共厕所",
        "type": 0,
        "location": {
            "lat": 22.557081,
            "lng": 113.383667
        },
        "ad_info": {
            "adcode": 442000,
            "province": "广东省",
            "city": "中山市",
            "district": "中山市"
        }
    },
    {
        "id": "8533211833222068708",
        "title": "公共厕所",
        "address": "广东省中山市会展东路与玉泉路交叉口东北方向169米左右",
        "tel": "",
        "category": "基础设施:公共设施:公共厕所",
        "type": 0,
        "location": {
            "lat": 22.562752,
            "lng": 113.502078
        },
        "ad_info": {
            "adcode": 442000,
            "province": "广东省",
            "city": "中山市",
            "district": "中山市"
        }
    },
    {
        "id": "47058528620202459",
        "title": "三元庙公共厕所",
        "address": "广东省中山市孙文西路82号",
        "tel": "",
        "category": "基础设施:公共设施:公共厕所",
        "type": 0,
        "location": {
            "lat": 22.522537,
            "lng": 113.371271
        },
        "ad_info": {
            "adcode": 442000,
            "province": "广东省",
            "city": "中山市",
            "district": "中山市"
        }
    },
    {
        "id": "3978516446079975316",
        "title": "公共厕所",
        "address": "广东省中山市上陂头路与中山六路交叉口正西方向296米左右",
        "tel": "",
        "category": "基础设施:公共设施:公共厕所",
        "type": 0,
        "location": {
            "lat": 22.518805,
            "lng": 113.423055
        },
        "ad_info": {
            "adcode": 442000,
            "province": "广东省",
            "city": "中山市",
            "district": "中山市"
        }
    },
    {
        "id": "8323463127918977329",
        "title": "公共厕所",
        "address": "广东省中山市园丁路与园宁路交叉口东北方向133米左右",
        "tel": "",
        "category": "基础设施:公共设施:公共厕所",
        "type": 0,
        "location": {
            "lat": 22.322294,
            "lng": 113.3518
        },
        "ad_info": {
            "adcode": 442000,
            "province": "广东省",
            "city": "中山市",
            "district": "中山市"
        }
    },
    {
        "id": "1509648946466255619",
        "title": "公共厕所",
        "address": "广东省中山市同昌路与永昌路交叉口正南方向103米左右",
        "tel": "",
        "category": "基础设施:公共设施:公共厕所",
        "type": 0,
        "location": {
            "lat": 22.615967,
            "lng": 113.289625
        },
        "ad_info": {
            "adcode": 442000,
            "province": "广东省",
            "city": "中山市",
            "district": "中山市"
        }
    },
    {
        "id": "6897257290015457604",
        "title": "公共厕所",
        "address": "广东省中山市环村东路九洲基兴隆市场",
        "tel": "",
        "category": "基础设施:公共设施:公共厕所",
        "type": 0,
        "location": {
            "lat": 22.641508,
            "lng": 113.231995
        },
        "ad_info": {
            "adcode": 442000,
            "province": "广东省",
            "city": "中山市",
            "district": "中山市"
        }
    },
    {
        "id": "6007646094783893786",
        "title": "公共厕所",
        "address": "广东省中山市村尾上街与村尾下街交叉口东北方向39米左右",
        "tel": "",
        "category": "基础设施:公共设施:公共厕所",
        "type": 0,
        "location": {
            "lat": 22.551108,
            "lng": 113.465984
        },
        "ad_info": {
            "adcode": 442000,
            "province": "广东省",
            "city": "中山市",
            "district": "中山市"
        }
    },
    {
        "id": "15009872247509217444",
        "title": "公共厕所",
        "address": "广东省中山市居安街长洲翠景市场",
        "tel": "",
        "category": "基础设施:公共设施:公共厕所",
        "type": 0,
        "location": {
            "lat": 22.527268,
            "lng": 113.350111
        },
        "ad_info": {
            "adcode": 442000,
            "province": "广东省",
            "city": "中山市",
            "district": "中山市"
        }
    },
    {
        "id": "6050787517825837127",
        "title": "公共厕所",
        "address": "广东省中山市坦洲镇金斗湾商贸步行街1号",
        "tel": "",
        "category": "基础设施:公共设施:公共厕所",
        "type": 0,
        "location": {
            "lat": 22.271134,
            "lng": 113.497106
        },
        "ad_info": {
            "adcode": 442000,
            "province": "广东省",
            "city": "中山市",
            "district": "中山市"
        }
    },
    {
        "id": "5720004936186594104",
        "title": "公共厕所",
        "address": "广东省中山市杰祥西街彩虹市场(彩虹大道)",
        "tel": "",
        "category": "基础设施:公共设施:公共厕所",
        "type": 0,
        "location": {
            "lat": 22.54042,
            "lng": 113.360231
        },
        "ad_info": {
            "adcode": 442000,
            "province": "广东省",
            "city": "中山市",
            "district": "中山市"
        }
    },
    {
        "id": "8943523025509126557",
        "title": "公共厕所",
        "address": "广东省中山市宝丰中路与金河五街交叉口西北方向51米左右",
        "tel": "",
        "category": "基础设施:公共设施:公共厕所",
        "type": 0,
        "location": {
            "lat": 22.59082,
            "lng": 113.257517
        },
        "ad_info": {
            "adcode": 442000,
            "province": "广东省",
            "city": "中山市",
            "district": "中山市"
        }
    },
    {
        "id": "17981794074351908905",
        "title": "公共厕所",
        "address": "广东省中山市富联中路与广成路交叉口东南方向113米左右",
        "tel": "",
        "category": "基础设施:公共设施:公共厕所",
        "type": 0,
        "location": {
            "lat": 22.629162,
            "lng": 113.221492
        },
        "ad_info": {
            "adcode": 442000,
            "province": "广东省",
            "city": "中山市",
            "district": "中山市"
        }
    },
    {
        "id": "8411952965870111198",
        "title": "公共厕所",
        "address": "广东省中山市乐丰南路与庆丰路交叉口东北方向64米左右",
        "tel": "",
        "category": "基础设施:公共设施:公共厕所",
        "type": 0,
        "location": {
            "lat": 22.594444,
            "lng": 113.236034
        },
        "ad_info": {
            "adcode": 442000,
            "province": "广东省",
            "city": "中山市",
            "district": "中山市"
        }
    },
    {
        "id": "4023430873029346312",
        "title": "智慧公共厕所",
        "address": "广东省中山市富横北路与永谊二路交叉口正北方向58米左右",
        "tel": "",
        "category": "基础设施:公共设施:公共厕所",
        "type": 0,
        "location": {
            "lat": 22.543781,
            "lng": 113.257264
        },
        "ad_info": {
            "adcode": 442000,
            "province": "广东省",
            "city": "中山市",
            "district": "中山市"
        }
    },
    {
        "id": "8624755299427394173",
        "title": "公共厕所",
        "address": "广东省中山市东厢路与东平横街交叉口正西方向157米左右",
        "tel": "",
        "category": "基础设施:公共设施:公共厕所",
        "type": 0,
        "location": {
            "lat": 22.63112,
            "lng": 113.198505
        },
        "ad_info": {
            "adcode": 442000,
            "province": "广东省",
            "city": "中山市",
            "district": "中山市"
        }
    },
    {
        "id": "3246031437938688739",
        "title": "公共厕所",
        "address": "广东省中山市中江高速民安市场",
        "tel": "",
        "category": "基础设施:公共设施:公共厕所",
        "type": 0,
        "location": {
            "lat": 22.730556,
            "lng": 113.291046
        },
        "ad_info": {
            "adcode": 442000,
            "province": "广东省",
            "city": "中山市",
            "district": "中山市"
        }
    },
    {
        "id": "12783816337390392305",
        "title": "公共厕所",
        "address": "广东省中山市沙溪南路菜丁龙瑞市场",
        "tel": "",
        "category": "基础设施:公共设施:公共厕所",
        "type": 0,
        "location": {
            "lat": 22.511633,
            "lng": 113.340382
        },
        "ad_info": {
            "adcode": 442000,
            "province": "广东省",
            "city": "中山市",
            "district": "中山市"
        }
    },
    {
        "id": "8062110002754440461",
        "title": "公共厕所",
        "address": "广东省中山市南头大道东6东南方向150米",
        "tel": "",
        "category": "基础设施:公共设施:公共厕所",
        "type": 0,
        "location": {
            "lat": 22.711924,
            "lng": 113.30817
        },
        "ad_info": {
            "adcode": 442000,
            "province": "广东省",
            "city": "中山市",
            "district": "中山市"
        }
    },
    {
        "id": "2034188765398707241",
        "title": "公共厕所",
        "address": "广东省中山市南江路与悦银街交叉口西北方向61米左右",
        "tel": "",
        "category": "基础设施:公共设施:公共厕所",
        "type": 0,
        "location": {
            "lat": 22.508413,
            "lng": 113.365987
        },
        "ad_info": {
            "adcode": 442000,
            "province": "广东省",
            "city": "中山市",
            "district": "中山市"
        }
    },
    {
        "id": "8035940545585298520",
        "title": "公共厕所",
        "address": "广东省中山市忠头大街与泽江大街交叉口东南方向37米左右",
        "tel": "",
        "category": "基础设施:公共设施:公共厕所",
        "type": 0,
        "location": {
            "lat": 22.500387,
            "lng": 113.307768
        },
        "ad_info": {
            "adcode": 442000,
            "province": "广东省",
            "city": "中山市",
            "district": "中山市"
        }
    },
    {
        "id": "13494341785547491903",
        "title": "公共厕所",
        "address": "广东省中山市三溪正街与三溪路交叉口东南方向119米左右",
        "tel": "",
        "category": "基础设施:公共设施:公共厕所",
        "type": 0,
        "location": {
            "lat": 22.498173,
            "lng": 113.422454
        },
        "ad_info": {
            "adcode": 442000,
            "province": "广东省",
            "city": "中山市",
            "district": "中山市"
        }
    },
    {
        "id": "4705265405513853035",
        "title": "公共厕所",
        "address": "广东省中山市兴坦路与嘉联路交叉口东南方向115米左右",
        "tel": "",
        "category": "基础设施:公共设施:公共厕所",
        "type": 0,
        "location": {
            "lat": 22.250158,
            "lng": 113.471061
        },
        "ad_info": {
            "adcode": 442000,
            "province": "广东省",
            "city": "中山市",
            "district": "中山市"
        }
    },
    {
        "id": "350909171603502476",
        "title": "公共厕所",
        "address": "广东省中山市兴横街三巷与兴横街交叉口正南方向40米左右",
        "tel": "",
        "category": "基础设施:公共设施:公共厕所",
        "type": 0,
        "location": {
            "lat": 22.532505,
            "lng": 113.248328
        },
        "ad_info": {
            "adcode": 442000,
            "province": "广东省",
            "city": "中山市",
            "district": "中山市"
        }
    },
    {
        "id": "2552493078186136797",
        "title": "公共厕所",
        "address": "广东省中山市美景东路与美景西路交叉口西北方向155米左右",
        "tel": "",
        "category": "基础设施:公共设施:公共厕所",
        "type": 0,
        "location": {
            "lat": 22.574217,
            "lng": 113.386048
        },
        "ad_info": {
            "adcode": 442000,
            "province": "广东省",
            "city": "中山市",
            "district": "中山市"
        }
    },
    {
        "id": "5404442274128929975",
        "title": "公共厕所",
        "address": "广东省中山市文化东路辅路与文华新村路交叉口南100米",
        "tel": "",
        "category": "基础设施:公共设施:公共厕所",
        "type": 0,
        "location": {
            "lat": 22.351391,
            "lng": 113.390898
        },
        "ad_info": {
            "adcode": 442000,
            "province": "广东省",
            "city": "中山市",
            "district": "中山市"
        }
    },
    {
        "id": "4607009753733407662",
        "title": "无障碍公共厕所",
        "address": "广东省中山市祥和上街与祥和街交叉口西北方向40米左右",
        "tel": "",
        "category": "基础设施:公共设施:公共厕所",
        "type": 0,
        "location": {
            "lat": 22.268114,
            "lng": 113.485879
        },
        "ad_info": {
            "adcode": 442000,
            "province": "广东省",
            "city": "中山市",
            "district": "中山市"
        }
    },
    {
        "id": "5088481237623243236",
        "title": "公共厕所",
        "address": "广东省中山市同茂街同茂市场",
        "tel": "",
        "category": "基础设施:公共设施:公共厕所",
        "type": 0,
        "location": {
            "lat": 22.59093,
            "lng": 113.305188
        },
        "ad_info": {
            "adcode": 442000,
            "province": "广东省",
            "city": "中山市",
            "district": "中山市"
        }
    },
    {
        "id": "16970060157483420401",
        "title": "麦当劳(三乡店)-洗手间",
        "address": "广东省中山市小琅环路与文昌中路交叉口正北方向48米左右",
        "tel": "",
        "category": "基础设施:公共设施:公共厕所",
        "type": 0,
        "location": {
            "lat": 22.356933,
            "lng": 113.432948
        },
        "ad_info": {
            "adcode": 442000,
            "province": "广东省",
            "city": "中山市",
            "district": "中山市"
        }
    },
    {
        "id": "11012727990832562078",
        "title": "公共厕所",
        "address": "广东省中山市云兴路云汉商业大楼",
        "tel": "",
        "category": "基础设施:公共设施:公共厕所",
        "type": 0,
        "location": {
            "lat": 22.525068,
            "lng": 113.33198
        },
        "ad_info": {
            "adcode": 442000,
            "province": "广东省",
            "city": "中山市",
            "district": "中山市"
        }
    },
    {
        "id": "3997097992801988697",
        "title": "公共厕所",
        "address": "广东省中山市贤兴路与金星一街二巷交叉口正北方向97米左右",
        "tel": "",
        "category": "基础设施:公共设施:公共厕所",
        "type": 0,
        "location": {
            "lat": 22.585109,
            "lng": 113.204681
        },
        "ad_info": {
            "adcode": 442000,
            "province": "广东省",
            "city": "中山市",
            "district": "中山市"
        }
    },
    {
        "id": "15878320282669263959",
        "title": "公共厕所",
        "address": "广东省中山市南安路与悦来南路交叉口西南方向88米左右",
        "tel": "",
        "category": "基础设施:公共设施:公共厕所",
        "type": 0,
        "location": {
            "lat": 22.509476,
            "lng": 113.36763
        },
        "ad_info": {
            "adcode": 442000,
            "province": "广东省",
            "city": "中山市",
            "district": "中山市"
        }
    },
    {
        "id": "10143068395580816281",
        "title": "公共厕所",
        "address": "广东省中山市富湾南路一巷与富湾南路交叉口正北方向84米左右",
        "tel": "",
        "category": "基础设施:公共设施:公共厕所",
        "type": 0,
        "location": {
            "lat": 22.524266,
            "lng": 113.404425
        },
        "ad_info": {
            "adcode": 442000,
            "province": "广东省",
            "city": "中山市",
            "district": "中山市"
        }
    },
    {
        "id": "1457686298957295181",
        "title": "公共厕所",
        "address": "广东省中山市隆兴中路60号沙溪公园(西北角)",
        "tel": "",
        "category": "基础设施:公共设施:公共厕所",
        "type": 0,
        "location": {
            "lat": 22.512483,
            "lng": 113.320757
        },
        "ad_info": {
            "adcode": 442000,
            "province": "广东省",
            "city": "中山市",
            "district": "中山市"
        }
    },
    {
        "id": "40748038305411129",
        "title": "公共厕所",
        "address": "广东省中山市月桂西路与穗隆路交叉口东北方向74米左右",
        "tel": "",
        "category": "基础设施:公共设施:公共厕所",
        "type": 0,
        "location": {
            "lat": 22.69919,
            "lng": 113.299413
        },
        "ad_info": {
            "adcode": 442000,
            "province": "广东省",
            "city": "中山市",
            "district": "中山市"
        }
    },
    {
        "id": "2394185882663091803",
        "title": "麦当劳(小榄新华餐厅)-洗手间",
        "address": "广东省中山市小榄镇沙口升平中路18号大信·新都汇(新华中路)1层",
        "tel": "",
        "category": "基础设施:公共设施:公共厕所",
        "type": 0,
        "location": {
            "lat": 22.67025,
            "lng": 113.246047
        },
        "ad_info": {
            "adcode": 442000,
            "province": "广东省",
            "city": "中山市",
            "district": "中山市"
        }
    },
    {
        "id": "14749861024289478966",
        "title": "肯德基(旭日餐厅)-洗手间",
        "address": "广东省中山市三角镇结民村旭日华庭首层",
        "tel": "",
        "category": "基础设施:公共设施:公共厕所",
        "type": 0,
        "location": {
            "lat": 22.675314,
            "lng": 113.419065
        },
        "ad_info": {
            "adcode": 442000,
            "province": "广东省",
            "city": "中山市",
            "district": "中山市"
        }
    },
    {
        "id": "12783816337390392305",
        "title": "公共厕所",
        "address": "广东省中山市沙溪南路菜丁龙瑞市场",
        "tel": "",
        "category": "基础设施:公共设施:公共厕所",
        "type": 0,
        "location": {
            "lat": 22.511633,
            "lng": 113.340382
        },
        "ad_info": {
            "adcode": 442000,
            "province": "广东省",
            "city": "中山市",
            "district": "中山市"
        }
    },
    {
        "id": "8062110002754440461",
        "title": "公共厕所",
        "address": "广东省中山市南头大道东6东南方向150米",
        "tel": "",
        "category": "基础设施:公共设施:公共厕所",
        "type": 0,
        "location": {
            "lat": 22.711924,
            "lng": 113.30817
        },
        "ad_info": {
            "adcode": 442000,
            "province": "广东省",
            "city": "中山市",
            "district": "中山市"
        }
    },
    {
        "id": "2034188765398707241",
        "title": "公共厕所",
        "address": "广东省中山市南江路与悦银街交叉口西北方向61米左右",
        "tel": "",
        "category": "基础设施:公共设施:公共厕所",
        "type": 0,
        "location": {
            "lat": 22.508413,
            "lng": 113.365987
        },
        "ad_info": {
            "adcode": 442000,
            "province": "广东省",
            "city": "中山市",
            "district": "中山市"
        }
    },
    {
        "id": "8035940545585298520",
        "title": "公共厕所",
        "address": "广东省中山市忠头大街与泽江大街交叉口东南方向37米左右",
        "tel": "",
        "category": "基础设施:公共设施:公共厕所",
        "type": 0,
        "location": {
            "lat": 22.500387,
            "lng": 113.307768
        },
        "ad_info": {
            "adcode": 442000,
            "province": "广东省",
            "city": "中山市",
            "district": "中山市"
        }
    },
    {
        "id": "13494341785547491903",
        "title": "公共厕所",
        "address": "广东省中山市三溪正街与三溪路交叉口东南方向119米左右",
        "tel": "",
        "category": "基础设施:公共设施:公共厕所",
        "type": 0,
        "location": {
            "lat": 22.498173,
            "lng": 113.422454
        },
        "ad_info": {
            "adcode": 442000,
            "province": "广东省",
            "city": "中山市",
            "district": "中山市"
        }
    },
    {
        "id": "4705265405513853035",
        "title": "公共厕所",
        "address": "广东省中山市兴坦路与嘉联路交叉口东南方向115米左右",
        "tel": "",
        "category": "基础设施:公共设施:公共厕所",
        "type": 0,
        "location": {
            "lat": 22.250158,
            "lng": 113.471061
        },
        "ad_info": {
            "adcode": 442000,
            "province": "广东省",
            "city": "中山市",
            "district": "中山市"
        }
    },
    {
        "id": "350909171603502476",
        "title": "公共厕所",
        "address": "广东省中山市兴横街三巷与兴横街交叉口正南方向40米左右",
        "tel": "",
        "category": "基础设施:公共设施:公共厕所",
        "type": 0,
        "location": {
            "lat": 22.532505,
            "lng": 113.248328
        },
        "ad_info": {
            "adcode": 442000,
            "province": "广东省",
            "city": "中山市",
            "district": "中山市"
        }
    },
    {
        "id": "2552493078186136797",
        "title": "公共厕所",
        "address": "广东省中山市美景东路与美景西路交叉口西北方向155米左右",
        "tel": "",
        "category": "基础设施:公共设施:公共厕所",
        "type": 0,
        "location": {
            "lat": 22.574217,
            "lng": 113.386048
        },
        "ad_info": {
            "adcode": 442000,
            "province": "广东省",
            "city": "中山市",
            "district": "中山市"
        }
    },
    {
        "id": "5404442274128929975",
        "title": "公共厕所",
        "address": "广东省中山市文化东路辅路与文华新村路交叉口南100米",
        "tel": "",
        "category": "基础设施:公共设施:公共厕所",
        "type": 0,
        "location": {
            "lat": 22.351391,
            "lng": 113.390898
        },
        "ad_info": {
            "adcode": 442000,
            "province": "广东省",
            "city": "中山市",
            "district": "中山市"
        }
    },
    {
        "id": "4607009753733407662",
        "title": "无障碍公共厕所",
        "address": "广东省中山市祥和上街与祥和街交叉口西北方向40米左右",
        "tel": "",
        "category": "基础设施:公共设施:公共厕所",
        "type": 0,
        "location": {
            "lat": 22.268114,
            "lng": 113.485879
        },
        "ad_info": {
            "adcode": 442000,
            "province": "广东省",
            "city": "中山市",
            "district": "中山市"
        }
    },
    {
        "id": "5088481237623243236",
        "title": "公共厕所",
        "address": "广东省中山市同茂街同茂市场",
        "tel": "",
        "category": "基础设施:公共设施:公共厕所",
        "type": 0,
        "location": {
            "lat": 22.59093,
            "lng": 113.305188
        },
        "ad_info": {
            "adcode": 442000,
            "province": "广东省",
            "city": "中山市",
            "district": "中山市"
        }
    },
    {
        "id": "16970060157483420401",
        "title": "麦当劳(三乡店)-洗手间",
        "address": "广东省中山市小琅环路与文昌中路交叉口正北方向48米左右",
        "tel": "",
        "category": "基础设施:公共设施:公共厕所",
        "type": 0,
        "location": {
            "lat": 22.356933,
            "lng": 113.432948
        },
        "ad_info": {
            "adcode": 442000,
            "province": "广东省",
            "city": "中山市",
            "district": "中山市"
        }
    },
    {
        "id": "11012727990832562078",
        "title": "公共厕所",
        "address": "广东省中山市云兴路云汉商业大楼",
        "tel": "",
        "category": "基础设施:公共设施:公共厕所",
        "type": 0,
        "location": {
            "lat": 22.525068,
            "lng": 113.33198
        },
        "ad_info": {
            "adcode": 442000,
            "province": "广东省",
            "city": "中山市",
            "district": "中山市"
        }
    },
    {
        "id": "3997097992801988697",
        "title": "公共厕所",
        "address": "广东省中山市贤兴路与金星一街二巷交叉口正北方向97米左右",
        "tel": "",
        "category": "基础设施:公共设施:公共厕所",
        "type": 0,
        "location": {
            "lat": 22.585109,
            "lng": 113.204681
        },
        "ad_info": {
            "adcode": 442000,
            "province": "广东省",
            "city": "中山市",
            "district": "中山市"
        }
    },
    {
        "id": "15878320282669263959",
        "title": "公共厕所",
        "address": "广东省中山市南安路与悦来南路交叉口西南方向88米左右",
        "tel": "",
        "category": "基础设施:公共设施:公共厕所",
        "type": 0,
        "location": {
            "lat": 22.509476,
            "lng": 113.36763
        },
        "ad_info": {
            "adcode": 442000,
            "province": "广东省",
            "city": "中山市",
            "district": "中山市"
        }
    },
    {
        "id": "10143068395580816281",
        "title": "公共厕所",
        "address": "广东省中山市富湾南路一巷与富湾南路交叉口正北方向84米左右",
        "tel": "",
        "category": "基础设施:公共设施:公共厕所",
        "type": 0,
        "location": {
            "lat": 22.524266,
            "lng": 113.404425
        },
        "ad_info": {
            "adcode": 442000,
            "province": "广东省",
            "city": "中山市",
            "district": "中山市"
        }
    },
    {
        "id": "1457686298957295181",
        "title": "公共厕所",
        "address": "广东省中山市隆兴中路60号沙溪公园(西北角)",
        "tel": "",
        "category": "基础设施:公共设施:公共厕所",
        "type": 0,
        "location": {
            "lat": 22.512483,
            "lng": 113.320757
        },
        "ad_info": {
            "adcode": 442000,
            "province": "广东省",
            "city": "中山市",
            "district": "中山市"
        }
    },
    {
        "id": "40748038305411129",
        "title": "公共厕所",
        "address": "广东省中山市月桂西路与穗隆路交叉口东北方向74米左右",
        "tel": "",
        "category": "基础设施:公共设施:公共厕所",
        "type": 0,
        "location": {
            "lat": 22.69919,
            "lng": 113.299413
        },
        "ad_info": {
            "adcode": 442000,
            "province": "广东省",
            "city": "中山市",
            "district": "中山市"
        }
    },
    {
        "id": "2394185882663091803",
        "title": "麦当劳(小榄新华餐厅)-洗手间",
        "address": "广东省中山市小榄镇沙口升平中路18号大信·新都汇(新华中路)1层",
        "tel": "",
        "category": "基础设施:公共设施:公共厕所",
        "type": 0,
        "location": {
            "lat": 22.67025,
            "lng": 113.246047
        },
        "ad_info": {
            "adcode": 442000,
            "province": "广东省",
            "city": "中山市",
            "district": "中山市"
        }
    },
    {
        "id": "14749861024289478966",
        "title": "肯德基(旭日餐厅)-洗手间",
        "address": "广东省中山市三角镇结民村旭日华庭首层",
        "tel": "",
        "category": "基础设施:公共设施:公共厕所",
        "type": 0,
        "location": {
            "lat": 22.675314,
            "lng": 113.419065
        },
        "ad_info": {
            "adcode": 442000,
            "province": "广东省",
            "city": "中山市",
            "district": "中山市"
        }
    },
    {
        "id": "12783816337390392305",
        "title": "公共厕所",
        "address": "广东省中山市沙溪南路菜丁龙瑞市场",
        "tel": "",
        "category": "基础设施:公共设施:公共厕所",
        "type": 0,
        "location": {
            "lat": 22.511633,
            "lng": 113.340382
        },
        "ad_info": {
            "adcode": 442000,
            "province": "广东省",
            "city": "中山市",
            "district": "中山市"
        }
    },
    {
        "id": "8062110002754440461",
        "title": "公共厕所",
        "address": "广东省中山市南头大道东6东南方向150米",
        "tel": "",
        "category": "基础设施:公共设施:公共厕所",
        "type": 0,
        "location": {
            "lat": 22.711924,
            "lng": 113.30817
        },
        "ad_info": {
            "adcode": 442000,
            "province": "广东省",
            "city": "中山市",
            "district": "中山市"
        }
    },
    {
        "id": "2034188765398707241",
        "title": "公共厕所",
        "address": "广东省中山市南江路与悦银街交叉口西北方向61米左右",
        "tel": "",
        "category": "基础设施:公共设施:公共厕所",
        "type": 0,
        "location": {
            "lat": 22.508413,
            "lng": 113.365987
        },
        "ad_info": {
            "adcode": 442000,
            "province": "广东省",
            "city": "中山市",
            "district": "中山市"
        }
    },
    {
        "id": "8035940545585298520",
        "title": "公共厕所",
        "address": "广东省中山市忠头大街与泽江大街交叉口东南方向37米左右",
        "tel": "",
        "category": "基础设施:公共设施:公共厕所",
        "type": 0,
        "location": {
            "lat": 22.500387,
            "lng": 113.307768
        },
        "ad_info": {
            "adcode": 442000,
            "province": "广东省",
            "city": "中山市",
            "district": "中山市"
        }
    },
    {
        "id": "13494341785547491903",
        "title": "公共厕所",
        "address": "广东省中山市三溪正街与三溪路交叉口东南方向119米左右",
        "tel": "",
        "category": "基础设施:公共设施:公共厕所",
        "type": 0,
        "location": {
            "lat": 22.498173,
            "lng": 113.422454
        },
        "ad_info": {
            "adcode": 442000,
            "province": "广东省",
            "city": "中山市",
            "district": "中山市"
        }
    },
    {
        "id": "4705265405513853035",
        "title": "公共厕所",
        "address": "广东省中山市兴坦路与嘉联路交叉口东南方向115米左右",
        "tel": "",
        "category": "基础设施:公共设施:公共厕所",
        "type": 0,
        "location": {
            "lat": 22.250158,
            "lng": 113.471061
        },
        "ad_info": {
            "adcode": 442000,
            "province": "广东省",
            "city": "中山市",
            "district": "中山市"
        }
    },
    {
        "id": "350909171603502476",
        "title": "公共厕所",
        "address": "广东省中山市兴横街三巷与兴横街交叉口正南方向40米左右",
        "tel": "",
        "category": "基础设施:公共设施:公共厕所",
        "type": 0,
        "location": {
            "lat": 22.532505,
            "lng": 113.248328
        },