[
    {
        "id": "16301907401337369436",
        "title": "公共厕所",
        "address": "甘肃省临夏回族自治州广河县南滨河路与河北街交叉口正东方向95米左右",
        "tel": "",
        "category": "基础设施:公共设施:公共厕所",
        "type": 0,
        "location": {
            "lat": 35.483616,
            "lng": 103.569433
        },
        "ad_info": {
            "adcode": 622924,
            "province": "甘肃省",
            "city": "临夏回族自治州",
            "district": "广河县"
        }
    },
    {
        "id": "17920888933493940881",
        "title": "公共厕所(GS-LX-0263)",
        "address": "甘肃省临夏回族自治州永靖县川南路与龙汇山路交叉口正南方向1129米左右",
        "tel": "",
        "category": "基础设施:公共设施:公共厕所",
        "type": 0,
        "location": {
            "lat": 35.92209,
            "lng": 103.326441
        },
        "ad_info": {
            "adcode": 622923,
            "province": "甘肃省",
            "city": "临夏回族自治州",
            "district": "永靖县"
        }
    },
    {
        "id": "1318741215884202585",
        "title": "公共厕所",
        "address": "甘肃省临夏回族自治州康乐县新治街与迎宾路交叉口东北方向103米左右",
        "tel": "",
        "category": "基础设施:公共设施:公共厕所",
        "type": 0,
        "location": {
            "lat": 35.375127,
            "lng": 103.713256
        },
        "ad_info": {
            "adcode": 622922,
            "province": "甘肃省",
            "city": "临夏回族自治州",
            "district": "康乐县"
        }
    },
    {
        "id": "873900893818431954",
        "title": "厕所",
        "address": "甘肃省临夏回族自治州临夏市大西关上巷与大西关下巷交叉口正东方向121米左右",
        "tel": "13993020523",
        "category": "基础设施:公共设施:公共厕所",
        "type": 0,
        "location": {
            "lat": 35.598293,
            "lng": 103.208503
        },
        "ad_info": {
            "adcode": 622901,
            "province": "甘肃省",
            "city": "临夏回族自治州",
            "district": "临夏市"
        }
    },
    {
        "id": "451308907192672087",
        "title": "公共厕所",
        "address": "甘肃省临夏回族自治州临夏市光华东路与和谐路交叉口西北方向121米左右",
        "tel": "",
        "category": "基础设施:公共设施:公共厕所",
        "type": 0,
        "location": {
            "lat": 35.605034,
            "lng": 103.230187
        },
        "ad_info": {
            "adcode": 622901,
            "province": "甘肃省",
            "city": "临夏回族自治州",
            "district": "临夏市"
        }
    },
    {
        "id": "13896519677089667091",
        "title": "公共厕所",
        "address": "甘肃省临夏回族自治州永靖县锦绣嘉园西2门旁边楼内",
        "tel": "",
        "category": "基础设施:公共设施:公共厕所",
        "type": 0,
        "location": {
            "lat": 35.955466,
            "lng": 103.280003
        },
        "ad_info": {
            "adcode": 622923,
            "province": "甘肃省",
            "city": "临夏回族自治州",
            "district": "永靖县"
        }
    },
    {
        "id": "16487392505793645916",
        "title": "公共厕所",
        "address": "甘肃省临夏回族自治州和政县滨河路与牌坊路交叉口正东方向102米左右",
        "tel": "",
        "category": "基础设施:公共设施:公共厕所",
        "type": 0,
        "location": {
            "lat": 35.452278,
            "lng": 103.372413
        },
        "ad_info": {
            "adcode": 622925,
            "province": "甘肃省",
            "city": "临夏回族自治州",
            "district": "和政县"
        }
    },
    {
        "id": "7556250539833510089",
        "title": "公共厕所",
        "address": "甘肃省临夏回族自治州永靖县太极南路与太极西路交叉口正南方向561米左右",
        "tel": "",
        "category": "基础设施:公共设施:公共厕所",
        "type": 0,
        "location": {
            "lat": 35.947451,
            "lng": 103.27825
        },
        "ad_info": {
            "adcode": 622923,
            "province": "甘肃省",
            "city": "临夏回族自治州",
            "district": "永靖县"
        }
    },
    {
        "id": "3568749781887866507",
        "title": "公共厕所",
        "address": "甘肃省临夏回族自治州临夏市庆胜东路与文昌路交叉口东南方向122米左右",
        "tel": "",
        "category": "基础设施:公共设施:公共厕所",
        "type": 0,
        "location": {
            "lat": 35.607045,
            "lng": 103.232048
        },
        "ad_info": {
            "adcode": 622901,
            "province": "甘肃省",
            "city": "临夏回族自治州",
            "district": "临夏市"
        }
    },
    {
        "id": "1849425221778255335",
        "title": "公共卫生间",
        "address": "甘肃省临夏回族自治州积石山保安族东乡族撒拉族自治县二环路与银川路交叉口正东方向225米左右",
        "tel": "",
        "category": "基础设施:公共设施:公共厕所",
        "type": 0,
        "location": {
            "lat": 35.716756,
            "lng": 102.890606
        },
        "ad_info": {
            "adcode": 622927,
            "province": "甘肃省",
            "city": "临夏回族自治州",
            "district": "积石山保安族东乡族撒拉族自治县"
        }
    },
    {
        "id": "17427343520307376077",
        "title": "公共厕所",
        "address": "甘肃省临夏回族自治州东乡族自治县Y540与纬二路交叉口正东方向28米左右",
        "tel": "",
        "category": "基础设施:公共设施:公共厕所",
        "type": 0,
        "location": {
            "lat": 35.734514,
            "lng": 103.239214
        },
        "ad_info": {
            "adcode": 622926,
            "province": "甘肃省",
            "city": "临夏回族自治州",
            "district": "东乡族自治县"
        }
    },
    {
        "id": "9119463919343608876",
        "title": "公共厕所",
        "address": "甘肃省临夏回族自治州临夏市北滨河中路与河州大道交叉口东北方向75米左右",
        "tel": "",
        "category": "基础设施:公共设施:公共厕所",
        "type": 0,
        "location": {
            "lat": 35.577158,
            "lng": 103.207791
        },
        "ad_info": {
            "adcode": 622901,
            "province": "甘肃省",
            "city": "临夏回族自治州",
            "district": "临夏市"
        }
    },
    {
        "id": "753684634998787230",
        "title": "公共厕所",
        "address": "甘肃省临夏回族自治州广河县三甲集大道与规划四路交叉口正北方向42米左右",
        "tel": "",
        "category": "基础设施:公共设施:公共厕所",
        "type": 0,
        "location": {
            "lat": 35.566771,
            "lng": 103.747966
        },
        "ad_info": {
            "adcode": 622924,
            "province": "甘肃省",
            "city": "临夏回族自治州",
            "district": "广河县"
        }
    },
    {
        "id": "14698607531367964308",
        "title": "公共厕所",
        "address": "甘肃省临夏回族自治州永靖县S106与折达公路交叉口西南方向169米左右",
        "tel": "",
        "category": "基础设施:公共设施:公共厕所",
        "type": 0,
        "location": {
            "lat": 35.958497,
            "lng": 103.303968
        },
        "ad_info": {
            "adcode": 622923,
            "province": "甘肃省",
            "city": "临夏回族自治州",
            "district": "永靖县"
        }
    },
    {
        "id": "6937119889952252903",
        "title": "洗手间",
        "address": "甘肃省临夏回族自治州和政县沿太子山旅游大通道与384县道交叉口西南480米",
        "tel": "",
        "category": "基础设施:公共设施:公共厕所",
        "type": 0,
        "location": {
            "lat": 35.264771,
            "lng": 103.405985
        },
        "ad_info": {
            "adcode": 622925,
            "province": "甘肃省",
            "city": "临夏回族自治州",
            "district": "和政县"
        }
    },
    {
        "id": "6309383019030220999",
        "title": "公共厕所",
        "address": "甘肃省临夏回族自治州和政县松鸣镇吊滩村2号",
        "tel": "",
        "category": "基础设施:公共设施:公共厕所",
        "type": 0,
        "location": {
            "lat": 35.276255,
            "lng": 103.408917
        },
        "ad_info": {
            "adcode": 622925,
            "province": "甘肃省",
            "city": "临夏回族自治州",
            "district": "和政县"
        }
    },
    {
        "id": "3810596402412594344",
        "title": "公共厕所",
        "address": "甘肃省临夏回族自治州康乐县S317(康美路)",
        "tel": "",
        "category": "基础设施:公共设施:公共厕所",
        "type": 0,
        "location": {
            "lat": 35.370312,
            "lng": 103.700408
        },
        "ad_info": {
            "adcode": 622922,
            "province": "甘肃省",
            "city": "临夏回族自治州",
            "district": "康乐县"
        }
    },
    {
        "id": "11883629499207209019",
        "title": "公共厕所",
        "address": "甘肃省临夏回族自治州永靖县川中路与川西路交叉口正西方向60米左右",
        "tel": "",
        "category": "基础设施:公共设施:公共厕所",
        "type": 0,
        "location": {
            "lat": 35.939759,
            "lng": 103.318924
        },
        "ad_info": {
            "adcode": 622923,
            "province": "甘肃省",
            "city": "临夏回族自治州",
            "district": "永靖县"
        }
    },
    {
        "id": "15369437689069002892",
        "title": "公共厕所",
        "address": "甘肃省临夏回族自治州永靖县三塬镇下塬村甘肃汇融生态农业科技有限公司",
        "tel": "",
        "category": "基础设施:公共设施:公共厕所",
        "type": 0,
        "location": {
            "lat": 35.895,
            "lng": 103.256448
        },
        "ad_info": {
            "adcode": 622923,
            "province": "甘肃省",
            "city": "临夏回族自治州",
            "district": "永靖县"
        }
    },
    {
        "id": "2482457140559198089",
        "title": "公共厕所",
        "address": "甘肃省临夏回族自治州和政县欣云山庄北侧70米",
        "tel": "",
        "category": "基础设施:公共设施:公共厕所",
        "type": 0,
        "location": {
            "lat": 35.496221,
            "lng": 103.23437
        },
        "ad_info": {
            "adcode": 622925,
            "province": "甘肃省",
            "city": "临夏回族自治州",
            "district": "和政县"
        }
    },
    {
        "id": "10237167177501517335",
        "title": "公共厕所",
        "address": "甘肃省临夏回族自治州永靖县G568与兰永公路交叉口正西方向250米左右",
        "tel": "",
        "category": "基础设施:公共设施:公共厕所",
        "type": 0,
        "location": {
            "lat": 35.947724,
            "lng": 103.283185
        },
        "ad_info": {
            "adcode": 622923,
            "province": "甘肃省",
            "city": "临夏回族自治州",
            "district": "永靖县"
        }
    },
    {
        "id": "13279575787875869555",
        "title": "公共厕所",
        "address": "甘肃省临夏回族自治州积石山保安族东乡族撒拉族自治县园丁路与大河路交叉口东南方向55米左右",
        "tel": "",
        "category": "基础设施:公共设施:公共厕所",
        "type": 0,
        "location": {
            "lat": 35.71542,
            "lng": 102.87859
        },
        "ad_info": {
            "adcode": 622927,
            "province": "甘肃省",
            "city": "临夏回族自治州",
            "district": "积石山保安族东乡族撒拉族自治县"
        }
    },
    {
        "id": "11078192997075796251",
        "title": "公共厕所",
        "address": "甘肃省临夏回族自治州永靖县G309与金关公路交叉口西北方向1434米左右",
        "tel": "",
        "category": "基础设施:公共设施:公共厕所",
        "type": 0,
        "location": {
            "lat": 36.002873,
            "lng": 103.587584
        },
        "ad_info": {
            "adcode": 622923,
            "province": "甘肃省",
            "city": "临夏回族自治州",
            "district": "永靖县"
        }
    },
    {
        "id": "2301831876486321606",
        "title": "公共厕所",
        "address": "甘肃省临夏回族自治州临夏市北滨河中路与南龙街交叉口正东方向56米左右",
        "tel": "",
        "category": "基础设施:公共设施:公共厕所",
        "type": 0,
        "location": {
            "lat": 35.585694,
            "lng": 103.219038
        },
        "ad_info": {
            "adcode": 622901,
            "province": "甘肃省",
            "city": "临夏回族自治州",
            "district": "临夏市"
        }
    },
    {
        "id": "499774874208053138",
        "title": "公共厕所",
        "address": "甘肃省临夏回族自治州和政县滨河路与香子路交叉口西南方向121米左右",
        "tel": "",
        "category": "基础设施:公共设施:公共厕所",
        "type": 0,
        "location": {
            "lat": 35.446781,
            "lng": 103.363554
        },
        "ad_info": {
            "adcode": 622925,
            "province": "甘肃省",
            "city": "临夏回族自治州",
            "district": "和政县"
        }
    },
    {
        "id": "3337387961347422914",
        "title": "公共厕所",
        "address": "甘肃省临夏回族自治州临夏市前河沿东路与李孟路交叉口东北方向318米左右",
        "tel": "",
        "category": "基础设施:公共设施:公共厕所",
        "type": 0,
        "location": {
            "lat": 35.611912,
            "lng": 103.248847
        },
        "ad_info": {
            "adcode": 622901,
            "province": "甘肃省",
            "city": "临夏回族自治州",
            "district": "临夏市"
        }
    },
    {
        "id": "9845874962090316845",
        "title": "公共厕所",
        "address": "甘肃省临夏回族自治州永靖县S105与民心路交叉口正南方向1001米左右",
        "tel": "",
        "category": "基础设施:公共设施:公共厕所",
        "type": 0,
        "location": {
            "lat": 35.94144,
            "lng": 103.350343
        },
        "ad_info": {
            "adcode": 622923,
            "province": "甘肃省",
            "city": "临夏回族自治州",
            "district": "永靖县"
        }
    },
    {
        "id": "14051749363080319375",
        "title": "公共厕所",
        "address": "甘肃省临夏回族自治州永靖县滨河南路与黄河太极大桥交叉口正北方向34米左右",
        "tel": "",
        "category": "基础设施:公共设施:公共厕所",
        "type": 0,
        "location": {
            "lat": 35.938544,
            "lng": 103.313778
        },
        "ad_info": {
            "adcode": 622923,
            "province": "甘肃省",
            "city": "临夏回族自治州",
            "district": "永靖县"
        }
    },
    {
        "id": "12301297882943310312",
        "title": "公共厕所(GS-LX-0265)",
        "address": "甘肃省临夏回族自治州永靖县盐锅峡镇快速通道服务中心",
        "tel": "",
        "category": "基础设施:公共设施:公共厕所",
        "type": 0,
        "location": {
            "lat": 36.11792,
            "lng": 103.369823
        },
        "ad_info": {
            "adcode": 622923,
            "province": "甘肃省",
            "city": "临夏回族自治州",
            "district": "永靖县"
        }
    },
    {
        "id": "17210225685346836813",
        "title": "公共厕所",
        "address": "甘肃省临夏回族自治州临夏市富强路与庆胜东路交叉口正北方向21米左右",
        "tel": "",
        "category": "基础设施:公共设施:公共厕所",
        "type": 0,
        "location": {
            "lat": 35.604103,
            "lng": 103.227319
        },
        "ad_info": {
            "adcode": 622901,
            "province": "甘肃省",
            "city": "临夏回族自治州",
            "district": "临夏市"
        }
    },
    {
        "id": "3272538641833622218",
        "title": "公共厕所",
        "address": "甘肃省临夏回族自治州广河县漳河东路与团结路交叉口南80米",
        "tel": "",
        "category": "基础设施:公共设施:公共厕所",
        "type": 0,
        "location": {
            "lat": 35.481201,
            "lng": 103.579987
        },
        "ad_info": {
            "adcode": 622924,
            "province": "甘肃省",
            "city": "临夏回族自治州",
            "district": "广河县"
        }
    },
    {
        "id": "6665621389085979732",
        "title": "公共厕所",
        "address": "甘肃省临夏回族自治州和政县法台山景区停车场",
        "tel": "",
        "category": "基础设施:公共设施:公共厕所",
        "type": 0,
        "location": {
            "lat": 35.265236,
            "lng": 103.406957
        },
        "ad_info": {
            "adcode": 622925,
            "province": "甘肃省",
            "city": "临夏回族自治州",
            "district": "和政县"
        }
    },
    {
        "id": "12242653824501436949",
        "title": "公共厕所",
        "address": "甘肃省临夏回族自治州临夏市北滨河东路与和政路交叉口西北方向82米左右",
        "tel": "",
        "category": "基础设施:公共设施:公共厕所",
        "type": 0,
        "location": {
            "lat": 35.615264,
            "lng": 103.251556
        },
        "ad_info": {
            "adcode": 622901,
            "province": "甘肃省",
            "city": "临夏回族自治州",
            "district": "临夏市"
        }
    },
    {
        "id": "9509037125569828739",
        "title": "公共卫生间",
        "address": "甘肃省临夏回族自治州康乐县中邸北路与莲花路交叉口东南方向225米左右",
        "tel": "",
        "category": "基础设施:公共设施:公共厕所",
        "type": 0,
        "location": {
            "lat": 35.366933,
            "lng": 103.709796
        },
        "ad_info": {
            "adcode": 622922,
            "province": "甘肃省",
            "city": "临夏回族自治州",
            "district": "康乐县"
        }
    },
    {
        "id": "10514756889344209043",
        "title": "公共卫生间",
        "address": "甘肃省临夏回族自治州临夏市解放南路29号",
        "tel": "",
        "category": "基础设施:公共设施:公共厕所",
        "type": 0,
        "location": {
            "lat": 35.587174,
            "lng": 103.216484
        },
        "ad_info": {
            "adcode": 622901,
            "province": "甘肃省",
            "city": "临夏回族自治州",
            "district": "临夏市"
        }
    },
    {
        "id": "8968641708779812802",
        "title": "公共厕所",
        "address": "甘肃省临夏回族自治州积石山保安族东乡族撒拉族自治县临夏路与北滨河路交叉口正西方向84米左右",
        "tel": "",
        "category": "基础设施:公共设施:公共厕所",
        "type": 0,
        "location": {
            "lat": 35.699169,
            "lng": 102.857981
        },
        "ad_info": {
            "adcode": 622927,
            "province": "甘肃省",
            "city": "临夏回族自治州",
            "district": "积石山保安族东乡族撒拉族自治县"
        }
    },
    {
        "id": "13427014019875983926",
        "title": "公共厕所",
        "address": "甘肃省临夏回族自治州永靖县兴华路与富民路交叉口正西方向188米左右",
        "tel": "",
        "category": "基础设施:公共设施:公共厕所",
        "type": 0,
        "location": {
            "lat": 35.93575,
            "lng": 103.314982
        },
        "ad_info": {
            "adcode": 622923,
            "province": "甘肃省",
            "city": "临夏回族自治州",
            "district": "永靖县"
        }
    },
    {
        "id": "160908870638693166",
        "title": "公共厕所",
        "address": "甘肃省临夏回族自治州康乐县仿古街与康乐路交叉口正南方向91米左右",
        "tel": "",
        "category": "基础设施:公共设施:公共厕所",
        "type": 0,
        "location": {
            "lat": 35.370757,
            "lng": 103.712026
        },
        "ad_info": {
            "adcode": 622922,
            "province": "甘肃省",
            "city": "临夏回族自治州",
            "district": "康乐县"
        }
    },
    {
        "id": "2013996975308973893",
        "title": "公共厕所",
        "address": "甘肃省临夏回族自治州临夏市新华街与永宁路交叉口正西方向30米左右",
        "tel": "",
        "category": "基础设施:公共设施:公共厕所",
        "type": 0,
        "location": {
            "lat": 35.59952,
            "lng": 103.209858
        },
        "ad_info": {
            "adcode": 622901,
            "province": "甘肃省",
            "city": "临夏回族自治州",
            "district": "临夏市"
        }
    },
    {
        "id": "10506083865367527428",
        "title": "公共厕所",
        "address": "甘肃省临夏回族自治州永靖县兴华路与富民路交叉口东北方向225米左右",
        "tel": "",
        "category": "基础设施:公共设施:公共厕所",
        "type": 0,
        "location": {
            "lat": 35.936632,
            "lng": 103.318837
        },
        "ad_info": {
            "adcode": 622923,
            "province": "甘肃省",
            "city": "临夏回族自治州",
            "district": "永靖县"
        }
    },
    {
        "id": "16852483155806704640",
        "title": "公共厕所",
        "address": "甘肃省临夏回族自治州永靖县中环路与北山路交叉口正北方向133米左右",
        "tel": "",
        "category": "基础设施:公共设施:公共厕所",
        "type": 0,
        "location": {
            "lat": 35.956536,
            "lng": 103.31098
        },
        "ad_info": {
            "adcode": 622923,
            "province": "甘肃省",
            "city": "临夏回族自治州",
            "district": "永靖县"
        }
    },
    {
        "id": "8436673633524416152",
        "title": "公共厕所",
        "address": "甘肃省临夏回族自治州永靖县川中路与川西路交叉口西南方向202米左右",
        "tel": "",
        "category": "基础设施:公共设施:公共厕所",
        "type": 0,
        "location": {
            "lat": 35.938863,
            "lng": 103.317738
        },
        "ad_info": {
            "adcode": 622923,
            "province": "甘肃省",
            "city": "临夏回族自治州",
            "district": "永靖县"
        }
    },
    {
        "id": "4498425372586348367",
        "title": "公共厕所",
        "address": "甘肃省临夏回族自治州临夏市中心广场与青年路交叉口正东方向45米左右",
        "tel": "",
        "category": "基础设施:公共设施:公共厕所",
        "type": 0,
        "location": {
            "lat": 35.596073,
            "lng": 103.213757
        },
        "ad_info": {
            "adcode": 622901,
            "province": "甘肃省",
            "city": "临夏回族自治州",
            "district": "临夏市"
        }
    },
    {
        "id": "2622133860071010394",
        "title": "公共厕所",
        "address": "甘肃省临夏回族自治州永靖县兴华路与川南路交叉口西北方向37米左右",
        "tel": "",
        "category": "基础设施:公共设施:公共厕所",
        "type": 0,
        "location": {
            "lat": 35.934841,
            "lng": 103.316456
        },
        "ad_info": {
            "adcode": 622923,
            "province": "甘肃省",
            "city": "临夏回族自治州",
            "district": "永靖县"
        }
    },
    {
        "id": "2286752369522172946",
        "title": "公共厕所",
        "address": "甘肃省临夏回族自治州康乐县S311与莲花路交叉口东北方向145米",
        "tel": "",
        "category": "基础设施:公共设施:公共厕所",
        "type": 0,
        "location": {
            "lat": 35.363156,
            "lng": 103.714702
        },
        "ad_info": {
            "adcode": 622922,
            "province": "甘肃省",
            "city": "临夏回族自治州",
            "district": "康乐县"
        }
    },
    {
        "id": "6032998388628430335",
        "title": "公共厕所",
        "address": "甘肃省临夏回族自治州康乐县G310与康丰路交叉口西南方向79米左右",
        "tel": "",
        "category": "基础设施:公共设施:公共厕所",
        "type": 0,
        "location": {
            "lat": 35.381305,
            "lng": 103.705335
        },
        "ad_info": {
            "adcode": 622922,
            "province": "甘肃省",
            "city": "临夏回族自治州",
            "district": "康乐县"
        }
    },
    {
        "id": "16239306721340024465",
        "title": "公共厕所",
        "address": "甘肃省临夏回族自治州临夏县S106与北塬路交叉口西北方向92米左右",
        "tel": "",
        "category": "基础设施:公共设施:公共厕所",
        "type": 0,
        "location": {
            "lat": 35.483333,
            "lng": 103.032557
        },
        "ad_info": {
            "adcode": 622921,
            "province": "甘肃省",
            "city": "临夏回族自治州",
            "district": "临夏县"
        }
    },
    {
        "id": "4718415714345404644",
        "title": "公共厕所",
        "address": "甘肃省临夏回族自治州永靖县中环路与川中路交叉口西南方向395米左右",
        "tel": "",
        "category": "基础设施:公共设施:公共厕所",
        "type": 0,
        "location": {
            "lat": 35.934916,
            "lng": 103.321358
        },
        "ad_info": {
            "adcode": 622923,
            "province": "甘肃省",
            "city": "临夏回族自治州",
            "district": "永靖县"
        }
    },
    {
        "id": "17490867470159048556",
        "title": "公共厕所",
        "address": "甘肃省临夏回族自治州永靖县太极南路移民小学对面",
        "tel": "",
        "category": "基础设施:公共设施:公共厕所",
        "type": 0,
        "location": {
            "lat": 35.952147,
            "lng": 103.290962
        },
        "ad_info": {
            "adcode": 622923,
            "province": "甘肃省",
            "city": "临夏回族自治州",
            "district": "永靖县"
        }
    },
    {
        "id": "17691644220657445785",
        "title": "公共厕所",
        "address": "甘肃省临夏回族自治州临夏市下菜市路与韩家寺街交叉口正东方向59米左右",
        "tel": "",
        "category": "基础设施:公共设施:公共厕所",
        "type": 0,
        "location": {
            "lat": 35.595305,
            "lng": 103.215837
        },
        "ad_info": {
            "adcode": 622901,
            "province": "甘肃省",
            "city": "临夏回族自治州",
            "district": "临夏市"
        }
    },
    {
        "id": "7148374484042400507",
        "title": "公共厕所",
        "address": "甘肃省临夏回族自治州永靖县川北路与川西路交叉口西北方向95米左右",
        "tel": "",
        "category": "基础设施:公共设施:公共厕所",
        "type": 0,
        "location": {
            "lat": 35.94214,
            "lng": 103.319966
        },
        "ad_info": {
            "adcode": 622923,
            "province": "甘肃省",
            "city": "临夏回族自治州",
            "district": "永靖县"
        }
    },
    {
        "id": "9114187242113261125",
        "title": "公共厕所",
        "address": "甘肃省临夏回族自治州永靖县中环路与川东路交叉口正西方向42米左右",
        "tel": "",
        "category": "基础设施:公共设施:公共厕所",
        "type": 0,
        "location": {
            "lat": 35.939626,
            "lng": 103.322409
        },
        "ad_info": {
            "adcode": 622923,
            "province": "甘肃省",
            "city": "临夏回族自治州",
            "district": "永靖县"
        }
    },
    {
        "id": "18363995116999761945",
        "title": "公共厕所",
        "address": "甘肃省临夏回族自治州康乐县G310与X019交叉口东北方向708米左右",
        "tel": "",
        "category": "基础设施:公共设施:公共厕所",
        "type": 0,
        "location": {
            "lat": 35.350251,
            "lng": 103.582252
        },
        "ad_info": {
            "adcode": 622922,
            "province": "甘肃省",
            "city": "临夏回族自治州",
            "district": "康乐县"
        }
    },
    {
        "id": "3648076601409535081",
        "title": "公共厕所",
        "address": "甘肃省临夏回族自治州临夏市新西路与红园新村路交叉口西北方向167米左右",
        "tel": "",
        "category": "基础设施:公共设施:公共厕所",
        "type": 0,
        "location": {
            "lat": 35.595875,
            "lng": 103.202754
        },
        "ad_info": {
            "adcode": 622901,
            "province": "甘肃省",
            "city": "临夏回族自治州",
            "district": "临夏市"
        }
    },
    {
        "id": "4005480598166632037",
        "title": "公共厕所",
        "address": "甘肃省临夏回族自治州临夏市军民街与刘临路交叉口正北方向150米左右",
        "tel": "",
        "category": "基础设施:公共设施:公共厕所",
        "type": 0,
        "location": {
            "lat": 35.606238,
            "lng": 103.216085
        },
        "ad_info": {
            "adcode": 622901,
            "province": "甘肃省",
            "city": "临夏回族自治州",
            "district": "临夏市"
        }
    },
    {
        "id": "4473009505210732650",
        "title": "公共厕所",
        "address": "甘肃省临夏回族自治州永靖县拥军路与滨河北路交叉口正西方向381米左右",
        "tel": "",
        "category": "基础设施:公共设施:公共厕所",
        "type": 0,
        "location": {
            "lat": 35.947853,
            "lng": 103.306683
        },
        "ad_info": {
            "adcode": 622923,
            "province": "甘肃省",
            "city": "临夏回族自治州",
            "district": "永靖县"
        }
    },
    {
        "id": "18031772038337757731",
        "title": "公共厕所",
        "address": "甘肃省临夏回族自治州康乐县311省道附近",
        "tel": "",
        "category": "基础设施:公共设施:公共厕所",
        "type": 0,
        "location": {
            "lat": 35.061459,
            "lng": 103.738726
        },
        "ad_info": {
            "adcode": 622922,
            "province": "甘肃省",
            "city": "临夏回族自治州",
            "district": "康乐县"
        }
    },
    {
        "id": "7116905762581873600",
        "title": "公共厕所",
        "address": "甘肃省临夏回族自治州广河县赵家小学西侧90米",
        "tel": "",
        "category": "基础设施:公共设施:公共厕所",
        "type": 0,
        "location": {
            "lat": 35.478822,
            "lng": 103.555363
        },
        "ad_info": {
            "adcode": 622924,
            "province": "甘肃省",
            "city": "临夏回族自治州",
            "district": "广河县"
        }
    },
    {
        "id": "16237102855620374534",
        "title": "公共厕所",
        "address": "甘肃省临夏回族自治州临夏市光明路与红园路交叉口西北方向74米左右",
        "tel": "",
        "category": "基础设施:公共设施:公共厕所",
        "type": 0,
        "location": {
            "lat": 35.601131,
            "lng": 103.208102
        },
        "ad_info": {
            "adcode": 622901,
            "province": "甘肃省",
            "city": "临夏回族自治州",
            "district": "临夏市"
        }
    },
    {
        "id": "6085381895494376240",
        "title": "公共厕所",
        "address": "甘肃省临夏回族自治州广河县晨光石油加油站西侧120米",
        "tel": "",
        "category": "基础设施:公共设施:公共厕所",
        "type": 0,
        "location": {
            "lat": 35.56878,
            "lng": 103.764941
        },
        "ad_info": {
            "adcode": 622924,
            "province": "甘肃省",
            "city": "临夏回族自治州",
            "district": "广河县"
        }
    },
    {
        "id": "16578620311867305181",
        "title": "公共厕所",
        "address": "甘肃省临夏回族自治州临夏市G568与环城西路交叉口东南方向165米左右",
        "tel": "",
        "category": "基础设施:公共设施:公共厕所",
        "type": 0,
        "location": {
            "lat": 35.573491,
            "lng": 103.211747
        },
        "ad_info": {
            "adcode": 622901,
            "province": "甘肃省",
            "city": "临夏回族自治州",
            "district": "临夏市"
        }
    },
    {
        "id": "7469376587993002766",
        "title": "公共厕所",
        "address": "甘肃省临夏回族自治州永靖县G568与太极岛特大桥交叉口东南方向63米",
        "tel": "",
        "category": "基础设施:公共设施:公共厕所",
        "type": 0,
        "location": {
            "lat": 35.974932,
            "lng": 103.224035
        },
        "ad_info": {
            "adcode": 622923,
            "province": "甘肃省",
            "city": "临夏回族自治州",
            "district": "永靖县"
        }
    },
    {
        "id": "171950543784373878",
        "title": "公共厕所",
        "address": "甘肃省临夏回族自治州永靖县S230附近",
        "tel": "",
        "category": "基础设施:公共设施:公共厕所",
        "type": 0,
        "location": {
            "lat": 35.918954,
            "lng": 102.960269
        },
        "ad_info": {
            "adcode": 622923,
            "province": "甘肃省",
            "city": "临夏回族自治州",
            "district": "永靖县"
        }
    },
    {
        "id": "13951295291896494458",
        "title": "公共厕所",
        "address": "甘肃省临夏回族自治州临夏县下街与中街交叉口西南方向24米左右",
        "tel": "",
        "category": "基础设施:公共设施:公共厕所",
        "type": 0,
        "location": {
            "lat": 35.49047,
            "lng": 102.997282
        },
        "ad_info": {
            "adcode": 622921,
            "province": "甘肃省",
            "city": "临夏回族自治州",
            "district": "临夏县"
        }
    },
    {
        "id": "888418347526529324",
        "title": "公共厕所",
        "address": "甘肃省临夏回族自治州临夏市G310与兰郎路交叉口东北方向286米左右",
        "tel": "",
        "category": "基础设施:公共设施:公共厕所",
        "type": 0,
        "location": {
            "lat": 35.561116,
            "lng": 103.150982
        },
        "ad_info": {
            "adcode": 622901,
            "province": "甘肃省",
            "city": "临夏回族自治州",
            "district": "临夏市"
        }
    },
    {
        "id": "17901855054690387460",
        "title": "公共厕所",
        "address": "甘肃省临夏回族自治州临夏市北滨河东路与朝阳路交叉口东南方向203米左右",
        "tel": "",
        "category": "基础设施:公共设施:公共厕所",
        "type": 0,
        "location": {
            "lat": 35.616485,
            "lng": 103.254743
        },
        "ad_info": {
            "adcode": 622901,
            "province": "甘肃省",
            "city": "临夏回族自治州",
            "district": "临夏市"
        }
    },
    {
        "id": "10548302560353438541",
        "title": "公共厕所",
        "address": "甘肃省临夏回族自治州永靖县北山路与川北路交叉口正北方向94米左右",
        "tel": "",
        "category": "基础设施:公共设施:公共厕所",
        "type": 0,
        "location": {
            "lat": 35.941393,
            "lng": 103.322492
        },
        "ad_info": {
            "adcode": 622923,
            "province": "甘肃省",
            "city": "临夏回族自治州",
            "district": "永靖县"
        }
    },
    {
        "id": "17189987553955729755",
        "title": "公共厕所",
        "address": "甘肃省临夏回族自治州永靖县川中路与川西路交叉口西南方向45米左右",
        "tel": "",
        "category": "基础设施:公共设施:公共厕所",
        "type": 0,
        "location": {
            "lat": 35.939615,
            "lng": 103.319225
        },
        "ad_info": {
            "adcode": 622923,
            "province": "甘肃省",
            "city": "临夏回族自治州",
            "district": "永靖县"
        }
    },
    {
        "id": "5274025322310753514",
        "title": "公共厕所",
        "address": "甘肃省临夏回族自治州临夏市北滨河东路与诚信路交叉口东北方向253米左右",
        "tel": "",
        "category": "基础设施:公共设施:公共厕所",
        "type": 0,
        "location": {
            "lat": 35.59028,
            "lng": 103.230636
        },
        "ad_info": {
            "adcode": 622901,
            "province": "甘肃省",
            "city": "临夏回族自治州",
            "district": "临夏市"
        }
    },
    {
        "id": "13914146514848757186",
        "title": "公共厕所",
        "address": "甘肃省临夏回族自治州东乡族自治县G213与光明路交叉口正东方向168米左右",
        "tel": "",
        "category": "基础设施:公共设施:公共厕所",
        "type": 0,
        "location": {
            "lat": 35.666083,
            "lng": 103.399742
        },
        "ad_info": {
            "adcode": 622926,
            "province": "甘肃省",
            "city": "临夏回族自治州",
            "district": "东乡族自治县"
        }
    },
    {
        "id": "484292697532134974",
        "title": "公共厕所",
        "address": "甘肃省临夏回族自治州临夏县S106与双城路交叉口正南方向136米左右",
        "tel": "",
        "category": "基础设施:公共设施:公共厕所",
        "type": 0,
        "location": {
            "lat": 35.481597,
            "lng": 103.039217
        },
        "ad_info": {
            "adcode": 622921,
            "province": "甘肃省",
            "city": "临夏回族自治州",
            "district": "临夏县"
        }
    },
    {
        "id": "16478907584076548117",
        "title": "公共厕所",
        "address": "甘肃省临夏回族自治州临夏市刘临路与富强路交叉口西北方向210米左右",
        "tel": "",
        "category": "基础设施:公共设施:公共厕所",
        "type": 0,
        "location": {
            "lat": 35.608687,
            "lng": 103.222611
        },
        "ad_info": {
            "adcode": 622901,
            "province": "甘肃省",
            "city": "临夏回族自治州",
            "district": "临夏市"
        }
    },
    {
        "id": "13433538891336848785",
        "title": "公共厕所",
        "address": "甘肃省临夏回族自治州临夏县先锋路与双城路交叉口东北方向77米左右",
        "tel": "",
        "category": "基础设施:公共设施:公共厕所",
        "type": 0,
        "location": {
            "lat": 35.478966,
            "lng": 103.038239
        },
        "ad_info": {
            "adcode": 622921,
            "province": "甘肃省",
            "city": "临夏回族自治州",
            "district": "临夏县"
        }
    },
    {
        "id": "4665469239025714304",
        "title": "公共厕所",
        "address": "甘肃省临夏回族自治州临夏市北滨河东路与城东二路交叉口正南方向51米左右",
        "tel": "",
        "category": "基础设施:公共设施:公共厕所",
        "type": 0,
        "location": {
            "lat": 35.598667,
            "lng": 103.241534
        },
        "ad_info": {
            "adcode": 622901,
            "province": "甘肃省",
            "city": "临夏回族自治州",
            "district": "临夏市"
        }
    },
    {
        "id": "16501754456868361334",
        "title": "公共厕所",
        "address": "甘肃省临夏回族自治州临夏县城北路与姚川中路交叉口东南方向194米左右",
        "tel": "",
        "category": "基础设施:公共设施:公共厕所",
        "type": 0,
        "location": {
            "lat": 35.484946,
            "lng": 103.028444
        },
        "ad_info": {
            "adcode": 622921,
            "province": "甘肃省",
            "city": "临夏回族自治州",
            "district": "临夏县"
        }
    },
    {
        "id": "5008555391209379507",
        "title": "公共厕所",
        "address": "甘肃省临夏回族自治州临夏市团结北路与新生路交叉口西北方向31米左右",
        "tel": "",
        "category": "基础设施:公共设施:公共厕所",
        "type": 0,
        "location": {
            "lat": 35.606152,
            "lng": 103.211478
        },
        "ad_info": {
            "adcode": 622901,
            "province": "甘肃省",
            "city": "临夏回族自治州",
            "district": "临夏市"
        }
    },
    {
        "id": "4713513509477916838",
        "title": "公共厕所",
        "address": "甘肃省临夏回族自治州临夏县振华路与滨河路交叉口正北方向107米左右",
        "tel": "",
        "category": "基础设施:公共设施:公共厕所",
        "type": 0,
        "location": {
            "lat": 35.476591,
            "lng": 103.03897
        },
        "ad_info": {
            "adcode": 622921,
            "province": "甘肃省",
            "city": "临夏回族自治州",
            "district": "临夏县"
        }
    },
    {
        "id": "5342769151733567715",
        "title": "公共厕所",
        "address": "甘肃省临夏回族自治州临夏县姚川路8090号",
        "tel": "",
        "category": "基础设施:公共设施:公共厕所",
        "type": 0,
        "location": {
            "lat": 35.483954,
            "lng": 103.030081
        },
        "ad_info": {
            "adcode": 622921,
            "province": "甘肃省",
            "city": "临夏回族自治州",
            "district": "临夏县"
        }
    },
    {
        "id": "683041991933231588",
        "title": "公共厕所",
        "address": "甘肃省临夏回族自治州临夏县G568与滨河路交叉口西南方向91米左右",
        "tel": "",
        "category": "基础设施:公共设施:公共厕所",
        "type": 0,
        "location": {
            "lat": 35.474334,
            "lng": 103.040386
        },
        "ad_info": {
            "adcode": 622921,
            "province": "甘肃省",
            "city": "临夏回族自治州",
            "district": "临夏县"
        }
    },
    {
        "id": "11229109715521638482",
        "title": "卫生间",
        "address": "甘肃省临夏回族自治州和政县法台山景区游客中心",
        "tel": "",
        "category": "基础设施:公共设施:公共厕所",
        "type": 0,
        "location": {
            "lat": 35.264767,
            "lng": 103.405362
        },
        "ad_info": {
            "adcode": 622925,
            "province": "甘肃省",
            "city": "临夏回族自治州",
            "district": "和政县"
        }
    },
    {
        "id": "1434403246276246176",
        "title": "公共厕所",
        "address": "甘肃省临夏回族自治州临夏市北滨河东路与诚信路交叉口正东方向350米左右",
        "tel": "",
        "category": "基础设施:公共设施:公共厕所",
        "type": 0,
        "location": {
            "lat": 35.589802,
            "lng": 103.231899
        },
        "ad_info": {
            "adcode": 622901,
            "province": "甘肃省",
            "city": "临夏回族自治州",
            "district": "临夏市"
        }
    },
    {
        "id": "8757545356284473366",
        "title": "公共厕所",
        "address": "甘肃省临夏回族自治州临夏县尹王中心小学西北侧280米",
        "tel": "",
        "category": "基础设施:公共设施:公共厕所",
        "type": 0,
        "location": {
            "lat": 35.661453,
            "lng": 103.189723
        },
        "ad_info": {
            "adcode": 622921,
            "province": "甘肃省",
            "city": "临夏回族自治州",
            "district": "临夏县"
        }
    },
    {
        "id": "956346585967074407",
        "title": "公共厕所",
        "address": "甘肃省临夏回族自治州临夏县上街与中街交叉口正东方向238米左右",
        "tel": "",
        "category": "基础设施:公共设施:公共厕所",
        "type": 0,
        "location": {
            "lat": 35.492154,
            "lng": 102.992986
        },
        "ad_info": {
            "adcode": 622921,
            "province": "甘肃省",
            "city": "临夏回族自治州",
            "district": "临夏县"
        }
    },
    {
        "id": "9221513942186648834",
        "title": "公共厕所",
        "address": "甘肃省临夏回族自治州临夏市北滨河中路与新西路交叉口东北方向44米左右",
        "tel": "",
        "category": "基础设施:公共设施:公共厕所",
        "type": 0,
        "location": {
            "lat": 35.582577,
            "lng": 103.213956
        },
        "ad_info": {
            "adcode": 622901,
            "province": "甘肃省",
            "city": "临夏回族自治州",
            "district": "临夏市"
        }
    },
    {
        "id": "12493889677610026255",
        "title": "公共厕所",
        "address": "甘肃省临夏回族自治州和政县公园南路与城内街交叉口东南方向133米左右",
        "tel": "",
        "category": "基础设施:公共设施:公共厕所",
        "type": 0,
        "location": {
            "lat": 35.431133,
            "lng": 103.353762
        },
        "ad_info": {
            "adcode": 622925,
            "province": "甘肃省",
            "city": "临夏回族自治州",
            "district": "和政县"
        }
    },
    {
        "id": "7592710582279691977",
        "title": "公共厕所",
        "address": "甘肃省临夏回族自治州临夏市刘临路与朝阳路交叉口正北方向52米左右",
        "tel": "",
        "category": "基础设施:公共设施:公共厕所",
        "type": 0,
        "location": {
            "lat": 35.623586,
            "lng": 103.24447
        },
        "ad_info": {
            "adcode": 622901,
            "province": "甘肃省",
            "city": "临夏回族自治州",
            "district": "临夏市"
        }
    },
    {
        "id": "801462309247657063",
        "title": "公共厕所",
        "address": "甘肃省临夏回族自治州临夏县G1816乌玛高速与G1816乌玛高速入口交叉口南200米",
        "tel": "",
        "category": "基础设施:公共设施:公共厕所",
        "type": 0,
        "location": {
            "lat": 35.557004,
            "lng": 103.231733
        },
        "ad_info": {
            "adcode": 622921,
            "province": "甘肃省",
            "city": "临夏回族自治州",
            "district": "临夏县"
        }
    },
    {
        "id": "1861035337711766053",
        "title": "公共厕所",
        "address": "甘肃省临夏回族自治州临夏市南龙东路与环城南路交叉口西北方向141米左右",
        "tel": "",
        "category": "基础设施:公共设施:公共厕所",
        "type": 0,
        "location": {
            "lat": 35.580287,
            "lng": 103.225281
        },
        "ad_info": {
            "adcode": 622901,
            "province": "甘肃省",
            "city": "临夏回族自治州",
            "district": "临夏市"
        }
    },
    {
        "id": "9738996285537997321",
        "title": "公共厕所",
        "address": "甘肃省临夏回族自治州临夏市忠诚路与民主西路交叉口正南方向54米左右",
        "tel": "",
        "category": "基础设施:公共设施:公共厕所",
        "type": 0,
        "location": {
            "lat": 35.603459,
            "lng": 103.209639
        },
        "ad_info": {
            "adcode": 622901,
            "province": "甘肃省",
            "city": "临夏回族自治州",
            "district": "临夏市"
        }
    },
    {
        "id": "10351170991215632805",
        "title": "公共厕所",
        "address": "甘肃省临夏回族自治州临夏市前河沿东路与水泉路交叉口正东方向27米左右",
        "tel": "",
        "category": "基础设施:公共设施:公共厕所",
        "type": 0,
        "location": {
            "lat": 35.591061,
            "lng": 103.217013
        },
        "ad_info": {
            "adcode": 622901,
            "province": "甘肃省",
            "city": "临夏回族自治州",
            "district": "临夏市"
        }
    },
    {
        "id": "15026130324776230605",
        "title": "公共厕所",
        "address": "甘肃省临夏回族自治州临夏县连共线中国石油加油站",
        "tel": "",
        "category": "基础设施:公共设施:公共厕所",
        "type": 0,
        "location": {
            "lat": 35.556288,
            "lng": 103.04417
        },
        "ad_info": {
            "adcode": 622921,
            "province": "甘肃省",
            "city": "临夏回族自治州",
            "district": "临夏县"
        }
    },
    {
        "id": "12105194614693022515",
        "title": "公共厕所",
        "address": "甘肃省临夏回族自治州临夏市军民街与新营路交叉口正西方向25米左右",
        "tel": "",
        "category": "基础设施:公共设施:公共厕所",
        "type": 0,
        "location": {
            "lat": 35.61377,
            "lng": 103.213058
        },
        "ad_info": {
            "adcode": 622901,
            "province": "甘肃省",
            "city": "临夏回族自治州",
            "district": "临夏市"
        }
    },
    {
        "id": "5857138173462470404",
        "title": "公共厕所",
        "address": "甘肃省临夏回族自治州临夏市红园新村北路与红园新村路交叉口东北方向42米左右",
        "tel": "",
        "category": "基础设施:公共设施:公共厕所",
        "type": 0,
        "location": {
            "lat": 35.591468,
            "lng": 103.197722
        },
        "ad_info": {
            "adcode": 622901,
            "province": "甘肃省",
            "city": "临夏回族自治州",
            "district": "临夏市"
        }
    },
    {
        "id": "6971973220711834360",
        "title": "公共厕所",
        "address": "甘肃省临夏回族自治州临夏县上街与中街交叉口东南方向112米左右",
        "tel": "",
        "category": "基础设施:公共设施:公共厕所",
        "type": 0,
        "location": {
            "lat": 35.491804,
            "lng": 102.991063
        },
        "ad_info": {
            "adcode": 622921,
            "province": "甘肃省",
            "city": "临夏回族自治州",
            "district": "临夏县"
        }
    },
    {
        "id": "8159551134677311736",
        "title": "公共厕所",
        "address": "甘肃省临夏回族自治州临夏市南滨河东路与南滨河中路交叉口东北方向53米左右",
        "tel": "",
        "category": "基础设施:公共设施:公共厕所",
        "type": 0,
        "location": {
            "lat": 35.584771,
            "lng": 103.220044
        },
        "ad_info": {
            "adcode": 622901,
            "province": "甘肃省",
            "city": "临夏回族自治州",
            "district": "临夏市"
        }
    },
    {
        "id": "12570314941372758698",
        "title": "公共厕所",
        "address": "甘肃省临夏回族自治州临夏市环城西路与红园新村路交叉口西南方向154米左右",
        "tel": "",
        "category": "基础设施:公共设施:公共厕所",
        "type": 0,
        "location": {
            "lat": 35.587674,
            "lng": 103.192793
        },
        "ad_info": {
            "adcode": 622901,
            "province": "甘肃省",
            "city": "临夏回族自治州",
            "district": "临夏市"
        }
    },
    {
        "id": "16753261142392464779",
        "title": "公共厕所",
        "address": "甘肃省临夏回族自治州临夏市民主西路与西关路交叉口西南方向186米左右",
        "tel": "",
        "category": "基础设施:公共设施:公共厕所",
        "type": 0,
        "location": {
            "lat": 35.600849,
            "lng": 103.200297
        },
        "ad_info": {
            "adcode": 622901,
            "province": "甘肃省",
            "city": "临夏回族自治州",
            "district": "临夏市"
        }
    },
    {
        "id": "15947417499075011949",
        "title": "公共厕所",
        "address": "甘肃省临夏回族自治州临夏县G568与马集中桥交叉口西南方向1850米左右",
        "tel": "",
        "category": "基础设施:公共设施:公共厕所",
        "type": 0,
        "location": {
            "lat": 35.441277,
            "lng": 102.984184
        },
        "ad_info": {
            "adcode": 622921,
            "province": "甘肃省",
            "city": "临夏回族自治州",
            "district": "临夏县"
        }
    },
    {
        "id": "7613481622310108312",
        "title": "公共厕所",
        "address": "甘肃省临夏回族自治州临夏市南滨河东路与奥体路交叉口正北方向208米左右",
        "tel": "",
        "category": "基础设施:公共设施:公共厕所",
        "type": 0,
        "location": {
            "lat": 35.605709,
            "lng": 103.249803
        },
        "ad_info": {
            "adcode": 622901,
            "province": "甘肃省",
            "city": "临夏回族自治州",
            "district": "临夏市"
        }
    },
    {
        "id": "15042605052284136268",
        "title": "公共厕所",
        "address": "甘肃省临夏回族自治州临夏市前河沿西路与环城西路交叉口西南方向27米左右",
        "tel": "",
        "category": "基础设施:公共设施:公共厕所",
        "type": 0,
        "location": {
            "lat": 35.58128,
            "lng": 103.201795
        },
        "ad_info": {
            "adcode": 622901,
            "province": "甘肃省",
            "city": "临夏回族自治州",
            "district": "临夏市"
        }
    },
    {
        "id": "241847459426991672",
        "title": "公共厕所",
        "address": "甘肃省临夏回族自治州临夏市临津路与南滨河东路交叉口东南方向274米左右",
        "tel": "",
        "category": "基础设施:公共设施:公共厕所",
        "type": 0,
        "location": {
            "lat": 35.59588,
            "lng": 103.245015
        },
        "ad_info": {
            "adcode": 622901,
            "province": "甘肃省",
            "city": "临夏回族自治州",
            "district": "临夏市"
        }
    },
    {
        "id": "16477078881662847487",
        "title": "公共厕所",
        "address": "甘肃省临夏回族自治州临夏市临夏市场院门路与环城西路交叉口东南方向120米左右",
        "tel": "",
        "category": "基础设施:公共设施:公共厕所",
        "type": 0,
        "location": {
            "lat": 35.584281,
            "lng": 103.199234
        },
        "ad_info": {
            "adcode": 622901,
            "province": "甘肃省",
            "city": "临夏回族自治州",
            "district": "临夏市"
        }
    },
    {
        "id": "7200604263869872318",
        "title": "公共厕所",
        "address": "甘肃省临夏回族自治州临夏市牛津河大道与迎宾路交叉口西南方向48米左右",
        "tel": "",
        "category": "基础设施:公共设施:公共厕所",
        "type": 0,
        "location": {
            "lat": 35.570845,
            "lng": 103.232085
        },
        "ad_info": {
            "adcode": 622901,
            "province": "甘肃省",
            "city": "临夏回族自治州",
            "district": "临夏市"
        }
    },
    {
        "id": "1048375566281998245",
        "title": "公共厕所",
        "address": "甘肃省临夏回族自治州临夏市南龙街中国石油(南龙加油站)",
        "tel": "",
        "category": "基础设施:公共设施:公共厕所",
        "type": 0,
        "location": {
            "lat": 35.582611,
            "lng": 103.22116
        },
        "ad_info": {
            "adcode": 622901,
            "province": "甘肃省",
            "city": "临夏回族自治州",
            "district": "临夏市"
        }
    },
    {
        "id": "15478624415464554288",
        "title": "三角花园公共厕所",
        "address": "甘肃省临夏回族自治州康乐县新集路与集街交叉口东南方向52米左右",
        "tel": "",
        "category": "基础设施:公共设施:公共厕所",
        "type": 0,
        "location": {
            "lat": 35.370082,
            "lng": 103.705189
        },
        "ad_info": {
            "adcode": 622922,
            "province": "甘肃省",
            "city": "临夏回族自治州",
            "district": "康乐县"
        }
    },
    {
        "id": "16351694160706323840",
        "title": "积石山服务区公共厕所",
        "address": "甘肃省临夏回族自治州积石山保安族东乡族撒拉族自治县S32临大高速与积石山服务区交叉口西320米",
        "tel": "",
        "category": "基础设施:公共设施:公共厕所",
        "type": 0,
        "location": {
            "lat": 35.745814,
            "lng": 102.884807
        },
        "ad_info": {
            "adcode": 622927,
            "province": "甘肃省",
            "city": "临夏回族自治州",
            "district": "积石山保安族东乡族撒拉族自治县"
        }
    },
    {
        "id": "4448716143425274788",
        "title": "东郊公园公共厕所",
        "address": "甘肃省临夏回族自治州临夏市前河沿东路与李孟路交叉口正东方向78米左右",
        "tel": "",
        "category": "基础设施:公共设施:公共厕所",
        "type": 0,
        "location": {
            "lat": 35.610172,
            "lng": 103.247061
        },
        "ad_info": {
            "adcode": 622901,
            "province": "甘肃省",
            "city": "临夏回族自治州",
            "district": "临夏市"
        }
    },
    {
        "id": "9368196521361814505",
        "title": "积石山服务区公共厕所",
        "address": "甘肃省临夏回族自治州积石山保安族东乡族撒拉族自治县S32临大高速与积石山服务区交叉口西280米",
        "tel": "",
        "category": "基础设施:公共设施:公共厕所",
        "type": 0,
        "location": {
            "lat": 35.747251,
            "lng": 102.885481
        },
        "ad_info": {
            "adcode": 622927,
            "province": "甘肃省",
            "city": "临夏回族自治州",
            "district": "积石山保安族东乡族撒拉族自治县"
        }
    },
    {
        "id": "2319074285098255985",
        "title": "环保厕所",
        "address": "甘肃省临夏回族自治州临夏市下菜市路与环城东路交叉口东南方向143米左右",
        "tel": "",
        "category": "基础设施:公共设施:公共厕所",
        "type": 0,
        "location": {
            "lat": 35.594749,
            "lng": 103.218781
        },
        "ad_info": {
            "adcode": 622901,
            "province": "甘肃省",
            "city": "临夏回族自治州",
            "district": "临夏市"
        }
    },
    {
        "id": "5646341166987616139",
        "title": "松鸣岩-公共厕所",
        "address": "甘肃省临夏回族自治州和政县G310与太子山隧道交叉口西南方向703米左右",
        "tel": "",
        "category": "基础设施:公共设施:公共厕所",
        "type": 0,
        "location": {
            "lat": 35.258788,
            "lng": 103.411426
        },
        "ad_info": {
            "adcode": 622925,
            "province": "甘肃省",
            "city": "临夏回族自治州",
            "district": "和政县"
        }
    },
    {
        "id": "3696895560842401984",
        "title": "公共厕所",
        "address": "甘肃省临夏回族自治州临夏市S309与兰郎路交叉口西南方向80米左右",
        "tel": "",
        "category": "基础设施:公共设施:公共厕所",
        "type": 0,
        "location": {
            "lat": 35.589307,
            "lng": 103.191865
        },
        "ad_info": {
            "adcode": 622901,
            "province": "甘肃省",
            "city": "临夏回族自治州",
            "district": "临夏市"
        }
    },
    {
        "id": "10350253029111990727",
        "title": "红园北区公共厕所",
        "address": "甘肃省临夏回族自治州临夏市红园路与西关路交叉口西南方向138米左右",
        "tel": "",
        "category": "基础设施:公共设施:公共厕所",
        "type": 0,
        "location": {
            "lat": 35.598055,
            "lng": 103.202809
        },
        "ad_info": {
            "adcode": 622901,
            "province": "甘肃省",
            "city": "临夏回族自治州",
            "district": "临夏市"
        }
    },
    {
        "id": "9004119215974048726",
        "title": "韩集服务区公共厕所",
        "address": "甘肃省临夏回族自治州临夏县韩集服务区南侧",
        "tel": "",
        "category": "基础设施:公共设施:公共厕所",
        "type": 0,
        "location": {
            "lat": 35.498276,
            "lng": 102.943072
        },
        "ad_info": {
            "adcode": 622921,
            "province": "甘肃省",
            "city": "临夏回族自治州",
            "district": "临夏县"
        }
    },
    {
        "id": "8410473822079921764",
        "title": "韩集服务区公共厕所",
        "address": "甘肃省临夏回族自治州临夏县韩集服务区南30米",
        "tel": "",
        "category": "基础设施:公共设施:公共厕所",
        "type": 0,
        "location": {
            "lat": 35.498043,
            "lng": 102.948838
        },
        "ad_info": {
            "adcode": 622921,
            "province": "甘肃省",
            "city": "临夏回族自治州",
            "district": "临夏县"
        }
    },
    {
        "id": "15194322496391203980",
        "title": "买家巷服务区公共厕所",
        "address": "甘肃省临夏回族自治州广河县G248与S575交叉口西北方向499米左右",
        "tel": "",
        "category": "基础设施:公共设施:公共厕所",
        "type": 0,
        "location": {
            "lat": 35.466018,
            "lng": 103.481739
        },
        "ad_info": {
            "adcode": 622924,
            "province": "甘肃省",
            "city": "临夏回族自治州",
            "district": "广河县"
        }
    },
    {
        "id": "9075685808420992985",
        "title": "免费公共厕所",
        "address": "甘肃省临夏回族自治州临夏市仁义巷与新西路交叉口东南方向106米左右",
        "tel": "",
        "category": "基础设施:公共设施:公共厕所",
        "type": 0,
        "location": {
            "lat": 35.587386,
            "lng": 103.209122
        },
        "ad_info": {
            "adcode": 622901,
            "province": "甘肃省",
            "city": "临夏回族自治州",
            "district": "临夏市"
        }
    },
    {
        "id": "8565340661954658399",
        "title": "临夏服务区公共厕所",
        "address": "甘肃省临夏回族自治州临夏市G568与河州大道交叉口正东方向82米左右",
        "tel": "",
        "category": "基础设施:公共设施:公共厕所",
        "type": 0,
        "location": {
            "lat": 35.529091,
            "lng": 103.142072
        },
        "ad_info": {
            "adcode": 622901,
            "province": "甘肃省",
            "city": "临夏回族自治州",
            "district": "临夏市"
        }
    },
    {
        "id": "17853330121427172319",
        "title": "胭脂路公共厕所",
        "address": "甘肃省临夏回族自治州康乐县东街1号",
        "tel": "",
        "category": "基础设施:公共设施:公共厕所",
        "type": 0,
        "location": {
            "lat": 35.371952,
            "lng": 103.717243
        },
        "ad_info": {
            "adcode": 622922,
            "province": "甘肃省",
            "city": "临夏回族自治州",
            "district": "康乐县"
        }
    },
    {
        "id": "4988447488704907978",
        "title": "买家巷服务区公共厕所",
        "address": "甘肃省临夏回族自治州广河县乌玛高速买家巷服务区",
        "tel": "",
        "category": "基础设施:公共设施:公共厕所",
        "type": 0,
        "location": {
            "lat": 35.467519,
            "lng": 103.481354
        },
        "ad_info": {
            "adcode": 622924,
            "province": "甘肃省",
            "city": "临夏回族自治州",
            "district": "广河县"
        }
    },
    {
        "id": "18269831951038155549",
        "title": "临夏服务区公共厕所",
        "address": "甘肃省临夏回族自治州临夏市G568与河州大道交叉口东南方向309米左右",
        "tel": "",
        "category": "基础设施:公共设施:公共厕所",
        "type": 0,
        "location": {
            "lat": 35.527953,
            "lng": 103.144191
        },
        "ad_info": {
            "adcode": 622901,
            "province": "甘肃省",
            "city": "临夏回族自治州",
            "district": "临夏市"
        }
    },
    {
        "id": "1699656237822741124",
        "title": "公共厕所",
        "address": "甘肃省临夏回族自治州临夏市牛津河大道与迎宾路交叉口正南方向212米左右",
        "tel": "",
        "category": "基础设施:公共设施:公共厕所",
        "type": 0,
        "location": {
            "lat": 35.569341,
            "lng": 103.231827
        },
        "ad_info": {
            "adcode": 622901,
            "province": "甘肃省",
            "city": "临夏回族自治州",
            "district": "临夏市"
        }
    },
    {
        "id": "5080676082123738960",
        "title": "公共厕所",
        "address": "甘肃省临夏回族自治州临夏市南滨河东路与奥体路交叉口东南方向204米左右",
        "tel": "",
        "category": "基础设施:公共设施:公共厕所",
        "type": 0,
        "location": {
            "lat": 35.603046,
            "lng": 103.251079
        },
        "ad_info": {
            "adcode": 622901,
            "province": "甘肃省",
            "city": "临夏回族自治州",
            "district": "临夏市"
        }
    },
    {
        "id": "17716169994142222211",
        "title": "公共厕所",
        "address": "甘肃省临夏回族自治州永靖县Y548与渔业产业路交叉口西南方向1036米左右",
        "tel": "",
        "category": "基础设施:公共设施:公共厕所",
        "type": 0,
        "location": {
            "lat": 35.964377,
            "lng": 103.245723
        },
        "ad_info": {
            "adcode": 622923,
            "province": "甘肃省",
            "city": "临夏回族自治州",
            "district": "永靖县"
        }
    },
    {
        "id": "11698292077239197475",
        "title": "公共厕所",
        "address": "甘肃省临夏回族自治州和政县滨河路与香子路交叉口正西方向44米左右",
        "tel": "",
        "category": "基础设施:公共设施:公共厕所",
        "type": 0,
        "location": {
            "lat": 35.447814,
            "lng": 103.363767
        },
        "ad_info": {
            "adcode": 622925,
            "province": "甘肃省",
            "city": "临夏回族自治州",
            "district": "和政县"
        }
    },
    {
        "id": "5659574397350700403",
        "title": "公共厕所",
        "address": "甘肃省临夏回族自治州临夏市北滨河中路与河州大道交叉口东北方向102米左右",
        "tel": "",
        "category": "基础设施:公共设施:公共厕所",
        "type": 0,
        "location": {
            "lat": 35.57738,
            "lng": 103.207966
        },
        "ad_info": {
            "adcode": 622901,
            "province": "甘肃省",
            "city": "临夏回族自治州",
            "district": "临夏市"
        }
    },
    {
        "id": "405088363628053970",
        "title": "公共厕所",
        "address": "甘肃省临夏回族自治州临夏市南滨河东路与奥体路交叉口正北方向241米左右",
        "tel": "",
        "category": "基础设施:公共设施:公共厕所",
        "type": 0,
        "location": {
            "lat": 35.605948,
            "lng": 103.248132
        },
        "ad_info": {
            "adcode": 622901,
            "province": "甘肃省",
            "city": "临夏回族自治州",
            "district": "临夏市"
        }
    },
    {
        "id": "8871655519831592018",
        "title": "公共厕所",
        "address": "甘肃省临夏回族自治州临夏市团结路与崇文路交叉口西南方向117米左右",
        "tel": "",
        "category": "基础设施:公共设施:公共厕所",
        "type": 0,
        "location": {
            "lat": 35.595197,
            "lng": 103.211473
        },
        "ad_info": {
            "adcode": 622901,
            "province": "甘肃省",
            "city": "临夏回族自治州",
            "district": "临夏市"
        }
    },
    {
        "id": "18119895001138888698",
        "title": "公共厕所",
        "address": "甘肃省临夏回族自治州临夏市S309与兰郎路交叉口正西方向354米左右",
        "tel": "",
        "category": "基础设施:公共设施:公共厕所",
        "type": 0,
        "location": {
            "lat": 35.589428,
            "lng": 103.188697
        },
        "ad_info": {
            "adcode": 622901,
            "province": "甘肃省",
            "city": "临夏回族自治州",
            "district": "临夏市"
        }
    },
    {
        "id": "13860847970525853646",
        "title": "东滨河路公共厕所",
        "address": "甘肃省临夏回族自治州康乐县胭脂路康乐县人民医院",
        "tel": "",
        "category": "基础设施:公共设施:公共厕所",
        "type": 0,
        "location": {
            "lat": 35.368238,
            "lng": 103.717496
        },
        "ad_info": {
            "adcode": 622922,
            "province": "甘肃省",
            "city": "临夏回族自治州",
            "district": "康乐县"
        }
    },
    {
        "id": "12738125188213931125",
        "title": "公共厕所",
        "address": "甘肃省临夏回族自治州广河县滨河路与跃进路交叉口正西方向16米左右",
        "tel": "",
        "category": "基础设施:公共设施:公共厕所",
        "type": 0,
        "location": {
            "lat": 35.48919,
            "lng": 103.58289
        },
        "ad_info": {
            "adcode": 622924,
            "province": "甘肃省",
            "city": "临夏回族自治州",
            "district": "广河县"
        }
    },
    {
        "id": "1117368748233333808",
        "title": "公共厕所",
        "address": "甘肃省临夏回族自治州东乡族自治县东大路2号",
        "tel": "",
        "category": "基础设施:公共设施:公共厕所",
        "type": 0,
        "location": {
            "lat": 35.662212,
            "lng": 103.396741
        },
        "ad_info": {
            "adcode": 622926,
            "province": "甘肃省",
            "city": "临夏回族自治州",
            "district": "东乡族自治县"
        }
    },
    {
        "id": "12939566810401421736",
        "title": "公共厕所",
        "address": "甘肃省临夏回族自治州永靖县中环路与川西路交叉口正南方向32米左右",
        "tel": "",
        "category": "基础设施:公共设施:公共厕所",
        "type": 0,
        "location": {
            "lat": 35.940616,
            "lng": 103.320318
        },
        "ad_info": {
            "adcode": 622923,
            "province": "甘肃省",
            "city": "临夏回族自治州",
            "district": "永靖县"
        }
    },
    {
        "id": "4983651420867535006",
        "title": "公共厕所",
        "address": "甘肃省临夏回族自治州广河县宗家小学北侧140米",
        "tel": "",
        "category": "基础设施:公共设施:公共厕所",
        "type": 0,
        "location": {
            "lat": 35.535007,
            "lng": 103.716255
        },
        "ad_info": {
            "adcode": 622924,
            "province": "甘肃省",
            "city": "临夏回族自治州",
            "district": "广河县"
        }
    },
    {
        "id": "15359177931261233926",
        "title": "公共厕所",
        "address": "甘肃省临夏回族自治州临夏市北滨河东路38号东郊公园(正门)对面",
        "tel": "",
        "category": "基础设施:公共设施:公共厕所",
        "type": 0,
        "location": {
            "lat": 35.612217,
            "lng": 103.251356
        },
        "ad_info": {
            "adcode": 622901,
            "province": "甘肃省",
            "city": "临夏回族自治州",
            "district": "临夏市"
        }
    },
    {
        "id": "5562142794076361399",
        "title": "公共厕所",
        "address": "甘肃省临夏回族自治州永靖县水景路与滨河南路交叉口西北方向136米左右",
        "tel": "",
        "category": "基础设施:公共设施:公共厕所",
        "type": 0,
        "location": {
            "lat": 35.942574,
            "lng": 103.307266
        },
        "ad_info": {
            "adcode": 622923,
            "province": "甘肃省",
            "city": "临夏回族自治州",
            "district": "永靖县"
        }
    },
    {
        "id": "576643068334897899",
        "title": "公共厕所",
        "address": "甘肃省临夏回族自治州临夏市北滨河东路与诚信路交叉口正南方向215米左右",
        "tel": "",
        "category": "基础设施:公共设施:公共厕所",
        "type": 0,
        "location": {
            "lat": 35.58745,
            "lng": 103.22842
        },
        "ad_info": {
            "adcode": 622901,
            "province": "甘肃省",
            "city": "临夏回族自治州",
            "district": "临夏市"
        }
    },
    {
        "id": "15389270700793819844",
        "title": "公共厕所",
        "address": "甘肃省临夏回族自治州临夏市前河沿西路与沙尕塄巷交叉口正北方向208米左右",
        "tel": "",
        "category": "基础设施:公共设施:公共厕所",
        "type": 0,
        "location": {
            "lat": 35.589222,
            "lng": 103.210378
        },
        "ad_info": {
            "adcode": 622901,
            "province": "甘肃省",
            "city": "临夏回族自治州",
            "district": "临夏市"
        }
    },
    {
        "id": "4985827114742043044",
        "title": "公共厕所",
        "address": "甘肃省临夏回族自治州永靖县兰州中皓滑翔俱乐部东侧",
        "tel": "",
        "category": "基础设施:公共设施:公共厕所",
        "type": 0,
        "location": {
            "lat": 35.84484,
            "lng": 103.142356
        },
        "ad_info": {
            "adcode": 622923,
            "province": "甘肃省",
            "city": "临夏回族自治州",
            "district": "永靖县"
        }
    },
    {
        "id": "2149247475176883048",
        "title": "公共厕所",
        "address": "甘肃省临夏回族自治州永靖县G309与金关公路交叉口东北方向1404米左右",
        "tel": "",
        "category": "基础设施:公共设施:公共厕所",
        "type": 0,
        "location": {
            "lat": 35.999505,
            "lng": 103.613298
        },
        "ad_info": {
            "adcode": 622923,
            "province": "甘肃省",
            "city": "临夏回族自治州",
            "district": "永靖县"
        }
    },
    {
        "id": "11697175279842860986",
        "title": "公共厕所",
        "address": "甘肃省临夏回族自治州永靖县309国道与兰永公路交叉口东180米",
        "tel": "",
        "category": "基础设施:公共设施:公共厕所",
        "type": 0,
        "location": {
            "lat": 36.099364,
            "lng": 103.347981
        },
        "ad_info": {
            "adcode": 622923,
            "province": "甘肃省",
            "city": "临夏回族自治州",
            "district": "永靖县"
        }
    },
    {
        "id": "7250983332667440082",
        "title": "公共厕所",
        "address": "甘肃省临夏回族自治州临夏市北滨河中路与新西路交叉口正南方向27米左右",
        "tel": "",
        "category": "基础设施:公共设施:公共厕所",
        "type": 0,
        "location": {
            "lat": 35.58214,
            "lng": 103.213554
        },
        "ad_info": {
            "adcode": 622901,
            "province": "甘肃省",
            "city": "临夏回族自治州",
            "district": "临夏市"
        }
    },
    {
        "id": "12819005471990425114",
        "title": "公共厕所",
        "address": "甘肃省临夏回族自治州临夏市兰郎路与康乐路交叉口西南方向328米左右",
        "tel": "",
        "category": "基础设施:公共设施:公共厕所",
        "type": 0,
        "location": {
            "lat": 35.581718,
            "lng": 103.185238
        },
        "ad_info": {
            "adcode": 622901,
            "province": "甘肃省",
            "city": "临夏回族自治州",
            "district": "临夏市"
        }
    },
    {
        "id": "15737468590298021480",
        "title": "公共厕所",
        "address": "甘肃省临夏回族自治州康乐县G248与Y583交叉口东北方向1209米左右",
        "tel": "",
        "category": "基础设施:公共设施:公共厕所",
        "type": 0,
        "location": {
            "lat": 34.986008,
            "lng": 103.73882
        },
        "ad_info": {
            "adcode": 622922,
            "province": "甘肃省",
            "city": "临夏回族自治州",
            "district": "康乐县"
        }
    },
    {
        "id": "10809989044241046202",
        "title": "公共厕所",
        "address": "甘肃省临夏回族自治州积石山保安族东乡族撒拉族自治县三环路与北滨河路交叉口西南方向259米左右",
        "tel": "",
        "category": "基础设施:公共设施:公共厕所",
        "type": 0,
        "location": {
            "lat": 35.702086,
            "lng": 102.865442
        },
        "ad_info": {
            "adcode": 622927,
            "province": "甘肃省",
            "city": "临夏回族自治州",
            "district": "积石山保安族东乡族撒拉族自治县"
        }
    },
    {
        "id": "9231247753373386923",
        "title": "杨赵停车场-公共卫生间",
        "address": "甘肃省临夏回族自治州东乡族自治县S230与X361交叉口西北方向654米左右",
        "tel": "",
        "category": "基础设施:公共设施:公共厕所",
        "type": 0,
        "location": {
            "lat": 35.804586,
            "lng": 103.529422
        },
        "ad_info": {
            "adcode": 622926,
            "province": "甘肃省",
            "city": "临夏回族自治州",
            "district": "东乡族自治县"
        }
    },
    {
        "id": "7053398753504865444",
        "title": "公共厕所",
        "address": "甘肃省临夏回族自治州东乡族自治县八号支路与康通路交叉口东南方向239米左右",
        "tel": "",
        "category": "基础设施:公共设施:公共厕所",
        "type": 0,
        "location": {
            "lat": 35.659337,
            "lng": 103.387574
        },
        "ad_info": {
            "adcode": 622926,
            "province": "甘肃省",
            "city": "临夏回族自治州",
            "district": "东乡族自治县"
        }
    },
    {
        "id": "2214092197414336999",
        "title": "公共厕所",
        "address": "甘肃省临夏回族自治州康乐县新集路与磨路巷交叉口东南方向27米左右",
        "tel": "",
        "category": "基础设施:公共设施:公共厕所",
        "type": 0,
        "location": {
            "lat": 35.370117,
            "lng": 103.70484
        },
        "ad_info": {
            "adcode": 622922,
            "province": "甘肃省",
            "city": "临夏回族自治州",
            "district": "康乐县"
        }
    },
    {
        "id": "10345155428855505749",
        "title": "旅游厕所",
        "address": "甘肃省临夏回族自治州永靖县金关公路关山森林公园内(西侧)",
        "tel": "",
        "category": "基础设施:公共设施:公共厕所",
        "type": 0,
        "location": {
            "lat": 35.999107,
            "lng": 103.622573
        },
        "ad_info": {
            "adcode": 622923,
            "province": "甘肃省",
            "city": "临夏回族自治州",
            "district": "永靖县"
        }
    },
    {
        "id": "4361607927195896548",
        "title": "公共厕所",
        "address": "甘肃省临夏回族自治州永靖县水景路与滨河南路交叉口东南方向52米左右",
        "tel": "",
        "category": "基础设施:公共设施:公共厕所",
        "type": 0,
        "location": {
            "lat": 35.941204,
            "lng": 103.308422
        },
        "ad_info": {
            "adcode": 622923,
            "province": "甘肃省",
            "city": "临夏回族自治州",
            "district": "永靖县"
        }
    },
    {
        "id": "14145847988225073707",
        "title": "公共厕所",
        "address": "甘肃省临夏回族自治州永靖县川中路与川北路交叉口正东方向94米左右",
        "tel": "",
        "category": "基础设施:公共设施:公共厕所",
        "type": 0,
        "location": {
            "lat": 35.936306,
            "lng": 103.327967
        },
        "ad_info": {
            "adcode": 622923,
            "province": "甘肃省",
            "city": "临夏回族自治州",
            "district": "永靖县"
        }
    },
    {
        "id": "3805807673950947655",
        "title": "公共厕所",
        "address": "甘肃省临夏回族自治州临夏市平等路与红园新村路交叉口正西方向40米左右",
        "tel": "",
        "category": "基础设施:公共设施:公共厕所",
        "type": 0,
        "location": {
            "lat": 35.59653,
            "lng": 103.206634
        },
        "ad_info": {
            "adcode": 622901,
            "province": "甘肃省",
            "city": "临夏回族自治州",
            "district": "临夏市"
        }
    },
    {
        "id": "12892159373250903020",
        "title": "公共厕所",
        "address": "甘肃省临夏回族自治州东乡族自治县S230与X361交叉口正北方向892米左右",
        "tel": "",
        "category": "基础设施:公共设施:公共厕所",
        "type": 0,
        "location": {
            "lat": 35.80859,
            "lng": 103.534871
        },
        "ad_info": {
            "adcode": 622926,
            "province": "甘肃省",
            "city": "临夏回族自治州",
            "district": "东乡族自治县"
        }
    },
    {
        "id": "5379769062376327978",
        "title": "黄河三峡-公共厕所",
        "address": "甘肃省临夏回族自治州永靖县折达公路与滨河南路交叉口东北方向428米左右",
        "tel": "",
        "category": "基础设施:公共设施:公共厕所",
        "type": 0,
        "location": {
            "lat": 35.947832,
            "lng": 103.295212
        },
        "ad_info": {
            "adcode": 622923,
            "province": "甘肃省",
            "city": "临夏回族自治州",
            "district": "永靖县"
        }
    },
    {
        "id": "12091714924322006372",
        "title": "公共厕所",
        "address": "甘肃省临夏回族自治州康乐县康丰路与新集路交叉口西北方向179米左右",
        "tel": "",
        "category": "基础设施:公共设施:公共厕所",
        "type": 0,
        "location": {
            "lat": 35.375248,
            "lng": 103.708575
        },
        "ad_info": {
            "adcode": 622922,
            "province": "甘肃省",
            "city": "临夏回族自治州",
            "district": "康乐县"
        }
    },
    {
        "id": "302186923849777211",
        "title": "公共厕所",
        "address": "甘肃省临夏回族自治州永靖县太极南路永靖县人民医院",
        "tel": "",
        "category": "基础设施:公共设施:公共厕所",
        "type": 0,
        "location": {
            "lat": 35.952577,
            "lng": 103.279843
        },
        "ad_info": {
            "adcode": 622923,
            "province": "甘肃省",
            "city": "临夏回族自治州",
            "district": "永靖县"
        }
    },
    {
        "id": "2703820957745532288",
        "title": "公共厕所",
        "address": "甘肃省临夏回族自治州和政县S317与经一路交叉口正西方向102米左右",
        "tel": "",
        "category": "基础设施:公共设施:公共厕所",
        "type": 0,
        "location": {
            "lat": 35.264862,
            "lng": 103.411967
        },
        "ad_info": {
            "adcode": 622925,
            "province": "甘肃省",
            "city": "临夏回族自治州",
            "district": "和政县"
        }
    }
]