[
    {
        "id": "15090749056414543980",
        "title": "公共厕所",
        "address": "云南省临沧市沧源佤族自治县广允路与广场路交叉口正东方向108米左右",
        "tel": "",
        "category": "基础设施:公共设施:公共厕所",
        "type": 0,
        "location": {
            "lat": 23.148285,
            "lng": 99.24946
        },
        "ad_info": {
            "adcode": 530927,
            "province": "云南省",
            "city": "临沧市",
            "district": "沧源佤族自治县"
        }
    },
    {
        "id": "7630316338094079730",
        "title": "公共厕所",
        "address": "云南省临沧市永德县永新路与永春路交叉口正西方向60米左右",
        "tel": "",
        "category": "基础设施:公共设施:公共厕所",
        "type": 0,
        "location": {
            "lat": 24.022436,
            "lng": 99.256713
        },
        "ad_info": {
            "adcode": 530923,
            "province": "云南省",
            "city": "临沧市",
            "district": "永德县"
        }
    },
    {
        "id": "5303948427106080700",
        "title": "公共厕所",
        "address": "云南省临沧市永德县Y007与羊勐线交叉口东北方向194米左右",
        "tel": "",
        "category": "基础设施:公共设施:公共厕所",
        "type": 0,
        "location": {
            "lat": 24.11322,
            "lng": 99.382796
        },
        "ad_info": {
            "adcode": 530923,
            "province": "云南省",
            "city": "临沧市",
            "district": "永德县"
        }
    },
    {
        "id": "5285990451709010009",
        "title": "公共厕所(人本超市对面)",
        "address": "云南省临沧市临翔区忙滚路与西河北路交叉口东北方向441米左右",
        "tel": "",
        "category": "基础设施:公共设施:公共厕所",
        "type": 0,
        "location": {
            "lat": 23.903412,
            "lng": 100.093256
        },
        "ad_info": {
            "adcode": 530902,
            "province": "云南省",
            "city": "临沧市",
            "district": "临翔区"
        }
    },
    {
        "id": "8660443968933734623",
        "title": "公共厕所",
        "address": "云南省临沧市耿马傣族佤族自治县景戈路与景戈商业步行街交叉口西南20米",
        "tel": "",
        "category": "基础设施:公共设施:公共厕所",
        "type": 0,
        "location": {
            "lat": 23.53069,
            "lng": 99.406909
        },
        "ad_info": {
            "adcode": 530926,
            "province": "云南省",
            "city": "临沧市",
            "district": "耿马傣族佤族自治县"
        }
    },
    {
        "id": "12374057111171208972",
        "title": "公共厕所",
        "address": "云南省临沧市临翔区新亚太时代广场营销中心西北侧200米",
        "tel": "",
        "category": "基础设施:公共设施:公共厕所",
        "type": 0,
        "location": {
            "lat": 23.906356,
            "lng": 100.095788
        },
        "ad_info": {
            "adcode": 530902,
            "province": "云南省",
            "city": "临沧市",
            "district": "临翔区"
        }
    },
    {
        "id": "8812336264743569254",
        "title": "公共厕所",
        "address": "云南省临沧市云县迎新路云县汽车客运站",
        "tel": "",
        "category": "基础设施:公共设施:公共厕所",
        "type": 0,
        "location": {
            "lat": 24.435433,
            "lng": 100.138058
        },
        "ad_info": {
            "adcode": 530922,
            "province": "云南省",
            "city": "临沧市",
            "district": "云县"
        }
    },
    {
        "id": "16963985158826446046",
        "title": "公共厕所",
        "address": "云南省临沧市凤庆县福广路与稻香路交叉口东南方向202米左右",
        "tel": "",
        "category": "基础设施:公共设施:公共厕所",
        "type": 0,
        "location": {
            "lat": 24.584051,
            "lng": 99.925594
        },
        "ad_info": {
            "adcode": 530921,
            "province": "云南省",
            "city": "临沧市",
            "district": "凤庆县"
        }
    },
    {
        "id": "9913307080452194445",
        "title": "公共厕所",
        "address": "云南省临沧市云县草皮街与迎新路交叉口正南方向166米左右",
        "tel": "",
        "category": "基础设施:公共设施:公共厕所",
        "type": 0,
        "location": {
            "lat": 24.436581,
            "lng": 100.13858
        },
        "ad_info": {
            "adcode": 530922,
            "province": "云南省",
            "city": "临沧市",
            "district": "云县"
        }
    },
    {
        "id": "17382785197308950671",
        "title": "公共厕所",
        "address": "云南省临沧市云县爱华镇云县滨河公园(东南角)",
        "tel": "",
        "category": "基础设施:公共设施:公共厕所",
        "type": 0,
        "location": {
            "lat": 24.44495,
            "lng": 100.135371
        },
        "ad_info": {
            "adcode": 530922,
            "province": "云南省",
            "city": "临沧市",
            "district": "云县"
        }
    },
    {
        "id": "13054390886535921182",
        "title": "公共卫生间",
        "address": "云南省临沧市永德县德顺路与通明巷交叉口正南方向16米左右",
        "tel": "",
        "category": "基础设施:公共设施:公共厕所",
        "type": 0,
        "location": {
            "lat": 24.025784,
            "lng": 99.255465
        },
        "ad_info": {
            "adcode": 530923,
            "province": "云南省",
            "city": "临沧市",
            "district": "永德县"
        }
    },
    {
        "id": "15407271069345991984",
        "title": "公共厕所",
        "address": "云南省临沧市耿马傣族佤族自治县S314与小勐线交叉口东南方向125米左右",
        "tel": "",
        "category": "基础设施:公共设施:公共厕所",
        "type": 0,
        "location": {
            "lat": 23.36852,
            "lng": 99.425428
        },
        "ad_info": {
            "adcode": 530926,
            "province": "云南省",
            "city": "临沧市",
            "district": "耿马傣族佤族自治县"
        }
    },
    {
        "id": "8674013997691251742",
        "title": "公共厕所",
        "address": "云南省临沧市临翔区区民政局旁",
        "tel": "",
        "category": "基础设施:公共设施:公共厕所",
        "type": 0,
        "location": {
            "lat": 23.881072,
            "lng": 100.070662
        },
        "ad_info": {
            "adcode": 530902,
            "province": "云南省",
            "city": "临沧市",
            "district": "临翔区"
        }
    },
    {
        "id": "7662562017529923386",
        "title": "公共厕所",
        "address": "云南省临沧市云县云县滨河广场景观桥",
        "tel": "",
        "category": "基础设施:公共设施:公共厕所",
        "type": 0,
        "location": {
            "lat": 24.438968,
            "lng": 100.126992
        },
        "ad_info": {
            "adcode": 530922,
            "province": "云南省",
            "city": "临沧市",
            "district": "云县"
        }
    },
    {
        "id": "5052337831369512698",
        "title": "公共厕所",
        "address": "云南省临沧市临翔区南天路客运站公交站(临沧客运中心站东)",
        "tel": "",
        "category": "基础设施:公共设施:公共厕所",
        "type": 0,
        "location": {
            "lat": 23.884154,
            "lng": 100.097801
        },
        "ad_info": {
            "adcode": 530902,
            "province": "云南省",
            "city": "临沧市",
            "district": "临翔区"
        }
    },
    {
        "id": "13025095029150101897",
        "title": "公共厕所",
        "address": "云南省临沧市临翔区缅宁大道与青华路交叉口西南方向253米左右",
        "tel": "",
        "category": "基础设施:公共设施:公共厕所",
        "type": 0,
        "location": {
            "lat": 23.913433,
            "lng": 100.100403
        },
        "ad_info": {
            "adcode": 530902,
            "province": "云南省",
            "city": "临沧市",
            "district": "临翔区"
        }
    },
    {
        "id": "11290349071945052883",
        "title": "公共厕所",
        "address": "云南省临沧市耿马傣族佤族自治县公园路与震新路交叉口东北方向86米左右",
        "tel": "",
        "category": "基础设施:公共设施:公共厕所",
        "type": 0,
        "location": {
            "lat": 23.536019,
            "lng": 99.401096
        },
        "ad_info": {
            "adcode": 530926,
            "province": "云南省",
            "city": "临沧市",
            "district": "耿马傣族佤族自治县"
        }
    },
    {
        "id": "17574004620275502417",
        "title": "公共厕所",
        "address": "云南省临沧市双江拉祜族佤族布朗族傣族自治县和谐大道与滨河大道交叉口东北方向379米左右",
        "tel": "",
        "category": "基础设施:公共设施:公共厕所",
        "type": 0,
        "location": {
            "lat": 23.484263,
            "lng": 99.825432
        },
        "ad_info": {
            "adcode": 530925,
            "province": "云南省",
            "city": "临沧市",
            "district": "双江拉祜族佤族布朗族傣族自治县"
        }
    },
    {
        "id": "9648876882964286101",
        "title": "公共厕所",
        "address": "云南省临沧市永德县Y007与人民路交叉口西南方向1337米左右",
        "tel": "",
        "category": "基础设施:公共设施:公共厕所",
        "type": 0,
        "location": {
            "lat": 24.09963,
            "lng": 99.377061
        },
        "ad_info": {
            "adcode": 530923,
            "province": "云南省",
            "city": "临沧市",
            "district": "永德县"
        }
    },
    {
        "id": "13570371345958222078",
        "title": "公共厕所",
        "address": "云南省临沧市镇康县泰和路与泰安路交叉口西北方向63米左右",
        "tel": "",
        "category": "基础设施:公共设施:公共厕所",
        "type": 0,
        "location": {
            "lat": 23.766359,
            "lng": 98.830234
        },
        "ad_info": {
            "adcode": 530924,
            "province": "云南省",
            "city": "临沧市",
            "district": "镇康县"
        }
    },
    {
        "id": "17245862921665602675",
        "title": "公共厕所",
        "address": "云南省临沧市临翔区人民路与西门巷交叉口东南方向69米左右",
        "tel": "",
        "category": "基础设施:公共设施:公共厕所",
        "type": 0,
        "location": {
            "lat": 23.879587,
            "lng": 100.08704
        },
        "ad_info": {
            "adcode": 530902,
            "province": "云南省",
            "city": "临沧市",
            "district": "临翔区"
        }
    },
    {
        "id": "7377413701102622528",
        "title": "公共厕所",
        "address": "云南省临沧市耿马傣族佤族自治县人民路与公园路交叉口西北方向30米左右",
        "tel": "",
        "category": "基础设施:公共设施:公共厕所",
        "type": 0,
        "location": {
            "lat": 23.531379,
            "lng": 99.396551
        },
        "ad_info": {
            "adcode": 530926,
            "province": "云南省",
            "city": "临沧市",
            "district": "耿马傣族佤族自治县"
        }
    },
    {
        "id": "18366951307282046010",
        "title": "公共厕所",
        "address": "云南省临沧市耿马傣族佤族自治县临清线",
        "tel": "",
        "category": "基础设施:公共设施:公共厕所",
        "type": 0,
        "location": {
            "lat": 23.524595,
            "lng": 99.019487
        },
        "ad_info": {
            "adcode": 530926,
            "province": "云南省",
            "city": "临沧市",
            "district": "耿马傣族佤族自治县"
        }
    },
    {
        "id": "9526561893045421509",
        "title": "公共厕所",
        "address": "云南省临沧市耿马傣族佤族自治县耿马镇鑫源路中国石油芒片加油站",
        "tel": "",
        "category": "基础设施:公共设施:公共厕所",
        "type": 0,
        "location": {
            "lat": 23.522703,
            "lng": 99.402338
        },
        "ad_info": {
            "adcode": 530926,
            "province": "云南省",
            "city": "临沧市",
            "district": "耿马傣族佤族自治县"
        }
    },
    {
        "id": "5744599124857401685",
        "title": "公共厕所",
        "address": "云南省临沧市临翔区中平巷251号",
        "tel": "",
        "category": "基础设施:公共设施:公共厕所",
        "type": 0,
        "location": {
            "lat": 23.879983,
            "lng": 100.092557
        },
        "ad_info": {
            "adcode": 530902,
            "province": "云南省",
            "city": "临沧市",
            "district": "临翔区"
        }
    },
    {
        "id": "1428097849305703642",
        "title": "公共厕所",
        "address": "云南省临沧市临翔区忙令南路与西河北路交叉口正东方向148米左右",
        "tel": "",
        "category": "基础设施:公共设施:公共厕所",
        "type": 0,
        "location": {
            "lat": 23.893837,
            "lng": 100.085961
        },
        "ad_info": {
            "adcode": 530902,
            "province": "云南省",
            "city": "临沧市",
            "district": "临翔区"
        }
    },
    {
        "id": "1474202455999367381",
        "title": "公共厕所",
        "address": "云南省临沧市永德县德党北路与德勐线交叉口正西方向89米左右",
        "tel": "",
        "category": "基础设施:公共设施:公共厕所",
        "type": 0,
        "location": {
            "lat": 24.032577,
            "lng": 99.25541
        },
        "ad_info": {
            "adcode": 530923,
            "province": "云南省",
            "city": "临沧市",
            "district": "永德县"
        }
    },
    {
        "id": "15556756739635890109",
        "title": "公共厕所",
        "address": "云南省临沧市永德县德党镇永安路中国石化忙岗加油站",
        "tel": "",
        "category": "基础设施:公共设施:公共厕所",
        "type": 0,
        "location": {
            "lat": 24.017052,
            "lng": 99.252089
        },
        "ad_info": {
            "adcode": 530923,
            "province": "云南省",
            "city": "临沧市",
            "district": "永德县"
        }
    },
    {
        "id": "8806486203894039400",
        "title": "公共厕所",
        "address": "云南省临沧市临翔区南天路306号",
        "tel": "",
        "category": "基础设施:公共设施:公共厕所",
        "type": 0,
        "location": {
            "lat": 23.887987,
            "lng": 100.096038
        },
        "ad_info": {
            "adcode": 530902,
            "province": "云南省",
            "city": "临沧市",
            "district": "临翔区"
        }
    },
    {
        "id": "17990991248540676119",
        "title": "公共厕所",
        "address": "云南省临沧市凤庆县凤梧路与顺宁路交叉口正南方向79米左右",
        "tel": "",
        "category": "基础设施:公共设施:公共厕所",
        "type": 0,
        "location": {
            "lat": 24.591909,
            "lng": 99.919797
        },
        "ad_info": {
            "adcode": 530921,
            "province": "云南省",
            "city": "临沧市",
            "district": "凤庆县"
        }
    },
    {
        "id": "337770987438895719",
        "title": "公共厕所",
        "address": "云南省临沧市云县星云大道与草皮街交叉口正北方向266米左右",
        "tel": "",
        "category": "基础设施:公共设施:公共厕所",
        "type": 0,
        "location": {
            "lat": 24.443965,
            "lng": 100.144217
        },
        "ad_info": {
            "adcode": 530922,
            "province": "云南省",
            "city": "临沧市",
            "district": "云县"
        }
    },
    {
        "id": "3384045800532283424",
        "title": "公共厕所",
        "address": "云南省临沧市耿马傣族佤族自治县319省道东100米",
        "tel": "",
        "category": "基础设施:公共设施:公共厕所",
        "type": 0,
        "location": {
            "lat": 23.890003,
            "lng": 99.681925
        },
        "ad_info": {
            "adcode": 530926,
            "province": "云南省",
            "city": "临沧市",
            "district": "耿马傣族佤族自治县"
        }
    },
    {
        "id": "3523479250546267067",
        "title": "公共厕所",
        "address": "云南省临沧市耿马傣族佤族自治县农努公路与羊耿线交叉口西南方向1482米左右",
        "tel": "",
        "category": "基础设施:公共设施:公共厕所",
        "type": 0,
        "location": {
            "lat": 23.892416,
            "lng": 99.696835
        },
        "ad_info": {
            "adcode": 530926,
            "province": "云南省",
            "city": "临沧市",
            "district": "耿马傣族佤族自治县"
        }
    },
    {
        "id": "11785858828046976154",
        "title": "公共厕所",
        "address": "云南省临沧市临翔区朝阳路与缅宁大道交叉口西南方向198米左右",
        "tel": "",
        "category": "基础设施:公共设施:公共厕所",
        "type": 0,
        "location": {
            "lat": 23.867728,
            "lng": 100.098658
        },
        "ad_info": {
            "adcode": 530902,
            "province": "云南省",
            "city": "临沧市",
            "district": "临翔区"
        }
    },
    {
        "id": "10042132021283108502",
        "title": "公共厕所",
        "address": "云南省临沧市临翔区南天路与太平街交叉口东北方向183米左右",
        "tel": "",
        "category": "基础设施:公共设施:公共厕所",
        "type": 0,
        "location": {
            "lat": 23.87853,
            "lng": 100.09836
        },
        "ad_info": {
            "adcode": 530902,
            "province": "云南省",
            "city": "临沧市",
            "district": "临翔区"
        }
    },
    {
        "id": "12627639985122459140",
        "title": "公共厕所",
        "address": "云南省临沧市临翔区祥临公路与长哨线交叉口正南方向1030米左右",
        "tel": "",
        "category": "基础设施:公共设施:公共厕所",
        "type": 0,
        "location": {
            "lat": 24.197518,
            "lng": 100.033924
        },
        "ad_info": {
            "adcode": 530902,
            "province": "云南省",
            "city": "临沧市",
            "district": "临翔区"
        }
    },
    {
        "id": "18111515081586741547",
        "title": "公共厕所",
        "address": "云南省临沧市沧源佤族自治县白塔路与耿沧二级公路交叉口西南方向143米左右",
        "tel": "",
        "category": "基础设施:公共设施:公共厕所",
        "type": 0,
        "location": {
            "lat": 23.180005,
            "lng": 99.271483
        },
        "ad_info": {
            "adcode": 530927,
            "province": "云南省",
            "city": "临沧市",
            "district": "沧源佤族自治县"
        }
    },
    {
        "id": "15694699801564173371",
        "title": "公共厕所",
        "address": "云南省临沧市临翔区世纪路与旗山路交叉口东北方向174米左右",
        "tel": "",
        "category": "基础设施:公共设施:公共厕所",
        "type": 0,
        "location": {
            "lat": 23.888008,
            "lng": 100.083457
        },
        "ad_info": {
            "adcode": 530902,
            "province": "云南省",
            "city": "临沧市",
            "district": "临翔区"
        }
    },
    {
        "id": "12245565590990030230",
        "title": "公共厕所",
        "address": "云南省临沧市沧源佤族自治县G214与国赛段交叉口西南方向486米左右",
        "tel": "",
        "category": "基础设施:公共设施:公共厕所",
        "type": 0,
        "location": {
            "lat": 23.312895,
            "lng": 99.710971
        },
        "ad_info": {
            "adcode": 530927,
            "province": "云南省",
            "city": "临沧市",
            "district": "沧源佤族自治县"
        }
    },
    {
        "id": "7771135387464480113",
        "title": "公共厕所",
        "address": "云南省临沧市临翔区临翔路与南天路交叉口正南方向57米左右",
        "tel": "",
        "category": "基础设施:公共设施:公共厕所",
        "type": 0,
        "location": {
            "lat": 23.875862,
            "lng": 100.097171
        },
        "ad_info": {
            "adcode": 530902,
            "province": "云南省",
            "city": "临沧市",
            "district": "临翔区"
        }
    },
    {
        "id": "6637371905422931221",
        "title": "公共厕所",
        "address": "云南省临沧市双江拉祜族佤族布朗族傣族自治县阳光巷与阿布谷路交叉口正西方向63米左右",
        "tel": "",
        "category": "基础设施:公共设施:公共厕所",
        "type": 0,
        "location": {
            "lat": 23.475167,
            "lng": 99.825375
        },
        "ad_info": {
            "adcode": 530925,
            "province": "云南省",
            "city": "临沧市",
            "district": "双江拉祜族佤族布朗族傣族自治县"
        }
    },
    {
        "id": "15851623526816458912",
        "title": "公共厕所",
        "address": "云南省临沧市临翔区南塘街与园林北巷交叉口正西方向62米左右",
        "tel": "",
        "category": "基础设施:公共设施:公共厕所",
        "type": 0,
        "location": {
            "lat": 23.876037,
            "lng": 100.086827
        },
        "ad_info": {
            "adcode": 530902,
            "province": "云南省",
            "city": "临沧市",
            "district": "临翔区"
        }
    },
    {
        "id": "15637255471736307153",
        "title": "公共厕所",
        "address": "云南省临沧市临翔区玉带路与西河北路交叉口东南方向245米左右",
        "tel": "",
        "category": "基础设施:公共设施:公共厕所",
        "type": 0,
        "location": {
            "lat": 23.890766,
            "lng": 100.077742
        },
        "ad_info": {
            "adcode": 530902,
            "province": "云南省",
            "city": "临沧市",
            "district": "临翔区"
        }
    },
    {
        "id": "12914808429183343741",
        "title": "公共厕所",
        "address": "云南省临沧市临翔区白塔路78号",
        "tel": "",
        "category": "基础设施:公共设施:公共厕所",
        "type": 0,
        "location": {
            "lat": 23.891652,
            "lng": 100.083411
        },
        "ad_info": {
            "adcode": 530902,
            "province": "云南省",
            "city": "临沧市",
            "district": "临翔区"
        }
    },
    {
        "id": "5065997433879358356",
        "title": "公共厕所",
        "address": "云南省临沧市双江拉祜族佤族布朗族傣族自治县双江小白机械租赁中心南侧120米",
        "tel": "",
        "category": "基础设施:公共设施:公共厕所",
        "type": 0,
        "location": {
            "lat": 23.473991,
            "lng": 99.815731
        },
        "ad_info": {
            "adcode": 530925,
            "province": "云南省",
            "city": "临沧市",
            "district": "双江拉祜族佤族布朗族傣族自治县"
        }
    },
    {
        "id": "12264922099407310518",
        "title": "公共厕所",
        "address": "云南省临沧市耿马傣族佤族自治县羊耿线",
        "tel": "",
        "category": "基础设施:公共设施:公共厕所",
        "type": 0,
        "location": {
            "lat": 23.885939,
            "lng": 99.676157
        },
        "ad_info": {
            "adcode": 530926,
            "province": "云南省",
            "city": "临沧市",
            "district": "耿马傣族佤族自治县"
        }
    },
    {
        "id": "7935819559188753726",
        "title": "公共厕所",
        "address": "云南省临沧市临翔区田心路与西河北路交叉口东北方向283米左右",
        "tel": "",
        "category": "基础设施:公共设施:公共厕所",
        "type": 0,
        "location": {
            "lat": 23.911939,
            "lng": 100.098764
        },
        "ad_info": {
            "adcode": 530902,
            "province": "云南省",
            "city": "临沧市",
            "district": "临翔区"
        }
    },
    {
        "id": "11809804439736789212",
        "title": "公共厕所",
        "address": "云南省临沧市永德县税房线与骂税线交叉口正南方向1080米左右",
        "tel": "",
        "category": "基础设施:公共设施:公共厕所",
        "type": 0,
        "location": {
            "lat": 23.91237,
            "lng": 99.407253
        },
        "ad_info": {
            "adcode": 530923,
            "province": "云南省",
            "city": "临沧市",
            "district": "永德县"
        }
    },
    {
        "id": "10457993022320491239",
        "title": "公共厕所",
        "address": "云南省临沧市耿马傣族佤族自治县南姑段与振清线交叉口西南方向531米左右",
        "tel": "",
        "category": "基础设施:公共设施:公共厕所",
        "type": 0,
        "location": {
            "lat": 23.66878,
            "lng": 99.228295
        },
        "ad_info": {
            "adcode": 530926,
            "province": "云南省",
            "city": "临沧市",
            "district": "耿马傣族佤族自治县"
        }
    },
    {
        "id": "5794373419599608542",
        "title": "公共厕所",
        "address": "云南省临沧市镇康县德胜街与民族街交叉口西北方向21米左右",
        "tel": "",
        "category": "基础设施:公共设施:公共厕所",
        "type": 0,
        "location": {
            "lat": 23.772372,
            "lng": 98.822745
        },
        "ad_info": {
            "adcode": 530924,
            "province": "云南省",
            "city": "临沧市",
            "district": "镇康县"
        }
    },
    {
        "id": "2547998979839083851",
        "title": "公共厕所",
        "address": "云南省临沧市永德县大雪山乡蚂蝗箐完小南侧90米",
        "tel": "",
        "category": "基础设施:公共设施:公共厕所",
        "type": 0,
        "location": {
            "lat": 24.090151,
            "lng": 99.745463
        },
        "ad_info": {
            "adcode": 530923,
            "province": "云南省",
            "city": "临沧市",
            "district": "永德县"
        }
    },
    {
        "id": "2155340115939389924",
        "title": "公共厕所",
        "address": "云南省临沧市耿马傣族佤族自治县S319与振清线交叉口西南方向895米左右",
        "tel": "",
        "category": "基础设施:公共设施:公共厕所",
        "type": 0,
        "location": {
            "lat": 23.478804,
            "lng": 98.83795
        },
        "ad_info": {
            "adcode": 530926,
            "province": "云南省",
            "city": "临沧市",
            "district": "耿马傣族佤族自治县"
        }
    },
    {
        "id": "3264222415927645267",
        "title": "公共厕所",
        "address": "云南省临沧市临翔区光明巷与南天路交叉口西南方向185米左右",
        "tel": "",
        "category": "基础设施:公共设施:公共厕所",
        "type": 0,
        "location": {
            "lat": 23.871698,
            "lng": 100.093919
        },
        "ad_info": {
            "adcode": 530902,
            "province": "云南省",
            "city": "临沧市",
            "district": "临翔区"
        }
    },
    {
        "id": "3701487733841548735",
        "title": "公共厕所",
        "address": "云南省临沧市临翔区公园路与学府路交叉口东北方向72米左右",
        "tel": "",
        "category": "基础设施:公共设施:公共厕所",
        "type": 0,
        "location": {
            "lat": 23.883819,
            "lng": 100.079452
        },
        "ad_info": {
            "adcode": 530902,
            "province": "云南省",
            "city": "临沧市",
            "district": "临翔区"
        }
    },
    {
        "id": "18017494800349305491",
        "title": "公共厕所",
        "address": "云南省临沧市临翔区前程大道与忙令南路交叉口西南方向141米左右",
        "tel": "",
        "category": "基础设施:公共设施:公共厕所",
        "type": 0,
        "location": {
            "lat": 23.899555,
            "lng": 100.078146
        },
        "ad_info": {
            "adcode": 530902,
            "province": "云南省",
            "city": "临沧市",
            "district": "临翔区"
        }
    },
    {
        "id": "3488848085358495659",
        "title": "公共厕所",
        "address": "云南省临沧市永德县永班段与永班线交叉口正北方向1376米左右",
        "tel": "",
        "category": "基础设施:公共设施:公共厕所",
        "type": 0,
        "location": {
            "lat": 24.123396,
            "lng": 99.389733
        },
        "ad_info": {
            "adcode": 530923,
            "province": "云南省",
            "city": "临沧市",
            "district": "永德县"
        }
    },
    {
        "id": "14858727061639830989",
        "title": "公共厕所",
        "address": "云南省临沧市凤庆县二中路与官亭路交叉口正南方向123米左右",
        "tel": "",
        "category": "基础设施:公共设施:公共厕所",
        "type": 0,
        "location": {
            "lat": 24.598014,
            "lng": 99.912225
        },
        "ad_info": {
            "adcode": 530921,
            "province": "云南省",
            "city": "临沧市",
            "district": "凤庆县"
        }
    },
    {
        "id": "18309313549248364596",
        "title": "公共厕所",
        "address": "云南省临沧市临翔区南天路与汀旗路交叉口正北方向57米左右",
        "tel": "",
        "category": "基础设施:公共设施:公共厕所",
        "type": 0,
        "location": {
            "lat": 23.892881,
            "lng": 100.096802
        },
        "ad_info": {
            "adcode": 530902,
            "province": "云南省",
            "city": "临沧市",
            "district": "临翔区"
        }
    },
    {
        "id": "5646858697399969724",
        "title": "公共厕所",
        "address": "云南省临沧市临翔区214国道东150米",
        "tel": "",
        "category": "基础设施:公共设施:公共厕所",
        "type": 0,
        "location": {
            "lat": 23.628432,
            "lng": 100.10503
        },
        "ad_info": {
            "adcode": 530902,
            "province": "云南省",
            "city": "临沧市",
            "district": "临翔区"
        }
    },
    {
        "id": "10665285637377829650",
        "title": "公共厕所",
        "address": "云南省临沧市镇康县Y044与明木段交叉口西南方向176米左右",
        "tel": "",
        "category": "基础设施:公共设施:公共厕所",
        "type": 0,
        "location": {
            "lat": 23.74849,
            "lng": 99.154055
        },
        "ad_info": {
            "adcode": 530924,
            "province": "云南省",
            "city": "临沧市",
            "district": "镇康县"
        }
    },
    {
        "id": "2197950201982502637",
        "title": "公共厕所",
        "address": "云南省临沧市永德县S313与大大段交叉口东北方向726米左右",
        "tel": "",
        "category": "基础设施:公共设施:公共厕所",
        "type": 0,
        "location": {
            "lat": 23.984021,
            "lng": 99.245165
        },
        "ad_info": {
            "adcode": 530923,
            "province": "云南省",
            "city": "临沧市",
            "district": "永德县"
        }
    },
    {
        "id": "537893871650976814",
        "title": "公共厕所",
        "address": "云南省临沧市双江拉祜族佤族布朗族傣族自治县兴民路与振兴路交叉口正北方向208米左右",
        "tel": "",
        "category": "基础设施:公共设施:公共厕所",
        "type": 0,
        "location": {
            "lat": 23.482736,
            "lng": 99.818386
        },
        "ad_info": {
            "adcode": 530925,
            "province": "云南省",
            "city": "临沧市",
            "district": "双江拉祜族佤族布朗族傣族自治县"
        }
    },
    {
        "id": "15945162746596737807",
        "title": "公共厕所",
        "address": "云南省临沧市耿马傣族佤族自治县临清线与河西公路交叉口正南方向664米左右",
        "tel": "",
        "category": "基础设施:公共设施:公共厕所",
        "type": 0,
        "location": {
            "lat": 23.583775,
            "lng": 99.142754
        },
        "ad_info": {
            "adcode": 530926,
            "province": "云南省",
            "city": "临沧市",
            "district": "耿马傣族佤族自治县"
        }
    },
    {
        "id": "8358847647323180507",
        "title": "公共厕所",
        "address": "云南省临沧市耿马傣族佤族自治县弹石路",
        "tel": "",
        "category": "基础设施:公共设施:公共厕所",
        "type": 0,
        "location": {
            "lat": 23.650228,
            "lng": 99.314167
        },
        "ad_info": {
            "adcode": 530926,
            "province": "云南省",
            "city": "临沧市",
            "district": "耿马傣族佤族自治县"
        }
    },
    {
        "id": "6892987680477597565",
        "title": "公共厕所",
        "address": "云南省临沧市镇康县凤凰路与凤和路交叉口东北方向86米左右",
        "tel": "",
        "category": "基础设施:公共设施:公共厕所",
        "type": 0,
        "location": {
            "lat": 23.885644,
            "lng": 99.026062
        },
        "ad_info": {
            "adcode": 530924,
            "province": "云南省",
            "city": "临沧市",
            "district": "镇康县"
        }
    },
    {
        "id": "12053570959560111458",
        "title": "公共厕所",
        "address": "云南省临沧市永德县羊勐线与明朗线交叉口北100米",
        "tel": "",
        "category": "基础设施:公共设施:公共厕所",
        "type": 0,
        "location": {
            "lat": 23.970574,
            "lng": 99.238847
        },
        "ad_info": {
            "adcode": 530923,
            "province": "云南省",
            "city": "临沧市",
            "district": "永德县"
        }
    },
    {
        "id": "12159958882234214214",
        "title": "公共厕所",
        "address": "云南省临沧市永德县羊勐线",
        "tel": "",
        "category": "基础设施:公共设施:公共厕所",
        "type": 0,
        "location": {
            "lat": 24.079804,
            "lng": 99.75009
        },
        "ad_info": {
            "adcode": 530923,
            "province": "云南省",
            "city": "临沧市",
            "district": "永德县"
        }
    },
    {
        "id": "7445117097583986660",
        "title": "公共厕所",
        "address": "云南省临沧市永德县户乃完小东南侧290米",
        "tel": "",
        "category": "基础设施:公共设施:公共厕所",
        "type": 0,
        "location": {
            "lat": 23.995759,
            "lng": 99.241685
        },
        "ad_info": {
            "adcode": 530923,
            "province": "云南省",
            "city": "临沧市",
            "district": "永德县"
        }
    },
    {
        "id": "2296132971926128555",
        "title": "公共厕所",
        "address": "云南省临沧市永德县施孟路与羊勐线交叉口正南方向64米左右",
        "tel": "",
        "category": "基础设施:公共设施:公共厕所",
        "type": 0,
        "location": {
            "lat": 24.085888,
            "lng": 99.373817
        },
        "ad_info": {
            "adcode": 530923,
            "province": "云南省",
            "city": "临沧市",
            "district": "永德县"
        }
    },
    {
        "id": "16747412743481988007",
        "title": "公共厕所",
        "address": "云南省临沧市云县大老线与羊耿线交叉口东北方向364米左右",
        "tel": "",
        "category": "基础设施:公共设施:公共厕所",
        "type": 0,
        "location": {
            "lat": 24.145073,
            "lng": 99.954902
        },
        "ad_info": {
            "adcode": 530922,
            "province": "云南省",
            "city": "临沧市",
            "district": "云县"
        }
    },
    {
        "id": "6069912151276678786",
        "title": "公共厕所",
        "address": "云南省临沧市凤庆县",
        "tel": "",
        "category": "基础设施:公共设施:公共厕所",
        "type": 0,
        "location": {
            "lat": 24.661513,
            "lng": 100.190071
        },
        "ad_info": {
            "adcode": 530921,
            "province": "云南省",
            "city": "临沧市",
            "district": "凤庆县"
        }
    },
    {
        "id": "10374276610465127184",
        "title": "公共厕所",
        "address": "云南省临沧市镇康县勐英路7号",
        "tel": "",
        "category": "基础设施:公共设施:公共厕所",
        "type": 0,
        "location": {
            "lat": 23.759937,
            "lng": 98.82408
        },
        "ad_info": {
            "adcode": 530924,
            "province": "云南省",
            "city": "临沧市",
            "district": "镇康县"
        }
    },
    {
        "id": "13314241757572274404",
        "title": "公共厕所",
        "address": "云南省临沧市云县柳新线与柳糯路交叉口正南方向1838米左右",
        "tel": "",
        "category": "基础设施:公共设施:公共厕所",
        "type": 0,
        "location": {
            "lat": 24.162138,
            "lng": 100.238987
        },
        "ad_info": {
            "adcode": 530922,
            "province": "云南省",
            "city": "临沧市",
            "district": "云县"
        }
    },
    {
        "id": "8374179487754983227",
        "title": "公共厕所",
        "address": "云南省临沧市耿马傣族佤族自治县安掌路与羊耿线交叉口正北方向300米左右",
        "tel": "",
        "category": "基础设施:公共设施:公共厕所",
        "type": 0,
        "location": {
            "lat": 23.701307,
            "lng": 99.58392
        },
        "ad_info": {
            "adcode": 530926,
            "province": "云南省",
            "city": "临沧市",
            "district": "耿马傣族佤族自治县"
        }
    },
    {
        "id": "1286926964468123748",
        "title": "公共厕所",
        "address": "云南省临沧市镇康县公主路与永安路交叉口西南方向105米左右",
        "tel": "",
        "category": "基础设施:公共设施:公共厕所",
        "type": 0,
        "location": {
            "lat": 23.765419,
            "lng": 98.833302
        },
        "ad_info": {
            "adcode": 530924,
            "province": "云南省",
            "city": "临沧市",
            "district": "镇康县"
        }
    },
    {
        "id": "8579278687811375362",
        "title": "公共厕所",
        "address": "云南省临沧市临翔区南屏南路与红窝巷交叉口西南方向126米左右",
        "tel": "",
        "category": "基础设施:公共设施:公共厕所",
        "type": 0,
        "location": {
            "lat": 23.874255,
            "lng": 100.077188
        },
        "ad_info": {
            "adcode": 530902,
            "province": "云南省",
            "city": "临沧市",
            "district": "临翔区"
        }
    },
    {
        "id": "11556799973972944902",
        "title": "公共厕所",
        "address": "云南省临沧市临翔区南天路1379号",
        "tel": "",
        "category": "基础设施:公共设施:公共厕所",
        "type": 0,
        "location": {
            "lat": 23.87149,
            "lng": 100.09502
        },
        "ad_info": {
            "adcode": 530902,
            "province": "云南省",
            "city": "临沧市",
            "district": "临翔区"
        }
    },
    {
        "id": "10184834574083823501",
        "title": "公共厕所",
        "address": "云南省临沧市临翔区腾龙万花谷西北侧180米",
        "tel": "",
        "category": "基础设施:公共设施:公共厕所",
        "type": 0,
        "location": {
            "lat": 23.708961,
            "lng": 100.032466
        },
        "ad_info": {
            "adcode": 530902,
            "province": "云南省",
            "city": "临沧市",
            "district": "临翔区"
        }
    },
    {
        "id": "5221734822852394988",
        "title": "公共厕所",
        "address": "云南省临沧市临翔区园林北巷262号",
        "tel": "",
        "category": "基础设施:公共设施:公共厕所",
        "type": 0,
        "location": {
            "lat": 23.870244,
            "lng": 100.087427
        },
        "ad_info": {
            "adcode": 530902,
            "province": "云南省",
            "city": "临沧市",
            "district": "临翔区"
        }
    },
    {
        "id": "3315597386119136645",
        "title": "公共厕所",
        "address": "云南省临沧市云县分茶路与祥临公路交叉口西南方向121米左右",
        "tel": "",
        "category": "基础设施:公共设施:公共厕所",
        "type": 0,
        "location": {
            "lat": 24.31889,
            "lng": 100.092563
        },
        "ad_info": {
            "adcode": 530922,
            "province": "云南省",
            "city": "临沧市",
            "district": "云县"
        }
    },
    {
        "id": "3661659964941347088",
        "title": "公共厕所",
        "address": "云南省临沧市云县X274与大官路交叉口西北方向541米左右",
        "tel": "",
        "category": "基础设施:公共设施:公共厕所",
        "type": 0,
        "location": {
            "lat": 24.134277,
            "lng": 100.258628
        },
        "ad_info": {
            "adcode": 530922,
            "province": "云南省",
            "city": "临沧市",
            "district": "云县"
        }
    },
    {
        "id": "15390475545145857685",
        "title": "公共厕所",
        "address": "云南省临沧市凤庆县G357与习勐段交叉口正北方向257米左右",
        "tel": "",
        "category": "基础设施:公共设施:公共厕所",
        "type": 0,
        "location": {
            "lat": 24.61651,
            "lng": 99.730927
        },
        "ad_info": {
            "adcode": 530921,
            "province": "云南省",
            "city": "临沧市",
            "district": "凤庆县"
        }
    },
    {
        "id": "5237876470042015761",
        "title": "公共厕所",
        "address": "云南省临沧市临翔区公园路教育小区",
        "tel": "",
        "category": "基础设施:公共设施:公共厕所",
        "type": 0,
        "location": {
            "lat": 23.8815,
            "lng": 100.080322
        },
        "ad_info": {
            "adcode": 530902,
            "province": "云南省",
            "city": "临沧市",
            "district": "临翔区"
        }
    },
    {
        "id": "8108542373607704330",
        "title": "公共厕所",
        "address": "云南省临沧市临翔区田心路与西河北路交叉口西南方向240米左右",
        "tel": "",
        "category": "基础设施:公共设施:公共厕所",
        "type": 0,
        "location": {
            "lat": 23.908454,
            "lng": 100.095541
        },
        "ad_info": {
            "adcode": 530902,
            "province": "云南省",
            "city": "临沧市",
            "district": "临翔区"
        }
    },
    {
        "id": "2846447166316190107",
        "title": "公共厕所",
        "address": "云南省临沧市镇康县羊勐线与轩丙线交叉口西南方向228米左右",
        "tel": "",
        "category": "基础设施:公共设施:公共厕所",
        "type": 0,
        "location": {
            "lat": 23.860652,
            "lng": 98.982157
        },
        "ad_info": {
            "adcode": 530924,
            "province": "云南省",
            "city": "临沧市",
            "district": "镇康县"
        }
    },
    {
        "id": "18256130758064284977",
        "title": "公共厕所",
        "address": "云南省临沧市云县云茂线与祥临公路交叉口东北方向1897米左右",
        "tel": "",
        "category": "基础设施:公共设施:公共厕所",
        "type": 0,
        "location": {
            "lat": 24.535764,
            "lng": 100.192617
        },
        "ad_info": {
            "adcode": 530922,
            "province": "云南省",
            "city": "临沧市",
            "district": "云县"
        }
    },
    {
        "id": "13642126221100542243",
        "title": "公共厕所",
        "address": "云南省临沧市临翔区大文段与祥临公路交叉口正西方向37米左右",
        "tel": "",
        "category": "基础设施:公共设施:公共厕所",
        "type": 0,
        "location": {
            "lat": 23.927908,
            "lng": 100.103694
        },
        "ad_info": {
            "adcode": 530902,
            "province": "云南省",
            "city": "临沧市",
            "district": "临翔区"
        }
    },
    {
        "id": "14261082626025304768",
        "title": "公共厕所",
        "address": "云南省临沧市临翔区214国道中国石化大转山加油站",
        "tel": "",
        "category": "基础设施:公共设施:公共厕所",
        "type": 0,
        "location": {
            "lat": 23.844962,
            "lng": 100.087344
        },
        "ad_info": {
            "adcode": 530902,
            "province": "云南省",
            "city": "临沧市",
            "district": "临翔区"
        }
    },
    {
        "id": "13095895416260994175",
        "title": "公共厕所",
        "address": "云南省临沧市凤庆县Y067与福广路交叉口正南方向18米左右",
        "tel": "",
        "category": "基础设施:公共设施:公共厕所",
        "type": 0,
        "location": {
            "lat": 24.590275,
            "lng": 99.91581
        },
        "ad_info": {
            "adcode": 530921,
            "province": "云南省",
            "city": "临沧市",
            "district": "凤庆县"
        }
    },
    {
        "id": "8175088833638399722",
        "title": "公共厕所",
        "address": "云南省临沧市镇康县凤凰路与羊勐线交叉口西南340米",
        "tel": "",
        "category": "基础设施:公共设施:公共厕所",
        "type": 0,
        "location": {
            "lat": 23.887377,
            "lng": 99.033513
        },
        "ad_info": {
            "adcode": 530924,
            "province": "云南省",
            "city": "临沧市",
            "district": "镇康县"
        }
    },
    {
        "id": "7388827291650904717",
        "title": "公共厕所",
        "address": "云南省临沧市临翔区祥临公路与G5615天猴高速入口交叉口东北40米",
        "tel": "",
        "category": "基础设施:公共设施:公共厕所",
        "type": 0,
        "location": {
            "lat": 24.082806,
            "lng": 100.065858
        },
        "ad_info": {
            "adcode": 530902,
            "province": "云南省",
            "city": "临沧市",
            "district": "临翔区"
        }
    },
    {
        "id": "11957348978491561461",
        "title": "公共厕所",
        "address": "云南省临沧市双江拉祜族佤族布朗族傣族自治县G214与大田河1号桥交叉口东北方向594米左右",
        "tel": "",
        "category": "基础设施:公共设施:公共厕所",
        "type": 0,
        "location": {
            "lat": 23.631774,
            "lng": 100.018077
        },
        "ad_info": {
            "adcode": 530925,
            "province": "云南省",
            "city": "临沧市",
            "district": "双江拉祜族佤族布朗族傣族自治县"
        }
    },
    {
        "id": "1820261417657079309",
        "title": "公共厕所",
        "address": "云南省临沧市云县X274与梨大线交叉口正南方向360米左右",
        "tel": "",
        "category": "基础设施:公共设施:公共厕所",
        "type": 0,
        "location": {
            "lat": 24.103562,
            "lng": 100.274838
        },
        "ad_info": {
            "adcode": 530922,
            "province": "云南省",
            "city": "临沧市",
            "district": "云县"
        }
    },
    {
        "id": "1819716508223904063",
        "title": "公共厕所",
        "address": "云南省临沧市云县祥临公路东50米",
        "tel": "",
        "category": "基础设施:公共设施:公共厕所",
        "type": 0,
        "location": {
            "lat": 24.742828,
            "lng": 100.319649
        },
        "ad_info": {
            "adcode": 530922,
            "province": "云南省",
            "city": "临沧市",
            "district": "云县"
        }
    },
    {
        "id": "5813054186289066769",
        "title": "公共厕所",
        "address": "云南省临沧市云县田嘎线与祥临公路交叉口东南方向39米左右",
        "tel": "",
        "category": "基础设施:公共设施:公共厕所",
        "type": 0,
        "location": {
            "lat": 24.727206,
            "lng": 100.352178
        },
        "ad_info": {
            "adcode": 530922,
            "province": "云南省",
            "city": "临沧市",
            "district": "云县"
        }
    },
    {
        "id": "18379447950726514122",
        "title": "公共卫生间",
        "address": "云南省临沧市临翔区灵山路1号",
        "tel": "",
        "category": "基础设施:公共设施:公共厕所",
        "type": 0,
        "location": {
            "lat": 23.874608,
            "lng": 100.106914
        },
        "ad_info": {
            "adcode": 530902,
            "province": "云南省",
            "city": "临沧市",
            "district": "临翔区"
        }
    },
    {
        "id": "17484070080727848278",
        "title": "公共厕所",
        "address": "云南省临沧市临翔区沧江东路与沧江北路交叉口正北方向35米左右",
        "tel": "",
        "category": "基础设施:公共设施:公共厕所",
        "type": 0,
        "location": {
            "lat": 23.887678,
            "lng": 100.090608
        },
        "ad_info": {
            "adcode": 530902,
            "province": "云南省",
            "city": "临沧市",
            "district": "临翔区"
        }
    },
    {
        "id": "7979508764029920981",
        "title": "公共厕所",
        "address": "云南省临沧市临翔区沧江北路与沧江西路交叉口正南方向81米左右",
        "tel": "",
        "category": "基础设施:公共设施:公共厕所",
        "type": 0,
        "location": {
            "lat": 23.886973,
            "lng": 100.088502
        },
        "ad_info": {
            "adcode": 530902,
            "province": "云南省",
            "city": "临沧市",
            "district": "临翔区"
        }
    },
    {
        "id": "10722594473760299562",
        "title": "公共厕所",
        "address": "云南省临沧市临翔区东阁坝巷与旗山路交叉口东南方向35米左右",
        "tel": "",
        "category": "基础设施:公共设施:公共厕所",
        "type": 0,
        "location": {
            "lat": 23.889744,
            "lng": 100.087101
        },
        "ad_info": {
            "adcode": 530902,
            "province": "云南省",
            "city": "临沧市",
            "district": "临翔区"
        }
    },
    {
        "id": "17018045995315368272",
        "title": "公共厕所",
        "address": "云南省临沧市双江拉祜族佤族布朗族傣族自治县G214与红山路交叉口正东方向1664米左右",
        "tel": "",
        "category": "基础设施:公共设施:公共厕所",
        "type": 0,
        "location": {
            "lat": 23.455358,
            "lng": 99.810303
        },
        "ad_info": {
            "adcode": 530925,
            "province": "云南省",
            "city": "临沧市",
            "district": "双江拉祜族佤族布朗族傣族自治县"
        }
    },
    {
        "id": "10625792478452650686",
        "title": "公共厕所",
        "address": "云南省临沧市凤庆县G357与保牛山大桥交叉口东南方向520米左右",
        "tel": "",
        "category": "基础设施:公共设施:公共厕所",
        "type": 0,
        "location": {
            "lat": 24.62395,
            "lng": 99.8509
        },
        "ad_info": {
            "adcode": 530921,
            "province": "云南省",
            "city": "临沧市",
            "district": "凤庆县"
        }
    },
    {
        "id": "1411731748161252167",
        "title": "公共厕所",
        "address": "云南省临沧市临翔区农砖段与西河滨路南路交叉口西40米",
        "tel": "",
        "category": "基础设施:公共设施:公共厕所",
        "type": 0,
        "location": {
            "lat": 23.899981,
            "lng": 100.090686
        },
        "ad_info": {
            "adcode": 530902,
            "province": "云南省",
            "city": "临沧市",
            "district": "临翔区"
        }
    },
    {
        "id": "10637416148821666881",
        "title": "公共厕所",
        "address": "云南省临沧市临翔区南屏西路与梅阁巷交叉口正北方向37米左右",
        "tel": "",
        "category": "基础设施:公共设施:公共厕所",
        "type": 0,
        "location": {
            "lat": 23.877201,
            "lng": 100.08208
        },
        "ad_info": {
            "adcode": 530902,
            "province": "云南省",
            "city": "临沧市",
            "district": "临翔区"
        }
    },
    {
        "id": "456592372996399149",
        "title": "公共厕所",
        "address": "云南省临沧市临翔区圈掌街1号",
        "tel": "",
        "category": "基础设施:公共设施:公共厕所",
        "type": 0,
        "location": {
            "lat": 23.874051,
            "lng": 100.09871
        },
        "ad_info": {
            "adcode": 530902,
            "province": "云南省",
            "city": "临沧市",
            "district": "临翔区"
        }
    },
    {
        "id": "14689200584080072783",
        "title": "公司厕所",
        "address": "云南省临沧市凤庆县G357与凤平路交叉口正南方向276米左右",
        "tel": "",
        "category": "基础设施:公共设施:公共厕所",
        "type": 0,
        "location": {
            "lat": 24.571535,
            "lng": 99.943292
        },
        "ad_info": {
            "adcode": 530921,
            "province": "云南省",
            "city": "临沧市",
            "district": "凤庆县"
        }
    },
    {
        "id": "13710505070971691270",
        "title": "公共厕所",
        "address": "云南省临沧市临翔区人民路与西大街交叉口西南方向58米左右",
        "tel": "",
        "category": "基础设施:公共设施:公共厕所",
        "type": 0,
        "location": {
            "lat": 23.88068,
            "lng": 100.08706
        },
        "ad_info": {
            "adcode": 530902,
            "province": "云南省",
            "city": "临沧市",
            "district": "临翔区"
        }
    },
    {
        "id": "4913574820622163084",
        "title": "办公室旁公共厕所",
        "address": "云南省临沧市临翔区沧江路玉龙湖停车场",
        "tel": "",
        "category": "基础设施:公共设施:公共厕所",
        "type": 0,
        "location": {
            "lat": 23.893639,
            "lng": 100.0923
        },
        "ad_info": {
            "adcode": 530902,
            "province": "云南省",
            "city": "临沧市",
            "district": "临翔区"
        }
    },
    {
        "id": "3774492237834073593",
        "title": "公共厕所",
        "address": "云南省临沧市凤庆县会堂西侧170米",
        "tel": "",
        "category": "基础设施:公共设施:公共厕所",
        "type": 0,
        "location": {
            "lat": 24.582868,
            "lng": 99.929132
        },
        "ad_info": {
            "adcode": 530921,
            "province": "云南省",
            "city": "临沧市",
            "district": "凤庆县"
        }
    },
    {
        "id": "9470988886048889288",
        "title": "茶山坡观景台公共厕所",
        "address": "云南省临沧市临翔区茶山坡观景台旁边",
        "tel": "",
        "category": "基础设施:公共设施:公共厕所",
        "type": 0,
        "location": {
            "lat": 23.89859,
            "lng": 99.90625
        },
        "ad_info": {
            "adcode": 530902,
            "province": "云南省",
            "city": "临沧市",
            "district": "临翔区"
        }
    },
    {
        "id": "12575581749955206330",
        "title": "公共厕所",
        "address": "云南省临沧市凤庆县书院路与滇红南路交叉口东北方向41米左右",
        "tel": "",
        "category": "基础设施:公共设施:公共厕所",
        "type": 0,
        "location": {
            "lat": 24.589157,
            "lng": 99.921651
        },
        "ad_info": {
            "adcode": 530921,
            "province": "云南省",
            "city": "临沧市",
            "district": "凤庆县"
        }
    },
    {
        "id": "2187172054211119619",
        "title": "西门公园公共厕所",
        "address": "云南省临沧市临翔区公园路3号",
        "tel": "",
        "category": "基础设施:公共设施:公共厕所",
        "type": 0,
        "location": {
            "lat": 23.881493,
            "lng": 100.082083
        },
        "ad_info": {
            "adcode": 530902,
            "province": "云南省",
            "city": "临沧市",
            "district": "临翔区"
        }
    },
    {
        "id": "16363334712588537703",
        "title": "无障碍公共厕所",
        "address": "云南省临沧市临翔区圈掌街与农贸巷交叉口西200米",
        "tel": "",
        "category": "基础设施:公共设施:公共厕所",
        "type": 0,
        "location": {
            "lat": 23.875661,
            "lng": 100.091091
        },
        "ad_info": {
            "adcode": 530902,
            "province": "云南省",
            "city": "临沧市",
            "district": "临翔区"
        }
    },
    {
        "id": "8132349195065689201",
        "title": "草山公共厕所2",
        "address": "云南省临沧市临翔区多依新寨路与林勐线交叉口正南方向1671米左右",
        "tel": "",
        "category": "基础设施:公共设施:公共厕所",
        "type": 0,
        "location": {
            "lat": 23.91251,
            "lng": 99.89545
        },
        "ad_info": {
            "adcode": 530902,
            "province": "云南省",
            "city": "临沧市",
            "district": "临翔区"
        }
    },
    {
        "id": "6402842915769740683",
        "title": "镇康临都国际大酒店-洗手间",
        "address": "云南省临沧市镇康县公主路临都国际大酒店",
        "tel": "",
        "category": "基础设施:公共设施:公共厕所",
        "type": 0,
        "location": {
            "lat": 23.75516,
            "lng": 98.822561
        },
        "ad_info": {
            "adcode": 530924,
            "province": "云南省",
            "city": "临沧市",
            "district": "镇康县"
        }
    },
    {
        "id": "8339897818137635546",
        "title": "无障碍公共厕所",
        "address": "云南省临沧市临翔区世纪路与汀河西路交叉口东南方向24米左右",
        "tel": "",
        "category": "基础设施:公共设施:公共厕所",
        "type": 0,
        "location": {
            "lat": 23.884689,
            "lng": 100.09907
        },
        "ad_info": {
            "adcode": 530902,
            "province": "云南省",
            "city": "临沧市",
            "district": "临翔区"
        }
    },
    {
        "id": "1487063088735850541",
        "title": "南华村平寨公共厕所",
        "address": "云南省临沧市临翔区林勐线",
        "tel": "",
        "category": "基础设施:公共设施:公共厕所",
        "type": 0,
        "location": {
            "lat": 23.837699,
            "lng": 99.906085
        },
        "ad_info": {
            "adcode": 530902,
            "province": "云南省",
            "city": "临沧市",
            "district": "临翔区"
        }
    },
    {
        "id": "5003853760377696596",
        "title": "公共厕所",
        "address": "云南省临沧市双江拉祜族佤族布朗族傣族自治县允奉村景亢那京景区内",
        "tel": "",
        "category": "基础设施:公共设施:公共厕所",
        "type": 0,
        "location": {
            "lat": 23.450323,
            "lng": 99.799454
        },
        "ad_info": {
            "adcode": 530925,
            "province": "云南省",
            "city": "临沧市",
            "district": "双江拉祜族佤族布朗族傣族自治县"
        }
    },
    {
        "id": "1607509837899878495",
        "title": "滇缅铁路遗址园旅游厕所",
        "address": "云南省临沧市云县分茶路与祥临公路交叉口滇缅铁路遗址园景区内",
        "tel": "",
        "category": "基础设施:公共设施:公共厕所",
        "type": 0,
        "location": {
            "lat": 24.319777,
            "lng": 100.093488
        },
        "ad_info": {
            "adcode": 530922,
            "province": "云南省",
            "city": "临沧市",
            "district": "云县"
        }
    },
    {
        "id": "13657817958557506738",
        "title": "草山公共厕所",
        "address": "云南省临沧市临翔区多依新寨路与林勐线交叉口正西方向61米左右",
        "tel": "",
        "category": "基础设施:公共设施:公共厕所",
        "type": 0,
        "location": {
            "lat": 23.926526,
            "lng": 99.900408
        },
        "ad_info": {
            "adcode": 530902,
            "province": "云南省",
            "city": "临沧市",
            "district": "临翔区"
        }
    },
    {
        "id": "12804872939409966500",
        "title": "公共厕所",
        "address": "云南省临沧市双江拉祜族佤族布朗族傣族自治县双耿线与邦那公路交叉口正南方向654米左右",
        "tel": "",
        "category": "基础设施:公共设施:公共厕所",
        "type": 0,
        "location": {
            "lat": 23.483735,
            "lng": 99.782558
        },
        "ad_info": {
            "adcode": 530925,
            "province": "云南省",
            "city": "临沧市",
            "district": "双江拉祜族佤族布朗族傣族自治县"
        }
    },
    {
        "id": "10149992736603245993",
        "title": "公共厕所",
        "address": "云南省临沧市镇康县国门路与胜达路交叉口西北方向34米左右",
        "tel": "",
        "category": "基础设施:公共设施:公共厕所",
        "type": 0,
        "location": {
            "lat": 23.75928,
            "lng": 98.821107
        },
        "ad_info": {
            "adcode": 530924,
            "province": "云南省",
            "city": "临沧市",
            "district": "镇康县"
        }
    },
    {
        "id": "3309418680975424190",
        "title": "公共厕所",
        "address": "云南省临沧市永德县城客运站",
        "tel": "",
        "category": "基础设施:公共设施:公共厕所",
        "type": 0,
        "location": {
            "lat": 24.015107,
            "lng": 99.258146
        },
        "ad_info": {
            "adcode": 530923,
            "province": "云南省",
            "city": "临沧市",
            "district": "永德县"
        }
    },
    {
        "id": "12125230669793616040",
        "title": "男洗手间",
        "address": "云南省临沧市临翔区临沧师范高等专科学校西北(公园路)",
        "tel": "",
        "category": "基础设施:公共设施:公共厕所",
        "type": 0,
        "location": {
            "lat": 23.886691,
            "lng": 100.076143
        },
        "ad_info": {
            "adcode": 530902,
            "province": "云南省",
            "city": "临沧市",
            "district": "临翔区"
        }
    },
    {
        "id": "17945619406549049942",
        "title": "公共厕所",
        "address": "云南省临沧市镇康县尖坪公路与边关大道交叉口西北方向1110米左右",
        "tel": "",
        "category": "基础设施:公共设施:公共厕所",
        "type": 0,
        "location": {
            "lat": 23.7342,
            "lng": 98.823512
        },
        "ad_info": {
            "adcode": 530924,
            "province": "云南省",
            "city": "临沧市",
            "district": "镇康县"
        }
    },
    {
        "id": "16965196310797156991",
        "title": "公共厕所(YN-LC-0298)",
        "address": "云南省临沧市双江拉祜族佤族布朗族傣族自治县双耿线与邦那公路交叉口东南方向1076米左右",
        "tel": "",
        "category": "基础设施:公共设施:公共厕所",
        "type": 0,
        "location": {
            "lat": 23.480436,
            "lng": 99.784763
        },
        "ad_info": {
            "adcode": 530925,
            "province": "云南省",
            "city": "临沧市",
            "district": "双江拉祜族佤族布朗族傣族自治县"
        }
    },
    {
        "id": "10138426815968618184",
        "title": "景亢那京3号公共厕所",
        "address": "云南省临沧市双江拉祜族佤族布朗族傣族自治县双耿线与邦那公路交叉口正南方向702米左右",
        "tel": "",
        "category": "基础设施:公共设施:公共厕所",
        "type": 0,
        "location": {
            "lat": 23.483013,
            "lng": 99.780714
        },
        "ad_info": {
            "adcode": 530925,
            "province": "云南省",
            "city": "临沧市",
            "district": "双江拉祜族佤族布朗族傣族自治县"
        }
    },
    {
        "id": "6195641056894042099",
        "title": "公共厕所",
        "address": "云南省临沧市耿马傣族佤族自治县临清线",
        "tel": "",
        "category": "基础设施:公共设施:公共厕所",
        "type": 0,
        "location": {
            "lat": 23.532168,
            "lng": 99.040627
        },
        "ad_info": {
            "adcode": 530926,
            "province": "云南省",
            "city": "临沧市",
            "district": "耿马傣族佤族自治县"
        }
    },
    {
        "id": "633097196125850473",
        "title": "公共厕所",
        "address": "云南省临沧市耿马傣族佤族自治县鑫源路与青年路交叉口正西方向65米左右",
        "tel": "",
        "category": "基础设施:公共设施:公共厕所",
        "type": 0,
        "location": {
            "lat": 23.526726,
            "lng": 99.396523
        },
        "ad_info": {
            "adcode": 530926,
            "province": "云南省",
            "city": "临沧市",
            "district": "耿马傣族佤族自治县"
        }
    },
    {
        "id": "13054205324683619384",
        "title": "公共厕所",
        "address": "云南省临沧市云县康宁路与滨河西路交叉口正南方向27米左右",
        "tel": "",
        "category": "基础设施:公共设施:公共厕所",
        "type": 0,
        "location": {
            "lat": 24.436506,
            "lng": 100.124161
        },
        "ad_info": {
            "adcode": 530922,
            "province": "云南省",
            "city": "临沧市",
            "district": "云县"
        }
    },
    {
        "id": "2378226181483437841",
        "title": "公共厕所",
        "address": "云南省临沧市沧源佤族自治县希望路与广场路交叉口东北方向140米左右",
        "tel": "",
        "category": "基础设施:公共设施:公共厕所",
        "type": 0,
        "location": {
            "lat": 23.158215,
            "lng": 99.258837
        },
        "ad_info": {
            "adcode": 530927,
            "province": "云南省",
            "city": "临沧市",
            "district": "沧源佤族自治县"
        }
    },
    {
        "id": "4707495185474220480",
        "title": "洗手台",
        "address": "云南省临沧市凤庆县",
        "tel": "",
        "category": "基础设施:公共设施:公共厕所",
        "type": 0,
        "location": {
            "lat": 24.907679,
            "lng": 99.903041
        },
        "ad_info": {
            "adcode": 530921,
            "province": "云南省",
            "city": "临沧市",
            "district": "凤庆县"
        }
    },
    {
        "id": "2147832696193992949",
        "title": "马鞍山自然村公共厕所",
        "address": "云南省临沧市镇康县",
        "tel": "",
        "category": "基础设施:公共设施:公共厕所",
        "type": 0,
        "location": {
            "lat": 24.035792,
            "lng": 99.045432
        },
        "ad_info": {
            "adcode": 530924,
            "province": "云南省",
            "city": "临沧市",
            "district": "镇康县"
        }
    },
    {
        "id": "1148587078658409773",
        "title": "公共厕所",
        "address": "云南省临沧市耿马傣族佤族自治县复兴路与芒畔路交叉口正西方向1701米左右",
        "tel": "",
        "category": "基础设施:公共设施:公共厕所",
        "type": 0,
        "location": {
            "lat": 23.561043,
            "lng": 99.393951
        },
        "ad_info": {
            "adcode": 530926,
            "province": "云南省",
            "city": "临沧市",
            "district": "耿马傣族佤族自治县"
        }
    },
    {
        "id": "16558868094554479914",
        "title": "公共厕所",
        "address": "云南省临沧市沧源佤族自治县佤山机场停车场旁",
        "tel": "",
        "category": "基础设施:公共设施:公共厕所",
        "type": 0,
        "location": {
            "lat": 23.264046,
            "lng": 99.368768
        },
        "ad_info": {
            "adcode": 530927,
            "province": "云南省",
            "city": "临沧市",
            "district": "沧源佤族自治县"
        }
    },
    {
        "id": "3894023733368253869",
        "title": "公共厕所",
        "address": "云南省临沧市云县云州路与外滩大道交叉口正北方向181米左右",
        "tel": "",
        "category": "基础设施:公共设施:公共厕所",
        "type": 0,
        "location": {
            "lat": 24.446798,
            "lng": 100.137847
        },
        "ad_info": {
            "adcode": 530922,
            "province": "云南省",
            "city": "临沧市",
            "district": "云县"
        }
    },
    {
        "id": "6105342732880629062",
        "title": "公共厕所",
        "address": "云南省临沧市临翔区西河北路127号",
        "tel": "",
        "category": "基础设施:公共设施:公共厕所",
        "type": 0,
        "location": {
            "lat": 23.895244,
            "lng": 100.085297
        },
        "ad_info": {
            "adcode": 530902,
            "province": "云南省",
            "city": "临沧市",
            "district": "临翔区"
        }
    },
    {
        "id": "17549042936820167434",
        "title": "滇红服务区公共厕所",
        "address": "云南省临沧市凤庆县Y073与凤梧路交叉口东北方向1918米左右",
        "tel": "",
        "category": "基础设施:公共设施:公共厕所",
        "type": 0,
        "location": {
            "lat": 24.604478,
            "lng": 99.936305
        },
        "ad_info": {
            "adcode": 530921,
            "province": "云南省",
            "city": "临沧市",
            "district": "凤庆县"
        }
    },
    {
        "id": "12970874611426147146",
        "title": "洗手间",
        "address": "云南省临沧市双江拉祜族佤族布朗族傣族自治县小坝子路大浪坝",
        "tel": "",
        "category": "基础设施:公共设施:公共厕所",
        "type": 0,
        "location": {
            "lat": 23.453137,
            "lng": 100.008867
        },
        "ad_info": {
            "adcode": 530925,
            "province": "云南省",
            "city": "临沧市",
            "district": "双江拉祜族佤族布朗族傣族自治县"
        }
    },
    {
        "id": "6358194176747703839",
        "title": "公共厕所",
        "address": "云南省临沧市凤庆县大河杨老三河",
        "tel": "",
        "category": "基础设施:公共设施:公共厕所",
        "type": 0,
        "location": {
            "lat": 24.672142,
            "lng": 99.954897
        },
        "ad_info": {
            "adcode": 530921,
            "province": "云南省",
            "city": "临沧市",
            "district": "凤庆县"
        }
    },
    {
        "id": "6994312599673949650",
        "title": "公共厕所",
        "address": "云南省临沧市云县琴山路与职教路交叉口东南方向309米左右",
        "tel": "",
        "category": "基础设施:公共设施:公共厕所",
        "type": 0,
        "location": {
            "lat": 24.436875,
            "lng": 100.144698
        },
        "ad_info": {
            "adcode": 530922,
            "province": "云南省",
            "city": "临沧市",
            "district": "云县"
        }
    },
    {
        "id": "15623724936911246222",
        "title": "秀美茶园1号公厕",
        "address": "云南省临沧市双江拉祜族佤族布朗族傣族自治县G214与勐库大桥交叉口正东方向933米左右",
        "tel": "",
        "category": "基础设施:公共设施:公共厕所",
        "type": 0,
        "location": {
            "lat": 23.606638,
            "lng": 99.888998
        },
        "ad_info": {
            "adcode": 530925,
            "province": "云南省",
            "city": "临沧市",
            "district": "双江拉祜族佤族布朗族傣族自治县"
        }
    },
    {
        "id": "6780557825329312218",
        "title": "公共厕所",
        "address": "云南省临沧市耿马傣族佤族自治县大兴路与羊耿线交叉口正南方向661米左右",
        "tel": "",
        "category": "基础设施:公共设施:公共厕所",
        "type": 0,
        "location": {
            "lat": 23.794349,
            "lng": 99.628004
        },
        "ad_info": {
            "adcode": 530926,
            "province": "云南省",
            "city": "临沧市",
            "district": "耿马傣族佤族自治县"
        }
    },
    {
        "id": "6529024617953823811",
        "title": "马台服务区公共厕所",
        "address": "云南省临沧市临翔区中国石化云南交投马台服务区加油站北侧100米",
        "tel": "",
        "category": "基础设施:公共设施:公共厕所",
        "type": 0,
        "location": {
            "lat": 23.822859,
            "lng": 100.291079
        },
        "ad_info": {
            "adcode": 530902,
            "province": "云南省",
            "city": "临沧市",
            "district": "临翔区"
        }
    },
    {
        "id": "11082353013724478454",
        "title": "临沧服务区公共厕所",
        "address": "云南省临沧市临翔区G5615天猴高速与临沧服务区交叉口西北360米",
        "tel": "",
        "category": "基础设施:公共设施:公共厕所",
        "type": 0,
        "location": {
            "lat": 23.932967,
            "lng": 100.121439
        },
        "ad_info": {
            "adcode": 530902,
            "province": "云南省",
            "city": "临沧市",
            "district": "临翔区"
        }
    },
    {
        "id": "5946686845583365871",
        "title": "公共厕所",
        "address": "云南省临沧市云县桂圆路与滨河西路交叉口东南方向161米左右",
        "tel": "",
        "category": "基础设施:公共设施:公共厕所",
        "type": 0,
        "location": {
            "lat": 24.439731,
            "lng": 100.13
        },
        "ad_info": {
            "adcode": 530922,
            "province": "云南省",
            "city": "临沧市",
            "district": "云县"
        }
    },
    {
        "id": "4832559576025556544",
        "title": "公共厕所",
        "address": "云南省临沧市临翔区中平巷与南天路交叉口正北方向178米左右",
        "tel": "",
        "category": "基础设施:公共设施:公共厕所",
        "type": 0,
        "location": {
            "lat": 23.882916,
            "lng": 100.097815
        },
        "ad_info": {
            "adcode": 530902,
            "province": "云南省",
            "city": "临沧市",
            "district": "临翔区"
        }
    },
    {
        "id": "2055173277946796873",
        "title": "无障碍公共厕所",
        "address": "云南省临沧市永德县德兴路与永顺路交叉口正西方向90米左右",
        "tel": "",
        "category": "基础设施:公共设施:公共厕所",
        "type": 0,
        "location": {
            "lat": 24.023781,
            "lng": 99.262249
        },
        "ad_info": {
            "adcode": 530923,
            "province": "云南省",
            "city": "临沧市",
            "district": "永德县"
        }
    },
    {
        "id": "5672924885999910783",
        "title": "洗手台",
        "address": "云南省临沧市临翔区站南路与锦绣大道交叉口正北方向238米左右",
        "tel": "",
        "category": "基础设施:公共设施:公共厕所",
        "type": 0,
        "location": {
            "lat": 23.930809,
            "lng": 100.111798
        },
        "ad_info": {
            "adcode": 530902,
            "province": "云南省",
            "city": "临沧市",
            "district": "临翔区"
        }
    },
    {
        "id": "2195541070153466293",
        "title": "公共厕所",
        "address": "云南省临沧市双江拉祜族佤族布朗族傣族自治县勐黄线附近",
        "tel": "",
        "category": "基础设施:公共设施:公共厕所",
        "type": 0,
        "location": {
            "lat": 23.383626,
            "lng": 99.947817
        },
        "ad_info": {
            "adcode": 530925,
            "province": "云南省",
            "city": "临沧市",
            "district": "双江拉祜族佤族布朗族傣族自治县"
        }
    },
    {
        "id": "10230006756263263367",
        "title": "城市生态湿地公园3号公共厕所",
        "address": "云南省临沧市双江拉祜族佤族布朗族傣族自治县G214与千海大桥交叉口西北方向772米左右",
        "tel": "",
        "category": "基础设施:公共设施:公共厕所",
        "type": 0,
        "location": {
            "lat": 23.519406,
            "lng": 99.824704
        },
        "ad_info": {
            "adcode": 530925,
            "province": "云南省",
            "city": "临沧市",
            "district": "双江拉祜族佤族布朗族傣族自治县"
        }
    },
    {
        "id": "8834563033105316248",
        "title": "二道河游客服务中心公共厕所",
        "address": "云南省临沧市凤庆县凤山镇京竹林村二道河游客服务中心",
        "tel": "",
        "category": "基础设施:公共设施:公共厕所",
        "type": 0,
        "location": {
            "lat": 24.536181,
            "lng": 99.940777
        },
        "ad_info": {
            "adcode": 530921,
            "province": "云南省",
            "city": "临沧市",
            "district": "凤庆县"
        }
    },
    {
        "id": "9479266202691044777",
        "title": "公共厕所",
        "address": "云南省临沧市临翔区恒春大道与朝阳路交叉口正南方向65米左右",
        "tel": "",
        "category": "基础设施:公共设施:公共厕所",
        "type": 0,
        "location": {
            "lat": 23.867416,
            "lng": 100.105095
        },
        "ad_info": {
            "adcode": 530902,
            "province": "云南省",
            "city": "临沧市",
            "district": "临翔区"
        }
    },
    {
        "id": "2438926864193193663",
        "title": "马台服务区公共厕所",
        "address": "云南省临沧市临翔区马台服务区北30米",
        "tel": "",
        "category": "基础设施:公共设施:公共厕所",
        "type": 0,
        "location": {
            "lat": 23.821316,
            "lng": 100.292797
        },
        "ad_info": {
            "adcode": 530902,
            "province": "云南省",
            "city": "临沧市",
            "district": "临翔区"
        }
    },
    {
        "id": "12025955332314979640",
        "title": "滇红服务区公共厕所",
        "address": "云南省临沧市凤庆县Y073与凤梧路交叉口东北方向1653米左右",
        "tel": "",
        "category": "基础设施:公共设施:公共厕所",
        "type": 0,
        "location": {
            "lat": 24.605038,
            "lng": 99.932908
        },
        "ad_info": {
            "adcode": 530921,
            "province": "云南省",
            "city": "临沧市",
            "district": "凤庆县"
        }
    },
    {
        "id": "14649099861620558062",
        "title": "公共厕所",
        "address": "云南省临沧市云县云县民族中学东北侧200米",
        "tel": "",
        "category": "基础设施:公共设施:公共厕所",
        "type": 0,
        "location": {
            "lat": 24.443663,
            "lng": 100.140286
        },
        "ad_info": {
            "adcode": 530922,
            "province": "云南省",
            "city": "临沧市",
            "district": "云县"
        }
    },
    {
        "id": "9876594007652859833",
        "title": "大南宋公共厕所",
        "address": "云南省临沧市双江拉祜族佤族布朗族傣族自治县忙乐大南宋仙人山旅游区内",
        "tel": "",
        "category": "基础设施:公共设施:公共厕所",
        "type": 0,
        "location": {
            "lat": 23.384161,
            "lng": 99.808846
        },
        "ad_info": {
            "adcode": 530925,
            "province": "云南省",
            "city": "临沧市",
            "district": "双江拉祜族佤族布朗族傣族自治县"
        }
    },
    {
        "id": "9039277868084034329",
        "title": "公共厕所",
        "address": "云南省临沧市沧源佤族自治县下芒线",
        "tel": "",
        "category": "基础设施:公共设施:公共厕所",
        "type": 0,
        "location": {
            "lat": 23.180121,
            "lng": 98.944287
        },
        "ad_info": {
            "adcode": 530927,
            "province": "云南省",
            "city": "临沧市",
            "district": "沧源佤族自治县"
        }
    },
    {
        "id": "11348274712821181517",
        "title": "公共厕所",
        "address": "云南省临沧市凤庆县书院路与福广路交叉口正南方向415米左右",
        "tel": "",
        "category": "基础设施:公共设施:公共厕所",
        "type": 0,
        "location": {
            "lat": 24.584807,
            "lng": 99.919677
        },
        "ad_info": {
            "adcode": 530921,
            "province": "云南省",
            "city": "临沧市",
            "district": "凤庆县"
        }
    },
    {
        "id": "13188483417242842751",
        "title": "公共厕所",
        "address": "云南省临沧市云县云县交通驾校摩托车考点东北侧50米",
        "tel": "",
        "category": "基础设施:公共设施:公共厕所",
        "type": 0,
        "location": {
            "lat": 24.460266,
            "lng": 100.157232
        },
        "ad_info": {
            "adcode": 530922,
            "province": "云南省",
            "city": "临沧市",
            "district": "云县"
        }
    },
    {
        "id": "3661134367225786723",
        "title": "茶庄园公共厕所",
        "address": "云南省临沧市临翔区冰岛村公路与林勐线交叉口正北方向1204米左右",
        "tel": "",
        "category": "基础设施:公共设施:公共厕所",
        "type": 0,
        "location": {
            "lat": 23.79363,
            "lng": 99.91375
        },
        "ad_info": {
            "adcode": 530902,
            "province": "云南省",
            "city": "临沧市",
            "district": "临翔区"
        }
    },
    {
        "id": "2382991865163725082",
        "title": "公共厕所",
        "address": "云南省临沧市临翔区西环路加油站南侧70米",
        "tel": "",
        "category": "基础设施:公共设施:公共厕所",
        "type": 0,
        "location": {
            "lat": 23.91103,
            "lng": 100.086171
        },
        "ad_info": {
            "adcode": 530902,
            "province": "云南省",
            "city": "临沧市",
            "district": "临翔区"
        }
    },
    {
        "id": "5956263763256503347",
        "title": "南角村公共厕所",
        "address": "云南省临沧市双江拉祜族佤族布朗族傣族自治县双耿线与邦那公路交叉口正东方向1130米左右",
        "tel": "",
        "category": "基础设施:公共设施:公共厕所",
        "type": 0,
        "location": {
            "lat": 23.492031,
            "lng": 99.791269
        },
        "ad_info": {
            "adcode": 530925,
            "province": "云南省",
            "city": "临沧市",
            "district": "双江拉祜族佤族布朗族傣族自治县"
        }
    },
    {
        "id": "7452260647084224242",
        "title": "公共厕所",
        "address": "云南省临沧市临翔区南南线与祥临公路交叉口正北方向269米左右",
        "tel": "",
        "category": "基础设施:公共设施:公共厕所",
        "type": 0,
        "location": {
            "lat": 23.857421,
            "lng": 100.092644
        },
        "ad_info": {
            "adcode": 530902,
            "province": "云南省",
            "city": "临沧市",
            "district": "临翔区"
        }
    },
    {
        "id": "251019861656544776",
        "title": "公共厕所",
        "address": "云南省临沧市凤庆县S312与平村街交叉口西北方向451米左右",
        "tel": "",
        "category": "基础设施:公共设施:公共厕所",
        "type": 0,
        "location": {
            "lat": 24.574342,
            "lng": 99.936861
        },
        "ad_info": {
            "adcode": 530921,
            "province": "云南省",
            "city": "临沧市",
            "district": "凤庆县"
        }
    },
    {
        "id": "11936881477237564113",
        "title": "公共厕所",
        "address": "云南省临沧市凤庆县凤小线与凤梧路交叉口西北方向180米左右",
        "tel": "",
        "category": "基础设施:公共设施:公共厕所",
        "type": 0,
        "location": {
            "lat": 24.604551,
            "lng": 99.910356
        },
        "ad_info": {
            "adcode": 530921,
            "province": "云南省",
            "city": "临沧市",
            "district": "凤庆县"
        }
    },
    {
        "id": "16152456406497286076",
        "title": "公共厕所",
        "address": "云南省临沧市镇康县石化镇康勐捧加油站(231省道北)",
        "tel": "",
        "category": "基础设施:公共设施:公共厕所",
        "type": 0,
        "location": {
            "lat": 24.057199,
            "lng": 98.968483
        },
        "ad_info": {
            "adcode": 530924,
            "province": "云南省",
            "city": "临沧市",
            "district": "镇康县"
        }
    },
    {
        "id": "3749444977747467941",
        "title": "公共厕所",
        "address": "云南省临沧市耿马傣族佤族自治县撒马坝路与羊耿线交叉口西南方向97米左右",
        "tel": "",
        "category": "基础设施:公共设施:公共厕所",
        "type": 0,
        "location": {
            "lat": 23.755567,
            "lng": 99.603665
        },
        "ad_info": {
            "adcode": 530926,
            "province": "云南省",
            "city": "临沧市",
            "district": "耿马傣族佤族自治县"
        }
    },
    {
        "id": "15931654205547506086",
        "title": "澜沧江大桥旅游公共厕所",
        "address": "云南省临沧市云县田嘎线与祥临公路交叉口正北方向1345米左右",
        "tel": "",
        "category": "基础设施:公共设施:公共厕所",
        "type": 0,
        "location": {
            "lat": 24.738872,
            "lng": 100.356175
        },
        "ad_info": {
            "adcode": 530922,
            "province": "云南省",
            "city": "临沧市",
            "district": "云县"
        }
    },
    {
        "id": "814959293650518641",
        "title": "叠水景观公共厕所",
        "address": "云南省临沧市双江拉祜族佤族布朗族傣族自治县沙河乡平掌村委会邦佑南角旅游区内",
        "tel": "",
        "category": "基础设施:公共设施:公共厕所",
        "type": 0,
        "location": {
            "lat": 23.539654,
            "lng": 99.720748
        },
        "ad_info": {
            "adcode": 530925,
            "province": "云南省",
            "city": "临沧市",
            "district": "双江拉祜族佤族布朗族傣族自治县"
        }
    },
    {
        "id": "1692543384433337900",
        "title": "沧源葫芦小镇公共厕所",
        "address": "云南省临沧市沧源佤族自治县司岗里大道与源湖路交叉口正西方向771米左右",
        "tel": "",
        "category": "基础设施:公共设施:公共厕所",
        "type": 0,
        "location": {
            "lat": 23.13564,
            "lng": 99.22779
        },
        "ad_info": {
            "adcode": 530927,
            "province": "云南省",
            "city": "临沧市",
            "district": "沧源佤族自治县"
        }
    },
    {
        "id": "8925848447610830519",
        "title": "公共厕所",
        "address": "云南省临沧市临翔区博尚镇七彩炼玉庄园2号",
        "tel": "",
        "category": "基础设施:公共设施:公共厕所",
        "type": 0,
        "location": {
            "lat": 23.753251,
            "lng": 100.038108
        },
        "ad_info": {
            "adcode": 530902,
            "province": "云南省",
            "city": "临沧市",
            "district": "临翔区"
        }
    },
    {
        "id": "15313001732864408371",
        "title": "桂花树森林公园厕所",
        "address": "云南省临沧市凤庆县凤习线与桂寺公路交叉口正北方向355米左右",
        "tel": "",
        "category": "基础设施:公共设施:公共厕所",
        "type": 0,
        "location": {
            "lat": 24.644614,
            "lng": 99.844937
        },
        "ad_info": {
            "adcode": 530921,
            "province": "云南省",
            "city": "临沧市",
            "district": "凤庆县"
        }
    },
    {
        "id": "16660705695469034519",
        "title": "公共厕所",
        "address": "云南省临沧市云县涌宝镇政府门口",
        "tel": "",
        "category": "基础设施:公共设施:公共厕所",
        "type": 0,
        "location": {
            "lat": 24.272445,
            "lng": 100.313381
        },
        "ad_info": {
            "adcode": 530922,
            "province": "云南省",
            "city": "临沧市",
            "district": "云县"
        }
    },
    {
        "id": "14179930769310083805",
        "title": "景亢那京3号公厕",
        "address": "云南省临沧市双江拉祜族佤族布朗族傣族自治县双耿线与邦那公路交叉口正南方向709米左右",
        "tel": "",
        "category": "基础设施:公共设施:公共厕所",
        "type": 0,
        "location": {
            "lat": 23.482966,
            "lng": 99.781054
        },
        "ad_info": {
            "adcode": 530925,
            "province": "云南省",
            "city": "临沧市",
            "district": "双江拉祜族佤族布朗族傣族自治县"
        }
    },
    {
        "id": "7739284730053432524",
        "title": "公共厕所",
        "address": "云南省临沧市双江拉祜族佤族布朗族傣族自治县勐黄线西50米",
        "tel": "",
        "category": "基础设施:公共设施:公共厕所",
        "type": 0,
        "location": {
            "lat": 23.254807,
            "lng": 99.849208
        },
        "ad_info": {
            "adcode": 530925,
            "province": "云南省",
            "city": "临沧市",
            "district": "双江拉祜族佤族布朗族傣族自治县"
        }
    },
    {
        "id": "9301413838844072920",
        "title": "公共厕所",
        "address": "云南省临沧市双江拉祜族佤族布朗族傣族自治县勐忙线与小坝子公路交叉口西南方向1042米左右",
        "tel": "",
        "category": "基础设施:公共设施:公共厕所",
        "type": 0,
        "location": {
            "lat": 23.427912,
            "lng": 99.991256
        },
        "ad_info": {
            "adcode": 530925,
            "province": "云南省",
            "city": "临沧市",
            "district": "双江拉祜族佤族布朗族傣族自治县"
        }
    },
    {
        "id": "16927577534315522554",
        "title": "公共厕所",
        "address": "云南省临沧市凤庆县二中路与滇红北路交叉口正东方向191米左右",
        "tel": "",
        "category": "基础设施:公共设施:公共厕所",
        "type": 0,
        "location": {
            "lat": 24.599905,
            "lng": 99.914794
        },
        "ad_info": {
            "adcode": 530921,
            "province": "云南省",
            "city": "临沧市",
            "district": "凤庆县"
        }
    },
    {
        "id": "17566080383113256809",
        "title": "公共厕所",
        "address": "云南省临沧市双江拉祜族佤族布朗族傣族自治县勐黄线清平村",
        "tel": "",
        "category": "基础设施:公共设施:公共厕所",
        "type": 0,
        "location": {
            "lat": 23.381578,
            "lng": 99.945648
        },
        "ad_info": {
            "adcode": 530925,
            "province": "云南省",
            "city": "临沧市",
            "district": "双江拉祜族佤族布朗族傣族自治县"
        }
    },
    {
        "id": "5224700432462002215",
        "title": "公共厕所",
        "address": "云南省临沧市临翔区光明巷与南天路交叉口正南方向176米左右",
        "tel": "",
        "category": "基础设施:公共设施:公共厕所",
        "type": 0,
        "location": {
            "lat": 23.871305,
            "lng": 100.095351
        },
        "ad_info": {
            "adcode": 530902,
            "province": "云南省",
            "city": "临沧市",
            "district": "临翔区"
        }
    },
    {
        "id": "849886875562421250",
        "title": "公共厕所",
        "address": "云南省临沧市双江拉祜族佤族布朗族傣族自治县勐忙线与小坝子公路交叉口西南方向1840米左右",
        "tel": "",
        "category": "基础设施:公共设施:公共厕所",
        "type": 0,
        "location": {
            "lat": 23.418459,
            "lng": 99.991293
        },
        "ad_info": {
            "adcode": 530925,
            "province": "云南省",
            "city": "临沧市",
            "district": "双江拉祜族佤族布朗族傣族自治县"
        }
    },
    {
        "id": "12594490523864853996",
        "title": "冰岛旅游区3号公共厕所",
        "address": "云南省临沧市双江拉祜族佤族布朗族傣族自治县懂过村公路与林勐线交叉口西南方向1102米左右",
        "tel": "",
        "category": "基础设施:公共设施:公共厕所",
        "type": 0,
        "location": {
            "lat": 23.675012,
            "lng": 99.87081
        },
        "ad_info": {
            "adcode": 530925,
            "province": "云南省",
            "city": "临沧市",
            "district": "双江拉祜族佤族布朗族傣族自治县"
        }
    },
    {
        "id": "3871946725689510497",
        "title": "公共厕所",
        "address": "云南省临沧市临翔区晚翠路兴安农贸市场",
        "tel": "",
        "category": "基础设施:公共设施:公共厕所",
        "type": 0,
        "location": {
            "lat": 23.882455,
            "lng": 100.078598
        },
        "ad_info": {
            "adcode": 530902,
            "province": "云南省",
            "city": "临沧市",
            "district": "临翔区"
        }
    },
    {
        "id": "3380742573304231758",
        "title": "公共厕所",
        "address": "云南省临沧市云县G357与云凤公路交叉口西北方向1283米左右",
        "tel": "",
        "category": "基础设施:公共设施:公共厕所",
        "type": 0,
        "location": {
            "lat": 24.456778,
            "lng": 100.105519
        },
        "ad_info": {
            "adcode": 530922,
            "province": "云南省",
            "city": "临沧市",
            "district": "云县"
        }
    },
    {
        "id": "17117906179803361955",
        "title": "公共厕所",
        "address": "云南省临沧市沧源佤族自治县班洪乡下班坝游客服务中心旁",
        "tel": "",
        "category": "基础设施:公共设施:公共厕所",
        "type": 0,
        "location": {
            "lat": 23.285067,
            "lng": 99.118217
        },
        "ad_info": {
            "adcode": 530927,
            "province": "云南省",
            "city": "临沧市",
            "district": "沧源佤族自治县"
        }
    },
    {
        "id": "2053091023852115177",
        "title": "公共厕所",
        "address": "云南省临沧市耿马傣族佤族自治县撒马坝路与羊耿线交叉口正东方向1395米左右",
        "tel": "",
        "category": "基础设施:公共设施:公共厕所",
        "type": 0,
        "location": {
            "lat": 23.753073,
            "lng": 99.617847
        },
        "ad_info": {
            "adcode": 530926,
            "province": "云南省",
            "city": "临沧市",
            "district": "耿马傣族佤族自治县"
        }
    },
    {
        "id": "15655626758778865026",
        "title": "公共厕所",
        "address": "云南省临沧市耿马傣族佤族自治县建设路与鑫源路交叉口西南方向51米左右",
        "tel": "",
        "category": "基础设施:公共设施:公共厕所",
        "type": 0,
        "location": {
            "lat": 23.524369,
            "lng": 99.401756
        },
        "ad_info": {
            "adcode": 530926,
            "province": "云南省",
            "city": "临沧市",
            "district": "耿马傣族佤族自治县"
        }
    },
    {
        "id": "4413451816266096108",
        "title": "冰岛旅游区1号公共厕所",
        "address": "云南省临沧市双江拉祜族佤族布朗族傣族自治县冰岛村公路与林勐线交叉口正西方向665米左右",
        "tel": "",
        "category": "基础设施:公共设施:公共厕所",
        "type": 0,
        "location": {
            "lat": 23.781263,
            "lng": 99.903767
        },
        "ad_info": {
            "adcode": 530925,
            "province": "云南省",
            "city": "临沧市",
            "district": "双江拉祜族佤族布朗族傣族自治县"
        }
    },
    {
        "id": "9459476715769283115",
        "title": "公共厕所",
        "address": "云南省临沧市云县草大线云县站站前广场",
        "tel": "",
        "category": "基础设施:公共设施:公共厕所",
        "type": 0,
        "location": {
            "lat": 24.399568,
            "lng": 100.127705
        },
        "ad_info": {
            "adcode": 530922,
            "province": "云南省",
            "city": "临沧市",
            "district": "云县"
        }
    },
    {
        "id": "2334306524155179082",
        "title": "公共厕所",
        "address": "云南省临沧市双江拉祜族佤族布朗族傣族自治县勐忙线与小坝子公路交叉口正东方向983米左右",
        "tel": "",
        "category": "基础设施:公共设施:公共厕所",
        "type": 0,
        "location": {
            "lat": 23.431111,
            "lng": 100.009114
        },
        "ad_info": {
            "adcode": 530925,
            "province": "云南省",
            "city": "临沧市",
            "district": "双江拉祜族佤族布朗族傣族自治县"
        }
    },
    {
        "id": "7508784659631906828",
        "title": "公共厕所",
        "address": "云南省临沧市双江拉祜族佤族布朗族傣族自治县勐黄线清平村",
        "tel": "",
        "category": "基础设施:公共设施:公共厕所",
        "type": 0,
        "location": {
            "lat": 23.382075,
            "lng": 99.948015
        },
        "ad_info": {
            "adcode": 530925,
            "province": "云南省",
            "city": "临沧市",
            "district": "双江拉祜族佤族布朗族傣族自治县"
        }
    },
    {
        "id": "1728465156866598939",
        "title": "公共厕所",
        "address": "云南省临沧市临翔区凤翔路111号",
        "tel": "",
        "category": "基础设施:公共设施:公共厕所",
        "type": 0,
        "location": {
            "lat": 23.883568,
            "lng": 100.08709
        },
        "ad_info": {
            "adcode": 530902,
            "province": "云南省",
            "city": "临沧市",
            "district": "临翔区"
        }
    },
    {
        "id": "5406585839359803318",
        "title": "公共厕所",
        "address": "云南省临沧市云县云县天丰农贸市场(G214)",
        "tel": "",
        "category": "基础设施:公共设施:公共厕所",
        "type": 0,
        "location": {
            "lat": 24.435856,
            "lng": 100.143719
        },
        "ad_info": {
            "adcode": 530922,
            "province": "云南省",
            "city": "临沧市",
            "district": "云县"
        }
    },
    {
        "id": "2247872702477881411",
        "title": "马鞍山村委会大坟山自然村公厕2",
        "address": "云南省临沧市镇康县",
        "tel": "",
        "category": "基础设施:公共设施:公共厕所",
        "type": 0,
        "location": {
            "lat": 24.045763,
            "lng": 99.046679
        },
        "ad_info": {
            "adcode": 530924,
            "province": "云南省",
            "city": "临沧市",
            "district": "镇康县"
        }
    },
    {
        "id": "8407012855079127248",
        "title": "公共厕所",
        "address": "云南省临沧市耿马傣族佤族自治县光明路与团结路交叉口东北方向124米左右",
        "tel": "",
        "category": "基础设施:公共设施:公共厕所",
        "type": 0,
        "location": {
            "lat": 23.613855,
            "lng": 99.149892
        },
        "ad_info": {
            "adcode": 530926,
            "province": "云南省",
            "city": "临沧市",
            "district": "耿马傣族佤族自治县"
        }
    },
    {
        "id": "635908275711022292",
        "title": "公共厕所",
        "address": "云南省临沧市云县云县超限运输检测站",
        "tel": "",
        "category": "基础设施:公共设施:公共厕所",
        "type": 0,
        "location": {
            "lat": 24.401237,
            "lng": 100.108632
        },
        "ad_info": {
            "adcode": 530922,
            "province": "云南省",
            "city": "临沧市",
            "district": "云县"
        }
    },
    {
        "id": "6319128207384472599",
        "title": "公共厕所",
        "address": "云南省临沧市沧源佤族自治县",
        "tel": "",
        "category": "基础设施:公共设施:公共厕所",
        "type": 0,
        "location": {
            "lat": 23.27071,
            "lng": 99.310991
        },
        "ad_info": {
            "adcode": 530927,
            "province": "云南省",
            "city": "临沧市",
            "district": "沧源佤族自治县"
        }
    },
    {
        "id": "13555735453575323763",
        "title": "公共厕所",
        "address": "云南省临沧市凤庆县G357与S235交叉口西南方向118米左右",
        "tel": "",
        "category": "基础设施:公共设施:公共厕所",
        "type": 0,
        "location": {
            "lat": 24.608302,
            "lng": 99.771874
        },
        "ad_info": {
            "adcode": 530921,
            "province": "云南省",
            "city": "临沧市",
            "district": "凤庆县"
        }
    },
    {
        "id": "13361455759414254035",
        "title": "忙乐公共厕所",
        "address": "云南省临沧市双江拉祜族佤族布朗族傣族自治县勐黄线与忙乐办事处公路交叉口正东方向64米左右",
        "tel": "",
        "category": "基础设施:公共设施:公共厕所",
        "type": 0,
        "location": {
            "lat": 23.419482,
            "lng": 99.793151
        },
        "ad_info": {
            "adcode": 530925,
            "province": "云南省",
            "city": "临沧市",
            "district": "双江拉祜族佤族布朗族傣族自治县"
        }
    },
    {
        "id": "16512029967840136474",
        "title": "公共厕所",
        "address": "云南省临沧市临翔区中平巷与南天路交叉口正北方向185米左右",
        "tel": "",
        "category": "基础设施:公共设施:公共厕所",
        "type": 0,
        "location": {
            "lat": 23.882959,
            "lng": 100.098124
        },
        "ad_info": {
            "adcode": 530902,
            "province": "云南省",
            "city": "临沧市",
            "district": "临翔区"
        }
    },
    {
        "id": "4174044086063875941",
        "title": "公共厕所",
        "address": "云南省临沧市临翔区博尚镇博尚花海景区内",
        "tel": "",
        "category": "基础设施:公共设施:公共厕所",
        "type": 0,
        "location": {
            "lat": 23.734622,
            "lng": 100.037338
        },
        "ad_info": {
            "adcode": 530902,
            "province": "云南省",
            "city": "临沧市",
            "district": "临翔区"
        }
    },
    {
        "id": "12594490523864853996",
        "title": "冰岛旅游区3号公共厕所",
        "address": "云南省临沧市双江拉祜族佤族布朗族傣族自治县懂过村公路与林勐线交叉口西南方向1102米左右",
        "tel": "",
        "category": "基础设施:公共设施:公共厕所",
        "type": 0,
        "location": {
            "lat": 23.675012,
            "lng": 99.87081
        },
        "ad_info": {
            "adcode": 530925,
            "province": "云南省",
            "city": "临沧市",
            "district": "双江拉祜族佤族布朗族傣族自治县"
        }
    },
    {
        "id": "3871946725689510497",
        "title": "公共厕所",
        "address": "云南省临沧市临翔区晚翠路兴安农贸市场",
        "tel": "",
        "category": "基础设施:公共设施:公共厕所",
        "type": 0,
        "location": {
            "lat": 23.882455,
            "lng": 100.078598
        },
        "ad_info": {
            "adcode": 530902,
            "province": "云南省",
            "city": "临沧市",
            "district": "临翔区"
        }
    },
    {
        "id": "3380742573304231758",
        "title": "公共厕所",
        "address": "云南省临沧市云县G357与云凤公路交叉口西北方向1283米左右",
        "tel": "",
        "category": "基础设施:公共设施:公共厕所",
        "type": 0,
        "location": {
            "lat": 24.456778,
            "lng": 100.105519
        },
        "ad_info": {
            "adcode": 530922,
            "province": "云南省",
            "city": "临沧市",
            "district": "云县"
        }
    },
    {
        "id": "17117906179803361955",
        "title": "公共厕所",
        "address": "云南省临沧市沧源佤族自治县班洪乡下班坝游客服务中心旁",
        "tel": "",
        "category": "基础设施:公共设施:公共厕所",
        "type": 0,
        "location": {
            "lat": 23.285067,
            "lng": 99.118217
        },
        "ad_info": {
            "adcode": 530927,
            "province": "云南省",
            "city": "临沧市",
            "district": "沧源佤族自治县"
        }
    },
    {
        "id": "2053091023852115177",
        "title": "公共厕所",
        "address": "云南省临沧市耿马傣族佤族自治县撒马坝路与羊耿线交叉口正东方向1395米左右",
        "tel": "",
        "category": "基础设施:公共设施:公共厕所",
        "type": 0,
        "location": {
            "lat": 23.753073,
            "lng": 99.617847
        },
        "ad_info": {
            "adcode": 530926,
            "province": "云南省",
            "city": "临沧市",
            "district": "耿马傣族佤族自治县"
        }
    },
    {
        "id": "15655626758778865026",
        "title": "公共厕所",
        "address": "云南省临沧市耿马傣族佤族自治县建设路与鑫源路交叉口西南方向51米左右",
        "tel": "",
        "category": "基础设施:公共设施:公共厕所",
        "type": 0,
        "location": {
            "lat": 23.524369,
            "lng": 99.401756
        },
        "ad_info": {
            "adcode": 530926,
            "province": "云南省",
            "city": "临沧市",
            "district": "耿马傣族佤族自治县"
        }
    },
    {
        "id": "4413451816266096108",
        "title": "冰岛旅游区1号公共厕所",
        "address": "云南省临沧市双江拉祜族佤族布朗族傣族自治县冰岛村公路与林勐线交叉口正西方向665米左右",
        "tel": "",
        "category": "基础设施:公共设施:公共厕所",
        "type": 0,
        "location": {
            "lat": 23.781263,
            "lng": 99.903767
        },
        "ad_info": {
            "adcode": 530925,
            "province": "云南省",
            "city": "临沧市",
            "district": "双江拉祜族佤族布朗族傣族自治县"
        }
    },
    {
        "id": "9459476715769283115",
        "title": "公共厕所",
        "address": "云南省临沧市云县草大线云县站站前广场",
        "tel": "",
        "category": "基础设施:公共设施:公共厕所",
        "type": 0,
        "location": {
            "lat": 24.399568,
            "lng": 100.127705
        },
        "ad_info": {
            "adcode": 530922,
            "province": "云南省",
            "city": "临沧市",
            "district": "云县"
        }
    },
    {
        "id": "2334306524155179082",
        "title": "公共厕所",
        "address": "云南省临沧市双江拉祜族佤族布朗族傣族自治县勐忙线与小坝子公路交叉口正东方向983米左右",
        "tel": "",
        "category": "基础设施:公共设施:公共厕所",
        "type": 0,
        "location": {
            "lat": 23.431111,
            "lng": 100.009114
        },
        "ad_info": {
            "adcode": 530925,
            "province": "云南省",
            "city": "临沧市",
            "district": "双江拉祜族佤族布朗族傣族自治县"
        }
    },
    {
        "id": "7508784659631906828",
        "title": "公共厕所",
        "address": "云南省临沧市双江拉祜族佤族布朗族傣族自治县勐黄线清平村",
        "tel": "",
        "category": "基础设施:公共设施:公共厕所",
        "type": 0,
        "location": {
            "lat": 23.382075,
            "lng": 99.948015
        },
        "ad_info": {
            "adcode": 530925,
            "province": "云南省",
            "city": "临沧市",
            "district": "双江拉祜族佤族布朗族傣族自治县"
        }
    },
    {
        "id": "1728465156866598939",
        "title": "公共厕所",
        "address": "云南省临沧市临翔区凤翔路111号",
        "tel": "",
        "category": "基础设施:公共设施:公共厕所",
        "type": 0,
        "location": {
            "lat": 23.883568,
            "lng": 100.08709
        },
        "ad_info": {
            "adcode": 530902,
            "province": "云南省",
            "city": "临沧市",
            "district": "临翔区"
        }
    },
    {
        "id": "5406585839359803318",
        "title": "公共厕所",
        "address": "云南省临沧市云县云县天丰农贸市场(G214)",
        "tel": "",
        "category": "基础设施:公共设施:公共厕所",
        "type": 0,
        "location": {
            "lat": 24.435856,
            "lng": 100.143719
        },
        "ad_info": {
            "adcode": 530922,
            "province": "云南省",
            "city": "临沧市",
            "district": "云县"
        }
    },
    {
        "id": "2247872702477881411",
        "title": "马鞍山村委会大坟山自然村公厕2",
        "address": "云南省临沧市镇康县",
        "tel": "",
        "category": "基础设施:公共设施:公共厕所",
        "type": 0,
        "location": {
            "lat": 24.045763,
            "lng": 99.046679
        },
        "ad_info": {
            "adcode": 530924,
            "province": "云南省",
            "city": "临沧市",
            "district": "镇康县"
        }
    },
    {
        "id": "8407012855079127248",
        "title": "公共厕所",
        "address": "云南省临沧市耿马傣族佤族自治县光明路与团结路交叉口东北方向124米左右",
        "tel": "",
        "category": "基础设施:公共设施:公共厕所",
        "type": 0,
        "location": {
            "lat": 23.613855,
            "lng": 99.149892
        },
        "ad_info": {
            "adcode": 530926,
            "province": "云南省",
            "city": "临沧市",
            "district": "耿马傣族佤族自治县"
        }
    },
    {
        "id": "635908275711022292",
        "title": "公共厕所",
        "address": "云南省临沧市云县云县超限运输检测站",
        "tel": "",
        "category": "基础设施:公共设施:公共厕所",
        "type": 0,
        "location": {
            "lat": 24.401237,
            "lng": 100.108632
        },
        "ad_info": {
            "adcode": 530922,
            "province": "云南省",
            "city": "临沧市",
            "district": "云县"
        }
    },
    {
        "id": "6319128207384472599",
        "title": "公共厕所",
        "address": "云南省临沧市沧源佤族自治县",
        "tel": "",
        "category": "基础设施:公共设施:公共厕所",
        "type": 0,
        "location": {
            "lat": 23.27071,
            "lng": 99.310991
        },
        "ad_info": {
            "adcode": 530927,
            "province": "云南省",
            "city": "临沧市",
            "district": "沧源佤族自治县"
        }
    },
    {
        "id": "13555735453575323763",
        "title": "公共厕所",
        "address": "云南省临沧市凤庆县G357与S235交叉口西南方向118米左右",
        "tel": "",
        "category": "基础设施:公共设施:公共厕所",
        "type": 0,
        "location": {
            "lat": 24.608302,
            "lng": 99.771874
        },
        "ad_info": {
            "adcode": 530921,
            "province": "云南省",
            "city": "临沧市",
            "district": "凤庆县"
        }
    },
    {
        "id": "13361455759414254035",
        "title": "忙乐公共厕所",
        "address": "云南省临沧市双江拉祜族佤族布朗族傣族自治县勐黄线与忙乐办事处公路交叉口正东方向64米左右",
        "tel": "",
        "category": "基础设施:公共设施:公共厕所",
        "type": 0,
        "location": {
            "lat": 23.419482,
            "lng": 99.793151
        },
        "ad_info": {
            "adcode": 530925,
            "province": "云南省",
            "city": "临沧市",
            "district": "双江拉祜族佤族布朗族傣族自治县"
        }
    },
    {
        "id": "16512029967840136474",
        "title": "公共厕所",
        "address": "云南省临沧市临翔区中平巷与南天路交叉口正北方向185米左右",
        "tel": "",
        "category": "基础设施:公共设施:公共厕所",
        "type": 0,
        "location": {
            "lat": 23.882959,
            "lng": 100.098124
        },
        "ad_info": {
            "adcode": 530902,
            "province": "云南省",
            "city": "临沧市",
            "district": "临翔区"
        }
    },
    {
        "id": "4174044086063875941",
        "title": "公共厕所",
        "address": "云南省临沧市临翔区博尚镇博尚花海景区内",
        "tel": "",
        "category": "基础设施:公共设施:公共厕所",
        "type": 0,
        "location": {
            "lat": 23.734622,
            "lng": 100.037338
        },
        "ad_info": {
            "adcode": 530902,
            "province": "云南省",
            "city": "临沧市",
            "district": "临翔区"
        }
    },
    {
        "id": "12594490523864853996",
        "title": "冰岛旅游区3号公共厕所",
        "address": "云南省临沧市双江拉祜族佤族布朗族傣族自治县懂过村公路与林勐线交叉口西南方向1102米左右",
        "tel": "",
        "category": "基础设施:公共设施:公共厕所",
        "type": 0,
        "location": {
            "lat": 23.675012,
            "lng": 99.87081
        },
        "ad_info": {
            "adcode": 530925,
            "province": "云南省",
            "city": "临沧市",
            "district": "双江拉祜族佤族布朗族傣族自治县"
        }
    },
    {
        "id": "3871946725689510497",
        "title": "公共厕所",
        "address": "云南省临沧市临翔区晚翠路兴安农贸市场",
        "tel": "",
        "category": "基础设施:公共设施:公共厕所",
        "type": 0,
        "location": {
            "lat": 23.882455,
            "lng": 100.078598
        },
        "ad_info": {
            "adcode": 530902,
            "province": "云南省",
            "city": "临沧市",
            "district": "临翔区"
        }
    },
    {
        "id": "3380742573304231758",
        "title": "公共厕所",
        "address": "云南省临沧市云县G357与云凤公路交叉口西北方向1283米左右",
        "tel": "",
        "category": "基础设施:公共设施:公共厕所",
        "type": 0,
        "location": {
            "lat": 24.456778,
            "lng": 100.105519
        },
        "ad_info": {
            "adcode": 530922,
            "province": "云南省",
            "city": "临沧市",
            "district": "云县"
        }
    },
    {
        "id": "17117906179803361955",
        "title": "公共厕所",
        "address": "云南省临沧市沧源佤族自治县班洪乡下班坝游客服务中心旁",
        "tel": "",
        "category": "基础设施:公共设施:公共厕所",
        "type": 0,
        "location": {
            "lat": 23.285067,
            "lng": 99.118217
        },
        "ad_info": {
            "adcode": 530927,
            "province": "云南省",
            "city": "临沧市",
            "district": "沧源佤族自治县"
        }
    },
    {
        "id": "2053091023852115177",
        "title": "公共厕所",
        "address": "云南省临沧市耿马傣族佤族自治县撒马坝路与羊耿线交叉口正东方向1395米左右",
        "tel": "",
        "category": "基础设施:公共设施:公共厕所",
        "type": 0,
        "location": {
            "lat": 23.753073,
            "lng": 99.617847
        },
        "ad_info": {
            "adcode": 530926,
            "province": "云南省",
            "city": "临沧市",
            "district": "耿马傣族佤族自治县"
        }
    },
    {
        "id": "15655626758778865026",
        "title": "公共厕所",
        "address": "云南省临沧市耿马傣族佤族自治县建设路与鑫源路交叉口西南方向51米左右",
        "tel": "",
        "category": "基础设施:公共设施:公共厕所",
        "type": 0,
        "location": {
            "lat": 23.524369,
            "lng": 99.401756
        },
        "ad_info": {
            "adcode": 530926,
            "province": "云南省",
            "city": "临沧市",
            "district": "耿马傣族佤族自治县"
        }
    },
    {
        "id": "4413451816266096108",
        "title": "冰岛旅游区1号公共厕所",
        "address": "云南省临沧市双江拉祜族佤族布朗族傣族自治县冰岛村公路与林勐线交叉口正西方向665米左右",
        "tel": "",
        "category": "基础设施:公共设施:公共厕所",
        "type": 0,
        "location": {
            "lat": 23.781263,
            "lng": 99.903767
        },
        "ad_info": {
            "adcode": 530925,
            "province": "云南省",
            "city": "临沧市",
            "district": "双江拉祜族佤族布朗族傣族自治县"
        }
    },
    {
        "id": "9459476715769283115",
        "title": "公共厕所",
        "address": "云南省临沧市云县草大线云县站站前广场",
        "tel": "",
        "category": "基础设施:公共设施:公共厕所",
        "type": 0,
        "location": {
            "lat": 24.399568,
            "lng": 100.127705
        },
        "ad_info": {
            "adcode": 530922,
            "province": "云南省",
            "city": "临沧市",
            "district": "云县"
        }
    },
    {
        "id": "2334306524155179082",
        "title": "公共厕所",
        "address": "云南省临沧市双江拉祜族佤族布朗族傣族自治县勐忙线与小坝子公路交叉口正东方向983米左右",
        "tel": "",
        "category": "基础设施:公共设施:公共厕所",
        "type": 0,
        "location": {
            "lat": 23.431111,
            "lng": 100.009114
        },
        "ad_info": {
            "adcode": 530925,
            "province": "云南省",
            "city": "临沧市",
            "district": "双江拉祜族佤族布朗族傣族自治县"
        }
    },
    {
        "id": "7508784659631906828",
        "title": "公共厕所",
        "address": "云南省临沧市双江拉祜族佤族布朗族傣族自治县勐黄线清平村",
        "tel": "",
        "category": "基础设施:公共设施:公共厕所",
        "type": 0,
        "location": {
            "lat": 23.382075,
            "lng": 99.948015
        },
        "ad_info": {
            "adcode": 530925,
            "province": "云南省",
            "city": "临沧市",
            "district": "双江拉祜族佤族布朗族傣族自治县"
        }
    },
    {
        "id": "1728465156866598939",
        "title": "公共厕所",
        "address": "云南省临沧市临翔区凤翔路111号",
        "tel": "",
        "category": "基础设施:公共设施:公共厕所",
        "type": 0,
        "location": {
            "lat": 23.883568,
            "lng": 100.08709
        },
        "ad_info": {
            "adcode": 530902,
            "province": "云南省",
            "city": "临沧市",
            "district": "临翔区"
        }
    },
    {
        "id": "5406585839359803318",
        "title": "公共厕所",
        "address": "云南省临沧市云县云县天丰农贸市场(G214)",
        "tel": "",
        "category": "基础设施:公共设施:公共厕所",
        "type": 0,
        "location": {
            "lat": 24.435856,
            "lng": 100.143719
        },
        "ad_info": {
            "adcode": 530922,
            "province": "云南省",
            "city": "临沧市",
            "district": "云县"
        }
    },
    {
        "id": "2247872702477881411",
        "title": "马鞍山村委会大坟山自然村公厕2",
        "address": "云南省临沧市镇康县",
        "tel": "",
        "category": "基础设施:公共设施:公共厕所",
        "type": 0,
        "location": {
            "lat": 24.045763,
            "lng": 99.046679
        },
        "ad_info": {
            "adcode": 530924,
            "province": "云南省",
            "city": "临沧市",
            "district": "镇康县"
        }
    },
    {
        "id": "8407012855079127248",
        "title": "公共厕所",
        "address": "云南省临沧市耿马傣族佤族自治县光明路与团结路交叉口东北方向124米左右",
        "tel": "",
        "category": "基础设施:公共设施:公共厕所",
        "type": 0,
        "location": {
            "lat": 23.613855,
            "lng": 99.149892
        },
        "ad_info": {
            "adcode": 530926,
            "province": "云南省",
            "city": "临沧市",
            "district": "耿马傣族佤族自治县"
        }
    },
    {
        "id": "635908275711022292",
        "title": "公共厕所",
        "address": "云南省临沧市云县云县超限运输检测站",
        "tel": "",
        "category": "基础设施:公共设施:公共厕所",
        "type": 0,
        "location": {
            "lat": 24.401237,
            "lng": 100.108632
        },
        "ad_info": {
            "adcode": 530922,
            "province": "云南省",
            "city": "临沧市",
            "district": "云县"
        }
    },
    {
        "id": "6319128207384472599",
        "title": "公共厕所",
        "address": "云南省临沧市沧源佤族自治县",
        "tel": "",
        "category": "基础设施:公共设施:公共厕所",
        "type": 0,
        "location": {
            "lat": 23.27071,
            "lng": 99.310991
        },
        "ad_info": {
            "adcode": 530927,
            "province": "云南省",
            "city": "临沧市",
            "district": "沧源佤族自治县"
        }
    },
    {
        "id": "13555735453575323763",
        "title": "公共厕所",
        "address": "云南省临沧市凤庆县G357与S235交叉口西南方向118米左右",
        "tel": "",
        "category": "基础设施:公共设施:公共厕所",
        "type": 0,
        "location": {
            "lat": 24.608302,
            "lng": 99.771874
        },
        "ad_info": {
            "adcode": 530921,
            "province": "云南省",
            "city": "临沧市",
            "district": "凤庆县"
        }
    },
    {
        "id": "13361455759414254035",
        "title": "忙乐公共厕所",
        "address": "云南省临沧市双江拉祜族佤族布朗族傣族自治县勐黄线与忙乐办事处公路交叉口正东方向64米左右",
        "tel": "",
        "category": "基础设施:公共设施:公共厕所",
        "type": 0,
        "location": {
            "lat": 23.419482,
            "lng": 99.793151
        },
        "ad_info": {
            "adcode": 530925,
            "province": "云南省",
            "city": "临沧市",
            "district": "双江拉祜族佤族布朗族傣族自治县"
        }
    },
    {
        "id": "16512029967840136474",
        "title": "公共厕所",
        "address": "云南省临沧市临翔区中平巷与南天路交叉口正北方向185米左右",
        "tel": "",
        "category": "基础设施:公共设施:公共厕所",
        "type": 0,
        "location": {
            "lat": 23.882959,
            "lng": 100.098124
        },
        "ad_info": {
            "adcode": 530902,
            "province": "云南省",
            "city": "临沧市",
            "district": "临翔区"
        }
    },
    {
        "id": "4174044086063875941",
        "title": "公共厕所",
        "address": "云南省临沧市临翔区博尚镇博尚花海景区内",
        "tel": "",
        "category": "基础设施:公共设施:公共厕所",
        "type": 0,
        "location": {
            "lat": 23.734622,
            "lng": 100.037338
        },
        "ad_info": {
            "adcode": 530902,
            "province": "云南省",
            "city": "临沧市",
            "district": "临翔区"
        }
    },
    {
        "id": "12594490523864853996",
        "title": "冰岛旅游区3号公共厕所",
        "address": "云南省临沧市双江拉祜族佤族布朗族傣族自治县懂过村公路与林勐线交叉口西南方向1102米左右",
        "tel": "",
        "category": "基础设施:公共设施:公共厕所",
        "type": 0,
        "location": {
            "lat": 23.675012,
            "lng": 99.87081
        },
        "ad_info": {
            "adcode": 530925,
            "province": "云南省",
            "city": "临沧市",
            "district": "双江拉祜族佤族布朗族傣族自治县"
        }
    },
    {
        "id": "3871946725689510497",
        "title": "公共厕所",
        "address": "云南省临沧市临翔区晚翠路兴安农贸市场",
        "tel": "",
        "category": "基础设施:公共设施:公共厕所",
        "type": 0,
        "location": {
            "lat": 23.882455,
            "lng": 100.078598
        },
        "ad_info": {
            "adcode": 530902,
            "province": "云南省",
            "city": "临沧市",
            "district": "临翔区"
        }
    },
    {
        "id": "3380742573304231758",
        "title": "公共厕所",
        "address": "云南省临沧市云县G357与云凤公路交叉口西北方向1283米左右",
        "tel": "",
        "category": "基础设施:公共设施:公共厕所",
        "type": 0,
        "location": {
            "lat": 24.456778,
            "lng": 100.105519
        },
        "ad_info": {
            "adcode": 530922,
            "province": "云南省",
            "city": "临沧市",
            "district": "云县"
        }
    },
    {
        "id": "17117906179803361955",
        "title": "公共厕所",
        "address": "云南省临沧市沧源佤族自治县班洪乡下班坝游客服务中心旁",
        "tel": "",
        "category": "基础设施:公共设施:公共厕所",
        "type": 0,
        "location": {
            "lat": 23.285067,
            "lng": 99.118217
        },
        "ad_info": {
            "adcode": 530927,
            "province": "云南省",
            "city": "临沧市",
            "district": "沧源佤族自治县"
        }
    },
    {
        "id": "2053091023852115177",
        "title": "公共厕所",
        "address": "云南省临沧市耿马傣族佤族自治县撒马坝路与羊耿线交叉口正东方向1395米左右",
        "tel": "",
        "category": "基础设施:公共设施:公共厕所",
        "type": 0,
        "location": {
            "lat": 23.753073,
            "lng": 99.617847
        },
        "ad_info": {
            "adcode": 530926,
            "province": "云南省",
            "city": "临沧市",
            "district": "耿马傣族佤族自治县"
        }
    },
    {
        "id": "15655626758778865026",
        "title": "公共厕所",
        "address": "云南省临沧市耿马傣族佤族自治县建设路与鑫源路交叉口西南方向51米左右",
        "tel": "",
        "category": "基础设施:公共设施:公共厕所",
        "type": 0,
        "location": {
            "lat": 23.524369,
            "lng": 99.401756
        },
        "ad_info": {
            "adcode": 530926,
            "province": "云南省",
            "city": "临沧市",
            "district": "耿马傣族佤族自治县"
        }
    },
    {
        "id": "4413451816266096108",
        "title": "冰岛旅游区1号公共厕所",
        "address": "云南省临沧市双江拉祜族佤族布朗族傣族自治县冰岛村公路与林勐线交叉口正西方向665米左右",
        "tel": "",
        "category": "基础设施:公共设施:公共厕所",
        "type": 0,
        "location": {
            "lat": 23.781263,
            "lng": 99.903767
        },
        "ad_info": {
            "adcode": 530925,
            "province": "云南省",
            "city": "临沧市",
            "district": "双江拉祜族佤族布朗族傣族自治县"
        }
    },
    {
        "id": "9459476715769283115",
        "title": "公共厕所",
        "address": "云南省临沧市云县草大线云县站站前广场",
        "tel": "",
        "category": "基础设施:公共设施:公共厕所",
        "type": 0,
        "location": {
            "lat": 24.399568,
            "lng": 100.127705
        },
        "ad_info": {
            "adcode": 530922,
            "province": "云南省",
            "city": "临沧市",
            "district": "云县"
        }
    },
    {
        "id": "2334306524155179082",
        "title": "公共厕所",
        "address": "云南省临沧市双江拉祜族佤族布朗族傣族自治县勐忙线与小坝子公路交叉口正东方向983米左右",
        "tel": "",
        "category": "基础设施:公共设施:公共厕所",
        "type": 0,
        "location": {
            "lat": 23.431111,
            "lng": 100.009114
        },
        "ad_info": {
            "adcode": 530925,
            "province": "云南省",
            "city": "临沧市",
            "district": "双江拉祜族佤族布朗族傣族自治县"
        }
    },
    {
        "id": "7508784659631906828",
        "title": "公共厕所",
        "address": "云南省临沧市双江拉祜族佤族布朗族傣族自治县勐黄线清平村",
        "tel": "",
        "category": "基础设施:公共设施:公共厕所",
        "type": 0,
        "location": {
            "lat": 23.382075,
            "lng": 99.948015
        },
        "ad_info": {
            "adcode": 530925,
            "province": "云南省",
            "city": "临沧市",
            "district": "双江拉祜族佤族布朗族傣族自治县"
        }
    },
    {
        "id": "1728465156866598939",
        "title": "公共厕所",
        "address": "云南省临沧市临翔区凤翔路111号",
        "tel": "",
        "category": "基础设施:公共设施:公共厕所",
        "type": 0,
        "location": {
            "lat": 23.883568,
            "lng": 100.08709
        },
        "ad_info": {
            "adcode": 530902,
            "province": "云南省",
            "city": "临沧市",
            "district": "临翔区"
        }
    },
    {
        "id": "5406585839359803318",
        "title": "公共厕所",
        "address": "云南省临沧市云县云县天丰农贸市场(G214)",
        "tel": "",
        "category": "基础设施:公共设施:公共厕所",
        "type": 0,
        "location": {
            "lat": 24.435856,
            "lng": 100.143719
        },
        "ad_info": {
            "adcode": 530922,
            "province": "云南省",
            "city": "临沧市",
            "district": "云县"
        }
    },
    {
        "id": "2247872702477881411",
        "title": "马鞍山村委会大坟山自然村公厕2",
        "address": "云南省临沧市镇康县",
        "tel": "",
        "category": "基础设施:公共设施:公共厕所",
        "type": 0,
        "location": {
            "lat": 24.045763,
            "lng": 99.046679
        },
        "ad_info": {
            "adcode": 530924,
            "province": "云南省",
            "city": "临沧市",
            "district": "镇康县"
        }
    },
    {
        "id": "8407012855079127248",
        "title": "公共厕所",
        "address": "云南省临沧市耿马傣族佤族自治县光明路与团结路交叉口东北方向124米左右",
        "tel": "",
        "category": "基础设施:公共设施:公共厕所",
        "type": 0,
        "location": {
            "lat": 23.613855,
            "lng": 99.149892
        },
        "ad_info": {
            "adcode": 530926,
            "province": "云南省",
            "city": "临沧市",
            "district": "耿马傣族佤族自治县"
        }
    },
    {
        "id": "635908275711022292",
        "title": "公共厕所",
        "address": "云南省临沧市云县云县超限运输检测站",
        "tel": "",
        "category": "基础设施:公共设施:公共厕所",
        "type": 0,
        "location": {
            "lat": 24.401237,
            "lng": 100.108632
        },
        "ad_info": {
            "adcode": 530922,
            "province": "云南省",
            "city": "临沧市",
            "district": "云县"
        }
    },
    {
        "id": "6319128207384472599",
        "title": "公共厕所",
        "address": "云南省临沧市沧源佤族自治县",
        "tel": "",
        "category": "基础设施:公共设施:公共厕所",
        "type": 0,
        "location": {
            "lat": 23.27071,
            "lng": 99.310991
        },
        "ad_info": {
            "adcode": 530927,
            "province": "云南省",
            "city": "临沧市",
            "district": "沧源佤族自治县"
        }
    },
    {
        "id": "13555735453575323763",
        "title": "公共厕所",
        "address": "云南省临沧市凤庆县G357与S235交叉口西南方向118米左右",
        "tel": "",
        "category": "基础设施:公共设施:公共厕所",
        "type": 0,
        "location": {
            "lat": 24.608302,
            "lng": 99.771874
        },
        "ad_info": {
            "adcode": 530921,
            "province": "云南省",
            "city": "临沧市",
            "district": "凤庆县"
        }
    },
    {
        "id": "13361455759414254035",
        "title": "忙乐公共厕所",
        "address": "云南省临沧市双江拉祜族佤族布朗族傣族自治县勐黄线与忙乐办事处公路交叉口正东方向64米左右",
        "tel": "",
        "category": "基础设施:公共设施:公共厕所",
        "type": 0,
        "location": {
            "lat": 23.419482,
            "lng": 99.793151
        },
        "ad_info": {
            "adcode": 530925,
            "province": "云南省",
            "city": "临沧市",
            "district": "双江拉祜族佤族布朗族傣族自治县"
        }
    },
    {
        "id": "16512029967840136474",
        "title": "公共厕所",
        "address": "云南省临沧市临翔区中平巷与南天路交叉口正北方向185米左右",
        "tel": "",
        "category": "基础设施:公共设施:公共厕所",
        "type": 0,
        "location": {
            "lat": 23.882959,
            "lng": 100.098124
        },
        "ad_info": {
            "adcode": 530902,
            "province": "云南省",
            "city": "临沧市",
            "district": "临翔区"
        }
    },
    {
        "id": "4174044086063875941",
        "title": "公共厕所",
        "address": "云南省临沧市临翔区博尚镇博尚花海景区内",
        "tel": "",
        "category": "基础设施:公共设施:公共厕所",
        "type": 0,
        "location": {
            "lat": 23.734622,
            "lng": 100.037338
        },
        "ad_info": {
            "adcode": 530902,
            "province": "云南省",
            "city": "临沧市",
            "district": "临翔区"
        }
    },
    {
        "id": "12594490523864853996",
        "title": "冰岛旅游区3号公共厕所",
        "address": "云南省临沧市双江拉祜族佤族布朗族傣族自治县懂过村公路与林勐线交叉口西南方向1102米左右",
        "tel": "",
        "category": "基础设施:公共设施:公共厕所",
        "type": 0,
        "location": {
            "lat": 23.675012,
            "lng": 99.87081
        },
        "ad_info": {
            "adcode": 530925,
            "province": "云南省",
            "city": "临沧市",
            "district": "双江拉祜族佤族布朗族傣族自治县"
        }
    },
    {
        "id": "3871946725689510497",
        "title": "公共厕所",
        "address": "云南省临沧市临翔区晚翠路兴安农贸市场",
        "tel": "",
        "category": "基础设施:公共设施:公共厕所",
        "type": 0,
        "location": {
            "lat": 23.882455,
            "lng": 100.078598
        },
        "ad_info": {
            "adcode": 530902,
            "province": "云南省",
            "city": "临沧市",
            "district": "临翔区"
        }
    },
    {
        "id": "3380742573304231758",
        "title": "公共厕所",
        "address": "云南省临沧市云县G357与云凤公路交叉口西北方向1283米左右",
        "tel": "",
        "category": "基础设施:公共设施:公共厕所",
        "type": 0,
        "location": {
            "lat": 24.456778,
            "lng": 100.105519
        },
        "ad_info": {
            "adcode": 530922,
            "province": "云南省",
            "city": "临沧市",
            "district": "云县"
        }
    },
    {
        "id": "17117906179803361955",
        "title": "公共厕所",
        "address": "云南省临沧市沧源佤族自治县班洪乡下班坝游客服务中心旁",
        "tel": "",
        "category": "基础设施:公共设施:公共厕所",
        "type": 0,
        "location": {
            "lat": 23.285067,
            "lng": 99.118217
        },
        "ad_info": {
            "adcode": 530927,
            "province": "云南省",
            "city": "临沧市",
            "district": "沧源佤族自治县"
        }
    },
    {
        "id": "2053091023852115177",
        "title": "公共厕所",
        "address": "云南省临沧市耿马傣族佤族自治县撒马坝路与羊耿线交叉口正东方向1395米左右",
        "tel": "",
        "category": "基础设施:公共设施:公共厕所",
        "type": 0,
        "location": {
            "lat": 23.753073,
            "lng": 99.617847
        },
        "ad_info": {
            "adcode": 530926,
            "province": "云南省",
            "city": "临沧市",
            "district": "耿马傣族佤族自治县"
        }
    },
    {
        "id": "15655626758778865026",
        "title": "公共厕所",
        "address": "云南省临沧市耿马傣族佤族自治县建设路与鑫源路交叉口西南方向51米左右",
        "tel": "",
        "category": "基础设施:公共设施:公共厕所",
        "type": 0,
        "location": {
            "lat": 23.524369,
            "lng": 99.401756
        },
        "ad_info": {
            "adcode": 530926,
            "province": "云南省",
            "city": "临沧市",
            "district": "耿马傣族佤族自治县"
        }
    },
    {
        "id": "4413451816266096108",
        "title": "冰岛旅游区1号公共厕所",
        "address": "云南省临沧市双江拉祜族佤族布朗族傣族自治县冰岛村公路与林勐线交叉口正西方向665米左右",
        "tel": "",
        "category": "基础设施:公共设施:公共厕所",
        "type": 0,
        "location": {
            "lat": 23.781263,
            "lng": 99.903767
        },
        "ad_info": {
            "adcode": 530925,
            "province": "云南省",
            "city": "临沧市",
            "district": "双江拉祜族佤族布朗族傣族自治县"
        }
    },
    {
        "id": "9459476715769283115",
        "title": "公共厕所",
        "address": "云南省临沧市云县草大线云县站站前广场",
        "tel": "",
        "category": "基础设施:公共设施:公共厕所",
        "type": 0,
        "location": {
            "lat": 24.399568,
            "lng": 100.127705
        },
        "ad_info": {
            "adcode": 530922,
            "province": "云南省",
            "city": "临沧市",
            "district": "云县"
        }
    },
    {
        "id": "2334306524155179082",
        "title": "公共厕所",
        "address": "云南省临沧市双江拉祜族佤族布朗族傣族自治县勐忙线与小坝子公路交叉口正东方向983米左右",
        "tel": "",
        "category": "基础设施:公共设施:公共厕所",
        "type": 0,
        "location": {
            "lat": 23.431111,
            "lng": 100.009114
        },
        "ad_info": {
            "adcode": 530925,
            "province": "云南省",
            "city": "临沧市",
            "district": "双江拉祜族佤族布朗族傣族自治县"
        }
    },
    {
        "id": "7508784659631906828",
        "title": "公共厕所",
        "address": "云南省临沧市双江拉祜族佤族布朗族傣族自治县勐黄线清平村",
        "tel": "",
        "category": "基础设施:公共设施:公共厕所",
        "type": 0,
        "location": {
            "lat": 23.382075,
            "lng": 99.948015
        },
        "ad_info": {
            "adcode": 530925,
            "province": "云南省",
            "city": "临沧市",
            "district": "双江拉祜族佤族布朗族傣族自治县"
        }
    },
    {
        "id": "1728465156866598939",
        "title": "公共厕所",
        "address": "云南省临沧市临翔区凤翔路111号",
        "tel": "",
        "category": "基础设施:公共设施:公共厕所",
        "type": 0,
        "location": {
            "lat": 23.883568,
            "lng": 100.08709
        },
        "ad_info": {
            "adcode": 530902,
            "province": "云南省",
            "city": "临沧市",
            "district": "临翔区"
        }
    },
    {
        "id": "5406585839359803318",
        "title": "公共厕所",
        "address": "云南省临沧市云县云县天丰农贸市场(G214)",
        "tel": "",
        "category": "基础设施:公共设施:公共厕所",
        "type": 0,
        "location": {
            "lat": 24.435856,
            "lng": 100.143719
        },
        "ad_info": {
            "adcode": 530922,
            "province": "云南省",
            "city": "临沧市",
            "district": "云县"
        }
    },
    {
        "id": "2247872702477881411",
        "title": "马鞍山村委会大坟山自然村公厕2",
        "address": "云南省临沧市镇康县",
        "tel": "",
        "category": "基础设施:公共设施:公共厕所",
        "type": 0,
        "location": {
            "lat": 24.045763,
            "lng": 99.046679
        },
        "ad_info": {
            "adcode": 530924,
            "province": "云南省",
            "city": "临沧市",
            "district": "镇康县"
        }
    },
    {
        "id": "8407012855079127248",
        "title": "公共厕所",
        "address": "云南省临沧市耿马傣族佤族自治县光明路与团结路交叉口东北方向124米左右",
        "tel": "",
        "category": "基础设施:公共设施:公共厕所",
        "type": 0,
        "location": {
            "lat": 23.613855,
            "lng": 99.149892
        },
        "ad_info": {
            "adcode": 530926,
            "province": "云南省",
            "city": "临沧市",
            "district": "耿马傣族佤族自治县"
        }
    },
    {
        "id": "635908275711022292",
        "title": "公共厕所",
        "address": "云南省临沧市云县云县超限运输检测站",
        "tel": "",
        "category": "基础设施:公共设施:公共厕所",
        "type": 0,
        "location": {
            "lat": 24.401237,
            "lng": 100.108632
        },
        "ad_info": {
            "adcode": 530922,
            "province": "云南省",
            "city": "临沧市",
            "district": "云县"
        }
    },
    {
        "id": "6319128207384472599",
        "title": "公共厕所",
        "address": "云南省临沧市沧源佤族自治县",
        "tel": "",
        "category": "基础设施:公共设施:公共厕所",
        "type": 0,
        "location": {
            "lat": 23.27071,
            "lng": 99.310991
        },
        "ad_info": {
            "adcode": 530927,
            "province": "云南省",
            "city": "临沧市",
            "district": "沧源佤族自治县"
        }
    },
    {
        "id": "13555735453575323763",
        "title": "公共厕所",
        "address": "云南省临沧市凤庆县G357与S235交叉口西南方向118米左右",
        "tel": "",
        "category": "基础设施:公共设施:公共厕所",
        "type": 0,
        "location": {
            "lat": 24.608302,
            "lng": 99.771874
        },
        "ad_info": {
            "adcode": 530921,
            "province": "云南省",
            "city": "临沧市",
            "district": "凤庆县"
        }
    },
    {
        "id": "13361455759414254035",
        "title": "忙乐公共厕所",
        "address": "云南省临沧市双江拉祜族佤族布朗族傣族自治县勐黄线与忙乐办事处公路交叉口正东方向64米左右",
        "tel": "",
        "category": "基础设施:公共设施:公共厕所",
        "type": 0,
        "location": {
            "lat": 23.419482,
            "lng": 99.793151
        },
        "ad_info": {
            "adcode": 530925,
            "province": "云南省",
            "city": "临沧市",
            "district": "双江拉祜族佤族布朗族傣族自治县"
        }
    },
    {
        "id": "16512029967840136474",
        "title": "公共厕所",
        "address": "云南省临沧市临翔区中平巷与南天路交叉口正北方向185米左右",
        "tel": "",
        "category": "基础设施:公共设施:公共厕所",
        "type": 0,
        "location": {
            "lat": 23.882959,
            "lng": 100.098124
        },
        "ad_info": {
            "adcode": 530902,
            "province": "云南省",
            "city": "临沧市",
            "district": "临翔区"
        }
    },
    {
        "id": "4174044086063875941",
        "title": "公共厕所",
        "address": "云南省临沧市临翔区博尚镇博尚花海景区内",
        "tel": "",
        "category": "基础设施:公共设施:公共厕所",
        "type": 0,
        "location": {
            "lat": 23.734622,
            "lng": 100.037338
        },
        "ad_info": {
            "adcode": 530902,
            "province": "云南省",
            "city": "临沧市",
            "district": "临翔区"
        }
    }
]