[
    {
        "id": "15768345546743576027",
        "title": "公共厕所",
        "address": "海南省临高县新桥南路与解放路交叉口正东方向77米左右",
        "tel": "",
        "category": "基础设施:公共设施:公共厕所",
        "type": 0,
        "location": {
            "lat": 19.906378,
            "lng": 109.685899
        },
        "ad_info": {
            "adcode": 469024,
            "province": "海南省",
            "city": "",
            "district": "临高县"
        }
    },
    {
        "id": "12184684409226841610",
        "title": "公共厕所",
        "address": "海南省临高县文明路与立新北街交叉口东北方向272米左右",
        "tel": "",
        "category": "基础设施:公共设施:公共厕所",
        "type": 0,
        "location": {
            "lat": 19.895217,
            "lng": 109.536001
        },
        "ad_info": {
            "adcode": 469024,
            "province": "海南省",
            "city": "",
            "district": "临高县"
        }
    },
    {
        "id": "918829614073527709",
        "title": "公共厕所",
        "address": "海南省临高县临新路与解放路交叉口西北方向182米左右",
        "tel": "",
        "category": "基础设施:公共设施:公共厕所",
        "type": 0,
        "location": {
            "lat": 19.906128,
            "lng": 109.678042
        },
        "ad_info": {
            "adcode": 469024,
            "province": "海南省",
            "city": "",
            "district": "临高县"
        }
    },
    {
        "id": "2016555954593747699",
        "title": "公共厕所",
        "address": "海南省临高县人民路与博岸路交叉口西南方向242米左右",
        "tel": "",
        "category": "基础设施:公共设施:公共厕所",
        "type": 0,
        "location": {
            "lat": 19.890704,
            "lng": 109.526666
        },
        "ad_info": {
            "adcode": 469024,
            "province": "海南省",
            "city": "",
            "district": "临高县"
        }
    },
    {
        "id": "13784684173728767714",
        "title": "公共厕所",
        "address": "海南省临高县党校路与行政路交叉口正北方向37米左右",
        "tel": "",
        "category": "基础设施:公共设施:公共厕所",
        "type": 0,
        "location": {
            "lat": 19.917561,
            "lng": 109.691065
        },
        "ad_info": {
            "adcode": 469024,
            "province": "海南省",
            "city": "",
            "district": "临高县"
        }
    },
    {
        "id": "7889780042060050409",
        "title": "公共厕所",
        "address": "海南省临高县党校路与江北路交叉口东南方向189米左右",
        "tel": "",
        "category": "基础设施:公共设施:公共厕所",
        "type": 0,
        "location": {
            "lat": 19.913679,
            "lng": 109.69671
        },
        "ad_info": {
            "adcode": 469024,
            "province": "海南省",
            "city": "",
            "district": "临高县"
        }
    },
    {
        "id": "5974851733513333128",
        "title": "公共厕所",
        "address": "海南省临高县恒泰巷与江南路交叉口西北方向115米左右",
        "tel": "",
        "category": "基础设施:公共设施:公共厕所",
        "type": 0,
        "location": {
            "lat": 19.905074,
            "lng": 109.688559
        },
        "ad_info": {
            "adcode": 469024,
            "province": "海南省",
            "city": "",
            "district": "临高县"
        }
    },
    {
        "id": "53170624363335641",
        "title": "公共厕所",
        "address": "海南省临高县G225与海榆西线交叉口东北方向138米左右",
        "tel": "",
        "category": "基础设施:公共设施:公共厕所",
        "type": 0,
        "location": {
            "lat": 19.586043,
            "lng": 109.713717
        },
        "ad_info": {
            "adcode": 469024,
            "province": "海南省",
            "city": "",
            "district": "临高县"
        }
    },
    {
        "id": "17683863638731221380",
        "title": "公共厕所",
        "address": "海南省临高县行政路与银信巷交叉口西南方向17米左右",
        "tel": "",
        "category": "基础设施:公共设施:公共厕所",
        "type": 0,
        "location": {
            "lat": 19.914511,
            "lng": 109.689972
        },
        "ad_info": {
            "adcode": 469024,
            "province": "海南省",
            "city": "",
            "district": "临高县"
        }
    },
    {
        "id": "16292990226134362509",
        "title": "公共厕所",
        "address": "海南省临高县新镇路与江北路交叉口东南方向117米左右",
        "tel": "",
        "category": "基础设施:公共设施:公共厕所",
        "type": 0,
        "location": {
            "lat": 19.904519,
            "lng": 109.690358
        },
        "ad_info": {
            "adcode": 469024,
            "province": "海南省",
            "city": "",
            "district": "临高县"
        }
    },
    {
        "id": "9882979945768816061",
        "title": "公共厕所",
        "address": "海南省临高县X302与博兴路交叉口东北方向516米左右",
        "tel": "",
        "category": "基础设施:公共设施:公共厕所",
        "type": 0,
        "location": {
            "lat": 19.931596,
            "lng": 109.553778
        },
        "ad_info": {
            "adcode": 469024,
            "province": "海南省",
            "city": "",
            "district": "临高县"
        }
    },
    {
        "id": "5886131433232667794",
        "title": "公共厕所",
        "address": "海南省临高县工镇街与平安巷交叉口西北方向47米左右",
        "tel": "",
        "category": "基础设施:公共设施:公共厕所",
        "type": 0,
        "location": {
            "lat": 19.907308,
            "lng": 109.686948
        },
        "ad_info": {
            "adcode": 469024,
            "province": "海南省",
            "city": "",
            "district": "临高县"
        }
    },
    {
        "id": "17969674526983589238",
        "title": "公共厕所",
        "address": "海南省临高县临城镇跃进路(曾记牙科)",
        "tel": "",
        "category": "基础设施:公共设施:公共厕所",
        "type": 0,
        "location": {
            "lat": 19.90807,
            "lng": 109.6896
        },
        "ad_info": {
            "adcode": 469024,
            "province": "海南省",
            "city": "",
            "district": "临高县"
        }
    },
    {
        "id": "7480568143628645683",
        "title": "公共厕所",
        "address": "海南省临高县古柳村不炳夜宵店西北侧260米",
        "tel": "",
        "category": "基础设施:公共设施:公共厕所",
        "type": 0,
        "location": {
            "lat": 19.854697,
            "lng": 109.643592
        },
        "ad_info": {
            "adcode": 469024,
            "province": "海南省",
            "city": "",
            "district": "临高县"
        }
    },
    {
        "id": "1180791129698440185",
        "title": "公共厕所",
        "address": "海南省临高县S306与解放街交叉口正东方向367米左右",
        "tel": "",
        "category": "基础设施:公共设施:公共厕所",
        "type": 0,
        "location": {
            "lat": 19.868247,
            "lng": 109.758385
        },
        "ad_info": {
            "adcode": 469024,
            "province": "海南省",
            "city": "",
            "district": "临高县"
        }
    },
    {
        "id": "11594676322206519386",
        "title": "公共厕所",
        "address": "海南省临高县临美路与江北路交叉口正南方向17米左右",
        "tel": "",
        "category": "基础设施:公共设施:公共厕所",
        "type": 0,
        "location": {
            "lat": 19.906417,
            "lng": 109.691444
        },
        "ad_info": {
            "adcode": 469024,
            "province": "海南省",
            "city": "",
            "district": "临高县"
        }
    },
    {
        "id": "15198783663020416053",
        "title": "公共厕所",
        "address": "海南省临高县G225与海榆西线交叉口东北方向1437米左右",
        "tel": "",
        "category": "基础设施:公共设施:公共厕所",
        "type": 0,
        "location": {
            "lat": 19.613256,
            "lng": 109.740543
        },
        "ad_info": {
            "adcode": 469024,
            "province": "海南省",
            "city": "",
            "district": "临高县"
        }
    },
    {
        "id": "10218703470093130377",
        "title": "公共厕所",
        "address": "海南省临高县新桥南路与江南路交叉口正东方向24米左右",
        "tel": "",
        "category": "基础设施:公共设施:公共厕所",
        "type": 0,
        "location": {
            "lat": 19.904312,
            "lng": 109.685572
        },
        "ad_info": {
            "adcode": 469024,
            "province": "海南省",
            "city": "",
            "district": "临高县"
        }
    },
    {
        "id": "16358566685127535905",
        "title": "公共厕所",
        "address": "海南省临高县S22文临高速与博厚互通交叉口东北400米",
        "tel": "",
        "category": "基础设施:公共设施:公共厕所",
        "type": 0,
        "location": {
            "lat": 19.868326,
            "lng": 109.759871
        },
        "ad_info": {
            "adcode": 469024,
            "province": "海南省",
            "city": "",
            "district": "临高县"
        }
    },
    {
        "id": "8043900311119941770",
        "title": "公共厕所",
        "address": "海南省临高县临昌路与海南环岛旅游公路交叉口正北方向48米左右",
        "tel": "",
        "category": "基础设施:公共设施:公共厕所",
        "type": 0,
        "location": {
            "lat": 20.002454,
            "lng": 109.720597
        },
        "ad_info": {
            "adcode": 469024,
            "province": "海南省",
            "city": "",
            "district": "临高县"
        }
    },
    {
        "id": "6503219906081265035",
        "title": "公共厕所",
        "address": "海南省临高县浙海机制砂南侧280米",
        "tel": "",
        "category": "基础设施:公共设施:公共厕所",
        "type": 0,
        "location": {
            "lat": 19.859482,
            "lng": 109.795495
        },
        "ad_info": {
            "adcode": 469024,
            "province": "海南省",
            "city": "",
            "district": "临高县"
        }
    },
    {
        "id": "11835151674859189066",
        "title": "公共厕所",
        "address": "海南省临高县二环路与新桥南路交叉口正西方向88米左右",
        "tel": "",
        "category": "基础设施:公共设施:公共厕所",
        "type": 0,
        "location": {
            "lat": 19.897457,
            "lng": 109.685275
        },
        "ad_info": {
            "adcode": 469024,
            "province": "海南省",
            "city": "",
            "district": "临高县"
        }
    },
    {
        "id": "13104484225968696715",
        "title": "公共厕所",
        "address": "海南省临高县S217与美台互通交叉口正东方向99米左右",
        "tel": "",
        "category": "基础设施:公共设施:公共厕所",
        "type": 0,
        "location": {
            "lat": 19.839396,
            "lng": 109.680358
        },
        "ad_info": {
            "adcode": 469024,
            "province": "海南省",
            "city": "",
            "district": "临高县"
        }
    },
    {
        "id": "3256923639929022849",
        "title": "公共厕所",
        "address": "海南省临高县S217与美台互通交叉口西北方向122米左右",
        "tel": "",
        "category": "基础设施:公共设施:公共厕所",
        "type": 0,
        "location": {
            "lat": 19.837058,
            "lng": 109.678821
        },
        "ad_info": {
            "adcode": 469024,
            "province": "海南省",
            "city": "",
            "district": "临高县"
        }
    },
    {
        "id": "6445691041468244583",
        "title": "公共厕所",
        "address": "海南省临高县S211与Y121交叉口西南方向933米左右",
        "tel": "",
        "category": "基础设施:公共设施:公共厕所",
        "type": 0,
        "location": {
            "lat": 19.85766,
            "lng": 109.644471
        },
        "ad_info": {
            "adcode": 469024,
            "province": "海南省",
            "city": "",
            "district": "临高县"
        }
    },
    {
        "id": "6498833552656278031",
        "title": "碧桂园金沙滩公共厕所",
        "address": "海南省临高县博厚镇龙波湾大道碧桂园温泉酒店内50米",
        "tel": "",
        "category": "基础设施:公共设施:公共厕所",
        "type": 0,
        "location": {
            "lat": 19.96075,
            "lng": 109.763932
        },
        "ad_info": {
            "adcode": 469024,
            "province": "海南省",
            "city": "",
            "district": "临高县"
        }
    },
    {
        "id": "10344514509790021413",
        "title": "兰麦村公共厕所",
        "address": "海南省临高县环岛旅游公路与滨海大道交叉口东北方向334米左右",
        "tel": "",
        "category": "基础设施:公共设施:公共厕所",
        "type": 0,
        "location": {
            "lat": 19.989383,
            "lng": 109.64243
        },
        "ad_info": {
            "adcode": 469024,
            "province": "海南省",
            "city": "",
            "district": "临高县"
        }
    },
    {
        "id": "9427337529779847218",
        "title": "和客村公共厕所",
        "address": "海南省临高县X300与海南环岛旅游公路交叉口西南方向280米左右",
        "tel": "",
        "category": "基础设施:公共设施:公共厕所",
        "type": 0,
        "location": {
            "lat": 19.915092,
            "lng": 109.859387
        },
        "ad_info": {
            "adcode": 469024,
            "province": "海南省",
            "city": "",
            "district": "临高县"
        }
    },
    {
        "id": "13019955802954311240",
        "title": "抱社村公共厕所",
        "address": "海南省临高县X302与海南环岛旅游公路交叉口正南方向1802米左右",
        "tel": "",
        "category": "基础设施:公共设施:公共厕所",
        "type": 0,
        "location": {
            "lat": 19.91739,
            "lng": 109.567526
        },
        "ad_info": {
            "adcode": 469024,
            "province": "海南省",
            "city": "",
            "district": "临高县"
        }
    },
    {
        "id": "13249314789456945770",
        "title": "公共厕所",
        "address": "海南省临高县峡角飞渡与海南环岛旅游公路交叉口西南140米",
        "tel": "",
        "category": "基础设施:公共设施:公共厕所",
        "type": 0,
        "location": {
            "lat": 19.985593,
            "lng": 109.72724
        },
        "ad_info": {
            "adcode": 469024,
            "province": "海南省",
            "city": "",
            "district": "临高县"
        }
    },
    {
        "id": "10574696297220657558",
        "title": "公共厕所",
        "address": "海南省临高县峡角飞渡与海南环岛旅游公路交叉口西80米",
        "tel": "",
        "category": "基础设施:公共设施:公共厕所",
        "type": 0,
        "location": {
            "lat": 19.986604,
            "lng": 109.726924
        },
        "ad_info": {
            "adcode": 469024,
            "province": "海南省",
            "city": "",
            "district": "临高县"
        }
    }
]