[
    {
        "id": "17778531158468248831",
        "title": "公共厕所",
        "address": "辽宁省丹东市振兴区春五路与滨江中路交叉口东北方向174米左右",
        "tel": "",
        "category": "基础设施:公共设施:公共厕所",
        "type": 0,
        "location": {
            "lat": 40.097033,
            "lng": 124.365371
        },
        "ad_info": {
            "adcode": 210603,
            "province": "辽宁省",
            "city": "丹东市",
            "district": "振兴区"
        }
    },
    {
        "id": "13079646398976483772",
        "title": "公共厕所",
        "address": "辽宁省丹东市振兴区商贸旅游区C区26楼",
        "tel": "",
        "category": "基础设施:公共设施:公共厕所",
        "type": 0,
        "location": {
            "lat": 40.115929,
            "lng": 124.390081
        },
        "ad_info": {
            "adcode": 210603,
            "province": "辽宁省",
            "city": "丹东市",
            "district": "振兴区"
        }
    },
    {
        "id": "16018814651553548524",
        "title": "公共厕所",
        "address": "辽宁省丹东市振兴区国祥路与鸭绿江大街交叉口正北方向231米左右",
        "tel": "",
        "category": "基础设施:公共设施:公共厕所",
        "type": 0,
        "location": {
            "lat": 40.017852,
            "lng": 124.371271
        },
        "ad_info": {
            "adcode": 210603,
            "province": "辽宁省",
            "city": "丹东市",
            "district": "振兴区"
        }
    },
    {
        "id": "15167252772537792342",
        "title": "公共厕所",
        "address": "辽宁省丹东市振兴区春四路与滨江中路交叉口西南方向175米左右",
        "tel": "",
        "category": "基础设施:公共设施:公共厕所",
        "type": 0,
        "location": {
            "lat": 40.097158,
            "lng": 124.365663
        },
        "ad_info": {
            "adcode": 210603,
            "province": "辽宁省",
            "city": "丹东市",
            "district": "振兴区"
        }
    },
    {
        "id": "17712482826461273783",
        "title": "公共厕所",
        "address": "辽宁省丹东市振兴区六纬路与六经街交叉口西北方向43米左右",
        "tel": "",
        "category": "基础设施:公共设施:公共厕所",
        "type": 0,
        "location": {
            "lat": 40.128313,
            "lng": 124.39167
        },
        "ad_info": {
            "adcode": 210603,
            "province": "辽宁省",
            "city": "丹东市",
            "district": "振兴区"
        }
    },
    {
        "id": "542174451400024771",
        "title": "公共厕所",
        "address": "辽宁省丹东市东港市银河路22号",
        "tel": "",
        "category": "基础设施:公共设施:公共厕所",
        "type": 0,
        "location": {
            "lat": 39.86299,
            "lng": 124.15134
        },
        "ad_info": {
            "adcode": 210681,
            "province": "辽宁省",
            "city": "丹东市",
            "district": "东港市"
        }
    },
    {
        "id": "6123340808238112938",
        "title": "公共厕所",
        "address": "辽宁省丹东市振兴区滨江中路鸭绿江公园",
        "tel": "",
        "category": "基础设施:公共设施:公共厕所",
        "type": 0,
        "location": {
            "lat": 40.121022,
            "lng": 124.396253
        },
        "ad_info": {
            "adcode": 210603,
            "province": "辽宁省",
            "city": "丹东市",
            "district": "振兴区"
        }
    },
    {
        "id": "7137545710393387221",
        "title": "公共厕所",
        "address": "辽宁省丹东市东港市大东街与工业路交叉口东北方向28米左右",
        "tel": "",
        "category": "基础设施:公共设施:公共厕所",
        "type": 0,
        "location": {
            "lat": 39.875687,
            "lng": 124.144085
        },
        "ad_info": {
            "adcode": 210681,
            "province": "辽宁省",
            "city": "丹东市",
            "district": "东港市"
        }
    },
    {
        "id": "16285952933145836218",
        "title": "公共厕所",
        "address": "辽宁省丹东市振兴区春二路与锦山大街交叉口正东方向31米左右",
        "tel": "",
        "category": "基础设施:公共设施:公共厕所",
        "type": 0,
        "location": {
            "lat": 40.105679,
            "lng": 124.361885
        },
        "ad_info": {
            "adcode": 210603,
            "province": "辽宁省",
            "city": "丹东市",
            "district": "振兴区"
        }
    },
    {
        "id": "6077712394849584900",
        "title": "公共厕所",
        "address": "辽宁省丹东市元宝区九道街与山上街交叉口东南方向20米左右",
        "tel": "",
        "category": "基础设施:公共设施:公共厕所",
        "type": 0,
        "location": {
            "lat": 40.150098,
            "lng": 124.405323
        },
        "ad_info": {
            "adcode": 210602,
            "province": "辽宁省",
            "city": "丹东市",
            "district": "元宝区"
        }
    },
    {
        "id": "10667315277673354389",
        "title": "公共厕所",
        "address": "辽宁省丹东市振安区东升路与郁文街交叉口正西方向50米左右",
        "tel": "",
        "category": "基础设施:公共设施:公共厕所",
        "type": 0,
        "location": {
            "lat": 40.150779,
            "lng": 124.419818
        },
        "ad_info": {
            "adcode": 210604,
            "province": "辽宁省",
            "city": "丹东市",
            "district": "振安区"
        }
    },
    {
        "id": "10768991841473412255",
        "title": "公共厕所",
        "address": "辽宁省丹东市振兴区兴五路与滨江中路交叉口东北方向94米左右",
        "tel": "",
        "category": "基础设施:公共设施:公共厕所",
        "type": 0,
        "location": {
            "lat": 40.114987,
            "lng": 124.388115
        },
        "ad_info": {
            "adcode": 210603,
            "province": "辽宁省",
            "city": "丹东市",
            "district": "振兴区"
        }
    },
    {
        "id": "3523544813769194699",
        "title": "公共厕所",
        "address": "辽宁省丹东市振兴区春三路与桃源街交叉口正东方向42米左右",
        "tel": "",
        "category": "基础设施:公共设施:公共厕所",
        "type": 0,
        "location": {
            "lat": 40.107141,
            "lng": 124.3554
        },
        "ad_info": {
            "adcode": 210603,
            "province": "辽宁省",
            "city": "丹东市",
            "district": "振兴区"
        }
    },
    {
        "id": "12846089330235491698",
        "title": "公共厕所",
        "address": "辽宁省丹东市振兴区体育馆路与青年大街交叉口正东方向103米左右",
        "tel": "",
        "category": "基础设施:公共设施:公共厕所",
        "type": 0,
        "location": {
            "lat": 40.11059,
            "lng": 124.3752
        },
        "ad_info": {
            "adcode": 210603,
            "province": "辽宁省",
            "city": "丹东市",
            "district": "振兴区"
        }
    },
    {
        "id": "15942508643915040273",
        "title": "公共厕所",
        "address": "辽宁省丹东市振兴区北环路与黄海大街交叉口正东方向101米左右",
        "tel": "",
        "category": "基础设施:公共设施:公共厕所",
        "type": 0,
        "location": {
            "lat": 40.040969,
            "lng": 124.334636
        },
        "ad_info": {
            "adcode": 210603,
            "province": "辽宁省",
            "city": "丹东市",
            "district": "振兴区"
        }
    },
    {
        "id": "18319705424195034728",
        "title": "公共厕所",
        "address": "辽宁省丹东市东港市双拥路与育才街交叉口东南方向15米左右",
        "tel": "",
        "category": "基础设施:公共设施:公共厕所",
        "type": 0,
        "location": {
            "lat": 39.886062,
            "lng": 124.150951
        },
        "ad_info": {
            "adcode": 210681,
            "province": "辽宁省",
            "city": "丹东市",
            "district": "东港市"
        }
    },
    {
        "id": "3654259304159932391",
        "title": "公共厕所",
        "address": "辽宁省丹东市振兴区三纬路与江沿街交叉口正北方向120米左右",
        "tel": "",
        "category": "基础设施:公共设施:公共厕所",
        "type": 0,
        "location": {
            "lat": 40.127769,
            "lng": 124.400248
        },
        "ad_info": {
            "adcode": 210603,
            "province": "辽宁省",
            "city": "丹东市",
            "district": "振兴区"
        }
    },
    {
        "id": "16134123820401831005",
        "title": "公共厕所",
        "address": "辽宁省丹东市凤城市凤山路与苗可秀街交叉口正东方向36米左右",
        "tel": "",
        "category": "基础设施:公共设施:公共厕所",
        "type": 0,
        "location": {
            "lat": 40.440827,
            "lng": 124.073494
        },
        "ad_info": {
            "adcode": 210682,
            "province": "辽宁省",
            "city": "丹东市",
            "district": "凤城市"
        }
    },
    {
        "id": "11561606765951183168",
        "title": "公共厕所",
        "address": "辽宁省丹东市东港市东港路110-2号",
        "tel": "",
        "category": "基础设施:公共设施:公共厕所",
        "type": 0,
        "location": {
            "lat": 39.877927,
            "lng": 124.150117
        },
        "ad_info": {
            "adcode": 210681,
            "province": "辽宁省",
            "city": "丹东市",
            "district": "东港市"
        }
    },
    {
        "id": "8578085151942324754",
        "title": "公共厕所",
        "address": "辽宁省丹东市东港市中大街与大盘线交叉口西南方向167米左右",
        "tel": "",
        "category": "基础设施:公共设施:公共厕所",
        "type": 0,
        "location": {
            "lat": 39.900071,
            "lng": 123.582025
        },
        "ad_info": {
            "adcode": 210681,
            "province": "辽宁省",
            "city": "丹东市",
            "district": "东港市"
        }
    },
    {
        "id": "18316034121668311624",
        "title": "公共厕所",
        "address": "辽宁省丹东市元宝区江城大街272-4号",
        "tel": "",
        "category": "基础设施:公共设施:公共厕所",
        "type": 0,
        "location": {
            "lat": 40.135837,
            "lng": 124.405248
        },
        "ad_info": {
            "adcode": 210602,
            "province": "辽宁省",
            "city": "丹东市",
            "district": "元宝区"
        }
    },
    {
        "id": "2445584345868780706",
        "title": "公共厕所",
        "address": "辽宁省丹东市东港市大东街与黎明胡同交叉口东南方向62米左右",
        "tel": "",
        "category": "基础设施:公共设施:公共厕所",
        "type": 0,
        "location": {
            "lat": 39.882332,
            "lng": 124.157396
        },
        "ad_info": {
            "adcode": 210681,
            "province": "辽宁省",
            "city": "丹东市",
            "district": "东港市"
        }
    },
    {
        "id": "11769015310499049763",
        "title": "公共厕所",
        "address": "辽宁省丹东市振兴区花园西路与花园路交叉口西南方向814米左右",
        "tel": "",
        "category": "基础设施:公共设施:公共厕所",
        "type": 0,
        "location": {
            "lat": 40.120288,
            "lng": 124.337001
        },
        "ad_info": {
            "adcode": 210603,
            "province": "辽宁省",
            "city": "丹东市",
            "district": "振兴区"
        }
    },
    {
        "id": "12286854561711868660",
        "title": "公共厕所",
        "address": "辽宁省丹东市振安区经山街东平嘉苑",
        "tel": "",
        "category": "基础设施:公共设施:公共厕所",
        "type": 0,
        "location": {
            "lat": 40.161343,
            "lng": 124.429693
        },
        "ad_info": {
            "adcode": 210604,
            "province": "辽宁省",
            "city": "丹东市",
            "district": "振安区"
        }
    },
    {
        "id": "10956633743464502090",
        "title": "公共厕所",
        "address": "辽宁省丹东市东港市新兴路与迎宾西大街交叉口东北方向60米左右",
        "tel": "",
        "category": "基础设施:公共设施:公共厕所",
        "type": 0,
        "location": {
            "lat": 39.886234,
            "lng": 124.14519
        },
        "ad_info": {
            "adcode": 210681,
            "province": "辽宁省",
            "city": "丹东市",
            "district": "东港市"
        }
    },
    {
        "id": "18109528335791506844",
        "title": "公共厕所",
        "address": "辽宁省丹东市振兴区春七路与滨江中路交叉口东北方向52米左右",
        "tel": "",
        "category": "基础设施:公共设施:公共厕所",
        "type": 0,
        "location": {
            "lat": 40.093893,
            "lng": 124.362646
        },
        "ad_info": {
            "adcode": 210603,
            "province": "辽宁省",
            "city": "丹东市",
            "district": "振兴区"
        }
    },
    {
        "id": "7887597973609706782",
        "title": "公共厕所",
        "address": "辽宁省丹东市振兴区宾馆路与山上街交叉口西南方向103米左右",
        "tel": "",
        "category": "基础设施:公共设施:公共厕所",
        "type": 0,
        "location": {
            "lat": 40.124608,
            "lng": 124.372272
        },
        "ad_info": {
            "adcode": 210603,
            "province": "辽宁省",
            "city": "丹东市",
            "district": "振兴区"
        }
    },
    {
        "id": "749031685017824527",
        "title": "公共厕所",
        "address": "辽宁省丹东市元宝区天后宫街与宝山大街交叉口正北方向119米左右",
        "tel": "",
        "category": "基础设施:公共设施:公共厕所",
        "type": 0,
        "location": {
            "lat": 40.143486,
            "lng": 124.39685
        },
        "ad_info": {
            "adcode": 210602,
            "province": "辽宁省",
            "city": "丹东市",
            "district": "元宝区"
        }
    },
    {
        "id": "2865307236527012799",
        "title": "公共厕所",
        "address": "辽宁省丹东市振安区东泰路与临江后街交叉口东南方向383米左右",
        "tel": "",
        "category": "基础设施:公共设施:公共厕所",
        "type": 0,
        "location": {
            "lat": 40.150304,
            "lng": 124.431895
        },
        "ad_info": {
            "adcode": 210604,
            "province": "辽宁省",
            "city": "丹东市",
            "district": "振安区"
        }
    },
    {
        "id": "8803278979846375383",
        "title": "公共厕所",
        "address": "辽宁省丹东市振兴区铁城集团门前广场",
        "tel": "",
        "category": "基础设施:公共设施:公共厕所",
        "type": 0,
        "location": {
            "lat": 40.125966,
            "lng": 124.387362
        },
        "ad_info": {
            "adcode": 210603,
            "province": "辽宁省",
            "city": "丹东市",
            "district": "振兴区"
        }
    },
    {
        "id": "1119378909820125257",
        "title": "公共厕所",
        "address": "辽宁省丹东市元宝区滨江中路与金海路交叉口西南方向138米左右",
        "tel": "",
        "category": "基础设施:公共设施:公共厕所",
        "type": 0,
        "location": {
            "lat": 40.13652,
            "lng": 124.407659
        },
        "ad_info": {
            "adcode": 210602,
            "province": "辽宁省",
            "city": "丹东市",
            "district": "元宝区"
        }
    },
    {
        "id": "4138529478093408438",
        "title": "公共厕所",
        "address": "辽宁省丹东市元宝区山上街与新华街交叉口正北方向162米左右",
        "tel": "",
        "category": "基础设施:公共设施:公共厕所",
        "type": 0,
        "location": {
            "lat": 40.137263,
            "lng": 124.388694
        },
        "ad_info": {
            "adcode": 210602,
            "province": "辽宁省",
            "city": "丹东市",
            "district": "元宝区"
        }
    },
    {
        "id": "17923387965801346861",
        "title": "公共厕所",
        "address": "辽宁省丹东市东港市站前街与翠华路交叉口正南方向13米左右",
        "tel": "",
        "category": "基础设施:公共设施:公共厕所",
        "type": 0,
        "location": {
            "lat": 39.888592,
            "lng": 124.149046
        },
        "ad_info": {
            "adcode": 210681,
            "province": "辽宁省",
            "city": "丹东市",
            "district": "东港市"
        }
    },
    {
        "id": "13624014224005251634",
        "title": "公共厕所",
        "address": "辽宁省丹东市东港市东港路与新华街交叉口正西方向151米左右",
        "tel": "",
        "category": "基础设施:公共设施:公共厕所",
        "type": 0,
        "location": {
            "lat": 39.8806,
            "lng": 124.147988
        },
        "ad_info": {
            "adcode": 210681,
            "province": "辽宁省",
            "city": "丹东市",
            "district": "东港市"
        }
    },
    {
        "id": "5614653090272757468",
        "title": "公共厕所",
        "address": "辽宁省丹东市东港市向阳街与联营街交叉口正北方向44米左右",
        "tel": "",
        "category": "基础设施:公共设施:公共厕所",
        "type": 0,
        "location": {
            "lat": 39.884976,
            "lng": 124.149937
        },
        "ad_info": {
            "adcode": 210681,
            "province": "辽宁省",
            "city": "丹东市",
            "district": "东港市"
        }
    },
    {
        "id": "10723450993904068828",
        "title": "公共厕所",
        "address": "辽宁省丹东市东港市东港立交与江海大道交叉口东南方向312米左右",
        "tel": "",
        "category": "基础设施:公共设施:公共厕所",
        "type": 0,
        "location": {
            "lat": 39.950181,
            "lng": 124.075072
        },
        "ad_info": {
            "adcode": 210681,
            "province": "辽宁省",
            "city": "丹东市",
            "district": "东港市"
        }
    },
    {
        "id": "11136395831712888416",
        "title": "公共厕所",
        "address": "辽宁省丹东市宽甸满族自治县东环路与花脖山路交叉口正北方向279米左右",
        "tel": "",
        "category": "基础设施:公共设施:公共厕所",
        "type": 0,
        "location": {
            "lat": 40.736742,
            "lng": 124.792892
        },
        "ad_info": {
            "adcode": 210624,
            "province": "辽宁省",
            "city": "丹东市",
            "district": "宽甸满族自治县"
        }
    },
    {
        "id": "9140938520396105841",
        "title": "公共厕所",
        "address": "辽宁省丹东市东港市民生街与青年路交叉口东南方向55米左右",
        "tel": "",
        "category": "基础设施:公共设施:公共厕所",
        "type": 0,
        "location": {
            "lat": 39.889056,
            "lng": 124.167072
        },
        "ad_info": {
            "adcode": 210681,
            "province": "辽宁省",
            "city": "丹东市",
            "district": "东港市"
        }
    },
    {
        "id": "1746552341535420523",
        "title": "公共卫生间",
        "address": "辽宁省丹东市凤城市迎宾街与邓铁梅路交叉口正东方向40米左右",
        "tel": "",
        "category": "基础设施:公共设施:公共厕所",
        "type": 0,
        "location": {
            "lat": 40.456565,
            "lng": 124.069341
        },
        "ad_info": {
            "adcode": 210682,
            "province": "辽宁省",
            "city": "丹东市",
            "district": "凤城市"
        }
    },
    {
        "id": "10786495548354956352",
        "title": "公共卫生间",
        "address": "辽宁省丹东市元宝区江城大街与虹桥路交叉口东北方向230米左右",
        "tel": "",
        "category": "基础设施:公共设施:公共厕所",
        "type": 0,
        "location": {
            "lat": 40.144097,
            "lng": 124.412587
        },
        "ad_info": {
            "adcode": 210602,
            "province": "辽宁省",
            "city": "丹东市",
            "district": "元宝区"
        }
    },
    {
        "id": "1264577796258691699",
        "title": "公共厕所",
        "address": "辽宁省丹东市振兴区十经街15-1号",
        "tel": "",
        "category": "基础设施:公共设施:公共厕所",
        "type": 0,
        "location": {
            "lat": 40.131307,
            "lng": 124.388004
        },
        "ad_info": {
            "adcode": 210603,
            "province": "辽宁省",
            "city": "丹东市",
            "district": "振兴区"
        }
    },
    {
        "id": "213719134410702088",
        "title": "公共厕所",
        "address": "辽宁省丹东市宽甸满族自治县G201与新八线交叉口正西方向158米左右",
        "tel": "",
        "category": "基础设施:公共设施:公共厕所",
        "type": 0,
        "location": {
            "lat": 40.891748,
            "lng": 124.884054
        },
        "ad_info": {
            "adcode": 210624,
            "province": "辽宁省",
            "city": "丹东市",
            "district": "宽甸满族自治县"
        }
    },
    {
        "id": "509172806162563930",
        "title": "公共厕所",
        "address": "辽宁省丹东市东港市东荣食品加工厂西北侧90米",
        "tel": "",
        "category": "基础设施:公共设施:公共厕所",
        "type": 0,
        "location": {
            "lat": 39.880436,
            "lng": 124.129441
        },
        "ad_info": {
            "adcode": 210681,
            "province": "辽宁省",
            "city": "丹东市",
            "district": "东港市"
        }
    },
    {
        "id": "13516154539888785820",
        "title": "公共厕所",
        "address": "辽宁省丹东市东港市双双线与庙骆线交叉口正西方向1184米左右",
        "tel": "",
        "category": "基础设施:公共设施:公共厕所",
        "type": 0,
        "location": {
            "lat": 39.935152,
            "lng": 123.884741
        },
        "ad_info": {
            "adcode": 210681,
            "province": "辽宁省",
            "city": "丹东市",
            "district": "东港市"
        }
    },
    {
        "id": "12052410422292847845",
        "title": "公共厕所",
        "address": "辽宁省丹东市宽甸满族自治县天华山路与小台占胡同交叉口正西方向200米左右",
        "tel": "",
        "category": "基础设施:公共设施:公共厕所",
        "type": 0,
        "location": {
            "lat": 40.740054,
            "lng": 124.784545
        },
        "ad_info": {
            "adcode": 210624,
            "province": "辽宁省",
            "city": "丹东市",
            "district": "宽甸满族自治县"
        }
    },
    {
        "id": "3476182206287993966",
        "title": "公共厕所",
        "address": "辽宁省丹东市振兴区商贸旅游区B区11楼",
        "tel": "",
        "category": "基础设施:公共设施:公共厕所",
        "type": 0,
        "location": {
            "lat": 40.117022,
            "lng": 124.390605
        },
        "ad_info": {
            "adcode": 210603,
            "province": "辽宁省",
            "city": "丹东市",
            "district": "振兴区"
        }
    },
    {
        "id": "11976327417813780477",
        "title": "公共厕所",
        "address": "辽宁省丹东市凤城市公安路与苗可秀街交叉口东北方向192米左右",
        "tel": "",
        "category": "基础设施:公共设施:公共厕所",
        "type": 0,
        "location": {
            "lat": 40.451764,
            "lng": 124.06136
        },
        "ad_info": {
            "adcode": 210682,
            "province": "辽宁省",
            "city": "丹东市",
            "district": "凤城市"
        }
    },
    {
        "id": "1625805464169019017",
        "title": "公共厕所",
        "address": "辽宁省丹东市振安区毛绢路688-2正西方向160米",
        "tel": "",
        "category": "基础设施:公共设施:公共厕所",
        "type": 0,
        "location": {
            "lat": 40.262221,
            "lng": 124.281601
        },
        "ad_info": {
            "adcode": 210604,
            "province": "辽宁省",
            "city": "丹东市",
            "district": "振安区"
        }
    },
    {
        "id": "7007149948006816745",
        "title": "公共厕所",
        "address": "辽宁省丹东市宽甸满族自治县城隍庙胡同与天华山路交叉口正东方向49米左右",
        "tel": "",
        "category": "基础设施:公共设施:公共厕所",
        "type": 0,
        "location": {
            "lat": 40.733413,
            "lng": 124.785484
        },
        "ad_info": {
            "adcode": 210624,
            "province": "辽宁省",
            "city": "丹东市",
            "district": "宽甸满族自治县"
        }
    },
    {
        "id": "12384866454386555808",
        "title": "公共厕所",
        "address": "辽宁省丹东市凤城市G304与S203交叉口东北方向309米左右",
        "tel": "",
        "category": "基础设施:公共设施:公共厕所",
        "type": 0,
        "location": {
            "lat": 40.782278,
            "lng": 123.928255
        },
        "ad_info": {
            "adcode": 210682,
            "province": "辽宁省",
            "city": "丹东市",
            "district": "凤城市"
        }
    },
    {
        "id": "14936106889595741216",
        "title": "公共厕所",
        "address": "辽宁省丹东市宽甸满族自治县婆娑府街与过街楼东街交叉口西北方向51米左右",
        "tel": "",
        "category": "基础设施:公共设施:公共厕所",
        "type": 0,
        "location": {
            "lat": 40.727822,
            "lng": 124.800708
        },
        "ad_info": {
            "adcode": 210624,
            "province": "辽宁省",
            "city": "丹东市",
            "district": "宽甸满族自治县"
        }
    },
    {
        "id": "12810764766469974886",
        "title": "公共厕所",
        "address": "辽宁省丹东市宽甸满族自治县319省道东50米",
        "tel": "",
        "category": "基础设施:公共设施:公共厕所",
        "type": 0,
        "location": {
            "lat": 40.320715,
            "lng": 124.671543
        },
        "ad_info": {
            "adcode": 210624,
            "province": "辽宁省",
            "city": "丹东市",
            "district": "宽甸满族自治县"
        }
    },
    {
        "id": "7383206426121121417",
        "title": "公共厕所",
        "address": "辽宁省丹东市东港市312省道西50米",
        "tel": "",
        "category": "基础设施:公共设施:公共厕所",
        "type": 0,
        "location": {
            "lat": 40.032804,
            "lng": 123.457414
        },
        "ad_info": {
            "adcode": 210681,
            "province": "辽宁省",
            "city": "丹东市",
            "district": "东港市"
        }
    },
    {
        "id": "7742411187146973552",
        "title": "公共厕所",
        "address": "辽宁省丹东市东港市桃源路与滨海大道交叉口西南方向370米左右",
        "tel": "",
        "category": "基础设施:公共设施:公共厕所",
        "type": 0,
        "location": {
            "lat": 39.842737,
            "lng": 124.124173
        },
        "ad_info": {
            "adcode": 210681,
            "province": "辽宁省",
            "city": "丹东市",
            "district": "东港市"
        }
    },
    {
        "id": "12230526242588473787",
        "title": "公共厕所",
        "address": "辽宁省丹东市振兴区商贸旅游区H区50楼",
        "tel": "",
        "category": "基础设施:公共设施:公共厕所",
        "type": 0,
        "location": {
            "lat": 40.112797,
            "lng": 124.385275
        },
        "ad_info": {
            "adcode": 210603,
            "province": "辽宁省",
            "city": "丹东市",
            "district": "振兴区"
        }
    },
    {
        "id": "6966294393277427011",
        "title": "公共厕所",
        "address": "辽宁省丹东市凤城市凤华街与城东路交叉口正西方向375米左右",
        "tel": "",
        "category": "基础设施:公共设施:公共厕所",
        "type": 0,
        "location": {
            "lat": 40.464207,
            "lng": 124.088545
        },
        "ad_info": {
            "adcode": 210682,
            "province": "辽宁省",
            "city": "丹东市",
            "district": "凤城市"
        }
    },
    {
        "id": "17953973061502880587",
        "title": "公共厕所",
        "address": "辽宁省丹东市振安区新炮线与站前西街交叉口东北方向1057米左右",
        "tel": "",
        "category": "基础设施:公共设施:公共厕所",
        "type": 0,
        "location": {
            "lat": 40.268,
            "lng": 124.280847
        },
        "ad_info": {
            "adcode": 210604,
            "province": "辽宁省",
            "city": "丹东市",
            "district": "振安区"
        }
    },
    {
        "id": "3603179541092645905",
        "title": "公共厕所",
        "address": "辽宁省丹东市宽甸满族自治县安阜门街与青山沟路交叉口西北方向114米左右",
        "tel": "",
        "category": "基础设施:公共设施:公共厕所",
        "type": 0,
        "location": {
            "lat": 40.726181,
            "lng": 124.78548
        },
        "ad_info": {
            "adcode": 210624,
            "province": "辽宁省",
            "city": "丹东市",
            "district": "宽甸满族自治县"
        }
    },
    {
        "id": "16648434892310756985",
        "title": "公共厕所",
        "address": "辽宁省丹东市凤城市大四线与大梨树路交叉口正西方向189米左右",
        "tel": "",
        "category": "基础设施:公共设施:公共厕所",
        "type": 0,
        "location": {
            "lat": 40.400372,
            "lng": 123.957554
        },
        "ad_info": {
            "adcode": 210682,
            "province": "辽宁省",
            "city": "丹东市",
            "district": "凤城市"
        }
    },
    {
        "id": "14868184228407678936",
        "title": "三道桥公共厕所",
        "address": "辽宁省丹东市振兴区二纬路与十经街交叉口东南方向66米左右",
        "tel": "",
        "category": "基础设施:公共设施:公共厕所",
        "type": 0,
        "location": {
            "lat": 40.133259,
            "lng": 124.391952
        },
        "ad_info": {
            "adcode": 210603,
            "province": "辽宁省",
            "city": "丹东市",
            "district": "振兴区"
        }
    },
    {
        "id": "16211085502556192996",
        "title": "公共厕所",
        "address": "辽宁省丹东市振安区东平大街与辛套线交叉口正南方向273米左右",
        "tel": "",
        "category": "基础设施:公共设施:公共厕所",
        "type": 0,
        "location": {
            "lat": 40.173081,
            "lng": 124.441547
        },
        "ad_info": {
            "adcode": 210604,
            "province": "辽宁省",
            "city": "丹东市",
            "district": "振安区"
        }
    },
    {
        "id": "11701037617326343986",
        "title": "公共厕所",
        "address": "辽宁省丹东市凤城市凤凰大道与滨河路交叉口西北方向229米左右",
        "tel": "",
        "category": "基础设施:公共设施:公共厕所",
        "type": 0,
        "location": {
            "lat": 40.42879,
            "lng": 124.045551
        },
        "ad_info": {
            "adcode": 210682,
            "province": "辽宁省",
            "city": "丹东市",
            "district": "凤城市"
        }
    },
    {
        "id": "8249989220614490478",
        "title": "公共厕所",
        "address": "辽宁省丹东市宽甸满族自治县G201与阮国长大街交叉口东南方向156米左右",
        "tel": "",
        "category": "基础设施:公共设施:公共厕所",
        "type": 0,
        "location": {
            "lat": 40.748638,
            "lng": 124.752084
        },
        "ad_info": {
            "adcode": 210624,
            "province": "辽宁省",
            "city": "丹东市",
            "district": "宽甸满族自治县"
        }
    },
    {
        "id": "4918557182546518187",
        "title": "公共厕所",
        "address": "辽宁省丹东市宽甸满族自治县董鄂妃街与黄椅山路交叉口西北方向127米左右",
        "tel": "",
        "category": "基础设施:公共设施:公共厕所",
        "type": 0,
        "location": {
            "lat": 40.725397,
            "lng": 124.775114
        },
        "ad_info": {
            "adcode": 210624,
            "province": "辽宁省",
            "city": "丹东市",
            "district": "宽甸满族自治县"
        }
    },
    {
        "id": "17487947791458911511",
        "title": "公共厕所",
        "address": "辽宁省丹东市振安区新炮线与站前西街交叉口东北方向949米左右",
        "tel": "",
        "category": "基础设施:公共设施:公共厕所",
        "type": 0,
        "location": {
            "lat": 40.266799,
            "lng": 124.281013
        },
        "ad_info": {
            "adcode": 210604,
            "province": "辽宁省",
            "city": "丹东市",
            "district": "振安区"
        }
    },
    {
        "id": "9297073150721013923",
        "title": "公共厕所",
        "address": "辽宁省丹东市振安区医药机械东北侧290米",
        "tel": "",
        "category": "基础设施:公共设施:公共厕所",
        "type": 0,
        "location": {
            "lat": 40.267828,
            "lng": 124.279624
        },
        "ad_info": {
            "adcode": 210604,
            "province": "辽宁省",
            "city": "丹东市",
            "district": "振安区"
        }
    },
    {
        "id": "454468382176738850",
        "title": "公共厕所",
        "address": "辽宁省丹东市凤城市一面街与三道桥街交叉口西南方向512米左右",
        "tel": "",
        "category": "基础设施:公共设施:公共厕所",
        "type": 0,
        "location": {
            "lat": 40.510194,
            "lng": 123.919003
        },
        "ad_info": {
            "adcode": 210682,
            "province": "辽宁省",
            "city": "丹东市",
            "district": "凤城市"
        }
    },
    {
        "id": "3797554993449624500",
        "title": "公共厕所",
        "address": "辽宁省丹东市宽甸满族自治县过街楼东街与鸭绿江路交叉口正西方向39米左右",
        "tel": "",
        "category": "基础设施:公共设施:公共厕所",
        "type": 0,
        "location": {
            "lat": 40.726141,
            "lng": 124.805976
        },
        "ad_info": {
            "adcode": 210624,
            "province": "辽宁省",
            "city": "丹东市",
            "district": "宽甸满族自治县"
        }
    },
    {
        "id": "5997196398874652477",
        "title": "公共厕所",
        "address": "辽宁省丹东市振兴区体育馆路与滨江中路交叉口东北方向125米左右",
        "tel": "",
        "category": "基础设施:公共设施:公共厕所",
        "type": 0,
        "location": {
            "lat": 40.109011,
            "lng": 124.3785
        },
        "ad_info": {
            "adcode": 210603,
            "province": "辽宁省",
            "city": "丹东市",
            "district": "振兴区"
        }
    },
    {
        "id": "4398919470232970835",
        "title": "公共厕所",
        "address": "辽宁省丹东市元宝区九道街与蔡家街交叉口西南方向547米左右",
        "tel": "",
        "category": "基础设施:公共设施:公共厕所",
        "type": 0,
        "location": {
            "lat": 40.151206,
            "lng": 124.39709
        },
        "ad_info": {
            "adcode": 210602,
            "province": "辽宁省",
            "city": "丹东市",
            "district": "元宝区"
        }
    },
    {
        "id": "1188887575240808553",
        "title": "公共厕所",
        "address": "辽宁省丹东市宽甸满族自治县319省道北150米希望小学(复光村)附近",
        "tel": "",
        "category": "基础设施:公共设施:公共厕所",
        "type": 0,
        "location": {
            "lat": 40.925415,
            "lng": 125.384111
        },
        "ad_info": {
            "adcode": 210624,
            "province": "辽宁省",
            "city": "丹东市",
            "district": "宽甸满族自治县"
        }
    },
    {
        "id": "7549147247977669790",
        "title": "公共厕所",
        "address": "辽宁省丹东市宽甸满族自治县天华山路与安阜门街交叉口东北方向94米左右",
        "tel": "",
        "category": "基础设施:公共设施:公共厕所",
        "type": 0,
        "location": {
            "lat": 40.726549,
            "lng": 124.783131
        },
        "ad_info": {
            "adcode": 210624,
            "province": "辽宁省",
            "city": "丹东市",
            "district": "宽甸满族自治县"
        }
    },
    {
        "id": "17170712364408615603",
        "title": "公共厕所",
        "address": "辽宁省丹东市宽甸满族自治县胖哥农家院北侧150米",
        "tel": "",
        "category": "基础设施:公共设施:公共厕所",
        "type": 0,
        "location": {
            "lat": 40.736803,
            "lng": 124.742422
        },
        "ad_info": {
            "adcode": 210624,
            "province": "辽宁省",
            "city": "丹东市",
            "district": "宽甸满族自治县"
        }
    },
    {
        "id": "8766549989260466801",
        "title": "公共厕所",
        "address": "辽宁省丹东市凤城市凤山路与邓铁梅路交叉口东北方向849米左右",
        "tel": "",
        "category": "基础设施:公共设施:公共厕所",
        "type": 0,
        "location": {
            "lat": 40.472748,
            "lng": 124.083211
        },
        "ad_info": {
            "adcode": 210682,
            "province": "辽宁省",
            "city": "丹东市",
            "district": "凤城市"
        }
    },
    {
        "id": "10759523232372724437",
        "title": "公共厕所",
        "address": "辽宁省丹东市宽甸满族自治县阮国长大街与青山沟路交叉口正北方向195米左右",
        "tel": "",
        "category": "基础设施:公共设施:公共厕所",
        "type": 0,
        "location": {
            "lat": 40.736486,
            "lng": 124.790287
        },
        "ad_info": {
            "adcode": 210624,
            "province": "辽宁省",
            "city": "丹东市",
            "district": "宽甸满族自治县"
        }
    },
    {
        "id": "5701940641194469266",
        "title": "十九中无障碍公共厕所",
        "address": "辽宁省丹东市振兴区兴八路9号",
        "tel": "",
        "category": "基础设施:公共设施:公共厕所",
        "type": 0,
        "location": {
            "lat": 40.1177,
            "lng": 124.370816
        },
        "ad_info": {
            "adcode": 210603,
            "province": "辽宁省",
            "city": "丹东市",
            "district": "振兴区"
        }
    },
    {
        "id": "15445774386876846365",
        "title": "公共厕所",
        "address": "辽宁省丹东市东港市临园东街与宁静路交叉口西北方向29米左右",
        "tel": "",
        "category": "基础设施:公共设施:公共厕所",
        "type": 0,
        "location": {
            "lat": 39.870537,
            "lng": 124.153691
        },
        "ad_info": {
            "adcode": 210681,
            "province": "辽宁省",
            "city": "丹东市",
            "district": "东港市"
        }
    },
    {
        "id": "2289511920811453848",
        "title": "公共厕所",
        "address": "辽宁省丹东市宽甸满族自治县小林线与铁长线交叉口正西方向159米左右",
        "tel": "",
        "category": "基础设施:公共设施:公共厕所",
        "type": 0,
        "location": {
            "lat": 40.903973,
            "lng": 124.55641
        },
        "ad_info": {
            "adcode": 210624,
            "province": "辽宁省",
            "city": "丹东市",
            "district": "宽甸满族自治县"
        }
    },
    {
        "id": "10354100695403610926",
        "title": "公共厕所",
        "address": "辽宁省丹东市宽甸满族自治县丹集线与小安线交叉口东南方向49米左右",
        "tel": "",
        "category": "基础设施:公共设施:公共厕所",
        "type": 0,
        "location": {
            "lat": 40.30299,
            "lng": 124.635283
        },
        "ad_info": {
            "adcode": 210624,
            "province": "辽宁省",
            "city": "丹东市",
            "district": "宽甸满族自治县"
        }
    },
    {
        "id": "394132712717580228",
        "title": "公共厕所",
        "address": "辽宁省丹东市凤城市凤北路与翰墨街交叉口正北方向194米左右",
        "tel": "",
        "category": "基础设施:公共设施:公共厕所",
        "type": 0,
        "location": {
            "lat": 40.46521,
            "lng": 124.065976
        },
        "ad_info": {
            "adcode": 210682,
            "province": "辽宁省",
            "city": "丹东市",
            "district": "凤城市"
        }
    },
    {
        "id": "1046111800514357575",
        "title": "公共厕所",
        "address": "辽宁省丹东市振兴区帽盔山路与锦山大街交叉口东南方向163米左右",
        "tel": "",
        "category": "基础设施:公共设施:公共厕所",
        "type": 0,
        "location": {
            "lat": 40.09377,
            "lng": 124.353421
        },
        "ad_info": {
            "adcode": 210603,
            "province": "辽宁省",
            "city": "丹东市",
            "district": "振兴区"
        }
    },
    {
        "id": "8706844265276079165",
        "title": "公共厕所",
        "address": "辽宁省丹东市凤城市石桥路辅路与苗可秀街交叉口东480米",
        "tel": "",
        "category": "基础设施:公共设施:公共厕所",
        "type": 0,
        "location": {
            "lat": 40.445701,
            "lng": 124.071828
        },
        "ad_info": {
            "adcode": 210682,
            "province": "辽宁省",
            "city": "丹东市",
            "district": "凤城市"
        }
    },
    {
        "id": "15255665593927867894",
        "title": "公共厕所",
        "address": "辽宁省丹东市宽甸满族自治县G331与下拉线交叉口西北方向61米左右",
        "tel": "",
        "category": "基础设施:公共设施:公共厕所",
        "type": 0,
        "location": {
            "lat": 40.40911,
            "lng": 124.797836
        },
        "ad_info": {
            "adcode": 210624,
            "province": "辽宁省",
            "city": "丹东市",
            "district": "宽甸满族自治县"
        }
    },
    {
        "id": "5358543321366607164",
        "title": "公共厕所",
        "address": "辽宁省丹东市凤城市邓铁梅路翰墨大街交叉口交通岗旁正北方向313米左右",
        "tel": "",
        "category": "基础设施:公共设施:公共厕所",
        "type": 0,
        "location": {
            "lat": 40.464655,
            "lng": 124.072683
        },
        "ad_info": {
            "adcode": 210682,
            "province": "辽宁省",
            "city": "丹东市",
            "district": "凤城市"
        }
    },
    {
        "id": "18145779061175718533",
        "title": "公共厕所",
        "address": "辽宁省丹东市振兴区分矿东路与胜利街交叉口东南方向872米左右",
        "tel": "",
        "category": "基础设施:公共设施:公共厕所",
        "type": 0,
        "location": {
            "lat": 40.080822,
            "lng": 124.347161
        },
        "ad_info": {
            "adcode": 210603,
            "province": "辽宁省",
            "city": "丹东市",
            "district": "振兴区"
        }
    },
    {
        "id": "1583192000132886079",
        "title": "卫生间",
        "address": "辽宁省丹东市振兴区锦山大街298号万达广场F3",
        "tel": "",
        "category": "基础设施:公共设施:公共厕所",
        "type": 0,
        "location": {
            "lat": 40.111546,
            "lng": 124.365474
        },
        "ad_info": {
            "adcode": 210603,
            "province": "辽宁省",
            "city": "丹东市",
            "district": "振兴区"
        }
    },
    {
        "id": "7929427352868078482",
        "title": "公共厕所",
        "address": "辽宁省丹东市凤城市凤华街与城东路交叉口东南方向548米左右",
        "tel": "",
        "category": "基础设施:公共设施:公共厕所",
        "type": 0,
        "location": {
            "lat": 40.460923,
            "lng": 124.097666
        },
        "ad_info": {
            "adcode": 210682,
            "province": "辽宁省",
            "city": "丹东市",
            "district": "凤城市"
        }
    },
    {
        "id": "5579786547087936192",
        "title": "公共厕所",
        "address": "辽宁省丹东市凤城市G304与林弯线交叉口西北方向436米左右",
        "tel": "",
        "category": "基础设施:公共设施:公共厕所",
        "type": 0,
        "location": {
            "lat": 40.716693,
            "lng": 123.950928
        },
        "ad_info": {
            "adcode": 210682,
            "province": "辽宁省",
            "city": "丹东市",
            "district": "凤城市"
        }
    },
    {
        "id": "6915076511058198500",
        "title": "公共厕所",
        "address": "辽宁省丹东市振兴区商贸旅游区D区36楼",
        "tel": "",
        "category": "基础设施:公共设施:公共厕所",
        "type": 0,
        "location": {
            "lat": 40.115056,
            "lng": 124.38888
        },
        "ad_info": {
            "adcode": 210603,
            "province": "辽宁省",
            "city": "丹东市",
            "district": "振兴区"
        }
    },
    {
        "id": "11345313480965369855",
        "title": "公共厕所",
        "address": "辽宁省丹东市振兴区兴二路与振八街交叉口东南方向35米左右",
        "tel": "",
        "category": "基础设施:公共设施:公共厕所",
        "type": 0,
        "location": {
            "lat": 40.124906,
            "lng": 124.377953
        },
        "ad_info": {
            "adcode": 210603,
            "province": "辽宁省",
            "city": "丹东市",
            "district": "振兴区"
        }
    },
    {
        "id": "15698224203752858251",
        "title": "公共厕所",
        "address": "辽宁省丹东市振兴区国桢路与桃源街交叉口正北方向57米左右",
        "tel": "",
        "category": "基础设施:公共设施:公共厕所",
        "type": 0,
        "location": {
            "lat": 40.099125,
            "lng": 124.346656
        },
        "ad_info": {
            "adcode": 210603,
            "province": "辽宁省",
            "city": "丹东市",
            "district": "振兴区"
        }
    },
    {
        "id": "13304848113298817275",
        "title": "卫生间",
        "address": "辽宁省丹东市振兴区锦山大街298号万达广场F6",
        "tel": "",
        "category": "基础设施:公共设施:公共厕所",
        "type": 0,
        "location": {
            "lat": 40.110813,
            "lng": 124.365213
        },
        "ad_info": {
            "adcode": 210603,
            "province": "辽宁省",
            "city": "丹东市",
            "district": "振兴区"
        }
    },
    {
        "id": "15152494849613672003",
        "title": "公共厕所",
        "address": "辽宁省丹东市振安区东平大街与曙光路交叉口正南方向65米左右",
        "tel": "",
        "category": "基础设施:公共设施:公共厕所",
        "type": 0,
        "location": {
            "lat": 40.158494,
            "lng": 124.429821
        },
        "ad_info": {
            "adcode": 210604,
            "province": "辽宁省",
            "city": "丹东市",
            "district": "振安区"
        }
    },
    {
        "id": "10026789536323291567",
        "title": "经山公共厕所",
        "address": "辽宁省丹东市振安区珍珠街与东齐路交叉口西南100米",
        "tel": "",
        "category": "基础设施:公共设施:公共厕所",
        "type": 0,
        "location": {
            "lat": 40.149394,
            "lng": 124.413582
        },
        "ad_info": {
            "adcode": 210604,
            "province": "辽宁省",
            "city": "丹东市",
            "district": "振安区"
        }
    },
    {
        "id": "10274234083619233687",
        "title": "公共厕所",
        "address": "辽宁省丹东市振兴区丹东市高级技工学校西侧250米",
        "tel": "",
        "category": "基础设施:公共设施:公共厕所",
        "type": 0,
        "location": {
            "lat": 40.107126,
            "lng": 124.336854
        },
        "ad_info": {
            "adcode": 210603,
            "province": "辽宁省",
            "city": "丹东市",
            "district": "振兴区"
        }
    },
    {
        "id": "3268200291402317489",
        "title": "无障碍公共厕所",
        "address": "辽宁省丹东市振兴区兴七路与锦山大街交叉口东南方向33米左右",
        "tel": "",
        "category": "基础设施:公共设施:公共厕所",
        "type": 0,
        "location": {
            "lat": 40.116882,
            "lng": 124.374777
        },
        "ad_info": {
            "adcode": 210603,
            "province": "辽宁省",
            "city": "丹东市",
            "district": "振兴区"
        }
    },
    {
        "id": "8353981005225509458",
        "title": "公共厕所",
        "address": "辽宁省丹东市东港市兴工街与工业路交叉口正西方向78米左右",
        "tel": "",
        "category": "基础设施:公共设施:公共厕所",
        "type": 0,
        "location": {
            "lat": 39.878356,
            "lng": 124.142241
        },
        "ad_info": {
            "adcode": 210681,
            "province": "辽宁省",
            "city": "丹东市",
            "district": "东港市"
        }
    },
    {
        "id": "17666931932789060542",
        "title": "公共厕所",
        "address": "辽宁省丹东市振兴区体育馆路与振七街交叉口正北方向28米左右",
        "tel": "",
        "category": "基础设施:公共设施:公共厕所",
        "type": 0,
        "location": {
            "lat": 40.114711,
            "lng": 124.36896
        },
        "ad_info": {
            "adcode": 210603,
            "province": "辽宁省",
            "city": "丹东市",
            "district": "振兴区"
        }
    },
    {
        "id": "10233273110888663037",
        "title": "公共厕所",
        "address": "辽宁省丹东市东港市向阳街与迎宾西大街交叉口正东方向45米左右",
        "tel": "",
        "category": "基础设施:公共设施:公共厕所",
        "type": 0,
        "location": {
            "lat": 39.88358,
            "lng": 124.142833
        },
        "ad_info": {
            "adcode": 210681,
            "province": "辽宁省",
            "city": "丹东市",
            "district": "东港市"
        }
    },
    {
        "id": "18189082933556173753",
        "title": "公共厕所",
        "address": "辽宁省丹东市振安区东齐路1号",
        "tel": "",
        "category": "基础设施:公共设施:公共厕所",
        "type": 0,
        "location": {
            "lat": 40.143726,
            "lng": 124.419015
        },
        "ad_info": {
            "adcode": 210604,
            "province": "辽宁省",
            "city": "丹东市",
            "district": "振安区"
        }
    },
    {
        "id": "1551489921923355966",
        "title": "女洗手间(万达广场丹东店)",
        "address": "辽宁省丹东市振兴区锦山大街298号万达广场F3",
        "tel": "",
        "category": "基础设施:公共设施:公共厕所",
        "type": 0,
        "location": {
            "lat": 40.110066,
            "lng": 124.36367
        },
        "ad_info": {
            "adcode": 210603,
            "province": "辽宁省",
            "city": "丹东市",
            "district": "振兴区"
        }
    },
    {
        "id": "12053094129265071064",
        "title": "公共厕所",
        "address": "辽宁省丹东市东港市工业路与黄海大街交叉口西北方向41米左右",
        "tel": "",
        "category": "基础设施:公共设施:公共厕所",
        "type": 0,
        "location": {
            "lat": 39.882161,
            "lng": 124.14179
        },
        "ad_info": {
            "adcode": 210681,
            "province": "辽宁省",
            "city": "丹东市",
            "district": "东港市"
        }
    },
    {
        "id": "17769007977203835570",
        "title": "公共厕所",
        "address": "辽宁省丹东市东港市汇文街汇文小区",
        "tel": "",
        "category": "基础设施:公共设施:公共厕所",
        "type": 0,
        "location": {
            "lat": 39.887022,
            "lng": 124.164625
        },
        "ad_info": {
            "adcode": 210681,
            "province": "辽宁省",
            "city": "丹东市",
            "district": "东港市"
        }
    },
    {
        "id": "2101003518009786174",
        "title": "男洗手间(万达广场丹东店)",
        "address": "辽宁省丹东市振兴区锦山大街298号万达广场(丹东店)B1层",
        "tel": "",
        "category": "基础设施:公共设施:公共厕所",
        "type": 0,
        "location": {
            "lat": 40.109702,
            "lng": 124.364575
        },
        "ad_info": {
            "adcode": 210603,
            "province": "辽宁省",
            "city": "丹东市",
            "district": "振兴区"
        }
    },
    {
        "id": "5758731764251881409",
        "title": "公共厕所",
        "address": "辽宁省丹东市振安区裕顺驾校报名处东侧50米",
        "tel": "",
        "category": "基础设施:公共设施:公共厕所",
        "type": 0,
        "location": {
            "lat": 40.262718,
            "lng": 124.27988
        },
        "ad_info": {
            "adcode": 210604,
            "province": "辽宁省",
            "city": "丹东市",
            "district": "振安区"
        }
    },
    {
        "id": "12063168093301355215",
        "title": "公共厕所",
        "address": "辽宁省丹东市宽甸满族自治县阮国长大街与鸭绿江路交叉口东南方向362米左右",
        "tel": "",
        "category": "基础设施:公共设施:公共厕所",
        "type": 0,
        "location": {
            "lat": 40.72925,
            "lng": 124.811565
        },
        "ad_info": {
            "adcode": 210624,
            "province": "辽宁省",
            "city": "丹东市",
            "district": "宽甸满族自治县"
        }
    },
    {
        "id": "2382522279488252603",
        "title": "公共厕所",
        "address": "辽宁省丹东市宽甸满族自治县天桥沟路与过街楼西街交叉口西南方向16米左右",
        "tel": "",
        "category": "基础设施:公共设施:公共厕所",
        "type": 0,
        "location": {
            "lat": 40.733181,
            "lng": 124.777651
        },
        "ad_info": {
            "adcode": 210624,
            "province": "辽宁省",
            "city": "丹东市",
            "district": "宽甸满族自治县"
        }
    },
    {
        "id": "13533225747143058392",
        "title": "六合公共厕所",
        "address": "辽宁省丹东市振兴区大众路与通春街交叉口正东方向128米左右",
        "tel": "",
        "category": "基础设施:公共设施:公共厕所",
        "type": 0,
        "location": {
            "lat": 40.107651,
            "lng": 124.36773
        },
        "ad_info": {
            "adcode": 210603,
            "province": "辽宁省",
            "city": "丹东市",
            "district": "振兴区"
        }
    },
    {
        "id": "7825597154882994358",
        "title": "公共厕所",
        "address": "辽宁省丹东市宽甸满族自治县婆娑府街与过街楼东街交叉口东北方向319米左右",
        "tel": "",
        "category": "基础设施:公共设施:公共厕所",
        "type": 0,
        "location": {
            "lat": 40.729966,
            "lng": 124.80294
        },
        "ad_info": {
            "adcode": 210624,
            "province": "辽宁省",
            "city": "丹东市",
            "district": "宽甸满族自治县"
        }
    },
    {
        "id": "8021266843949746606",
        "title": "大孤山服务区公共厕所",
        "address": "辽宁省丹东市东港市孤山镇鹤大高速公路大孤山服务区",
        "tel": "",
        "category": "基础设施:公共设施:公共厕所",
        "type": 0,
        "location": {
            "lat": 39.926624,
            "lng": 123.544803
        },
        "ad_info": {
            "adcode": 210681,
            "province": "辽宁省",
            "city": "丹东市",
            "district": "东港市"
        }
    },
    {
        "id": "3663943098174437784",
        "title": "东泰路公共厕所",
        "address": "辽宁省丹东市振安区经山街225-1号",
        "tel": "",
        "category": "基础设施:公共设施:公共厕所",
        "type": 0,
        "location": {
            "lat": 40.15773,
            "lng": 124.425285
        },
        "ad_info": {
            "adcode": 210604,
            "province": "辽宁省",
            "city": "丹东市",
            "district": "振安区"
        }
    },
    {
        "id": "6391278798070325610",
        "title": "无障碍洗手间(万达广场丹东店)",
        "address": "辽宁省丹东市振兴区锦山大街298号万达广场(丹东店)2F层",
        "tel": "",
        "category": "基础设施:公共设施:公共厕所",
        "type": 0,
        "location": {
            "lat": 40.111501,
            "lng": 124.365338
        },
        "ad_info": {
            "adcode": 210603,
            "province": "辽宁省",
            "city": "丹东市",
            "district": "振兴区"
        }
    },
    {
        "id": "16274188094304242368",
        "title": "通远堡服务区公共厕所",
        "address": "辽宁省丹东市凤城市G304与中山北路交叉口东南方向914米左右",
        "tel": "",
        "category": "基础设施:公共设施:公共厕所",
        "type": 0,
        "location": {
            "lat": 40.818789,
            "lng": 123.911956
        },
        "ad_info": {
            "adcode": 210682,
            "province": "辽宁省",
            "city": "丹东市",
            "district": "凤城市"
        }
    },
    {
        "id": "5768165034282161151",
        "title": "滨工桥公共厕所",
        "address": "辽宁省丹东市振兴区福春街与锦山大街交叉口正西方向145米左右",
        "tel": "",
        "category": "基础设施:公共设施:公共厕所",
        "type": 0,
        "location": {
            "lat": 40.091063,
            "lng": 124.347008
        },
        "ad_info": {
            "adcode": 210603,
            "province": "辽宁省",
            "city": "丹东市",
            "district": "振兴区"
        }
    },
    {
        "id": "11777660806741164132",
        "title": "宽甸服务区公共厕所",
        "address": "辽宁省丹东市宽甸满族自治县鹤大高速",
        "tel": "",
        "category": "基础设施:公共设施:公共厕所",
        "type": 0,
        "location": {
            "lat": 40.716042,
            "lng": 124.712523
        },
        "ad_info": {
            "adcode": 210624,
            "province": "辽宁省",
            "city": "丹东市",
            "district": "宽甸满族自治县"
        }
    },
    {
        "id": "8744509769734877600",
        "title": "牛毛坞服务区公共厕所",
        "address": "辽宁省丹东市宽甸满族自治县牛毛坞服务区与G11鹤大高速交叉口西南320米",
        "tel": "",
        "category": "基础设施:公共设施:公共厕所",
        "type": 0,
        "location": {
            "lat": 40.988929,
            "lng": 125.025473
        },
        "ad_info": {
            "adcode": 210624,
            "province": "辽宁省",
            "city": "丹东市",
            "district": "宽甸满族自治县"
        }
    },
    {
        "id": "18058037993188758872",
        "title": "凤城服务区公共厕所",
        "address": "辽宁省丹东市凤城市G304与Y669交叉口西南方向1036米左右",
        "tel": "",
        "category": "基础设施:公共设施:公共厕所",
        "type": 0,
        "location": {
            "lat": 40.39083,
            "lng": 124.031947
        },
        "ad_info": {
            "adcode": 210682,
            "province": "辽宁省",
            "city": "丹东市",
            "district": "凤城市"
        }
    },
    {
        "id": "13522193699015163845",
        "title": "通远堡服务区公共厕所",
        "address": "辽宁省丹东市凤城市大黑山丹阜高速公路通远堡服务区",
        "tel": "",
        "category": "基础设施:公共设施:公共厕所",
        "type": 0,
        "location": {
            "lat": 40.818977,
            "lng": 123.908824
        },
        "ad_info": {
            "adcode": 210682,
            "province": "辽宁省",
            "city": "丹东市",
            "district": "凤城市"
        }
    },
    {
        "id": "16753100369716404315",
        "title": "公共厕所",
        "address": "辽宁省丹东市振兴区文安路与银河大街交叉口东南方向301米左右",
        "tel": "",
        "category": "基础设施:公共设施:公共厕所",
        "type": 0,
        "location": {
            "lat": 39.999028,
            "lng": 124.358968
        },
        "ad_info": {
            "adcode": 210603,
            "province": "辽宁省",
            "city": "丹东市",
            "district": "振兴区"
        }
    },
    {
        "id": "5033163832962494502",
        "title": "公共厕所",
        "address": "辽宁省丹东市元宝区宝山大街与平安街交叉口正北方向418米左右",
        "tel": "",
        "category": "基础设施:公共设施:公共厕所",
        "type": 0,
        "location": {
            "lat": 40.149672,
            "lng": 124.391651
        },
        "ad_info": {
            "adcode": 210602,
            "province": "辽宁省",
            "city": "丹东市",
            "district": "元宝区"
        }
    },
    {
        "id": "10626558463188805377",
        "title": "公共厕所",
        "address": "辽宁省丹东市振兴区桃铁路与山上街辅路交叉口西北260米",
        "tel": "",
        "category": "基础设施:公共设施:公共厕所",
        "type": 0,
        "location": {
            "lat": 40.117106,
            "lng": 124.360639
        },
        "ad_info": {
            "adcode": 210603,
            "province": "辽宁省",
            "city": "丹东市",
            "district": "振兴区"
        }
    },
    {
        "id": "3028113061280993465",
        "title": "公共厕所",
        "address": "辽宁省丹东市凤城市凤山路与苗可秀街交叉口东南方向37米左右",
        "tel": "",
        "category": "基础设施:公共设施:公共厕所",
        "type": 0,
        "location": {
            "lat": 40.440421,
            "lng": 124.073298
        },
        "ad_info": {
            "adcode": 210682,
            "province": "辽宁省",
            "city": "丹东市",
            "district": "凤城市"
        }
    },
    {
        "id": "11495760582489718503",
        "title": "公共厕所",
        "address": "辽宁省丹东市宽甸满族自治县天华山路与小台占胡同交叉口正东方向416米左右",
        "tel": "",
        "category": "基础设施:公共设施:公共厕所",
        "type": 0,
        "location": {
            "lat": 40.738554,
            "lng": 124.791488
        },
        "ad_info": {
            "adcode": 210624,
            "province": "辽宁省",
            "city": "丹东市",
            "district": "宽甸满族自治县"
        }
    },
    {
        "id": "3711563738999845497",
        "title": "公共厕所",
        "address": "辽宁省丹东市宽甸满族自治县花脖山路与董鄂妃街交叉口正东方向454米左右",
        "tel": "",
        "category": "基础设施:公共设施:公共厕所",
        "type": 0,
        "location": {
            "lat": 40.720686,
            "lng": 124.79192
        },
        "ad_info": {
            "adcode": 210624,
            "province": "辽宁省",
            "city": "丹东市",
            "district": "宽甸满族自治县"
        }
    },
    {
        "id": "11283452055881285393",
        "title": "公共厕所",
        "address": "辽宁省丹东市振兴区锦山大街与花园路辅路交叉口东北80米",
        "tel": "",
        "category": "基础设施:公共设施:公共厕所",
        "type": 0,
        "location": {
            "lat": 40.111758,
            "lng": 124.367457
        },
        "ad_info": {
            "adcode": 210603,
            "province": "辽宁省",
            "city": "丹东市",
            "district": "振兴区"
        }
    },
    {
        "id": "10610970915397977058",
        "title": "公共厕所",
        "address": "辽宁省丹东市宽甸满族自治县董鄂妃街与黄椅山路交叉口正南方向102米左右",
        "tel": "",
        "category": "基础设施:公共设施:公共厕所",
        "type": 0,
        "location": {
            "lat": 40.723738,
            "lng": 124.776103
        },
        "ad_info": {
            "adcode": 210624,
            "province": "辽宁省",
            "city": "丹东市",
            "district": "宽甸满族自治县"
        }
    },
    {
        "id": "11064352561583256044",
        "title": "公共厕所",
        "address": "辽宁省丹东市东港市大东街与滨河路交叉口西南方向70米左右",
        "tel": "",
        "category": "基础设施:公共设施:公共厕所",
        "type": 0,
        "location": {
            "lat": 39.880696,
            "lng": 124.153304
        },
        "ad_info": {
            "adcode": 210681,
            "province": "辽宁省",
            "city": "丹东市",
            "district": "东港市"
        }
    },
    {
        "id": "2329960044874332381",
        "title": "公共厕所",
        "address": "辽宁省丹东市凤城市S203与中心路交叉口西北方向1314米左右",
        "tel": "",
        "category": "基础设施:公共设施:公共厕所",
        "type": 0,
        "location": {
            "lat": 40.731733,
            "lng": 123.623552
        },
        "ad_info": {
            "adcode": 210682,
            "province": "辽宁省",
            "city": "丹东市",
            "district": "凤城市"
        }
    },
    {
        "id": "12905170931862048903",
        "title": "公共厕所",
        "address": "辽宁省丹东市振安区G304与营孙线交叉口正西方向40米左右",
        "tel": "",
        "category": "基础设施:公共设施:公共厕所",
        "type": 0,
        "location": {
            "lat": 40.226476,
            "lng": 124.234432
        },
        "ad_info": {
            "adcode": 210604,
            "province": "辽宁省",
            "city": "丹东市",
            "district": "振安区"
        }
    },
    {
        "id": "3076500999440677202",
        "title": "公共厕所",
        "address": "辽宁省丹东市宽甸满族自治县G201与爱太线交叉口西北方向284米左右",
        "tel": "",
        "category": "基础设施:公共设施:公共厕所",
        "type": 0,
        "location": {
            "lat": 40.967227,
            "lng": 125.01164
        },
        "ad_info": {
            "adcode": 210624,
            "province": "辽宁省",
            "city": "丹东市",
            "district": "宽甸满族自治县"
        }
    },
    {
        "id": "3784224390587005813",
        "title": "公共厕所",
        "address": "辽宁省丹东市宽甸满族自治县G201与毛岸英大街交叉口西南方向138米左右",
        "tel": "",
        "category": "基础设施:公共设施:公共厕所",
        "type": 0,
        "location": {
            "lat": 40.705673,
            "lng": 124.763396
        },
        "ad_info": {
            "adcode": 210624,
            "province": "辽宁省",
            "city": "丹东市",
            "district": "宽甸满族自治县"
        }
    },
    {
        "id": "917643439597903869",
        "title": "公共厕所",
        "address": "辽宁省丹东市宽甸满族自治县G201与新八线交叉口西北方向356米左右",
        "tel": "",
        "category": "基础设施:公共设施:公共厕所",
        "type": 0,
        "location": {
            "lat": 40.893339,
            "lng": 124.882172
        },
        "ad_info": {
            "adcode": 210624,
            "province": "辽宁省",
            "city": "丹东市",
            "district": "宽甸满族自治县"
        }
    },
    {
        "id": "5122177256865736827",
        "title": "公共厕所",
        "address": "辽宁省丹东市振安区东平大街与丹集线交叉口正西方向181米左右",
        "tel": "",
        "category": "基础设施:公共设施:公共厕所",
        "type": 0,
        "location": {
            "lat": 40.183181,
            "lng": 124.442341
        },
        "ad_info": {
            "adcode": 210604,
            "province": "辽宁省",
            "city": "丹东市",
            "district": "振安区"
        }
    },
    {
        "id": "7564866928906224990",
        "title": "公共厕所",
        "address": "辽宁省丹东市元宝区宝山大街与山上街交叉口东北方向168米左右",
        "tel": "",
        "category": "基础设施:公共设施:公共厕所",
        "type": 0,
        "location": {
            "lat": 40.143514,
            "lng": 124.398727
        },
        "ad_info": {
            "adcode": 210602,
            "province": "辽宁省",
            "city": "丹东市",
            "district": "元宝区"
        }
    },
    {
        "id": "5158202814476840905",
        "title": "公共厕所",
        "address": "辽宁省丹东市元宝区九江街与沙河镇街交叉口正北方向190米左右",
        "tel": "",
        "category": "基础设施:公共设施:公共厕所",
        "type": 0,
        "location": {
            "lat": 40.147981,
            "lng": 124.4063
        },
        "ad_info": {
            "adcode": 210602,
            "province": "辽宁省",
            "city": "丹东市",
            "district": "元宝区"
        }
    },
    {
        "id": "14320235665301029323",
        "title": "公共厕所",
        "address": "辽宁省丹东市凤城市G304与辽凤线交叉口东北方向1439米左右",
        "tel": "",
        "category": "基础设施:公共设施:公共厕所",
        "type": 0,
        "location": {
            "lat": 40.562885,
            "lng": 123.961572
        },
        "ad_info": {
            "adcode": 210682,
            "province": "辽宁省",
            "city": "丹东市",
            "district": "凤城市"
        }
    },
    {
        "id": "18377493442982593675",
        "title": "丹东福瑞德大酒店-洗手间",
        "address": "辽宁省丹东市振兴区滨江中路158号(地处鸭绿江畔)",
        "tel": "",
        "category": "基础设施:公共设施:公共厕所",
        "type": 0,
        "location": {
            "lat": 40.093401,
            "lng": 124.361392
        },
        "ad_info": {
            "adcode": 210603,
            "province": "辽宁省",
            "city": "丹东市",
            "district": "振兴区"
        }
    },
    {
        "id": "17306989599644284066",
        "title": "公共厕所",
        "address": "辽宁省丹东市振兴区桃源街与白房路交叉口正东方向40米左右",
        "tel": "",
        "category": "基础设施:公共设施:公共厕所",
        "type": 0,
        "location": {
            "lat": 40.102428,
            "lng": 124.350994
        },
        "ad_info": {
            "adcode": 210603,
            "province": "辽宁省",
            "city": "丹东市",
            "district": "振兴区"
        }
    },
    {
        "id": "6668498067148431150",
        "title": "公共厕所",
        "address": "辽宁省丹东市凤城市G304与S203交叉口西南方向370米左右",
        "tel": "",
        "category": "基础设施:公共设施:公共厕所",
        "type": 0,
        "location": {
            "lat": 40.778395,
            "lng": 123.922138
        },
        "ad_info": {
            "adcode": 210682,
            "province": "辽宁省",
            "city": "丹东市",
            "district": "凤城市"
        }
    },
    {
        "id": "14628449904531595869",
        "title": "公共厕所",
        "address": "辽宁省丹东市凤城市S203与中心路交叉口西北方向1154米左右",
        "tel": "",
        "category": "基础设施:公共设施:公共厕所",
        "type": 0,
        "location": {
            "lat": 40.731085,
            "lng": 123.625486
        },
        "ad_info": {
            "adcode": 210682,
            "province": "辽宁省",
            "city": "丹东市",
            "district": "凤城市"
        }
    },
    {
        "id": "11727083344651224796",
        "title": "公共厕所",
        "address": "辽宁省丹东市振安区新炮线与站前西街交叉口正西方向89米左右",
        "tel": "",
        "category": "基础设施:公共设施:公共厕所",
        "type": 0,
        "location": {
            "lat": 40.259877,
            "lng": 124.274048
        },
        "ad_info": {
            "adcode": 210604,
            "province": "辽宁省",
            "city": "丹东市",
            "district": "振安区"
        }
    },
    {
        "id": "1657411640487065592",
        "title": "公共厕所",
        "address": "辽宁省丹东市振兴区福春街与锦山大街交叉口正西方向219米左右",
        "tel": "",
        "category": "基础设施:公共设施:公共厕所",
        "type": 0,
        "location": {
            "lat": 40.091494,
            "lng": 124.346223
        },
        "ad_info": {
            "adcode": 210603,
            "province": "辽宁省",
            "city": "丹东市",
            "district": "振兴区"
        }
    },
    {
        "id": "8188780332103020813",
        "title": "公共厕所",
        "address": "辽宁省丹东市凤城市东环路与草河大街交叉口正东方向273米左右",
        "tel": "",
        "category": "基础设施:公共设施:公共厕所",
        "type": 0,
        "location": {
            "lat": 40.474419,
            "lng": 124.145445
        },
        "ad_info": {
            "adcode": 210682,
            "province": "辽宁省",
            "city": "丹东市",
            "district": "凤城市"
        }
    },
    {
        "id": "15794259140353994665",
        "title": "公共厕所",
        "address": "辽宁省丹东市振兴区桃源街12-24号",
        "tel": "",
        "category": "基础设施:公共设施:公共厕所",
        "type": 0,
        "location": {
            "lat": 40.113822,
            "lng": 124.361421
        },
        "ad_info": {
            "adcode": 210603,
            "province": "辽宁省",
            "city": "丹东市",
            "district": "振兴区"
        }
    },
    {
        "id": "10663125838742047727",
        "title": "牛毛坞服务区公共厕所",
        "address": "辽宁省丹东市宽甸满族自治县鹤大高速",
        "tel": "",
        "category": "基础设施:公共设施:公共厕所",
        "type": 0,
        "location": {
            "lat": 40.989952,
            "lng": 125.024318
        },
        "ad_info": {
            "adcode": 210624,
            "province": "辽宁省",
            "city": "丹东市",
            "district": "宽甸满族自治县"
        }
    },
    {
        "id": "16896360139397393227",
        "title": "公共厕所",
        "address": "辽宁省丹东市凤城市石桥路与老爷庙环岛交叉口西南140米",
        "tel": "",
        "category": "基础设施:公共设施:公共厕所",
        "type": 0,
        "location": {
            "lat": 40.459363,
            "lng": 124.075598
        },
        "ad_info": {
            "adcode": 210682,
            "province": "辽宁省",
            "city": "丹东市",
            "district": "凤城市"
        }
    },
    {
        "id": "4055450142769715567",
        "title": "公共厕所",
        "address": "辽宁省丹东市振安区柞徒线与站前西街交叉口正东方向174米左右",
        "tel": "",
        "category": "基础设施:公共设施:公共厕所",
        "type": 0,
        "location": {
            "lat": 40.261055,
            "lng": 124.269744
        },
        "ad_info": {
            "adcode": 210604,
            "province": "辽宁省",
            "city": "丹东市",
            "district": "振安区"
        }
    },
    {
        "id": "2638296315395643607",
        "title": "无障碍洗手间(万达广场)",
        "address": "辽宁省丹东市振兴区锦山大街298号万达广场(丹东店)1F层",
        "tel": "",
        "category": "基础设施:公共设施:公共厕所",
        "type": 0,
        "location": {
            "lat": 40.110039,
            "lng": 124.363421
        },
        "ad_info": {
            "adcode": 210603,
            "province": "辽宁省",
            "city": "丹东市",
            "district": "振兴区"
        }
    },
    {
        "id": "17005007222407289126",
        "title": "公共厕所",
        "address": "辽宁省丹东市宽甸满族自治县下拉线与丹集线交叉口西南方向1610米左右",
        "tel": "",
        "category": "基础设施:公共设施:公共厕所",
        "type": 0,
        "location": {
            "lat": 40.401191,
            "lng": 124.781752
        },
        "ad_info": {
            "adcode": 210624,
            "province": "辽宁省",
            "city": "丹东市",
            "district": "宽甸满族自治县"
        }
    },
    {
        "id": "17900213005703482834",
        "title": "公共厕所",
        "address": "辽宁省丹东市宽甸满族自治县婆娑府街与过街楼东街交叉口正北方向398米左右",
        "tel": "",
        "category": "基础设施:公共设施:公共厕所",
        "type": 0,
        "location": {
            "lat": 40.730998,
            "lng": 124.802157
        },
        "ad_info": {
            "adcode": 210624,
            "province": "辽宁省",
            "city": "丹东市",
            "district": "宽甸满族自治县"
        }
    },
    {
        "id": "6496478060214556870",
        "title": "公共厕所(万达广场)",
        "address": "辽宁省丹东市振兴区锦山大街298号万达广场F5",
        "tel": "",
        "category": "基础设施:公共设施:公共厕所",
        "type": 0,
        "location": {
            "lat": 40.110818,
            "lng": 124.365221
        },
        "ad_info": {
            "adcode": 210603,
            "province": "辽宁省",
            "city": "丹东市",
            "district": "振兴区"
        }
    },
    {
        "id": "1721227901555939063",
        "title": "公共厕所",
        "address": "辽宁省丹东市元宝区九江街与滨江中路交叉口西北方向31米左右",
        "tel": "",
        "category": "基础设施:公共设施:公共厕所",
        "type": 0,
        "location": {
            "lat": 40.139553,
            "lng": 124.410647
        },
        "ad_info": {
            "adcode": 210602,
            "province": "辽宁省",
            "city": "丹东市",
            "district": "元宝区"
        }
    },
    {
        "id": "10559848576577635417",
        "title": "公共厕所",
        "address": "辽宁省丹东市振兴区殡仪馆",
        "tel": "",
        "category": "基础设施:公共设施:公共厕所",
        "type": 0,
        "location": {
            "lat": 40.122724,
            "lng": 124.339756
        },
        "ad_info": {
            "adcode": 210603,
            "province": "辽宁省",
            "city": "丹东市",
            "district": "振兴区"
        }
    },
    {
        "id": "16222458808746467985",
        "title": "公共厕所",
        "address": "辽宁省丹东市振兴区江山街与花园路交叉口东南方向425米左右",
        "tel": "",
        "category": "基础设施:公共设施:公共厕所",
        "type": 0,
        "location": {
            "lat": 40.117994,
            "lng": 124.357847
        },
        "ad_info": {
            "adcode": 210603,
            "province": "辽宁省",
            "city": "丹东市",
            "district": "振兴区"
        }
    },
    {
        "id": "6616214100163098631",
        "title": "公共厕所",
        "address": "辽宁省丹东市宽甸满族自治县桓盖线与铁长线交叉口西北方向1432米左右",
        "tel": "",
        "category": "基础设施:公共设施:公共厕所",
        "type": 0,
        "location": {
            "lat": 40.879098,
            "lng": 124.578988
        },
        "ad_info": {
            "adcode": 210624,
            "province": "辽宁省",
            "city": "丹东市",
            "district": "宽甸满族自治县"
        }
    },
    {
        "id": "1461775396130408418",
        "title": "公共厕所",
        "address": "辽宁省丹东市振安区五龙背镇新炮线五龙温泉山庄东北",
        "tel": "",
        "category": "基础设施:公共设施:公共厕所",
        "type": 0,
        "location": {
            "lat": 40.263706,
            "lng": 124.274585
        },
        "ad_info": {
            "adcode": 210604,
            "province": "辽宁省",
            "city": "丹东市",
            "district": "振安区"
        }
    },
    {
        "id": "2537140942495671012",
        "title": "公共厕所",
        "address": "辽宁省丹东市宽甸满族自治县天桥沟路与董鄂妃街交叉口正北方向48米左右",
        "tel": "",
        "category": "基础设施:公共设施:公共厕所",
        "type": 0,
        "location": {
            "lat": 40.72525,
            "lng": 124.778104
        },
        "ad_info": {
            "adcode": 210624,
            "province": "辽宁省",
            "city": "丹东市",
            "district": "宽甸满族自治县"
        }
    },
    {
        "id": "3872805312546942286",
        "title": "公共厕所",
        "address": "辽宁省丹东市宽甸满族自治县G201与台铁线交叉口东北方向105米左右",
        "tel": "",
        "category": "基础设施:公共设施:公共厕所",
        "type": 0,
        "location": {
            "lat": 41.018458,
            "lng": 125.06895
        },
        "ad_info": {
            "adcode": 210624,
            "province": "辽宁省",
            "city": "丹东市",
            "district": "宽甸满族自治县"
        }
    },
    {
        "id": "5099958446518881083",
        "title": "公共厕所",
        "address": "辽宁省丹东市宽甸满族自治县站前街与铁长路交叉口东北方向352米左右",
        "tel": "",
        "category": "基础设施:公共设施:公共厕所",
        "type": 0,
        "location": {
            "lat": 40.718942,
            "lng": 124.789359
        },
        "ad_info": {
            "adcode": 210624,
            "province": "辽宁省",
            "city": "丹东市",
            "district": "宽甸满族自治县"
        }
    },
    {
        "id": "12741054036629181851",
        "title": "民主桥公共厕所工会驿站",
        "address": "辽宁省丹东市振兴区花园路与锦山大街交叉口正北方向85米左右",
        "tel": "",
        "category": "基础设施:公共设施:公共厕所",
        "type": 0,
        "location": {
            "lat": 40.111635,
            "lng": 124.367573
        },
        "ad_info": {
            "adcode": 210603,
            "province": "辽宁省",
            "city": "丹东市",
            "district": "振兴区"
        }
    },
    {
        "id": "6506868413573227589",
        "title": "女洗手间(万达广场丹东店)",
        "address": "辽宁省丹东市振兴区锦山大街298号万达广场(丹东店)2F层",
        "tel": "",
        "category": "基础设施:公共设施:公共厕所",
        "type": 0,
        "location": {
            "lat": 40.109987,
            "lng": 124.36341
        },
        "ad_info": {
            "adcode": 210603,
            "province": "辽宁省",
            "city": "丹东市",
            "district": "振兴区"
        }
    },
    {
        "id": "3572896625630410053",
        "title": "公共厕所",
        "address": "辽宁省丹东市凤城市蓝旗镇正白旗村三家子广场入口处",
        "tel": "",
        "category": "基础设施:公共设施:公共厕所",
        "type": 0,
        "location": {
            "lat": 40.098923,
            "lng": 123.745957
        },
        "ad_info": {
            "adcode": 210682,
            "province": "辽宁省",
            "city": "丹东市",
            "district": "凤城市"
        }
    },
    {
        "id": "9546871384629789787",
        "title": "公共厕所",
        "address": "辽宁省丹东市宽甸满族自治县天华山路与小台占胡同交叉口正东方向191米左右",
        "tel": "",
        "category": "基础设施:公共设施:公共厕所",
        "type": 0,
        "location": {
            "lat": 40.740284,
            "lng": 124.78913
        },
        "ad_info": {
            "adcode": 210624,
            "province": "辽宁省",
            "city": "丹东市",
            "district": "宽甸满族自治县"
        }
    },
    {
        "id": "15819811885428689964",
        "title": "无障碍洗手间",
        "address": "辽宁省丹东市宽甸满族自治县站前街与铁长路交叉口正北方向175米左右",
        "tel": "",
        "category": "基础设施:公共设施:公共厕所",
        "type": 0,
        "location": {
            "lat": 40.719111,
            "lng": 124.785974
        },
        "ad_info": {
            "adcode": 210624,
            "province": "辽宁省",
            "city": "丹东市",
            "district": "宽甸满族自治县"
        }
    },
    {
        "id": "6019895544866009641",
        "title": "公共厕所",
        "address": "辽宁省丹东市凤城市团山街与水楼路交叉口西北方向215米左右",
        "tel": "",
        "category": "基础设施:公共设施:公共厕所",
        "type": 0,
        "location": {
            "lat": 40.455462,
            "lng": 124.055197
        },
        "ad_info": {
            "adcode": 210682,
            "province": "辽宁省",
            "city": "丹东市",
            "district": "凤城市"
        }
    },
    {
        "id": "7261435435777541774",
        "title": "公共厕所",
        "address": "辽宁省丹东市东港市红福地农家院东侧50米",
        "tel": "",
        "category": "基础设施:公共设施:公共厕所",
        "type": 0,
        "location": {
            "lat": 40.027892,
            "lng": 124.18276
        },
        "ad_info": {
            "adcode": 210681,
            "province": "辽宁省",
            "city": "丹东市",
            "district": "东港市"
        }
    },
    {
        "id": "1807557018191472484",
        "title": "五龙山服务区公共厕所",
        "address": "辽宁省丹东市振安区G201与西太线交叉口正西方向420米左右",
        "tel": "",
        "category": "基础设施:公共设施:公共厕所",
        "type": 0,
        "location": {
            "lat": 40.299327,
            "lng": 124.371019
        },
        "ad_info": {
            "adcode": 210604,
            "province": "辽宁省",
            "city": "丹东市",
            "district": "振安区"
        }
    },
    {
        "id": "17587383007601704693",
        "title": "公共厕所",
        "address": "辽宁省丹东市振兴区洋河大街世景芳华",
        "tel": "",
        "category": "基础设施:公共设施:公共厕所",
        "type": 0,
        "location": {
            "lat": 40.009629,
            "lng": 124.344161
        },
        "ad_info": {
            "adcode": 210603,
            "province": "辽宁省",
            "city": "丹东市",
            "district": "振兴区"
        }
    },
    {
        "id": "10542912872341607184",
        "title": "公共厕所",
        "address": "辽宁省丹东市宽甸满族自治县马二农家院西北侧60米",
        "tel": "",
        "category": "基础设施:公共设施:公共厕所",
        "type": 0,
        "location": {
            "lat": 41.001491,
            "lng": 125.172992
        },
        "ad_info": {
            "adcode": 210624,
            "province": "辽宁省",
            "city": "丹东市",
            "district": "宽甸满族自治县"
        }
    },
    {
        "id": "14663890422378250947",
        "title": "宽甸服务区公共厕所",
        "address": "辽宁省丹东市宽甸满族自治县石湖沟乡鹤大高速公路服务区",
        "tel": "",
        "category": "基础设施:公共设施:公共厕所",
        "type": 0,
        "location": {
            "lat": 40.718199,
            "lng": 124.712213
        },
        "ad_info": {
            "adcode": 210624,
            "province": "辽宁省",
            "city": "丹东市",
            "district": "宽甸满族自治县"
        }
    },
    {
        "id": "16153468136622153792",
        "title": "公共厕所",
        "address": "辽宁省丹东市东港市北井子镇石桥村集贸市场",
        "tel": "",
        "category": "基础设施:公共设施:公共厕所",
        "type": 0,
        "location": {
            "lat": 39.911187,
            "lng": 123.915779
        },
        "ad_info": {
            "adcode": 210681,
            "province": "辽宁省",
            "city": "丹东市",
            "district": "东港市"
        }
    },
    {
        "id": "4545077563917586138",
        "title": "洗手间",
        "address": "辽宁省丹东市元宝区崇健中街与新安街交叉口东北方向34米左右",
        "tel": "",
        "category": "基础设施:公共设施:公共厕所",
        "type": 0,
        "location": {
            "lat": 40.136078,
            "lng": 124.394557
        },
        "ad_info": {
            "adcode": 210602,
            "province": "辽宁省",
            "city": "丹东市",
            "district": "元宝区"
        }
    },
    {
        "id": "16759875796908517265",
        "title": "男洗手间(万达广场丹东店)",
        "address": "辽宁省丹东市振兴区锦山大街298号万达广场(丹东店)B2层",
        "tel": "",
        "category": "基础设施:公共设施:公共厕所",
        "type": 0,
        "location": {
            "lat": 40.110044,
            "lng": 124.363382
        },
        "ad_info": {
            "adcode": 210603,
            "province": "辽宁省",
            "city": "丹东市",
            "district": "振兴区"
        }
    },
    {
        "id": "10347043917442366701",
        "title": "公共厕所",
        "address": "辽宁省丹东市东港市G201与振阳大街交叉口东北方向1597米左右",
        "tel": "",
        "category": "基础设施:公共设施:公共厕所",
        "type": 0,
        "location": {
            "lat": 39.971178,
            "lng": 124.246718
        },
        "ad_info": {
            "adcode": 210681,
            "province": "辽宁省",
            "city": "丹东市",
            "district": "东港市"
        }
    },
    {
        "id": "8692729863567725355",
        "title": "桃铁2号公共厕所",
        "address": "辽宁省丹东市振兴区桃铁路与山上街辅路交叉口西北380米",
        "tel": "",
        "category": "基础设施:公共设施:公共厕所",
        "type": 0,
        "location": {
            "lat": 40.117685,
            "lng": 124.358958
        },
        "ad_info": {
            "adcode": 210603,
            "province": "辽宁省",
            "city": "丹东市",
            "district": "振兴区"
        }
    },
    {
        "id": "12168991748964056080",
        "title": "公共厕所",
        "address": "辽宁省丹东市东港市宽甸羊汤馆西侧240米",
        "tel": "",
        "category": "基础设施:公共设施:公共厕所",
        "type": 0,
        "location": {
            "lat": 40.030393,
            "lng": 123.969406
        },
        "ad_info": {
            "adcode": 210681,
            "province": "辽宁省",
            "city": "丹东市",
            "district": "东港市"
        }
    },
    {
        "id": "15508041858041182472",
        "title": "公共厕所",
        "address": "辽宁省丹东市振兴区文庆路本钢新城佳园",
        "tel": "",
        "category": "基础设施:公共设施:公共厕所",
        "type": 0,
        "location": {
            "lat": 40.009825,
            "lng": 124.349679
        },
        "ad_info": {
            "adcode": 210603,
            "province": "辽宁省",
            "city": "丹东市",
            "district": "振兴区"
        }
    },
    {
        "id": "8289948773901345133",
        "title": "满乡农家院旅游厕所",
        "address": "辽宁省丹东市东港市胜三线与集龙线交叉口正西方向1057米左右",
        "tel": "",
        "category": "基础设施:公共设施:公共厕所",
        "type": 0,
        "location": {
            "lat": 40.03059,
            "lng": 123.989631
        },
        "ad_info": {
            "adcode": 210681,
            "province": "辽宁省",
            "city": "丹东市",
            "district": "东港市"
        }
    },
    {
        "id": "14597848567744855979",
        "title": "五龙山服务区公共厕所",
        "address": "辽宁省丹东市振安区五龙山互通",
        "tel": "",
        "category": "基础设施:公共设施:公共厕所",
        "type": 0,
        "location": {
            "lat": 40.299494,
            "lng": 124.370591
        },
        "ad_info": {
            "adcode": 210604,
            "province": "辽宁省",
            "city": "丹东市",
            "district": "振安区"
        }
    },
    {
        "id": "16756454565512453229",
        "title": "公共厕所",
        "address": "辽宁省丹东市振安区曙光路与滨江东路交叉口西南方向333米左右",
        "tel": "",
        "category": "基础设施:公共设施:公共厕所",
        "type": 0,
        "location": {
            "lat": 40.151042,
            "lng": 124.433305
        },
        "ad_info": {
            "adcode": 210604,
            "province": "辽宁省",
            "city": "丹东市",
            "district": "振安区"
        }
    },
    {
        "id": "12568882368898060302",
        "title": "万达广场(丹东店)-女洗手间",
        "address": "辽宁省丹东市振兴区锦山大街298号万达广场F1",
        "tel": "",
        "category": "基础设施:公共设施:公共厕所",
        "type": 0,
        "location": {
            "lat": 40.11081,
            "lng": 124.365167
        },
        "ad_info": {
            "adcode": 210603,
            "province": "辽宁省",
            "city": "丹东市",
            "district": "振兴区"
        }
    },
    {
        "id": "7401769291922162564",
        "title": "女洗手间(万达广场丹东店)",
        "address": "辽宁省丹东市振兴区锦山大街298号万达广场(丹东店)1F层",
        "tel": "",
        "category": "基础设施:公共设施:公共厕所",
        "type": 0,
        "location": {
            "lat": 40.10999,
            "lng": 124.363406
        },
        "ad_info": {
            "adcode": 210603,
            "province": "辽宁省",
            "city": "丹东市",
            "district": "振兴区"
        }
    },
    {
        "id": "397874484231201357",
        "title": "女洗手间(万达广场丹东店)",
        "address": "辽宁省丹东市振兴区锦山大街298号万达广场(丹东店)2F层",
        "tel": "",
        "category": "基础设施:公共设施:公共厕所",
        "type": 0,
        "location": {
            "lat": 40.111556,
            "lng": 124.365255
        },
        "ad_info": {
            "adcode": 210603,
            "province": "辽宁省",
            "city": "丹东市",
            "district": "振兴区"
        }
    },
    {
        "id": "695981709858956719",
        "title": "女洗手间(万达广场丹东店)",
        "address": "辽宁省丹东市振兴区锦山大街298号万达广场(丹东店)B1层",
        "tel": "",
        "category": "基础设施:公共设施:公共厕所",
        "type": 0,
        "location": {
            "lat": 40.109622,
            "lng": 124.364846
        },
        "ad_info": {
            "adcode": 210603,
            "province": "辽宁省",
            "city": "丹东市",
            "district": "振兴区"
        }
    },
    {
        "id": "1434495843537992675",
        "title": "公共厕所",
        "address": "辽宁省丹东市振安区医药机械东北侧250米",
        "tel": "",
        "category": "基础设施:公共设施:公共厕所",
        "type": 0,
        "location": {
            "lat": 40.267352,
            "lng": 124.279653
        },
        "ad_info": {
            "adcode": 210604,
            "province": "辽宁省",
            "city": "丹东市",
            "district": "振安区"
        }
    },
    {
        "id": "11746781521033286598",
        "title": "商贸区6号公共卫生间",
        "address": "辽宁省丹东市振兴区兴五路与滨江中路交叉口西南方向117米左右",
        "tel": "",
        "category": "基础设施:公共设施:公共厕所",
        "type": 0,
        "location": {
            "lat": 40.113549,
            "lng": 124.38651
        },
        "ad_info": {
            "adcode": 210603,
            "province": "辽宁省",
            "city": "丹东市",
            "district": "振兴区"
        }
    },
    {
        "id": "16059656867282850157",
        "title": "公共厕所",
        "address": "辽宁省丹东市东港市柞木村卫生所北侧210米",
        "tel": "",
        "category": "基础设施:公共设施:公共厕所",
        "type": 0,
        "location": {
            "lat": 39.899755,
            "lng": 124.110389
        },
        "ad_info": {
            "adcode": 210681,
            "province": "辽宁省",
            "city": "丹东市",
            "district": "东港市"
        }
    },
    {
        "id": "1021096362666048434",
        "title": "公共厕所",
        "address": "辽宁省丹东市宽甸满族自治县婆娑府街与醉仙胡同交叉口东北方向124米左右",
        "tel": "",
        "category": "基础设施:公共设施:公共厕所",
        "type": 0,
        "location": {
            "lat": 40.732434,
            "lng": 124.781544
        },
        "ad_info": {
            "adcode": 210624,
            "province": "辽宁省",
            "city": "丹东市",
            "district": "宽甸满族自治县"
        }
    },
    {
        "id": "5434789572661588120",
        "title": "公共厕所",
        "address": "辽宁省丹东市宽甸满族自治县宽甸镇阮国长大街盛孚花园西",
        "tel": "",
        "category": "基础设施:公共设施:公共厕所",
        "type": 0,
        "location": {
            "lat": 40.73612,
            "lng": 124.78239
        },
        "ad_info": {
            "adcode": 210624,
            "province": "辽宁省",
            "city": "丹东市",
            "district": "宽甸满族自治县"
        }
    },
    {
        "id": "6328514466031385049",
        "title": "公共厕所",
        "address": "辽宁省丹东市凤城市左爱线与铁长线交叉口正东方向496米左右",
        "tel": "",
        "category": "基础设施:公共设施:公共厕所",
        "type": 0,
        "location": {
            "lat": 40.900165,
            "lng": 124.522928
        },
        "ad_info": {
            "adcode": 210682,
            "province": "辽宁省",
            "city": "丹东市",
            "district": "凤城市"
        }
    },
    {
        "id": "12416565510940229634",
        "title": "男洗手间(万达广场丹东店)",
        "address": "辽宁省丹东市振兴区锦山大街298号万达广场F2",
        "tel": "",
        "category": "基础设施:公共设施:公共厕所",
        "type": 0,
        "location": {
            "lat": 40.110074,
            "lng": 124.36369
        },
        "ad_info": {
            "adcode": 210603,
            "province": "辽宁省",
            "city": "丹东市",
            "district": "振兴区"
        }
    },
    {
        "id": "3381024399355757884",
        "title": "无障碍洗手间(万达广场丹东店)",
        "address": "辽宁省丹东市振兴区锦山大街298号万达广场(丹东店)3F层",
        "tel": "",
        "category": "基础设施:公共设施:公共厕所",
        "type": 0,
        "location": {
            "lat": 40.110039,
            "lng": 124.36338
        },
        "ad_info": {
            "adcode": 210603,
            "province": "辽宁省",
            "city": "丹东市",
            "district": "振兴区"
        }
    },
    {
        "id": "14591511684336099847",
        "title": "公共厕所",
        "address": "辽宁省丹东市东港市振兴街与江海大道交叉口正北方向315米左右",
        "tel": "",
        "category": "基础设施:公共设施:公共厕所",
        "type": 0,
        "location": {
            "lat": 39.87124,
            "lng": 124.114044
        },
        "ad_info": {
            "adcode": 210681,
            "province": "辽宁省",
            "city": "丹东市",
            "district": "东港市"
        }
    },
    {
        "id": "1190436176812937394",
        "title": "公共厕所",
        "address": "辽宁省丹东市东港市中大街与古韵路交叉口西南方向232米左右",
        "tel": "",
        "category": "基础设施:公共设施:公共厕所",
        "type": 0,
        "location": {
            "lat": 39.893374,
            "lng": 123.599028
        },
        "ad_info": {
            "adcode": 210681,
            "province": "辽宁省",
            "city": "丹东市",
            "district": "东港市"
        }
    },
    {
        "id": "12609756383842509713",
        "title": "男洗手间(万达广场丹东店)",
        "address": "辽宁省丹东市振兴区锦山大街298号万达广场F1",
        "tel": "",
        "category": "基础设施:公共设施:公共厕所",
        "type": 0,
        "location": {
            "lat": 40.110076,
            "lng": 124.363689
        },
        "ad_info": {
            "adcode": 210603,
            "province": "辽宁省",
            "city": "丹东市",
            "district": "振兴区"
        }
    },
    {
        "id": "3623171946934055673",
        "title": "公共厕所",
        "address": "辽宁省丹东市凤城市凤山路与北山路交叉口西北方向406米左右",
        "tel": "",
        "category": "基础设施:公共设施:公共厕所",
        "type": 0,
        "location": {
            "lat": 40.471377,
            "lng": 124.068895
        },
        "ad_info": {
            "adcode": 210682,
            "province": "辽宁省",
            "city": "丹东市",
            "district": "凤城市"
        }
    },
    {
        "id": "5317659686848282734",
        "title": "公共厕所",
        "address": "辽宁省丹东市振安区G201与西太线交叉口东北方向32米左右",
        "tel": "",
        "category": "基础设施:公共设施:公共厕所",
        "type": 0,
        "location": {
            "lat": 40.299261,
            "lng": 124.376278
        },
        "ad_info": {
            "adcode": 210604,
            "province": "辽宁省",
            "city": "丹东市",
            "district": "振安区"
        }
    },
    {
        "id": "5532110089091923013",
        "title": "公共厕所",
        "address": "辽宁省丹东市东港市环城大街与迎宾西大街交叉口西南方向166米左右",
        "tel": "",
        "category": "基础设施:公共设施:公共厕所",
        "type": 0,
        "location": {
            "lat": 39.883242,
            "lng": 124.113928
        },
        "ad_info": {
            "adcode": 210681,
            "province": "辽宁省",
            "city": "丹东市",
            "district": "东港市"
        }
    },
    {
        "id": "16738429238043301918",
        "title": "公共厕所",
        "address": "辽宁省丹东市宽甸满族自治县站前街与铁长路交叉口正北方向181米左右",
        "tel": "",
        "category": "基础设施:公共设施:公共厕所",
        "type": 0,
        "location": {
            "lat": 40.719151,
            "lng": 124.78604
        },
        "ad_info": {
            "adcode": 210624,
            "province": "辽宁省",
            "city": "丹东市",
            "district": "宽甸满族自治县"
        }
    },
    {
        "id": "3319879637349116588",
        "title": "公共厕所",
        "address": "辽宁省丹东市宽甸满族自治县南环路41号",
        "tel": "",
        "category": "基础设施:公共设施:公共厕所",
        "type": 0,
        "location": {
            "lat": 40.723127,
            "lng": 124.784799
        },
        "ad_info": {
            "adcode": 210624,
            "province": "辽宁省",
            "city": "丹东市",
            "district": "宽甸满族自治县"
        }
    },
    {
        "id": "12568882368898060302",
        "title": "万达广场(丹东店)-女洗手间",
        "address": "辽宁省丹东市振兴区锦山大街298号万达广场F1",
        "tel": "",
        "category": "基础设施:公共设施:公共厕所",
        "type": 0,
        "location": {
            "lat": 40.11081,
            "lng": 124.365167
        },
        "ad_info": {
            "adcode": 210603,
            "province": "辽宁省",
            "city": "丹东市",
            "district": "振兴区"
        }
    },
    {
        "id": "7401769291922162564",
        "title": "女洗手间(万达广场丹东店)",
        "address": "辽宁省丹东市振兴区锦山大街298号万达广场(丹东店)1F层",
        "tel": "",
        "category": "基础设施:公共设施:公共厕所",
        "type": 0,
        "location": {
            "lat": 40.10999,
            "lng": 124.363406
        },
        "ad_info": {
            "adcode": 210603,
            "province": "辽宁省",
            "city": "丹东市",
            "district": "振兴区"
        }
    },
    {
        "id": "397874484231201357",
        "title": "女洗手间(万达广场丹东店)",
        "address": "辽宁省丹东市振兴区锦山大街298号万达广场(丹东店)2F层",
        "tel": "",
        "category": "基础设施:公共设施:公共厕所",
        "type": 0,
        "location": {
            "lat": 40.111556,
            "lng": 124.365255
        },
        "ad_info": {
            "adcode": 210603,
            "province": "辽宁省",
            "city": "丹东市",
            "district": "振兴区"
        }
    },
    {
        "id": "695981709858956719",
        "title": "女洗手间(万达广场丹东店)",
        "address": "辽宁省丹东市振兴区锦山大街298号万达广场(丹东店)B1层",
        "tel": "",
        "category": "基础设施:公共设施:公共厕所",
        "type": 0,
        "location": {
            "lat": 40.109622,
            "lng": 124.364846
        },
        "ad_info": {
            "adcode": 210603,
            "province": "辽宁省",
            "city": "丹东市",
            "district": "振兴区"
        }
    },
    {
        "id": "1434495843537992675",
        "title": "公共厕所",
        "address": "辽宁省丹东市振安区医药机械东北侧250米",
        "tel": "",
        "category": "基础设施:公共设施:公共厕所",
        "type": 0,
        "location": {
            "lat": 40.267352,
            "lng": 124.279653
        },
        "ad_info": {
            "adcode": 210604,
            "province": "辽宁省",
            "city": "丹东市",
            "district": "振安区"
        }
    },
    {
        "id": "11746781521033286598",
        "title": "商贸区6号公共卫生间",
        "address": "辽宁省丹东市振兴区兴五路与滨江中路交叉口西南方向117米左右",
        "tel": "",
        "category": "基础设施:公共设施:公共厕所",
        "type": 0,
        "location": {
            "lat": 40.113549,
            "lng": 124.38651
        },
        "ad_info": {
            "adcode": 210603,
            "province": "辽宁省",
            "city": "丹东市",
            "district": "振兴区"
        }
    },
    {
        "id": "16059656867282850157",
        "title": "公共厕所",
        "address": "辽宁省丹东市东港市柞木村卫生所北侧210米",
        "tel": "",
        "category": "基础设施:公共设施:公共厕所",
        "type": 0,
        "location": {
            "lat": 39.899755,
            "lng": 124.110389
        },
        "ad_info": {
            "adcode": 210681,
            "province": "辽宁省",
            "city": "丹东市",
            "district": "东港市"
        }
    },
    {
        "id": "1021096362666048434",
        "title": "公共厕所",
        "address": "辽宁省丹东市宽甸满族自治县婆娑府街与醉仙胡同交叉口东北方向124米左右",
        "tel": "",
        "category": "基础设施:公共设施:公共厕所",
        "type": 0,
        "location": {
            "lat": 40.732434,
            "lng": 124.781544
        },
        "ad_info": {
            "adcode": 210624,
            "province": "辽宁省",
            "city": "丹东市",
            "district": "宽甸满族自治县"
        }
    },
    {
        "id": "5434789572661588120",
        "title": "公共厕所",
        "address": "辽宁省丹东市宽甸满族自治县宽甸镇阮国长大街盛孚花园西",
        "tel": "",
        "category": "基础设施:公共设施:公共厕所",
        "type": 0,
        "location": {
            "lat": 40.73612,
            "lng": 124.78239
        },
        "ad_info": {
            "adcode": 210624,
            "province": "辽宁省",
            "city": "丹东市",
            "district": "宽甸满族自治县"
        }
    },
    {
        "id": "6328514466031385049",
        "title": "公共厕所",
        "address": "辽宁省丹东市凤城市左爱线与铁长线交叉口正东方向496米左右",
        "tel": "",
        "category": "基础设施:公共设施:公共厕所",
        "type": 0,
        "location": {
            "lat": 40.900165,
            "lng": 124.522928
        },
        "ad_info": {
            "adcode": 210682,
            "province": "辽宁省",
            "city": "丹东市",
            "district": "凤城市"
        }
    },
    {
        "id": "12416565510940229634",
        "title": "男洗手间(万达广场丹东店)",
        "address": "辽宁省丹东市振兴区锦山大街298号万达广场F2",
        "tel": "",
        "category": "基础设施:公共设施:公共厕所",
        "type": 0,
        "location": {
            "lat": 40.110074,
            "lng": 124.36369
        },
        "ad_info": {
            "adcode": 210603,
            "province": "辽宁省",
            "city": "丹东市",
            "district": "振兴区"
        }
    },
    {
        "id": "3381024399355757884",
        "title": "无障碍洗手间(万达广场丹东店)",
        "address": "辽宁省丹东市振兴区锦山大街298号万达广场(丹东店)3F层",
        "tel": "",
        "category": "基础设施:公共设施:公共厕所",
        "type": 0,
        "location": {
            "lat": 40.110039,
            "lng": 124.36338
        },
        "ad_info": {
            "adcode": 210603,
            "province": "辽宁省",
            "city": "丹东市",
            "district": "振兴区"
        }
    },
    {
        "id": "14591511684336099847",
        "title": "公共厕所",
        "address": "辽宁省丹东市东港市振兴街与江海大道交叉口正北方向315米左右",
        "tel": "",
        "category": "基础设施:公共设施:公共厕所",
        "type": 0,
        "location": {
            "lat": 39.87124,
            "lng": 124.114044
        },
        "ad_info": {
            "adcode": 210681,
            "province": "辽宁省",
            "city": "丹东市",
            "district": "东港市"
        }
    },
    {
        "id": "1190436176812937394",
        "title": "公共厕所",
        "address": "辽宁省丹东市东港市中大街与古韵路交叉口西南方向232米左右",
        "tel": "",
        "category": "基础设施:公共设施:公共厕所",
        "type": 0,
        "location": {
            "lat": 39.893374,
            "lng": 123.599028
        },
        "ad_info": {
            "adcode": 210681,
            "province": "辽宁省",
            "city": "丹东市",
            "district": "东港市"
        }
    },
    {
        "id": "12609756383842509713",
        "title": "男洗手间(万达广场丹东店)",
        "address": "辽宁省丹东市振兴区锦山大街298号万达广场F1",
        "tel": "",
        "category": "基础设施:公共设施:公共厕所",
        "type": 0,
        "location": {
            "lat": 40.110076,
            "lng": 124.363689
        },
        "ad_info": {
            "adcode": 210603,
            "province": "辽宁省",
            "city": "丹东市",
            "district": "振兴区"
        }
    },
    {
        "id": "3623171946934055673",
        "title": "公共厕所",
        "address": "辽宁省丹东市凤城市凤山路与北山路交叉口西北方向406米左右",
        "tel": "",
        "category": "基础设施:公共设施:公共厕所",
        "type": 0,
        "location": {
            "lat": 40.471377,
            "lng": 124.068895
        },
        "ad_info": {
            "adcode": 210682,
            "province": "辽宁省",
            "city": "丹东市",
            "district": "凤城市"
        }
    },
    {
        "id": "5317659686848282734",
        "title": "公共厕所",
        "address": "辽宁省丹东市振安区G201与西太线交叉口东北方向32米左右",
        "tel": "",
        "category": "基础设施:公共设施:公共厕所",
        "type": 0,
        "location": {
            "lat": 40.299261,
            "lng": 124.376278
        },
        "ad_info": {
            "adcode": 210604,
            "province": "辽宁省",
            "city": "丹东市",
            "district": "振安区"
        }
    },
    {
        "id": "5532110089091923013",
        "title": "公共厕所",
        "address": "辽宁省丹东市东港市环城大街与迎宾西大街交叉口西南方向166米左右",
        "tel": "",
        "category": "基础设施:公共设施:公共厕所",
        "type": 0,
        "location": {
            "lat": 39.883242,
            "lng": 124.113928
        },
        "ad_info": {
            "adcode": 210681,
            "province": "辽宁省",
            "city": "丹东市",
            "district": "东港市"
        }
    },
    {
        "id": "16738429238043301918",
        "title": "公共厕所",
        "address": "辽宁省丹东市宽甸满族自治县站前街与铁长路交叉口正北方向181米左右",
        "tel": "",
        "category": "基础设施:公共设施:公共厕所",
        "type": 0,
        "location": {
            "lat": 40.719151,
            "lng": 124.78604
        },
        "ad_info": {
            "adcode": 210624,
            "province": "辽宁省",
            "city": "丹东市",
            "district": "宽甸满族自治县"
        }
    },
    {
        "id": "3319879637349116588",
        "title": "公共厕所",
        "address": "辽宁省丹东市宽甸满族自治县南环路41号",
        "tel": "",
        "category": "基础设施:公共设施:公共厕所",
        "type": 0,
        "location": {
            "lat": 40.723127,
            "lng": 124.784799
        },
        "ad_info": {
            "adcode": 210624,
            "province": "辽宁省",
            "city": "丹东市",
            "district": "宽甸满族自治县"
        }
    },
    {
        "id": "12568882368898060302",
        "title": "万达广场(丹东店)-女洗手间",
        "address": "辽宁省丹东市振兴区锦山大街298号万达广场F1",
        "tel": "",
        "category": "基础设施:公共设施:公共厕所",
        "type": 0,
        "location": {
            "lat": 40.11081,
            "lng": 124.365167
        },
        "ad_info": {
            "adcode": 210603,
            "province": "辽宁省",
            "city": "丹东市",
            "district": "振兴区"
        }
    },
    {
        "id": "7401769291922162564",
        "title": "女洗手间(万达广场丹东店)",
        "address": "辽宁省丹东市振兴区锦山大街298号万达广场(丹东店)1F层",
        "tel": "",
        "category": "基础设施:公共设施:公共厕所",
        "type": 0,
        "location": {
            "lat": 40.10999,
            "lng": 124.363406
        },
        "ad_info": {
            "adcode": 210603,
            "province": "辽宁省",
            "city": "丹东市",
            "district": "振兴区"
        }
    },
    {
        "id": "397874484231201357",
        "title": "女洗手间(万达广场丹东店)",
        "address": "辽宁省丹东市振兴区锦山大街298号万达广场(丹东店)2F层",
        "tel": "",
        "category": "基础设施:公共设施:公共厕所",
        "type": 0,
        "location": {
            "lat": 40.111556,
            "lng": 124.365255
        },
        "ad_info": {
            "adcode": 210603,
            "province": "辽宁省",
            "city": "丹东市",
            "district": "振兴区"
        }
    },
    {
        "id": "695981709858956719",
        "title": "女洗手间(万达广场丹东店)",
        "address": "辽宁省丹东市振兴区锦山大街298号万达广场(丹东店)B1层",
        "tel": "",
        "category": "基础设施:公共设施:公共厕所",
        "type": 0,
        "location": {
            "lat": 40.109622,
            "lng": 124.364846
        },
        "ad_info": {
            "adcode": 210603,
            "province": "辽宁省",
            "city": "丹东市",
            "district": "振兴区"
        }
    },
    {
        "id": "1434495843537992675",
        "title": "公共厕所",
        "address": "辽宁省丹东市振安区医药机械东北侧250米",
        "tel": "",
        "category": "基础设施:公共设施:公共厕所",
        "type": 0,
        "location": {
            "lat": 40.267352,
            "lng": 124.279653
        },
        "ad_info": {
            "adcode": 210604,
            "province": "辽宁省",
            "city": "丹东市",
            "district": "振安区"
        }
    },
    {
        "id": "11746781521033286598",
        "title": "商贸区6号公共卫生间",
        "address": "辽宁省丹东市振兴区兴五路与滨江中路交叉口西南方向117米左右",
        "tel": "",
        "category": "基础设施:公共设施:公共厕所",
        "type": 0,
        "location": {
            "lat": 40.113549,
            "lng": 124.38651
        },
        "ad_info": {
            "adcode": 210603,
            "province": "辽宁省",
            "city": "丹东市",
            "district": "振兴区"
        }
    },
    {
        "id": "16059656867282850157",
        "title": "公共厕所",
        "address": "辽宁省丹东市东港市柞木村卫生所北侧210米",
        "tel": "",
        "category": "基础设施:公共设施:公共厕所",
        "type": 0,
        "location": {
            "lat": 39.899755,
            "lng": 124.110389
        },
        "ad_info": {
            "adcode": 210681,
            "province": "辽宁省",
            "city": "丹东市",
            "district": "东港市"
        }
    },
    {
        "id": "1021096362666048434",
        "title": "公共厕所",
        "address": "辽宁省丹东市宽甸满族自治县婆娑府街与醉仙胡同交叉口东北方向124米左右",
        "tel": "",
        "category": "基础设施:公共设施:公共厕所",
        "type": 0,
        "location": {
            "lat": 40.732434,
            "lng": 124.781544
        },
        "ad_info": {
            "adcode": 210624,
            "province": "辽宁省",
            "city": "丹东市",
            "district": "宽甸满族自治县"
        }
    },
    {
        "id": "5434789572661588120",
        "title": "公共厕所",
        "address": "辽宁省丹东市宽甸满族自治县宽甸镇阮国长大街盛孚花园西",
        "tel": "",
        "category": "基础设施:公共设施:公共厕所",
        "type": 0,
        "location": {
            "lat": 40.73612,
            "lng": 124.78239
        },
        "ad_info": {
            "adcode": 210624,
            "province": "辽宁省",
            "city": "丹东市",
            "district": "宽甸满族自治县"
        }
    },
    {
        "id": "6328514466031385049",
        "title": "公共厕所",
        "address": "辽宁省丹东市凤城市左爱线与铁长线交叉口正东方向496米左右",
        "tel": "",
        "category": "基础设施:公共设施:公共厕所",
        "type": 0,
        "location": {
            "lat": 40.900165,
            "lng": 124.522928
        },
        "ad_info": {
            "adcode": 210682,
            "province": "辽宁省",
            "city": "丹东市",
            "district": "凤城市"
        }
    },
    {
        "id": "12416565510940229634",
        "title": "男洗手间(万达广场丹东店)",
        "address": "辽宁省丹东市振兴区锦山大街298号万达广场F2",
        "tel": "",
        "category": "基础设施:公共设施:公共厕所",
        "type": 0,
        "location": {
            "lat": 40.110074,
            "lng": 124.36369
        },
        "ad_info": {
            "adcode": 210603,
            "province": "辽宁省",
            "city": "丹东市",
            "district": "振兴区"
        }
    },
    {
        "id": "3381024399355757884",
        "title": "无障碍洗手间(万达广场丹东店)",
        "address": "辽宁省丹东市振兴区锦山大街298号万达广场(丹东店)3F层",
        "tel": "",
        "category": "基础设施:公共设施:公共厕所",
        "type": 0,
        "location": {
            "lat": 40.110039,
            "lng": 124.36338
        },
        "ad_info": {
            "adcode": 210603,
            "province": "辽宁省",
            "city": "丹东市",
            "district": "振兴区"
        }
    },
    {
        "id": "14591511684336099847",
        "title": "公共厕所",
        "address": "辽宁省丹东市东港市振兴街与江海大道交叉口正北方向315米左右",
        "tel": "",
        "category": "基础设施:公共设施:公共厕所",
        "type": 0,
        "location": {
            "lat": 39.87124,
            "lng": 124.114044
        },
        "ad_info": {
            "adcode": 210681,
            "province": "辽宁省",
            "city": "丹东市",
            "district": "东港市"
        }
    },
    {
        "id": "1190436176812937394",
        "title": "公共厕所",
        "address": "辽宁省丹东市东港市中大街与古韵路交叉口西南方向232米左右",
        "tel": "",
        "category": "基础设施:公共设施:公共厕所",
        "type": 0,
        "location": {
            "lat": 39.893374,
            "lng": 123.599028
        },
        "ad_info": {
            "adcode": 210681,
            "province": "辽宁省",
            "city": "丹东市",
            "district": "东港市"
        }
    },
    {
        "id": "12609756383842509713",
        "title": "男洗手间(万达广场丹东店)",
        "address": "辽宁省丹东市振兴区锦山大街298号万达广场F1",
        "tel": "",
        "category": "基础设施:公共设施:公共厕所",
        "type": 0,
        "location": {
            "lat": 40.110076,
            "lng": 124.363689
        },
        "ad_info": {
            "adcode": 210603,
            "province": "辽宁省",
            "city": "丹东市",
            "district": "振兴区"
        }
    },
    {
        "id": "3623171946934055673",
        "title": "公共厕所",
        "address": "辽宁省丹东市凤城市凤山路与北山路交叉口西北方向406米左右",
        "tel": "",
        "category": "基础设施:公共设施:公共厕所",
        "type": 0,
        "location": {
            "lat": 40.471377,
            "lng": 124.068895
        },
        "ad_info": {
            "adcode": 210682,
            "province": "辽宁省",
            "city": "丹东市",
            "district": "凤城市"
        }
    },
    {
        "id": "5317659686848282734",
        "title": "公共厕所",
        "address": "辽宁省丹东市振安区G201与西太线交叉口东北方向32米左右",
        "tel": "",
        "category": "基础设施:公共设施:公共厕所",
        "type": 0,
        "location": {
            "lat": 40.299261,
            "lng": 124.376278
        },
        "ad_info": {
            "adcode": 210604,
            "province": "辽宁省",
            "city": "丹东市",
            "district": "振安区"
        }
    },
    {
        "id": "5532110089091923013",
        "title": "公共厕所",
        "address": "辽宁省丹东市东港市环城大街与迎宾西大街交叉口西南方向166米左右",
        "tel": "",
        "category": "基础设施:公共设施:公共厕所",
        "type": 0,
        "location": {
            "lat": 39.883242,
            "lng": 124.113928
        },
        "ad_info": {
            "adcode": 210681,
            "province": "辽宁省",
            "city": "丹东市",
            "district": "东港市"
        }
    },
    {
        "id": "16738429238043301918",
        "title": "公共厕所",
        "address": "辽宁省丹东市宽甸满族自治县站前街与铁长路交叉口正北方向181米左右",
        "tel": "",
        "category": "基础设施:公共设施:公共厕所",
        "type": 0,
        "location": {
            "lat": 40.719151,
            "lng": 124.78604
        },
        "ad_info": {
            "adcode": 210624,
            "province": "辽宁省",
            "city": "丹东市",
            "district": "宽甸满族自治县"
        }
    },
    {
        "id": "3319879637349116588",
        "title": "公共厕所",
        "address": "辽宁省丹东市宽甸满族自治县南环路41号",
        "tel": "",
        "category": "基础设施:公共设施:公共厕所",
        "type": 0,
        "location": {
            "lat": 40.723127,
            "lng": 124.784799
        },
        "ad_info": {
            "adcode": 210624,
            "province": "辽宁省",
            "city": "丹东市",
            "district": "宽甸满族自治县"
        }
    },
    {
        "id": "12568882368898060302",
        "title": "万达广场(丹东店)-女洗手间",
        "address": "辽宁省丹东市振兴区锦山大街298号万达广场F1",
        "tel": "",
        "category": "基础设施:公共设施:公共厕所",
        "type": 0,
        "location": {
            "lat": 40.11081,
            "lng": 124.365167
        },
        "ad_info": {
            "adcode": 210603,
            "province": "辽宁省",
            "city": "丹东市",
            "district": "振兴区"
        }
    },
    {
        "id": "7401769291922162564",
        "title": "女洗手间(万达广场丹东店)",
        "address": "辽宁省丹东市振兴区锦山大街298号万达广场(丹东店)1F层",
        "tel": "",
        "category": "基础设施:公共设施:公共厕所",
        "type": 0,
        "location": {
            "lat": 40.10999,
            "lng": 124.363406
        },
        "ad_info": {
            "adcode": 210603,
            "province": "辽宁省",
            "city": "丹东市",
            "district": "振兴区"
        }
    },
    {
        "id": "397874484231201357",
        "title": "女洗手间(万达广场丹东店)",
        "address": "辽宁省丹东市振兴区锦山大街298号万达广场(丹东店)2F层",
        "tel": "",
        "category": "基础设施:公共设施:公共厕所",
        "type": 0,
        "location": {
            "lat": 40.111556,
            "lng": 124.365255
        },
        "ad_info": {
            "adcode": 210603,
            "province": "辽宁省",
            "city": "丹东市",
            "district": "振兴区"
        }
    },
    {
        "id": "695981709858956719",
        "title": "女洗手间(万达广场丹东店)",
        "address": "辽宁省丹东市振兴区锦山大街298号万达广场(丹东店)B1层",
        "tel": "",
        "category": "基础设施:公共设施:公共厕所",
        "type": 0,
        "location": {
            "lat": 40.109622,
            "lng": 124.364846
        },
        "ad_info": {
            "adcode": 210603,
            "province": "辽宁省",
            "city": "丹东市",
            "district": "振兴区"
        }
    },
    {
        "id": "1434495843537992675",
        "title": "公共厕所",
        "address": "辽宁省丹东市振安区医药机械东北侧250米",
        "tel": "",
        "category": "基础设施:公共设施:公共厕所",
        "type": 0,
        "location": {
            "lat": 40.267352,
            "lng": 124.279653
        },
        "ad_info": {
            "adcode": 210604,
            "province": "辽宁省",
            "city": "丹东市",
            "district": "振安区"
        }
    },
    {
        "id": "11746781521033286598",
        "title": "商贸区6号公共卫生间",
        "address": "辽宁省丹东市振兴区兴五路与滨江中路交叉口西南方向117米左右",
        "tel": "",
        "category": "基础设施:公共设施:公共厕所",
        "type": 0,
        "location": {
            "lat": 40.113549,
            "lng": 124.38651
        },
        "ad_info": {
            "adcode": 210603,
            "province": "辽宁省",
            "city": "丹东市",
            "district": "振兴区"
        }
    },
    {
        "id": "16059656867282850157",
        "title": "公共厕所",
        "address": "辽宁省丹东市东港市柞木村卫生所北侧210米",
        "tel": "",
        "category": "基础设施:公共设施:公共厕所",
        "type": 0,
        "location": {
            "lat": 39.899755,
            "lng": 124.110389
        },
        "ad_info": {
            "adcode": 210681,
            "province": "辽宁省",
            "city": "丹东市",
            "district": "东港市"
        }
    },
    {
        "id": "1021096362666048434",
        "title": "公共厕所",
        "address": "辽宁省丹东市宽甸满族自治县婆娑府街与醉仙胡同交叉口东北方向124米左右",
        "tel": "",
        "category": "基础设施:公共设施:公共厕所",
        "type": 0,
        "location": {
            "lat": 40.732434,
            "lng": 124.781544
        },
        "ad_info": {
            "adcode": 210624,
            "province": "辽宁省",
            "city": "丹东市",
            "district": "宽甸满族自治县"
        }
    },
    {
        "id": "5434789572661588120",
        "title": "公共厕所",
        "address": "辽宁省丹东市宽甸满族自治县宽甸镇阮国长大街盛孚花园西",
        "tel": "",
        "category": "基础设施:公共设施:公共厕所",
        "type": 0,
        "location": {
            "lat": 40.73612,
            "lng": 124.78239
        },
        "ad_info": {
            "adcode": 210624,
            "province": "辽宁省",
            "city": "丹东市",
            "district": "宽甸满族自治县"
        }
    },
    {
        "id": "6328514466031385049",
        "title": "公共厕所",
        "address": "辽宁省丹东市凤城市左爱线与铁长线交叉口正东方向496米左右",
        "tel": "",
        "category": "基础设施:公共设施:公共厕所",
        "type": 0,
        "location": {
            "lat": 40.900165,
            "lng": 124.522928
        },
        "ad_info": {
            "adcode": 210682,
            "province": "辽宁省",
            "city": "丹东市",
            "district": "凤城市"
        }
    },
    {
        "id": "12416565510940229634",
        "title": "男洗手间(万达广场丹东店)",
        "address": "辽宁省丹东市振兴区锦山大街298号万达广场F2",
        "tel": "",
        "category": "基础设施:公共设施:公共厕所",
        "type": 0,
        "location": {
            "lat": 40.110074,
            "lng": 124.36369
        },
        "ad_info": {
            "adcode": 210603,
            "province": "辽宁省",
            "city": "丹东市",
            "district": "振兴区"
        }
    },
    {
        "id": "3381024399355757884",
        "title": "无障碍洗手间(万达广场丹东店)",
        "address": "辽宁省丹东市振兴区锦山大街298号万达广场(丹东店)3F层",
        "tel": "",
        "category": "基础设施:公共设施:公共厕所",
        "type": 0,
        "location": {
            "lat": 40.110039,
            "lng": 124.36338
        },
        "ad_info": {
            "adcode": 210603,
            "province": "辽宁省",
            "city": "丹东市",
            "district": "振兴区"
        }
    },
    {
        "id": "14591511684336099847",
        "title": "公共厕所",
        "address": "辽宁省丹东市东港市振兴街与江海大道交叉口正北方向315米左右",
        "tel": "",
        "category": "基础设施:公共设施:公共厕所",
        "type": 0,
        "location": {
            "lat": 39.87124,
            "lng": 124.114044
        },
        "ad_info": {
            "adcode": 210681,
            "province": "辽宁省",
            "city": "丹东市",
            "district": "东港市"
        }
    },
    {
        "id": "1190436176812937394",
        "title": "公共厕所",
        "address": "辽宁省丹东市东港市中大街与古韵路交叉口西南方向232米左右",
        "tel": "",
        "category": "基础设施:公共设施:公共厕所",
        "type": 0,
        "location": {
            "lat": 39.893374,
            "lng": 123.599028
        },
        "ad_info": {
            "adcode": 210681,
            "province": "辽宁省",
            "city": "丹东市",
            "district": "东港市"
        }
    },
    {
        "id": "12609756383842509713",
        "title": "男洗手间(万达广场丹东店)",
        "address": "辽宁省丹东市振兴区锦山大街298号万达广场F1",
        "tel": "",
        "category": "基础设施:公共设施:公共厕所",
        "type": 0,
        "location": {
            "lat": 40.110076,
            "lng": 124.363689
        },
        "ad_info": {
            "adcode": 210603,
            "province": "辽宁省",
            "city": "丹东市",
            "district": "振兴区"
        }
    },
    {
        "id": "3623171946934055673",
        "title": "公共厕所",
        "address": "辽宁省丹东市凤城市凤山路与北山路交叉口西北方向406米左右",
        "tel": "",
        "category": "基础设施:公共设施:公共厕所",
        "type": 0,
        "location": {
            "lat": 40.471377,
            "lng": 124.068895
        },
        "ad_info": {
            "adcode": 210682,
            "province": "辽宁省",
            "city": "丹东市",
            "district": "凤城市"
        }
    },
    {
        "id": "5317659686848282734",
        "title": "公共厕所",
        "address": "辽宁省丹东市振安区G201与西太线交叉口东北方向32米左右",
        "tel": "",
        "category": "基础设施:公共设施:公共厕所",
        "type": 0,
        "location": {
            "lat": 40.299261,
            "lng": 124.376278
        },
        "ad_info": {
            "adcode": 210604,
            "province": "辽宁省",
            "city": "丹东市",
            "district": "振安区"
        }
    },
    {
        "id": "5532110089091923013",
        "title": "公共厕所",
        "address": "辽宁省丹东市东港市环城大街与迎宾西大街交叉口西南方向166米左右",
        "tel": "",
        "category": "基础设施:公共设施:公共厕所",
        "type": 0,
        "location": {
            "lat": 39.883242,
            "lng": 124.113928
        },
        "ad_info": {
            "adcode": 210681,
            "province": "辽宁省",
            "city": "丹东市",
            "district": "东港市"
        }
    },
    {
        "id": "16738429238043301918",
        "title": "公共厕所",
        "address": "辽宁省丹东市宽甸满族自治县站前街与铁长路交叉口正北方向181米左右",
        "tel": "",
        "category": "基础设施:公共设施:公共厕所",
        "type": 0,
        "location": {
            "lat": 40.719151,
            "lng": 124.78604
        },
        "ad_info": {
            "adcode": 210624,
            "province": "辽宁省",
            "city": "丹东市",
            "district": "宽甸满族自治县"
        }
    },
    {
        "id": "3319879637349116588",
        "title": "公共厕所",
        "address": "辽宁省丹东市宽甸满族自治县南环路41号",
        "tel": "",
        "category": "基础设施:公共设施:公共厕所",
        "type": 0,
        "location": {
            "lat": 40.723127,
            "lng": 124.784799
        },
        "ad_info": {
            "adcode": 210624,
            "province": "辽宁省",
            "city": "丹东市",
            "district": "宽甸满族自治县"
        }
    }
]