[
    {
        "id": "283462996730932128",
        "title": "公共厕所",
        "address": "内蒙古自治区乌海市海勃湾区人民南路与新天地蔬菜副食品商业街交叉口西南方向90米左右",
        "tel": "",
        "category": "基础设施:公共设施:公共厕所",
        "type": 0,
        "location": {
            "lat": 39.660971,
            "lng": 106.818734
        },
        "ad_info": {
            "adcode": 150302,
            "province": "内蒙古自治区",
            "city": "乌海市",
            "district": "海勃湾区"
        }
    },
    {
        "id": "9169816529170150697",
        "title": "公共厕所",
        "address": "内蒙古自治区乌海市海勃湾区狮城西街5号",
        "tel": "",
        "category": "基础设施:公共设施:公共厕所",
        "type": 0,
        "location": {
            "lat": 39.68389,
            "lng": 106.813179
        },
        "ad_info": {
            "adcode": 150302,
            "province": "内蒙古自治区",
            "city": "乌海市",
            "district": "海勃湾区"
        }
    },
    {
        "id": "8031826512589214986",
        "title": "公共厕所",
        "address": "内蒙古自治区乌海市海勃湾区世纪大道乌海市妇幼保健院",
        "tel": "",
        "category": "基础设施:公共设施:公共厕所",
        "type": 0,
        "location": {
            "lat": 39.666832,
            "lng": 106.801593
        },
        "ad_info": {
            "adcode": 150302,
            "province": "内蒙古自治区",
            "city": "乌海市",
            "district": "海勃湾区"
        }
    },
    {
        "id": "849290692511182173",
        "title": "公共厕所",
        "address": "内蒙古自治区乌海市海勃湾区新华东街50号",
        "tel": "",
        "category": "基础设施:公共设施:公共厕所",
        "type": 0,
        "location": {
            "lat": 39.669395,
            "lng": 106.838464
        },
        "ad_info": {
            "adcode": 150302,
            "province": "内蒙古自治区",
            "city": "乌海市",
            "district": "海勃湾区"
        }
    },
    {
        "id": "13189589632182306864",
        "title": "公共厕所",
        "address": "内蒙古自治区乌海市海南区仁和路与老石旦街交叉口西南方向30米左右",
        "tel": "",
        "category": "基础设施:公共设施:公共厕所",
        "type": 0,
        "location": {
            "lat": 39.448788,
            "lng": 106.898734
        },
        "ad_info": {
            "adcode": 150303,
            "province": "内蒙古自治区",
            "city": "乌海市",
            "district": "海南区"
        }
    },
    {
        "id": "8989067502079500564",
        "title": "公共厕所",
        "address": "内蒙古自治区乌海市海勃湾区利民东街与园东路交叉口东南方向35米左右",
        "tel": "",
        "category": "基础设施:公共设施:公共厕所",
        "type": 0,
        "location": {
            "lat": 39.660018,
            "lng": 106.795028
        },
        "ad_info": {
            "adcode": 150302,
            "province": "内蒙古自治区",
            "city": "乌海市",
            "district": "海勃湾区"
        }
    },
    {
        "id": "18043681805386078556",
        "title": "公共厕所",
        "address": "内蒙古自治区乌海市海勃湾区团结路与文景街交叉口正西方向186米左右",
        "tel": "",
        "category": "基础设施:公共设施:公共厕所",
        "type": 0,
        "location": {
            "lat": 39.648495,
            "lng": 106.796358
        },
        "ad_info": {
            "adcode": 150302,
            "province": "内蒙古自治区",
            "city": "乌海市",
            "district": "海勃湾区"
        }
    },
    {
        "id": "17345179001651446183",
        "title": "公共厕所",
        "address": "内蒙古自治区乌海市海勃湾区和谐路与恩和西街交叉口正东方向39米左右",
        "tel": "",
        "category": "基础设施:公共设施:公共厕所",
        "type": 0,
        "location": {
            "lat": 39.657506,
            "lng": 106.792139
        },
        "ad_info": {
            "adcode": 150302,
            "province": "内蒙古自治区",
            "city": "乌海市",
            "district": "海勃湾区"
        }
    },
    {
        "id": "11713581629602373001",
        "title": "公共厕所",
        "address": "内蒙古自治区乌海市海南区244国道附近",
        "tel": "",
        "category": "基础设施:公共设施:公共厕所",
        "type": 0,
        "location": {
            "lat": 39.156171,
            "lng": 106.870554
        },
        "ad_info": {
            "adcode": 150303,
            "province": "内蒙古自治区",
            "city": "乌海市",
            "district": "海南区"
        }
    },
    {
        "id": "3445292356494483349",
        "title": "公共厕所",
        "address": "内蒙古自治区乌海市海勃湾区千里山东街与海拉北路交叉口正北方向51米左右",
        "tel": "",
        "category": "基础设施:公共设施:公共厕所",
        "type": 0,
        "location": {
            "lat": 39.672562,
            "lng": 106.828347
        },
        "ad_info": {
            "adcode": 150302,
            "province": "内蒙古自治区",
            "city": "乌海市",
            "district": "海勃湾区"
        }
    },
    {
        "id": "3995787972715432448",
        "title": "公共厕所",
        "address": "内蒙古自治区乌海市海勃湾区双拥东街与海拉北路交叉口正东方向171米左右",
        "tel": "",
        "category": "基础设施:公共设施:公共厕所",
        "type": 0,
        "location": {
            "lat": 39.691729,
            "lng": 106.830791
        },
        "ad_info": {
            "adcode": 150302,
            "province": "内蒙古自治区",
            "city": "乌海市",
            "district": "海勃湾区"
        }
    },
    {
        "id": "8113298800674304757",
        "title": "公共厕所",
        "address": "内蒙古自治区乌海市海南区东山路与东风街交叉口西北方向22米左右",
        "tel": "",
        "category": "基础设施:公共设施:公共厕所",
        "type": 0,
        "location": {
            "lat": 39.446489,
            "lng": 106.895118
        },
        "ad_info": {
            "adcode": 150303,
            "province": "内蒙古自治区",
            "city": "乌海市",
            "district": "海南区"
        }
    },
    {
        "id": "5897546199375211064",
        "title": "公共厕所",
        "address": "内蒙古自治区乌海市海勃湾区光明路与黄河东街交叉口东北方向37米左右",
        "tel": "",
        "category": "基础设施:公共设施:公共厕所",
        "type": 0,
        "location": {
            "lat": 39.680981,
            "lng": 106.840334
        },
        "ad_info": {
            "adcode": 150302,
            "province": "内蒙古自治区",
            "city": "乌海市",
            "district": "海勃湾区"
        }
    },
    {
        "id": "18148738934881070176",
        "title": "公共厕所",
        "address": "内蒙古自治区乌海市海南区阳光光田宇葡萄酒庄",
        "tel": "",
        "category": "基础设施:公共设施:公共厕所",
        "type": 0,
        "location": {
            "lat": 39.391209,
            "lng": 106.787665
        },
        "ad_info": {
            "adcode": 150303,
            "province": "内蒙古自治区",
            "city": "乌海市",
            "district": "海南区"
        }
    },
    {
        "id": "13820035324053350228",
        "title": "公共厕所",
        "address": "内蒙古自治区乌海市海南区公乌素镇社区卫生服务中心东侧150米",
        "tel": "",
        "category": "基础设施:公共设施:公共厕所",
        "type": 0,
        "location": {
            "lat": 39.340749,
            "lng": 106.892717
        },
        "ad_info": {
            "adcode": 150303,
            "province": "内蒙古自治区",
            "city": "乌海市",
            "district": "海南区"
        }
    },
    {
        "id": "11157032501161823480",
        "title": "公共厕所",
        "address": "内蒙古自治区乌海市海南区巴彦乌素大街与金融路交叉口正东方向123米左右",
        "tel": "",
        "category": "基础设施:公共设施:公共厕所",
        "type": 0,
        "location": {
            "lat": 39.440704,
            "lng": 106.887455
        },
        "ad_info": {
            "adcode": 150303,
            "province": "内蒙古自治区",
            "city": "乌海市",
            "district": "海南区"
        }
    },
    {
        "id": "3461242974199745613",
        "title": "公共厕所",
        "address": "内蒙古自治区乌海市海南区巴彦乌素大街与金融路交叉口东南方向51米左右",
        "tel": "",
        "category": "基础设施:公共设施:公共厕所",
        "type": 0,
        "location": {
            "lat": 39.439963,
            "lng": 106.886456
        },
        "ad_info": {
            "adcode": 150303,
            "province": "内蒙古自治区",
            "city": "乌海市",
            "district": "海南区"
        }
    },
    {
        "id": "6187303931033729914",
        "title": "公共厕所",
        "address": "内蒙古自治区乌海市海勃湾区富裕巷与飘香巷交叉口东北方向581米左右",
        "tel": "",
        "category": "基础设施:公共设施:公共厕所",
        "type": 0,
        "location": {
            "lat": 39.814383,
            "lng": 106.795963
        },
        "ad_info": {
            "adcode": 150302,
            "province": "内蒙古自治区",
            "city": "乌海市",
            "district": "海勃湾区"
        }
    },
    {
        "id": "8823602633634023299",
        "title": "公共厕所",
        "address": "内蒙古自治区乌海市海勃湾区建设南路与新桥东街交叉口东南方向158米左右",
        "tel": "",
        "category": "基础设施:公共设施:公共厕所",
        "type": 0,
        "location": {
            "lat": 39.655432,
            "lng": 106.813374
        },
        "ad_info": {
            "adcode": 150302,
            "province": "内蒙古自治区",
            "city": "乌海市",
            "district": "海勃湾区"
        }
    },
    {
        "id": "11739155369462682001",
        "title": "公共厕所",
        "address": "内蒙古自治区乌海市海南区农工商联合公司农场东侧240米",
        "tel": "",
        "category": "基础设施:公共设施:公共厕所",
        "type": 0,
        "location": {
            "lat": 39.374445,
            "lng": 106.763692
        },
        "ad_info": {
            "adcode": 150303,
            "province": "内蒙古自治区",
            "city": "乌海市",
            "district": "海南区"
        }
    },
    {
        "id": "200236721402607794",
        "title": "公共厕所",
        "address": "内蒙古自治区乌海市海勃湾区世纪大道与创业路交叉口西南方向808米左右",
        "tel": "",
        "category": "基础设施:公共设施:公共厕所",
        "type": 0,
        "location": {
            "lat": 39.694932,
            "lng": 106.792208
        },
        "ad_info": {
            "adcode": 150302,
            "province": "内蒙古自治区",
            "city": "乌海市",
            "district": "海勃湾区"
        }
    },
    {
        "id": "14710428962433262506",
        "title": "公共厕所",
        "address": "内蒙古自治区乌海市海勃湾区千里山镇葡萄广场",
        "tel": "",
        "category": "基础设施:公共设施:公共厕所",
        "type": 0,
        "location": {
            "lat": 39.816127,
            "lng": 106.807301
        },
        "ad_info": {
            "adcode": 150302,
            "province": "内蒙古自治区",
            "city": "乌海市",
            "district": "海勃湾区"
        }
    },
    {
        "id": "15805380034752515961",
        "title": "公共厕所",
        "address": "内蒙古自治区乌海市海南区215省道西50米",
        "tel": "",
        "category": "基础设施:公共设施:公共厕所",
        "type": 0,
        "location": {
            "lat": 39.384054,
            "lng": 106.852441
        },
        "ad_info": {
            "adcode": 150303,
            "province": "内蒙古自治区",
            "city": "乌海市",
            "district": "海南区"
        }
    },
    {
        "id": "15922196046004170459",
        "title": "公共厕所",
        "address": "内蒙古自治区乌海市海勃湾区光明路居家苑",
        "tel": "",
        "category": "基础设施:公共设施:公共厕所",
        "type": 0,
        "location": {
            "lat": 39.683965,
            "lng": 106.839943
        },
        "ad_info": {
            "adcode": 150302,
            "province": "内蒙古自治区",
            "city": "乌海市",
            "district": "海勃湾区"
        }
    },
    {
        "id": "3361442813294565281",
        "title": "公共厕所",
        "address": "内蒙古自治区乌海市海勃湾区新华西街与车站北路交叉口正南方向63米左右",
        "tel": "",
        "category": "基础设施:公共设施:公共厕所",
        "type": 0,
        "location": {
            "lat": 39.66925,
            "lng": 106.807395
        },
        "ad_info": {
            "adcode": 150302,
            "province": "内蒙古自治区",
            "city": "乌海市",
            "district": "海勃湾区"
        }
    },
    {
        "id": "17472755219781589998",
        "title": "公共厕所",
        "address": "内蒙古自治区乌海市海南区京藏高速与荣乌高速交叉口正南方向1425米左右",
        "tel": "",
        "category": "基础设施:公共设施:公共厕所",
        "type": 0,
        "location": {
            "lat": 39.393214,
            "lng": 106.796365
        },
        "ad_info": {
            "adcode": 150303,
            "province": "内蒙古自治区",
            "city": "乌海市",
            "district": "海南区"
        }
    },
    {
        "id": "13694174046058888490",
        "title": "公共厕所",
        "address": "内蒙古自治区乌海市海勃湾区林荫大道与沃野北路交叉口东北方向92米左右",
        "tel": "13947707705",
        "category": "基础设施:公共设施:公共厕所",
        "type": 0,
        "location": {
            "lat": 39.701404,
            "lng": 106.838366
        },
        "ad_info": {
            "adcode": 150302,
            "province": "内蒙古自治区",
            "city": "乌海市",
            "district": "海勃湾区"
        }
    },
    {
        "id": "4962343051894837171",
        "title": "公共厕所",
        "address": "内蒙古自治区乌海市海勃湾区四合木街与滨河大道交叉口正北方向61米左右",
        "tel": "",
        "category": "基础设施:公共设施:公共厕所",
        "type": 0,
        "location": {
            "lat": 39.675008,
            "lng": 106.793743
        },
        "ad_info": {
            "adcode": 150302,
            "province": "内蒙古自治区",
            "city": "乌海市",
            "district": "海勃湾区"
        }
    },
    {
        "id": "16756894381063954089",
        "title": "公共厕所",
        "address": "内蒙古自治区乌海市海南区215省道东50米",
        "tel": "",
        "category": "基础设施:公共设施:公共厕所",
        "type": 0,
        "location": {
            "lat": 39.386043,
            "lng": 106.852061
        },
        "ad_info": {
            "adcode": 150303,
            "province": "内蒙古自治区",
            "city": "乌海市",
            "district": "海南区"
        }
    },
    {
        "id": "14973279830204447513",
        "title": "公共厕所",
        "address": "内蒙古自治区乌海市海南区恩格尔互通立交与连接线交叉口正南方向1626米左右",
        "tel": "",
        "category": "基础设施:公共设施:公共厕所",
        "type": 0,
        "location": {
            "lat": 39.410592,
            "lng": 106.894961
        },
        "ad_info": {
            "adcode": 150303,
            "province": "内蒙古自治区",
            "city": "乌海市",
            "district": "海南区"
        }
    },
    {
        "id": "12697423671206273214",
        "title": "公共厕所",
        "address": "内蒙古自治区乌海市海勃湾区狮城东街与青山路交叉口正东方向106米左右",
        "tel": "",
        "category": "基础设施:公共设施:公共厕所",
        "type": 0,
        "location": {
            "lat": 39.683093,
            "lng": 106.844782
        },
        "ad_info": {
            "adcode": 150302,
            "province": "内蒙古自治区",
            "city": "乌海市",
            "district": "海勃湾区"
        }
    },
    {
        "id": "12099975407427183502",
        "title": "公共厕所",
        "address": "内蒙古自治区乌海市海南区东风街与海拉路交叉口正南方向66米左右",
        "tel": "",
        "category": "基础设施:公共设施:公共厕所",
        "type": 0,
        "location": {
            "lat": 39.444964,
            "lng": 106.877353
        },
        "ad_info": {
            "adcode": 150303,
            "province": "内蒙古自治区",
            "city": "乌海市",
            "district": "海南区"
        }
    },
    {
        "id": "7424773852217900026",
        "title": "公共厕所",
        "address": "内蒙古自治区乌海市海勃湾区宜化街与滨河大道交叉口正西方向136米左右",
        "tel": "",
        "category": "基础设施:公共设施:公共厕所",
        "type": 0,
        "location": {
            "lat": 39.656715,
            "lng": 106.78493
        },
        "ad_info": {
            "adcode": 150302,
            "province": "内蒙古自治区",
            "city": "乌海市",
            "district": "海勃湾区"
        }
    },
    {
        "id": "15344198523083791659",
        "title": "公共厕所",
        "address": "内蒙古自治区乌海市海南区仁和路与巴音陶亥街交叉口正北方向154米左右",
        "tel": "",
        "category": "基础设施:公共设施:公共厕所",
        "type": 0,
        "location": {
            "lat": 39.444652,
            "lng": 106.899097
        },
        "ad_info": {
            "adcode": 150303,
            "province": "内蒙古自治区",
            "city": "乌海市",
            "district": "海南区"
        }
    },
    {
        "id": "18041686085529336217",
        "title": "无障碍公共厕所",
        "address": "内蒙古自治区乌海市海勃湾区沃野北路陶然雅居",
        "tel": "",
        "category": "基础设施:公共设施:公共厕所",
        "type": 0,
        "location": {
            "lat": 39.674149,
            "lng": 106.835944
        },
        "ad_info": {
            "adcode": 150302,
            "province": "内蒙古自治区",
            "city": "乌海市",
            "district": "海勃湾区"
        }
    },
    {
        "id": "200688412901720760",
        "title": "公共厕所",
        "address": "内蒙古自治区乌海市海勃湾区新华西街59-1号",
        "tel": "",
        "category": "基础设施:公共设施:公共厕所",
        "type": 0,
        "location": {
            "lat": 39.669992,
            "lng": 106.808922
        },
        "ad_info": {
            "adcode": 150302,
            "province": "内蒙古自治区",
            "city": "乌海市",
            "district": "海勃湾区"
        }
    },
    {
        "id": "7057391880135733898",
        "title": "公共厕所",
        "address": "内蒙古自治区乌海市海勃湾区狮城东街2号",
        "tel": "",
        "category": "基础设施:公共设施:公共厕所",
        "type": 0,
        "location": {
            "lat": 39.683655,
            "lng": 106.823368
        },
        "ad_info": {
            "adcode": 150302,
            "province": "内蒙古自治区",
            "city": "乌海市",
            "district": "海勃湾区"
        }
    },
    {
        "id": "6843312862002646015",
        "title": "公共厕所",
        "address": "内蒙古自治区乌海市海南区巴彦乌素大街与海拉路交叉口正东方向158米左右",
        "tel": "",
        "category": "基础设施:公共设施:公共厕所",
        "type": 0,
        "location": {
            "lat": 39.440111,
            "lng": 106.875709
        },
        "ad_info": {
            "adcode": 150303,
            "province": "内蒙古自治区",
            "city": "乌海市",
            "district": "海南区"
        }
    },
    {
        "id": "14224353899279441909",
        "title": "公共厕所",
        "address": "内蒙古自治区乌海市海勃湾区人民南路与甘德尔东街交叉口正西方向134米左右",
        "tel": "",
        "category": "基础设施:公共设施:公共厕所",
        "type": 0,
        "location": {
            "lat": 39.664257,
            "lng": 106.818226
        },
        "ad_info": {
            "adcode": 150302,
            "province": "内蒙古自治区",
            "city": "乌海市",
            "district": "海勃湾区"
        }
    },
    {
        "id": "420631782881173641",
        "title": "公共厕所",
        "address": "内蒙古自治区乌海市海勃湾区海拉北路与黄河东街交叉口正南方向237米左右",
        "tel": "",
        "category": "基础设施:公共设施:公共厕所",
        "type": 0,
        "location": {
            "lat": 39.678933,
            "lng": 106.828076
        },
        "ad_info": {
            "adcode": 150302,
            "province": "内蒙古自治区",
            "city": "乌海市",
            "district": "海勃湾区"
        }
    },
    {
        "id": "15521158416076302409",
        "title": "公共厕所",
        "address": "内蒙古自治区乌海市海南区恩格尔路与新桥路交叉口正西方向45米左右",
        "tel": "",
        "category": "基础设施:公共设施:公共厕所",
        "type": 0,
        "location": {
            "lat": 39.428961,
            "lng": 106.880333
        },
        "ad_info": {
            "adcode": 150303,
            "province": "内蒙古自治区",
            "city": "乌海市",
            "district": "海南区"
        }
    },
    {
        "id": "16814531051801565762",
        "title": "公共厕所",
        "address": "内蒙古自治区乌海市海南区神华小区东北侧190米",
        "tel": "",
        "category": "基础设施:公共设施:公共厕所",
        "type": 0,
        "location": {
            "lat": 39.432662,
            "lng": 106.875343
        },
        "ad_info": {
            "adcode": 150303,
            "province": "内蒙古自治区",
            "city": "乌海市",
            "district": "海南区"
        }
    },
    {
        "id": "3603543490913903392",
        "title": "公共厕所",
        "address": "内蒙古自治区乌海市海勃湾区人民北路与长青西街交叉口正西方向74米左右",
        "tel": "",
        "category": "基础设施:公共设施:公共厕所",
        "type": 0,
        "location": {
            "lat": 39.67763,
            "lng": 106.819282
        },
        "ad_info": {
            "adcode": 150302,
            "province": "内蒙古自治区",
            "city": "乌海市",
            "district": "海勃湾区"
        }
    },
    {
        "id": "2918957983584547871",
        "title": "公共厕所",
        "address": "内蒙古自治区乌海市海勃湾区市府大道乌海市职业技术学校",
        "tel": "",
        "category": "基础设施:公共设施:公共厕所",
        "type": 0,
        "location": {
            "lat": 39.652169,
            "lng": 106.792938
        },
        "ad_info": {
            "adcode": 150302,
            "province": "内蒙古自治区",
            "city": "乌海市",
            "district": "海勃湾区"
        }
    },
    {
        "id": "14672451107987286407",
        "title": "公共厕所",
        "address": "内蒙古自治区乌海市海勃湾区大庆路与海北东街交叉口正西方向171米左右",
        "tel": "",
        "category": "基础设施:公共设施:公共厕所",
        "type": 0,
        "location": {
            "lat": 39.689147,
            "lng": 106.830966
        },
        "ad_info": {
            "adcode": 150302,
            "province": "内蒙古自治区",
            "city": "乌海市",
            "district": "海勃湾区"
        }
    },
    {
        "id": "3480013048738608875",
        "title": "公共厕所",
        "address": "内蒙古自治区乌海市海勃湾区文景街与滨河大道交叉口正东方向19米左右",
        "tel": "",
        "category": "基础设施:公共设施:公共厕所",
        "type": 0,
        "location": {
            "lat": 39.648487,
            "lng": 106.786335
        },
        "ad_info": {
            "adcode": 150302,
            "province": "内蒙古自治区",
            "city": "乌海市",
            "district": "海勃湾区"
        }
    },
    {
        "id": "9009819903537076271",
        "title": "公共厕所",
        "address": "内蒙古自治区乌海市海勃湾区东环路与林荫大道交叉口正东方向396米左右",
        "tel": "",
        "category": "基础设施:公共设施:公共厕所",
        "type": 0,
        "location": {
            "lat": 39.701353,
            "lng": 106.860781
        },
        "ad_info": {
            "adcode": 150302,
            "province": "内蒙古自治区",
            "city": "乌海市",
            "district": "海勃湾区"
        }
    },
    {
        "id": "11101660588952788481",
        "title": "洗手间",
        "address": "内蒙古自治区乌海市海南区拉僧仲街与新桥路交叉口西北方向114米左右",
        "tel": "",
        "category": "基础设施:公共设施:公共厕所",
        "type": 0,
        "location": {
            "lat": 39.435491,
            "lng": 106.879093
        },
        "ad_info": {
            "adcode": 150303,
            "province": "内蒙古自治区",
            "city": "乌海市",
            "district": "海南区"
        }
    },
    {
        "id": "1624297515776371058",
        "title": "公共厕所",
        "address": "内蒙古自治区乌海市海南区新桥路与西卓子山街交叉口西南方向103米左右",
        "tel": "",
        "category": "基础设施:公共设施:公共厕所",
        "type": 0,
        "location": {
            "lat": 39.436966,
            "lng": 106.879179
        },
        "ad_info": {
            "adcode": 150303,
            "province": "内蒙古自治区",
            "city": "乌海市",
            "district": "海南区"
        }
    },
    {
        "id": "4075553490420680486",
        "title": "公共厕所",
        "address": "内蒙古自治区乌海市海南区新桥路与西卓子山街交叉口东北方向81米左右",
        "tel": "",
        "category": "基础设施:公共设施:公共厕所",
        "type": 0,
        "location": {
            "lat": 39.437933,
            "lng": 106.880884
        },
        "ad_info": {
            "adcode": 150303,
            "province": "内蒙古自治区",
            "city": "乌海市",
            "district": "海南区"
        }
    },
    {
        "id": "4129258673143848723",
        "title": "公共厕所",
        "address": "内蒙古自治区乌海市海南区海电路与西卓子山街交叉口正西方向63米左右",
        "tel": "",
        "category": "基础设施:公共设施:公共厕所",
        "type": 0,
        "location": {
            "lat": 39.437918,
            "lng": 106.89161
        },
        "ad_info": {
            "adcode": 150303,
            "province": "内蒙古自治区",
            "city": "乌海市",
            "district": "海南区"
        }
    },
    {
        "id": "4661611551274484834",
        "title": "公共厕所",
        "address": "内蒙古自治区乌海市乌达区益民佳苑北侧190米",
        "tel": "",
        "category": "基础设施:公共设施:公共厕所",
        "type": 0,
        "location": {
            "lat": 39.529299,
            "lng": 106.709796
        },
        "ad_info": {
            "adcode": 150304,
            "province": "内蒙古自治区",
            "city": "乌海市",
            "district": "乌达区"
        }
    },
    {
        "id": "18093488630248600171",
        "title": "公共厕所",
        "address": "内蒙古自治区乌海市海勃湾区富裕巷与飘香巷交叉口正北方向352米左右",
        "tel": "",
        "category": "基础设施:公共设施:公共厕所",
        "type": 0,
        "location": {
            "lat": 39.815299,
            "lng": 106.790958
        },
        "ad_info": {
            "adcode": 150302,
            "province": "内蒙古自治区",
            "city": "乌海市",
            "district": "海勃湾区"
        }
    },
    {
        "id": "17872020443662780506",
        "title": "公共厕所",
        "address": "内蒙古自治区乌海市海勃湾区人民公园",
        "tel": "",
        "category": "基础设施:公共设施:公共厕所",
        "type": 0,
        "location": {
            "lat": 39.676628,
            "lng": 106.824409
        },
        "ad_info": {
            "adcode": 150302,
            "province": "内蒙古自治区",
            "city": "乌海市",
            "district": "海勃湾区"
        }
    },
    {
        "id": "10640324052350905302",
        "title": "公共厕所",
        "address": "内蒙古自治区乌海市海勃湾区温馨路与狮城东街交叉口东南方向45米左右",
        "tel": "",
        "category": "基础设施:公共设施:公共厕所",
        "type": 0,
        "location": {
            "lat": 39.682886,
            "lng": 106.851648
        },
        "ad_info": {
            "adcode": 150302,
            "province": "内蒙古自治区",
            "city": "乌海市",
            "district": "海勃湾区"
        }
    },
    {
        "id": "11472052334768240555",
        "title": "公共厕所",
        "address": "内蒙古自治区乌海市海勃湾区公园南路与甘德尔东街交叉口正南方向126米左右",
        "tel": "",
        "category": "基础设施:公共设施:公共厕所",
        "type": 0,
        "location": {
            "lat": 39.662823,
            "lng": 106.824619
        },
        "ad_info": {
            "adcode": 150302,
            "province": "内蒙古自治区",
            "city": "乌海市",
            "district": "海勃湾区"
        }
    },
    {
        "id": "11168715851662005396",
        "title": "公共厕所",
        "address": "内蒙古自治区乌海市海勃湾区清泉街新天地小区",
        "tel": "",
        "category": "基础设施:公共设施:公共厕所",
        "type": 0,
        "location": {
            "lat": 39.660566,
            "lng": 106.816324
        },
        "ad_info": {
            "adcode": 150302,
            "province": "内蒙古自治区",
            "city": "乌海市",
            "district": "海勃湾区"
        }
    },
    {
        "id": "14579309081110967576",
        "title": "公共厕所",
        "address": "内蒙古自治区乌海市海勃湾区人民北路与人民南路交叉口正西方向201米左右",
        "tel": "",
        "category": "基础设施:公共设施:公共厕所",
        "type": 0,
        "location": {
            "lat": 39.669734,
            "lng": 106.817642
        },
        "ad_info": {
            "adcode": 150302,
            "province": "内蒙古自治区",
            "city": "乌海市",
            "district": "海勃湾区"
        }
    },
    {
        "id": "2134479833943730595",
        "title": "公共厕所",
        "address": "内蒙古自治区乌海市海勃湾区长青西街9号",
        "tel": "",
        "category": "基础设施:公共设施:公共厕所",
        "type": 0,
        "location": {
            "lat": 39.677987,
            "lng": 106.81663
        },
        "ad_info": {
            "adcode": 150302,
            "province": "内蒙古自治区",
            "city": "乌海市",
            "district": "海勃湾区"
        }
    },
    {
        "id": "17318715107741167893",
        "title": "公共厕所",
        "address": "内蒙古自治区乌海市海勃湾区海拉北路23号",
        "tel": "",
        "category": "基础设施:公共设施:公共厕所",
        "type": 0,
        "location": {
            "lat": 39.683412,
            "lng": 106.828207
        },
        "ad_info": {
            "adcode": 150302,
            "province": "内蒙古自治区",
            "city": "乌海市",
            "district": "海勃湾区"
        }
    },
    {
        "id": "12998013950204190769",
        "title": "公共厕所",
        "address": "内蒙古自治区乌海市海勃湾区和平东街与青山路交叉口正西方向104米左右",
        "tel": "",
        "category": "基础设施:公共设施:公共厕所",
        "type": 0,
        "location": {
            "lat": 39.686281,
            "lng": 106.842546
        },
        "ad_info": {
            "adcode": 150302,
            "province": "内蒙古自治区",
            "city": "乌海市",
            "district": "海勃湾区"
        }
    },
    {
        "id": "1960295521977631834",
        "title": "公共厕所",
        "address": "内蒙古自治区乌海市海南区广场路与拉僧仲街交叉口东北方向32米左右",
        "tel": "",
        "category": "基础设施:公共设施:公共厕所",
        "type": 0,
        "location": {
            "lat": 39.435351,
            "lng": 106.883658
        },
        "ad_info": {
            "adcode": 150303,
            "province": "内蒙古自治区",
            "city": "乌海市",
            "district": "海南区"
        }
    },
    {
        "id": "17843491259356117408",
        "title": "公共厕所",
        "address": "内蒙古自治区乌海市海勃湾区建设北路京海城",
        "tel": "",
        "category": "基础设施:公共设施:公共厕所",
        "type": 0,
        "location": {
            "lat": 39.681921,
            "lng": 106.81184
        },
        "ad_info": {
            "adcode": 150302,
            "province": "内蒙古自治区",
            "city": "乌海市",
            "district": "海勃湾区"
        }
    },
    {
        "id": "14373964655809666841",
        "title": "公共厕所",
        "address": "内蒙古自治区乌海市海勃湾区乌兰北路与乌兰南路交叉口正北方向135米左右",
        "tel": "",
        "category": "基础设施:公共设施:公共厕所",
        "type": 0,
        "location": {
            "lat": 39.67077,
            "lng": 106.81546
        },
        "ad_info": {
            "adcode": 150302,
            "province": "内蒙古自治区",
            "city": "乌海市",
            "district": "海勃湾区"
        }
    },
    {
        "id": "4953786108917803181",
        "title": "公共厕所",
        "address": "内蒙古自治区乌海市海勃湾区海北东街与温馨路交叉口正北方向80米左右",
        "tel": "",
        "category": "基础设施:公共设施:公共厕所",
        "type": 0,
        "location": {
            "lat": 39.689859,
            "lng": 106.851833
        },
        "ad_info": {
            "adcode": 150302,
            "province": "内蒙古自治区",
            "city": "乌海市",
            "district": "海勃湾区"
        }
    },
    {
        "id": "10790358002084152512",
        "title": "公共厕所",
        "address": "内蒙古自治区乌海市海南区新西线与棋千线交叉口东南方向151米左右",
        "tel": "",
        "category": "基础设施:公共设施:公共厕所",
        "type": 0,
        "location": {
            "lat": 39.456643,
            "lng": 106.907321
        },
        "ad_info": {
            "adcode": 150303,
            "province": "内蒙古自治区",
            "city": "乌海市",
            "district": "海南区"
        }
    },
    {
        "id": "3165703979524259431",
        "title": "公共厕所",
        "address": "内蒙古自治区乌海市海勃湾区海拉北路人民公园(东侧)",
        "tel": "",
        "category": "基础设施:公共设施:公共厕所",
        "type": 0,
        "location": {
            "lat": 39.675641,
            "lng": 106.827451
        },
        "ad_info": {
            "adcode": 150302,
            "province": "内蒙古自治区",
            "city": "乌海市",
            "district": "海勃湾区"
        }
    },
    {
        "id": "10342026487986540747",
        "title": "公共厕所",
        "address": "内蒙古自治区乌海市海勃湾区双拥西街与建设北路交叉口正南方向126米左右",
        "tel": "",
        "category": "基础设施:公共设施:公共厕所",
        "type": 0,
        "location": {
            "lat": 39.691129,
            "lng": 106.812582
        },
        "ad_info": {
            "adcode": 150302,
            "province": "内蒙古自治区",
            "city": "乌海市",
            "district": "海勃湾区"
        }
    },
    {
        "id": "17403970263286884767",
        "title": "公共厕所",
        "address": "内蒙古自治区乌海市海勃湾区人民广场(黄河街北)",
        "tel": "",
        "category": "基础设施:公共设施:公共厕所",
        "type": 0,
        "location": {
            "lat": 39.681454,
            "lng": 106.82323
        },
        "ad_info": {
            "adcode": 150302,
            "province": "内蒙古自治区",
            "city": "乌海市",
            "district": "海勃湾区"
        }
    },
    {
        "id": "5809409487872668414",
        "title": "公共厕所",
        "address": "内蒙古自治区乌海市海勃湾区人民北路与双拥东街交叉口东南方向97米左右",
        "tel": "",
        "category": "基础设施:公共设施:公共厕所",
        "type": 0,
        "location": {
            "lat": 39.691701,
            "lng": 106.821552
        },
        "ad_info": {
            "adcode": 150302,
            "province": "内蒙古自治区",
            "city": "乌海市",
            "district": "海勃湾区"
        }
    },
    {
        "id": "1612634629953663733",
        "title": "公共厕所",
        "address": "内蒙古自治区乌海市海勃湾区滨河大道与蒙西街交叉口正东方向58米左右",
        "tel": "",
        "category": "基础设施:公共设施:公共厕所",
        "type": 0,
        "location": {
            "lat": 39.686877,
            "lng": 106.799607
        },
        "ad_info": {
            "adcode": 150302,
            "province": "内蒙古自治区",
            "city": "乌海市",
            "district": "海勃湾区"
        }
    },
    {
        "id": "2115621896595268257",
        "title": "公共厕所",
        "address": "内蒙古自治区乌海市海勃湾区车振刚中医诊所南侧150米",
        "tel": "",
        "category": "基础设施:公共设施:公共厕所",
        "type": 0,
        "location": {
            "lat": 39.693437,
            "lng": 106.792535
        },
        "ad_info": {
            "adcode": 150302,
            "province": "内蒙古自治区",
            "city": "乌海市",
            "district": "海勃湾区"
        }
    },
    {
        "id": "6352094380911040417",
        "title": "公共厕所",
        "address": "内蒙古自治区乌海市海勃湾区公园北路与海北东街交叉口正北方向121米左右",
        "tel": "",
        "category": "基础设施:公共设施:公共厕所",
        "type": 0,
        "location": {
            "lat": 39.690689,
            "lng": 106.824715
        },
        "ad_info": {
            "adcode": 150302,
            "province": "内蒙古自治区",
            "city": "乌海市",
            "district": "海勃湾区"
        }
    },
    {
        "id": "980150194455516803",
        "title": "公共厕所",
        "address": "内蒙古自治区乌海市海勃湾区青年路与黄河东街交叉口正北方向73米左右",
        "tel": "",
        "category": "基础设施:公共设施:公共厕所",
        "type": 0,
        "location": {
            "lat": 39.681338,
            "lng": 106.847172
        },
        "ad_info": {
            "adcode": 150302,
            "province": "内蒙古自治区",
            "city": "乌海市",
            "district": "海勃湾区"
        }
    },
    {
        "id": "11164331180717911252",
        "title": "公共厕所",
        "address": "内蒙古自治区乌海市海勃湾区和平西街新锐雅园",
        "tel": "",
        "category": "基础设施:公共设施:公共厕所",
        "type": 0,
        "location": {
            "lat": 39.686973,
            "lng": 106.808597
        },
        "ad_info": {
            "adcode": 150302,
            "province": "内蒙古自治区",
            "city": "乌海市",
            "district": "海勃湾区"
        }
    },
    {
        "id": "7798025536022335040",
        "title": "公共厕所",
        "address": "内蒙古自治区乌海市海勃湾区S215与三厂互通交叉口东南方向1006米左右",
        "tel": "",
        "category": "基础设施:公共设施:公共厕所",
        "type": 0,
        "location": {
            "lat": 39.642897,
            "lng": 106.850566
        },
        "ad_info": {
            "adcode": 150302,
            "province": "内蒙古自治区",
            "city": "乌海市",
            "district": "海勃湾区"
        }
    },
    {
        "id": "5214585296269676274",
        "title": "公共厕所",
        "address": "内蒙古自治区乌海市海勃湾区215省道西50米",
        "tel": "",
        "category": "基础设施:公共设施:公共厕所",
        "type": 0,
        "location": {
            "lat": 39.610258,
            "lng": 106.881072
        },
        "ad_info": {
            "adcode": 150302,
            "province": "内蒙古自治区",
            "city": "乌海市",
            "district": "海勃湾区"
        }
    },
    {
        "id": "8089691169983286259",
        "title": "公共厕所",
        "address": "内蒙古自治区乌海市海勃湾区凤凰岭东街与海拉北路交叉口西北方向357米左右",
        "tel": "",
        "category": "基础设施:公共设施:公共厕所",
        "type": 0,
        "location": {
            "lat": 39.676188,
            "lng": 106.824441
        },
        "ad_info": {
            "adcode": 150302,
            "province": "内蒙古自治区",
            "city": "乌海市",
            "district": "海勃湾区"
        }
    },
    {
        "id": "6306988190633949338",
        "title": "公共厕所",
        "address": "内蒙古自治区乌海市乌达区公园路与巴音赛街交叉口正西方向155米左右",
        "tel": "",
        "category": "基础设施:公共设施:公共厕所",
        "type": 0,
        "location": {
            "lat": 39.499837,
            "lng": 106.721162
        },
        "ad_info": {
            "adcode": 150304,
            "province": "内蒙古自治区",
            "city": "乌海市",
            "district": "乌达区"
        }
    },
    {
        "id": "7329786868853970873",
        "title": "公共厕所",
        "address": "内蒙古自治区乌海市海勃湾区机场路11公里处乌海机场1层附近",
        "tel": "",
        "category": "基础设施:公共设施:公共厕所",
        "type": 0,
        "location": {
            "lat": 39.792453,
            "lng": 106.808938
        },
        "ad_info": {
            "adcode": 150302,
            "province": "内蒙古自治区",
            "city": "乌海市",
            "district": "海勃湾区"
        }
    },
    {
        "id": "10575619570570422707",
        "title": "公共厕所",
        "address": "内蒙古自治区乌海市海勃湾区三厂互通与棋千线交叉口西北方向162米左右",
        "tel": "",
        "category": "基础设施:公共设施:公共厕所",
        "type": 0,
        "location": {
            "lat": 39.640677,
            "lng": 106.836382
        },
        "ad_info": {
            "adcode": 150302,
            "province": "内蒙古自治区",
            "city": "乌海市",
            "district": "海勃湾区"
        }
    },
    {
        "id": "18341772936015849084",
        "title": "公共厕所",
        "address": "内蒙古自治区乌海市海勃湾区建安街与新桥东街交叉口正东方向74米左右",
        "tel": "",
        "category": "基础设施:公共设施:公共厕所",
        "type": 0,
        "location": {
            "lat": 39.656039,
            "lng": 106.817448
        },
        "ad_info": {
            "adcode": 150302,
            "province": "内蒙古自治区",
            "city": "乌海市",
            "district": "海勃湾区"
        }
    },
    {
        "id": "8310284796440630968",
        "title": "公共厕所",
        "address": "内蒙古自治区乌海市海勃湾区215省道西50米",
        "tel": "",
        "category": "基础设施:公共设施:公共厕所",
        "type": 0,
        "location": {
            "lat": 39.60764,
            "lng": 106.882956
        },
        "ad_info": {
            "adcode": 150302,
            "province": "内蒙古自治区",
            "city": "乌海市",
            "district": "海勃湾区"
        }
    },
    {
        "id": "10729175747460060599",
        "title": "公共厕所",
        "address": "内蒙古自治区乌海市海勃湾区110国道附近",
        "tel": "",
        "category": "基础设施:公共设施:公共厕所",
        "type": 0,
        "location": {
            "lat": 39.783464,
            "lng": 106.779722
        },
        "ad_info": {
            "adcode": 150302,
            "province": "内蒙古自治区",
            "city": "乌海市",
            "district": "海勃湾区"
        }
    },
    {
        "id": "16937845732361456080",
        "title": "公共厕所",
        "address": "内蒙古自治区乌海市乌达区乌北14巷与公园路交叉口正北方向153米左右",
        "tel": "",
        "category": "基础设施:公共设施:公共厕所",
        "type": 0,
        "location": {
            "lat": 39.494134,
            "lng": 106.725616
        },
        "ad_info": {
            "adcode": 150304,
            "province": "内蒙古自治区",
            "city": "乌海市",
            "district": "乌达区"
        }
    },
    {
        "id": "15637100770609518901",
        "title": "公共厕所",
        "address": "内蒙古自治区乌海市乌达区乌北14巷与公园路交叉口正西方向259米左右",
        "tel": "",
        "category": "基础设施:公共设施:公共厕所",
        "type": 0,
        "location": {
            "lat": 39.492735,
            "lng": 106.722789
        },
        "ad_info": {
            "adcode": 150304,
            "province": "内蒙古自治区",
            "city": "乌海市",
            "district": "乌达区"
        }
    },
    {
        "id": "12015224839953829518",
        "title": "公共厕所",
        "address": "内蒙古自治区乌海市乌达区爱民街与解放路交叉口正西方向107米左右",
        "tel": "",
        "category": "基础设施:公共设施:公共厕所",
        "type": 0,
        "location": {
            "lat": 39.513113,
            "lng": 106.707012
        },
        "ad_info": {
            "adcode": 150304,
            "province": "内蒙古自治区",
            "city": "乌海市",
            "district": "乌达区"
        }
    },
    {
        "id": "16005236595247097106",
        "title": "无障碍公共厕所",
        "address": "内蒙古自治区乌海市海勃湾区大庆路与黄河东街交叉口西南方向44米左右",
        "tel": "",
        "category": "基础设施:公共设施:公共厕所",
        "type": 0,
        "location": {
            "lat": 39.680572,
            "lng": 106.832489
        },
        "ad_info": {
            "adcode": 150302,
            "province": "内蒙古自治区",
            "city": "乌海市",
            "district": "海勃湾区"
        }
    },
    {
        "id": "2884867299077962042",
        "title": "公共厕所",
        "address": "内蒙古自治区乌海市乌达区公园路与团结街交叉口正西方向109米左右",
        "tel": "",
        "category": "基础设施:公共设施:公共厕所",
        "type": 0,
        "location": {
            "lat": 39.505466,
            "lng": 106.718895
        },
        "ad_info": {
            "adcode": 150304,
            "province": "内蒙古自治区",
            "city": "乌海市",
            "district": "乌达区"
        }
    },
    {
        "id": "8134268057404661435",
        "title": "公共厕所",
        "address": "内蒙古自治区乌海市乌达区苏三路与解放路交叉口东北方向71米左右",
        "tel": "",
        "category": "基础设施:公共设施:公共厕所",
        "type": 0,
        "location": {
            "lat": 39.50694,
            "lng": 106.71469
        },
        "ad_info": {
            "adcode": 150304,
            "province": "内蒙古自治区",
            "city": "乌海市",
            "district": "乌达区"
        }
    },
    {
        "id": "5318962743282468463",
        "title": "公共厕所",
        "address": "内蒙古自治区乌海市乌达区皇冠路供电局对面",
        "tel": "",
        "category": "基础设施:公共设施:公共厕所",
        "type": 0,
        "location": {
            "lat": 39.498135,
            "lng": 106.712652
        },
        "ad_info": {
            "adcode": 150304,
            "province": "内蒙古自治区",
            "city": "乌海市",
            "district": "乌达区"
        }
    },
    {
        "id": "641384393368948696",
        "title": "公共厕所",
        "address": "内蒙古自治区乌海市乌达区柳荫大道与河槽巷交叉口正北方向170米左右",
        "tel": "",
        "category": "基础设施:公共设施:公共厕所",
        "type": 0,
        "location": {
            "lat": 39.496825,
            "lng": 106.732381
        },
        "ad_info": {
            "adcode": 150304,
            "province": "内蒙古自治区",
            "city": "乌海市",
            "district": "乌达区"
        }
    },
    {
        "id": "108172441070870369",
        "title": "公共厕所",
        "address": "内蒙古自治区乌海市乌达区新达街与胡杨路交叉口正东方向72米左右",
        "tel": "",
        "category": "基础设施:公共设施:公共厕所",
        "type": 0,
        "location": {
            "lat": 39.517158,
            "lng": 106.698486
        },
        "ad_info": {
            "adcode": 150304,
            "province": "内蒙古自治区",
            "city": "乌海市",
            "district": "乌达区"
        }
    },
    {
        "id": "9642598809000307714",
        "title": "公共厕所",
        "address": "内蒙古自治区乌海市乌达区巴音赛大街20号",
        "tel": "",
        "category": "基础设施:公共设施:公共厕所",
        "type": 0,
        "location": {
            "lat": 39.499883,
            "lng": 106.726332
        },
        "ad_info": {
            "adcode": 150304,
            "province": "内蒙古自治区",
            "city": "乌海市",
            "district": "乌达区"
        }
    },
    {
        "id": "10974459092267367301",
        "title": "公共厕所",
        "address": "内蒙古自治区乌海市乌达区皇冠路与苏三路交叉口西南方向80米左右",
        "tel": "",
        "category": "基础设施:公共设施:公共厕所",
        "type": 0,
        "location": {
            "lat": 39.5098,
            "lng": 106.70224
        },
        "ad_info": {
            "adcode": 150304,
            "province": "内蒙古自治区",
            "city": "乌海市",
            "district": "乌达区"
        }
    },
    {
        "id": "746517481450419190",
        "title": "公共厕所",
        "address": "内蒙古自治区乌海市乌达区乌北1巷与乌尔特街交叉口西南方向35米左右",
        "tel": "",
        "category": "基础设施:公共设施:公共厕所",
        "type": 0,
        "location": {
            "lat": 39.493354,
            "lng": 106.732152
        },
        "ad_info": {
            "adcode": 150304,
            "province": "内蒙古自治区",
            "city": "乌海市",
            "district": "乌达区"
        }
    },
    {
        "id": "9528021427601875064",
        "title": "无障碍公共厕所",
        "address": "内蒙古自治区乌海市海勃湾区千里山东街与大庆路交叉口正西方向131米左右",
        "tel": "",
        "category": "基础设施:公共设施:公共厕所",
        "type": 0,
        "location": {
            "lat": 39.671867,
            "lng": 106.830798
        },
        "ad_info": {
            "adcode": 150302,
            "province": "内蒙古自治区",
            "city": "乌海市",
            "district": "海勃湾区"
        }
    },
    {
        "id": "17740946671808260887",
        "title": "无障碍公共厕所",
        "address": "内蒙古自治区乌海市海南区公乌素街与黄河路交叉口西北方向78米左右",
        "tel": "",
        "category": "基础设施:公共设施:公共厕所",
        "type": 0,
        "location": {
            "lat": 39.433479,
            "lng": 106.889022
        },
        "ad_info": {
            "adcode": 150303,
            "province": "内蒙古自治区",
            "city": "乌海市",
            "district": "海南区"
        }
    },
    {
        "id": "9159728249528380240",
        "title": "公共厕所",
        "address": "内蒙古自治区乌海市乌达区五虎山路与和硕特街交叉口西北方向91米左右",
        "tel": "",
        "category": "基础设施:公共设施:公共厕所",
        "type": 0,
        "location": {
            "lat": 39.458384,
            "lng": 106.677534
        },
        "ad_info": {
            "adcode": 150304,
            "province": "内蒙古自治区",
            "city": "乌海市",
            "district": "乌达区"
        }
    },
    {
        "id": "11731783769949021452",
        "title": "无障碍公共厕所",
        "address": "内蒙古自治区乌海市海勃湾区双拥东街与沃野北路交叉口西北方向67米左右",
        "tel": "",
        "category": "基础设施:公共设施:公共厕所",
        "type": 0,
        "location": {
            "lat": 39.692075,
            "lng": 106.836299
        },
        "ad_info": {
            "adcode": 150302,
            "province": "内蒙古自治区",
            "city": "乌海市",
            "district": "海勃湾区"
        }
    },
    {
        "id": "12412512898202321191",
        "title": "无障碍公共厕所",
        "address": "内蒙古自治区乌海市海勃湾区人民北路与双拥东街交叉口正东方向106米左右",
        "tel": "",
        "category": "基础设施:公共设施:公共厕所",
        "type": 0,
        "location": {
            "lat": 39.69188,
            "lng": 106.821761
        },
        "ad_info": {
            "adcode": 150302,
            "province": "内蒙古自治区",
            "city": "乌海市",
            "district": "海勃湾区"
        }
    },
    {
        "id": "11990148758296610273",
        "title": "拉僧庙服务区公共厕所",
        "address": "内蒙古自治区乌海市海南区G18荣乌高速与拉僧庙服务区交叉口西北400米",
        "tel": "",
        "category": "基础设施:公共设施:公共厕所",
        "type": 0,
        "location": {
            "lat": 39.296232,
            "lng": 106.87676
        },
        "ad_info": {
            "adcode": 150303,
            "province": "内蒙古自治区",
            "city": "乌海市",
            "district": "海南区"
        }
    },
    {
        "id": "9453052935596788083",
        "title": "拉僧庙服务区公共厕所",
        "address": "内蒙古自治区乌海市海南区中国石油拉僧庙服务区加油站西北侧170米",
        "tel": "",
        "category": "基础设施:公共设施:公共厕所",
        "type": 0,
        "location": {
            "lat": 39.295407,
            "lng": 106.874327
        },
        "ad_info": {
            "adcode": 150303,
            "province": "内蒙古自治区",
            "city": "乌海市",
            "district": "海南区"
        }
    },
    {
        "id": "14184156635802350415",
        "title": "通用时代广场(新华大街店)-洗手间",
        "address": "内蒙古自治区乌海市海勃湾区新华街38号(春天百货旁)通用时代广场F4",
        "tel": "",
        "category": "基础设施:公共设施:公共厕所",
        "type": 0,
        "location": {
            "lat": 39.670046,
            "lng": 106.821503
        },
        "ad_info": {
            "adcode": 150302,
            "province": "内蒙古自治区",
            "city": "乌海市",
            "district": "海勃湾区"
        }
    },
    {
        "id": "6290959067544997060",
        "title": "无障碍公共厕所",
        "address": "内蒙古自治区乌海市海勃湾区双拥东街与大庆路交叉口正北方向307米左右",
        "tel": "",
        "category": "基础设施:公共设施:公共厕所",
        "type": 0,
        "location": {
            "lat": 39.694685,
            "lng": 106.833052
        },
        "ad_info": {
            "adcode": 150302,
            "province": "内蒙古自治区",
            "city": "乌海市",
            "district": "海勃湾区"
        }
    },
    {
        "id": "15901458479515822924",
        "title": "无障碍公共厕所",
        "address": "内蒙古自治区乌海市海南区广场路与拉僧仲街交叉口正西方向147米左右",
        "tel": "",
        "category": "基础设施:公共设施:公共厕所",
        "type": 0,
        "location": {
            "lat": 39.435636,
            "lng": 106.881825
        },
        "ad_info": {
            "adcode": 150303,
            "province": "内蒙古自治区",
            "city": "乌海市",
            "district": "海南区"
        }
    },
    {
        "id": "13009483633661494612",
        "title": "乌海服务区公共厕所",
        "address": "内蒙古自治区乌海市海勃湾区S217与东环路交叉口正东方向235米左右",
        "tel": "",
        "category": "基础设施:公共设施:公共厕所",
        "type": 0,
        "location": {
            "lat": 39.712626,
            "lng": 106.849531
        },
        "ad_info": {
            "adcode": 150302,
            "province": "内蒙古自治区",
            "city": "乌海市",
            "district": "海勃湾区"
        }
    },
    {
        "id": "2372370801179922769",
        "title": "无障碍公共厕所",
        "address": "内蒙古自治区乌海市海勃湾区千里山西街与车站北路交叉口东南方向143米左右",
        "tel": "",
        "category": "基础设施:公共设施:公共厕所",
        "type": 0,
        "location": {
            "lat": 39.671891,
            "lng": 106.809242
        },
        "ad_info": {
            "adcode": 150302,
            "province": "内蒙古自治区",
            "city": "乌海市",
            "district": "海勃湾区"
        }
    },
    {
        "id": "17560417434309575643",
        "title": "无障碍公共厕所",
        "address": "内蒙古自治区乌海市海勃湾区新桥街与海拉南路交叉口西南方向51米左右",
        "tel": "",
        "category": "基础设施:公共设施:公共厕所",
        "type": 0,
        "location": {
            "lat": 39.655409,
            "lng": 106.827288
        },
        "ad_info": {
            "adcode": 150302,
            "province": "内蒙古自治区",
            "city": "乌海市",
            "district": "海勃湾区"
        }
    },
    {
        "id": "3759367795198513957",
        "title": "无障碍公共厕所",
        "address": "内蒙古自治区乌海市海勃湾区双拥东街与温馨路交叉口正北方向213米左右",
        "tel": "",
        "category": "基础设施:公共设施:公共厕所",
        "type": 0,
        "location": {
            "lat": 39.693446,
            "lng": 106.851485
        },
        "ad_info": {
            "adcode": 150302,
            "province": "内蒙古自治区",
            "city": "乌海市",
            "district": "海勃湾区"
        }
    },
    {
        "id": "4166466407664737855",
        "title": "无障碍公共厕所",
        "address": "内蒙古自治区乌海市海勃湾区奇石街与海拉北路交叉口正北方向56米左右",
        "tel": "",
        "category": "基础设施:公共设施:公共厕所",
        "type": 0,
        "location": {
            "lat": 39.674016,
            "lng": 106.827944
        },
        "ad_info": {
            "adcode": 150302,
            "province": "内蒙古自治区",
            "city": "乌海市",
            "district": "海勃湾区"
        }
    },
    {
        "id": "567446627447234550",
        "title": "拉僧庙服务区公共厕所",
        "address": "内蒙古自治区乌海市海南区中国石油拉僧庙服务区加油站东侧150米",
        "tel": "",
        "category": "基础设施:公共设施:公共厕所",
        "type": 0,
        "location": {
            "lat": 39.296636,
            "lng": 106.876908
        },
        "ad_info": {
            "adcode": 150303,
            "province": "内蒙古自治区",
            "city": "乌海市",
            "district": "海南区"
        }
    },
    {
        "id": "1573617440508411610",
        "title": "乌海服务区公共厕所",
        "address": "内蒙古自治区乌海市海勃湾区S217与东环路交叉口正东方向487米左右",
        "tel": "",
        "category": "基础设施:公共设施:公共厕所",
        "type": 0,
        "location": {
            "lat": 39.71262,
            "lng": 106.852536
        },
        "ad_info": {
            "adcode": 150302,
            "province": "内蒙古自治区",
            "city": "乌海市",
            "district": "海勃湾区"
        }
    },
    {
        "id": "6131040815830580668",
        "title": "启迪城服无障碍公共厕所",
        "address": "内蒙古自治区乌海市海勃湾区豪泰佳苑东侧90米",
        "tel": "",
        "category": "基础设施:公共设施:公共厕所",
        "type": 0,
        "location": {
            "lat": 39.671031,
            "lng": 106.815502
        },
        "ad_info": {
            "adcode": 150302,
            "province": "内蒙古自治区",
            "city": "乌海市",
            "district": "海勃湾区"
        }
    },
    {
        "id": "7509134872330653339",
        "title": "无障碍公共厕所",
        "address": "内蒙古自治区乌海市乌达区新达街与黄白茨路交叉口东北方向146米左右",
        "tel": "",
        "category": "基础设施:公共设施:公共厕所",
        "type": 0,
        "location": {
            "lat": 39.519876,
            "lng": 106.707206
        },
        "ad_info": {
            "adcode": 150304,
            "province": "内蒙古自治区",
            "city": "乌海市",
            "district": "乌达区"
        }
    },
    {
        "id": "17152637045662819450",
        "title": "无障碍公共厕所",
        "address": "内蒙古自治区乌海市海勃湾区车振刚中医诊所南侧110米",
        "tel": "",
        "category": "基础设施:公共设施:公共厕所",
        "type": 0,
        "location": {
            "lat": 39.693759,
            "lng": 106.792008
        },
        "ad_info": {
            "adcode": 150302,
            "province": "内蒙古自治区",
            "city": "乌海市",
            "district": "海勃湾区"
        }
    },
    {
        "id": "5593105652913481220",
        "title": "无障碍公共厕所",
        "address": "内蒙古自治区乌海市乌达区先锋街与解放路交叉口西北方向105米左右",
        "tel": "",
        "category": "基础设施:公共设施:公共厕所",
        "type": 0,
        "location": {
            "lat": 39.500574,
            "lng": 106.71609
        },
        "ad_info": {
            "adcode": 150304,
            "province": "内蒙古自治区",
            "city": "乌海市",
            "district": "乌达区"
        }
    },
    {
        "id": "11639578703856445178",
        "title": "无障碍公共厕所",
        "address": "内蒙古自治区乌海市乌达区巴音赛街与皇冠路交叉口西南方向212米左右",
        "tel": "",
        "category": "基础设施:公共设施:公共厕所",
        "type": 0,
        "location": {
            "lat": 39.495785,
            "lng": 106.710776
        },
        "ad_info": {
            "adcode": 150304,
            "province": "内蒙古自治区",
            "city": "乌海市",
            "district": "乌达区"
        }
    },
    {
        "id": "14240338346732458064",
        "title": "无障碍公共厕所",
        "address": "内蒙古自治区乌海市乌达区胜利街与解放路交叉口东北方向205米左右",
        "tel": "",
        "category": "基础设施:公共设施:公共厕所",
        "type": 0,
        "location": {
            "lat": 39.502462,
            "lng": 106.718488
        },
        "ad_info": {
            "adcode": 150304,
            "province": "内蒙古自治区",
            "city": "乌海市",
            "district": "乌达区"
        }
    },
    {
        "id": "16992172073298331834",
        "title": "公共厕所",
        "address": "内蒙古自治区乌海市海勃湾区海达街8号",
        "tel": "",
        "category": "基础设施:公共设施:公共厕所",
        "type": 0,
        "location": {
            "lat": 39.652824,
            "lng": 106.816847
        },
        "ad_info": {
            "adcode": 150302,
            "province": "内蒙古自治区",
            "city": "乌海市",
            "district": "海勃湾区"
        }
    },
    {
        "id": "5632076008834385313",
        "title": "无障碍公共厕所",
        "address": "内蒙古自治区乌海市海勃湾区信达家园A区西南侧130米",
        "tel": "",
        "category": "基础设施:公共设施:公共厕所",
        "type": 0,
        "location": {
            "lat": 39.665197,
            "lng": 106.815254
        },
        "ad_info": {
            "adcode": 150302,
            "province": "内蒙古自治区",
            "city": "乌海市",
            "district": "海勃湾区"
        }
    },
    {
        "id": "16425800002849549858",
        "title": "启迪城服公共厕所",
        "address": "内蒙古自治区乌海市海勃湾区乌兰北路凤凰家居建材城公交站",
        "tel": "",
        "category": "基础设施:公共设施:公共厕所",
        "type": 0,
        "location": {
            "lat": 39.675899,
            "lng": 106.815191
        },
        "ad_info": {
            "adcode": 150302,
            "province": "内蒙古自治区",
            "city": "乌海市",
            "district": "海勃湾区"
        }
    },
    {
        "id": "7925190559099164655",
        "title": "公共厕所",
        "address": "内蒙古自治区乌海市海南区G109与G244交叉口正南方向166米左右",
        "tel": "",
        "category": "基础设施:公共设施:公共厕所",
        "type": 0,
        "location": {
            "lat": 39.249269,
            "lng": 106.811199
        },
        "ad_info": {
            "adcode": 150303,
            "province": "内蒙古自治区",
            "city": "乌海市",
            "district": "海南区"
        }
    },
    {
        "id": "9113023453707865378",
        "title": "公共厕所",
        "address": "内蒙古自治区乌海市乌达区乌尔特街与解放路交叉口正西方向67米左右",
        "tel": "",
        "category": "基础设施:公共设施:公共厕所",
        "type": 0,
        "location": {
            "lat": 39.490687,
            "lng": 106.720391
        },
        "ad_info": {
            "adcode": 150304,
            "province": "内蒙古自治区",
            "city": "乌海市",
            "district": "乌达区"
        }
    },
    {
        "id": "1302178197124045781",
        "title": "公共厕所",
        "address": "内蒙古自治区乌海市乌达区巴音赛街长城家园",
        "tel": "",
        "category": "基础设施:公共设施:公共厕所",
        "type": 0,
        "location": {
            "lat": 39.500455,
            "lng": 106.728212
        },
        "ad_info": {
            "adcode": 150304,
            "province": "内蒙古自治区",
            "city": "乌海市",
            "district": "乌达区"
        }
    },
    {
        "id": "11538435361646269323",
        "title": "公共厕所",
        "address": "内蒙古自治区乌海市海勃湾区世纪大道与棋盘井街交叉口正东方向81米左右",
        "tel": "",
        "category": "基础设施:公共设施:公共厕所",
        "type": 0,
        "location": {
            "lat": 39.683478,
            "lng": 106.802721
        },
        "ad_info": {
            "adcode": 150302,
            "province": "内蒙古自治区",
            "city": "乌海市",
            "district": "海勃湾区"
        }
    },
    {
        "id": "9914945473723430986",
        "title": "公共卫生间",
        "address": "内蒙古自治区乌海市海南区拉僧仲街与黄河路交叉口东北方向92米左右",
        "tel": "",
        "category": "基础设施:公共设施:公共厕所",
        "type": 0,
        "location": {
            "lat": 39.436181,
            "lng": 106.889953
        },
        "ad_info": {
            "adcode": 150303,
            "province": "内蒙古自治区",
            "city": "乌海市",
            "district": "海南区"
        }
    },
    {
        "id": "18215387031382414643",
        "title": "公共厕所",
        "address": "内蒙古自治区乌海市海勃湾区棋盘井街与滨河大道交叉口正北方向144米左右",
        "tel": "",
        "category": "基础设施:公共设施:公共厕所",
        "type": 0,
        "location": {
            "lat": 39.68509,
            "lng": 106.798996
        },
        "ad_info": {
            "adcode": 150302,
            "province": "内蒙古自治区",
            "city": "乌海市",
            "district": "海勃湾区"
        }
    },
    {
        "id": "11375053990552758492",
        "title": "公共厕所",
        "address": "内蒙古自治区乌海市海勃湾区双拥东街中国石油加油站(双拥街)",
        "tel": "",
        "category": "基础设施:公共设施:公共厕所",
        "type": 0,
        "location": {
            "lat": 39.691921,
            "lng": 106.840211
        },
        "ad_info": {
            "adcode": 150302,
            "province": "内蒙古自治区",
            "city": "乌海市",
            "district": "海勃湾区"
        }
    },
    {
        "id": "9050072210283668164",
        "title": "公共厕所",
        "address": "内蒙古自治区乌海市海勃湾区公园北路中孚广场小区",
        "tel": "",
        "category": "基础设施:公共设施:公共厕所",
        "type": 0,
        "location": {
            "lat": 39.678199,
            "lng": 106.823518
        },
        "ad_info": {
            "adcode": 150302,
            "province": "内蒙古自治区",
            "city": "乌海市",
            "district": "海勃湾区"
        }
    },
    {
        "id": "8239568100950275902",
        "title": "公共厕所",
        "address": "内蒙古自治区乌海市乌达区先锋街与柳荫大道交叉口正东方向80米左右",
        "tel": "",
        "category": "基础设施:公共设施:公共厕所",
        "type": 0,
        "location": {
            "lat": 39.503111,
            "lng": 106.731092
        },
        "ad_info": {
            "adcode": 150304,
            "province": "内蒙古自治区",
            "city": "乌海市",
            "district": "乌达区"
        }
    },
    {
        "id": "7580014542326319821",
        "title": "桑德环卫公共厕所",
        "address": "内蒙古自治区乌海市海勃湾区乌海樱花医院-急诊西北侧",
        "tel": "",
        "category": "基础设施:公共设施:公共厕所",
        "type": 0,
        "location": {
            "lat": 39.669619,
            "lng": 106.838685
        },
        "ad_info": {
            "adcode": 150302,
            "province": "内蒙古自治区",
            "city": "乌海市",
            "district": "海勃湾区"
        }
    },
    {
        "id": "3692231634502006135",
        "title": "公共厕所",
        "address": "内蒙古自治区乌海市海南区广场路与西卓子山街交叉口正北方向78米左右",
        "tel": "",
        "category": "基础设施:公共设施:公共厕所",
        "type": 0,
        "location": {
            "lat": 39.438383,
            "lng": 106.882989
        },
        "ad_info": {
            "adcode": 150303,
            "province": "内蒙古自治区",
            "city": "乌海市",
            "district": "海南区"
        }
    },
    {
        "id": "10726810889731648866",
        "title": "公共厕所",
        "address": "内蒙古自治区乌海市海勃湾区公园南路与新华东街交叉口正南方向151米左右",
        "tel": "",
        "category": "基础设施:公共设施:公共厕所",
        "type": 0,
        "location": {
            "lat": 39.668088,
            "lng": 106.823901
        },
        "ad_info": {
            "adcode": 150302,
            "province": "内蒙古自治区",
            "city": "乌海市",
            "district": "海勃湾区"
        }
    },
    {
        "id": "7132996971864177704",
        "title": "公共厕所",
        "address": "内蒙古自治区乌海市海勃湾区海达街与海达西街交叉口正北方向321米左右",
        "tel": "",
        "category": "基础设施:公共设施:公共厕所",
        "type": 0,
        "location": {
            "lat": 39.656381,
            "lng": 106.807248
        },
        "ad_info": {
            "adcode": 150302,
            "province": "内蒙古自治区",
            "city": "乌海市",
            "district": "海勃湾区"
        }
    },
    {
        "id": "1009380901500053675",
        "title": "公共厕所",
        "address": "内蒙古自治区乌海市海勃湾区海达街与海达西街交叉口正西方向215米左右",
        "tel": "",
        "category": "基础设施:公共设施:公共厕所",
        "type": 0,
        "location": {
            "lat": 39.653263,
            "lng": 106.805226
        },
        "ad_info": {
            "adcode": 150302,
            "province": "内蒙古自治区",
            "city": "乌海市",
            "district": "海勃湾区"
        }
    },
    {
        "id": "1683273243081816862",
        "title": "公共厕所",
        "address": "内蒙古自治区乌海市海勃湾区海拉南路与甘德尔东街交叉口西南方向85米左右",
        "tel": "",
        "category": "基础设施:公共设施:公共厕所",
        "type": 0,
        "location": {
            "lat": 39.663195,
            "lng": 106.827536
        },
        "ad_info": {
            "adcode": 150302,
            "province": "内蒙古自治区",
            "city": "乌海市",
            "district": "海勃湾区"
        }
    },
    {
        "id": "3876931492304363688",
        "title": "公共厕所",
        "address": "内蒙古自治区乌海市海南区S217与拉僧庙大桥交叉口西北方向1509米左右",
        "tel": "",
        "category": "基础设施:公共设施:公共厕所",
        "type": 0,
        "location": {
            "lat": 39.328578,
            "lng": 106.833092
        },
        "ad_info": {
            "adcode": 150303,
            "province": "内蒙古自治区",
            "city": "乌海市",
            "district": "海南区"
        }
    },
    {
        "id": "8380636096940569068",
        "title": "公共厕所",
        "address": "内蒙古自治区乌海市海南区建设街与鹏翔路交叉路口往南约210米",
        "tel": "",
        "category": "基础设施:公共设施:公共厕所",
        "type": 0,
        "location": {
            "lat": 39.384645,
            "lng": 106.909447
        },
        "ad_info": {
            "adcode": 150303,
            "province": "内蒙古自治区",
            "city": "乌海市",
            "district": "海南区"
        }
    },
    {
        "id": "14936973718305941006",
        "title": "公共厕所",
        "address": "内蒙古自治区乌海市海勃湾区青年路依林佳苑小区-E区",
        "tel": "",
        "category": "基础设施:公共设施:公共厕所",
        "type": 0,
        "location": {
            "lat": 39.696368,
            "lng": 106.849911
        },
        "ad_info": {
            "adcode": 150302,
            "province": "内蒙古自治区",
            "city": "乌海市",
            "district": "海勃湾区"
        }
    },
    {
        "id": "7817732895360264475",
        "title": "无障碍公共厕所",
        "address": "内蒙古自治区乌海市海勃湾区新桥东街与海达西街交叉口西北方向151米左右",
        "tel": "",
        "category": "基础设施:公共设施:公共厕所",
        "type": 0,
        "location": {
            "lat": 39.654513,
            "lng": 106.816307
        },
        "ad_info": {
            "adcode": 150302,
            "province": "内蒙古自治区",
            "city": "乌海市",
            "district": "海勃湾区"
        }
    },
    {
        "id": "12923133551423513016",
        "title": "无障碍公共厕所",
        "address": "内蒙古自治区乌海市海勃湾区马桂荣中医诊所西侧200米",
        "tel": "",
        "category": "基础设施:公共设施:公共厕所",
        "type": 0,
        "location": {
            "lat": 39.691885,
            "lng": 106.856271
        },
        "ad_info": {
            "adcode": 150302,
            "province": "内蒙古自治区",
            "city": "乌海市",
            "district": "海勃湾区"
        }
    },
    {
        "id": "11339594379944775928",
        "title": "无障碍公共厕所",
        "address": "内蒙古自治区乌海市海勃湾区双拥东街与温馨路交叉口正东方向105米左右",
        "tel": "",
        "category": "基础设施:公共设施:公共厕所",
        "type": 0,
        "location": {
            "lat": 39.691663,
            "lng": 106.852817
        },
        "ad_info": {
            "adcode": 150302,
            "province": "内蒙古自治区",
            "city": "乌海市",
            "district": "海勃湾区"
        }
    },
    {
        "id": "6629994146296661631",
        "title": "公共厕所",
        "address": "内蒙古自治区乌海市海南区",
        "tel": "",
        "category": "基础设施:公共设施:公共厕所",
        "type": 0,
        "location": {
            "lat": 39.374935,
            "lng": 106.769684
        },
        "ad_info": {
            "adcode": 150303,
            "province": "内蒙古自治区",
            "city": "乌海市",
            "district": "海南区"
        }
    },
    {
        "id": "3644623026214178008",
        "title": "公共厕所",
        "address": "内蒙古自治区乌海市乌达区兰亭路与滨湖路交叉口正西方向293米左右",
        "tel": "",
        "category": "基础设施:公共设施:公共厕所",
        "type": 0,
        "location": {
            "lat": 39.594712,
            "lng": 106.739023
        },
        "ad_info": {
            "adcode": 150304,
            "province": "内蒙古自治区",
            "city": "乌海市",
            "district": "乌达区"
        }
    },
    {
        "id": "18438628520340556496",
        "title": "公共卫生间",
        "address": "内蒙古自治区乌海市海勃湾区公园南路与千里山东街交叉口正西方向182米左右",
        "tel": "",
        "category": "基础设施:公共设施:公共厕所",
        "type": 0,
        "location": {
            "lat": 39.671897,
            "lng": 106.822549
        },
        "ad_info": {
            "adcode": 150302,
            "province": "内蒙古自治区",
            "city": "乌海市",
            "district": "海勃湾区"
        }
    },
    {
        "id": "7814089838279201036",
        "title": "公共厕所",
        "address": "内蒙古自治区乌海市乌达区团结街与滨海街交叉口正东方向268米左右",
        "tel": "",
        "category": "基础设施:公共设施:公共厕所",
        "type": 0,
        "location": {
            "lat": 39.515479,
            "lng": 106.735645
        },
        "ad_info": {
            "adcode": 150304,
            "province": "内蒙古自治区",
            "city": "乌海市",
            "district": "乌达区"
        }
    },
    {
        "id": "939659688579131011",
        "title": "公共厕所",
        "address": "内蒙古自治区乌海市海勃湾区建设北路与海北西街交叉口正东方向79米左右",
        "tel": "",
        "category": "基础设施:公共设施:公共厕所",
        "type": 0,
        "location": {
            "lat": 39.690178,
            "lng": 106.813079
        },
        "ad_info": {
            "adcode": 150302,
            "province": "内蒙古自治区",
            "city": "乌海市",
            "district": "海勃湾区"
        }
    },
    {
        "id": "6524739579463190610",
        "title": "公共厕所",
        "address": "内蒙古自治区乌海市海勃湾区人民北路与千里山东街交叉口东北方向46米左右",
        "tel": "",
        "category": "基础设施:公共设施:公共厕所",
        "type": 0,
        "location": {
            "lat": 39.67247,
            "lng": 106.820503
        },
        "ad_info": {
            "adcode": 150302,
            "province": "内蒙古自治区",
            "city": "乌海市",
            "district": "海勃湾区"
        }
    }
]