[
    {
        "id": "12116995225514908336",
        "title": "公共厕所",
        "address": "海南省乐东黎族自治县商品二街与行政大道交叉口正西方向479米左右",
        "tel": "",
        "category": "基础设施:公共设施:公共厕所",
        "type": 0,
        "location": {
            "lat": 18.451184,
            "lng": 108.950345
        },
        "ad_info": {
            "adcode": 469027,
            "province": "海南省",
            "city": "",
            "district": "乐东黎族自治县"
        }
    },
    {
        "id": "18346867893648543845",
        "title": "公共厕所",
        "address": "海南省乐东黎族自治县乐祥路与乐达路交叉口西北方向107米左右",
        "tel": "",
        "category": "基础设施:公共设施:公共厕所",
        "type": 0,
        "location": {
            "lat": 18.743771,
            "lng": 109.177261
        },
        "ad_info": {
            "adcode": 469027,
            "province": "海南省",
            "city": "",
            "district": "乐东黎族自治县"
        }
    },
    {
        "id": "764215619096814837",
        "title": "公共厕所",
        "address": "海南省乐东黎族自治县G225与海榆西线交叉口西北方向44米左右",
        "tel": "",
        "category": "基础设施:公共设施:公共厕所",
        "type": 0,
        "location": {
            "lat": 18.504932,
            "lng": 108.79201
        },
        "ad_info": {
            "adcode": 469027,
            "province": "海南省",
            "city": "",
            "district": "乐东黎族自治县"
        }
    },
    {
        "id": "3450836549756529940",
        "title": "公共厕所",
        "address": "海南省乐东黎族自治县利国中心大道与绿源市场一横路交叉口正东方向102米左右",
        "tel": "",
        "category": "基础设施:公共设施:公共厕所",
        "type": 0,
        "location": {
            "lat": 18.480114,
            "lng": 108.898141
        },
        "ad_info": {
            "adcode": 469027,
            "province": "海南省",
            "city": "",
            "district": "乐东黎族自治县"
        }
    },
    {
        "id": "1789002461412816971",
        "title": "公共厕所",
        "address": "海南省乐东黎族自治县九所中心大道与九龙大道交叉口正西方向38米左右",
        "tel": "",
        "category": "基础设施:公共设施:公共厕所",
        "type": 0,
        "location": {
            "lat": 18.44439,
            "lng": 108.912913
        },
        "ad_info": {
            "adcode": 469027,
            "province": "海南省",
            "city": "",
            "district": "乐东黎族自治县"
        }
    },
    {
        "id": "2373434575984746524",
        "title": "公共厕所",
        "address": "海南省乐东黎族自治县光明路与南丰路交叉口正东方向27米左右",
        "tel": "",
        "category": "基础设施:公共设施:公共厕所",
        "type": 0,
        "location": {
            "lat": 18.754064,
            "lng": 109.170729
        },
        "ad_info": {
            "adcode": 469027,
            "province": "海南省",
            "city": "",
            "district": "乐东黎族自治县"
        }
    },
    {
        "id": "13614032114125705428",
        "title": "公共厕所",
        "address": "海南省乐东黎族自治县永明路与江北路交叉口西南方向55米左右",
        "tel": "",
        "category": "基础设施:公共设施:公共厕所",
        "type": 0,
        "location": {
            "lat": 18.755269,
            "lng": 109.182707
        },
        "ad_info": {
            "adcode": 469027,
            "province": "海南省",
            "city": "",
            "district": "乐东黎族自治县"
        }
    },
    {
        "id": "7094825850045987077",
        "title": "公共厕所",
        "address": "海南省乐东黎族自治县",
        "tel": "",
        "category": "基础设施:公共设施:公共厕所",
        "type": 0,
        "location": {
            "lat": 18.729807,
            "lng": 108.743927
        },
        "ad_info": {
            "adcode": 469027,
            "province": "海南省",
            "city": "",
            "district": "乐东黎族自治县"
        }
    },
    {
        "id": "5182619487994925976",
        "title": "公共厕所",
        "address": "海南省乐东黎族自治县Y039与千家互通交叉口东南方向7米左右",
        "tel": "",
        "category": "基础设施:公共设施:公共厕所",
        "type": 0,
        "location": {
            "lat": 18.57921,
            "lng": 109.065495
        },
        "ad_info": {
            "adcode": 469027,
            "province": "海南省",
            "city": "",
            "district": "乐东黎族自治县"
        }
    },
    {
        "id": "6603290176401028893",
        "title": "公共厕所",
        "address": "海南省乐东黎族自治县感恩路与月亮湾路交叉口正东方向98米左右",
        "tel": "",
        "category": "基础设施:公共设施:公共厕所",
        "type": 0,
        "location": {
            "lat": 18.736964,
            "lng": 109.185236
        },
        "ad_info": {
            "adcode": 469027,
            "province": "海南省",
            "city": "",
            "district": "乐东黎族自治县"
        }
    },
    {
        "id": "15349649533952695240",
        "title": "公共厕所",
        "address": "海南省乐东黎族自治县安定东路与安定中路交叉口正北方向279米左右",
        "tel": "",
        "category": "基础设施:公共设施:公共厕所",
        "type": 0,
        "location": {
            "lat": 18.745091,
            "lng": 109.192335
        },
        "ad_info": {
            "adcode": 469027,
            "province": "海南省",
            "city": "",
            "district": "乐东黎族自治县"
        }
    },
    {
        "id": "8409780100633517184",
        "title": "公共厕所",
        "address": "海南省乐东黎族自治县",
        "tel": "",
        "category": "基础设施:公共设施:公共厕所",
        "type": 0,
        "location": {
            "lat": 18.726543,
            "lng": 108.749833
        },
        "ad_info": {
            "adcode": 469027,
            "province": "海南省",
            "city": "",
            "district": "乐东黎族自治县"
        }
    },
    {
        "id": "3020516796158979322",
        "title": "公共厕所",
        "address": "海南省乐东黎族自治县780县道南50米",
        "tel": "",
        "category": "基础设施:公共设施:公共厕所",
        "type": 0,
        "location": {
            "lat": 18.497461,
            "lng": 108.751558
        },
        "ad_info": {
            "adcode": 469027,
            "province": "海南省",
            "city": "",
            "district": "乐东黎族自治县"
        }
    },
    {
        "id": "17794558368696983391",
        "title": "公共厕所",
        "address": "海南省乐东黎族自治县岭头揽胜停车区与海南环岛旅游公路交叉口东北80米",
        "tel": "",
        "category": "基础设施:公共设施:公共厕所",
        "type": 0,
        "location": {
            "lat": 18.720825,
            "lng": 108.702728
        },
        "ad_info": {
            "adcode": 469027,
            "province": "海南省",
            "city": "",
            "district": "乐东黎族自治县"
        }
    },
    {
        "id": "4921797623031960966",
        "title": "公共厕所",
        "address": "海南省乐东黎族自治县G540与九龙大道交叉口正东方向66米左右",
        "tel": "",
        "category": "基础设施:公共设施:公共厕所",
        "type": 0,
        "location": {
            "lat": 18.45278,
            "lng": 108.942722
        },
        "ad_info": {
            "adcode": 469027,
            "province": "海南省",
            "city": "",
            "district": "乐东黎族自治县"
        }
    },
    {
        "id": "13445240133634312085",
        "title": "公共厕所",
        "address": "海南省乐东黎族自治县乐兴北路与沿江南路交叉口东南方向30米左右",
        "tel": "",
        "category": "基础设施:公共设施:公共厕所",
        "type": 0,
        "location": {
            "lat": 18.749255,
            "lng": 109.180346
        },
        "ad_info": {
            "adcode": 469027,
            "province": "海南省",
            "city": "",
            "district": "乐东黎族自治县"
        }
    },
    {
        "id": "6667137040971070491",
        "title": "公共厕所",
        "address": "海南省乐东黎族自治县X782与尖峰一桥交叉口西南方向456米左右",
        "tel": "",
        "category": "基础设施:公共设施:公共厕所",
        "type": 0,
        "location": {
            "lat": 18.686768,
            "lng": 108.784595
        },
        "ad_info": {
            "adcode": 469027,
            "province": "海南省",
            "city": "",
            "district": "乐东黎族自治县"
        }
    },
    {
        "id": "11041510192115902173",
        "title": "公共厕所",
        "address": "海南省乐东黎族自治县乐安路与乐达路交叉口东南方向189米左右",
        "tel": "",
        "category": "基础设施:公共设施:公共厕所",
        "type": 0,
        "location": {
            "lat": 18.743471,
            "lng": 109.180364
        },
        "ad_info": {
            "adcode": 469027,
            "province": "海南省",
            "city": "",
            "district": "乐东黎族自治县"
        }
    },
    {
        "id": "16501125445879309943",
        "title": "公共厕所",
        "address": "海南省乐东黎族自治县乐东高铁站西南方向170米",
        "tel": "",
        "category": "基础设施:公共设施:公共厕所",
        "type": 0,
        "location": {
            "lat": 18.444839,
            "lng": 108.939737
        },
        "ad_info": {
            "adcode": 469027,
            "province": "海南省",
            "city": "",
            "district": "乐东黎族自治县"
        }
    },
    {
        "id": "2730743081534219099",
        "title": "公共厕所",
        "address": "海南省乐东黎族自治县黄流镇孔汶村黄流站",
        "tel": "",
        "category": "基础设施:公共设施:公共厕所",
        "type": 0,
        "location": {
            "lat": 18.528507,
            "lng": 108.83076
        },
        "ad_info": {
            "adcode": 469027,
            "province": "海南省",
            "city": "",
            "district": "乐东黎族自治县"
        }
    },
    {
        "id": "1702778511604169322",
        "title": "公共厕所",
        "address": "海南省乐东黎族自治县G540与绿园路交叉口正东方向43米左右",
        "tel": "",
        "category": "基础设施:公共设施:公共厕所",
        "type": 0,
        "location": {
            "lat": 18.733885,
            "lng": 109.176181
        },
        "ad_info": {
            "adcode": 469027,
            "province": "海南省",
            "city": "",
            "district": "乐东黎族自治县"
        }
    },
    {
        "id": "15189622633543542748",
        "title": "公共厕所",
        "address": "海南省乐东黎族自治县黄流站站前广场西侧",
        "tel": "",
        "category": "基础设施:公共设施:公共厕所",
        "type": 0,
        "location": {
            "lat": 18.528225,
            "lng": 108.83038
        },
        "ad_info": {
            "adcode": 469027,
            "province": "海南省",
            "city": "",
            "district": "乐东黎族自治县"
        }
    },
    {
        "id": "17051799040053739459",
        "title": "公共厕所",
        "address": "海南省乐东黎族自治县G225与Y024交叉口正西方向776米左右",
        "tel": "",
        "category": "基础设施:公共设施:公共厕所",
        "type": 0,
        "location": {
            "lat": 18.466432,
            "lng": 108.874428
        },
        "ad_info": {
            "adcode": 469027,
            "province": "海南省",
            "city": "",
            "district": "乐东黎族自治县"
        }
    },
    {
        "id": "16146632996770184906",
        "title": "公共厕所",
        "address": "海南省乐东黎族自治县桥南路与江北路交叉口东南方向89米左右",
        "tel": "",
        "category": "基础设施:公共设施:公共厕所",
        "type": 0,
        "location": {
            "lat": 18.752878,
            "lng": 109.178417
        },
        "ad_info": {
            "adcode": 469027,
            "province": "海南省",
            "city": "",
            "district": "乐东黎族自治县"
        }
    },
    {
        "id": "9556456329713348975",
        "title": "公共厕所",
        "address": "海南省乐东黎族自治县G540与乐福路交叉口东北方向232米左右",
        "tel": "",
        "category": "基础设施:公共设施:公共厕所",
        "type": 0,
        "location": {
            "lat": 18.735954,
            "lng": 109.177707
        },
        "ad_info": {
            "adcode": 469027,
            "province": "海南省",
            "city": "",
            "district": "乐东黎族自治县"
        }
    },
    {
        "id": "5439817759233250426",
        "title": "公共厕所",
        "address": "海南省乐东黎族自治县安定西路与昌龙路交叉口东南方向199米左右",
        "tel": "",
        "category": "基础设施:公共设施:公共厕所",
        "type": 0,
        "location": {
            "lat": 18.756412,
            "lng": 109.186962
        },
        "ad_info": {
            "adcode": 469027,
            "province": "海南省",
            "city": "",
            "district": "乐东黎族自治县"
        }
    },
    {
        "id": "26730028323413267",
        "title": "公共厕所",
        "address": "海南省乐东黎族自治县光明路与南丰路交叉口正东方向77米左右",
        "tel": "",
        "category": "基础设施:公共设施:公共厕所",
        "type": 0,
        "location": {
            "lat": 18.75399,
            "lng": 109.171194
        },
        "ad_info": {
            "adcode": 469027,
            "province": "海南省",
            "city": "",
            "district": "乐东黎族自治县"
        }
    },
    {
        "id": "9378095883085172500",
        "title": "公共厕所",
        "address": "海南省乐东黎族自治县S314",
        "tel": "",
        "category": "基础设施:公共设施:公共厕所",
        "type": 0,
        "location": {
            "lat": 18.631458,
            "lng": 109.265018
        },
        "ad_info": {
            "adcode": 469027,
            "province": "海南省",
            "city": "",
            "district": "乐东黎族自治县"
        }
    },
    {
        "id": "2641840430069763632",
        "title": "公共厕所",
        "address": "海南省乐东黎族自治县313省道西50米",
        "tel": "",
        "category": "基础设施:公共设施:公共厕所",
        "type": 0,
        "location": {
            "lat": 18.62668,
            "lng": 109.12397
        },
        "ad_info": {
            "adcode": 469027,
            "province": "海南省",
            "city": "",
            "district": "乐东黎族自治县"
        }
    },
    {
        "id": "17780171823697217343",
        "title": "公共厕所",
        "address": "海南省乐东黎族自治县发展五横路与沿江北路交叉口正东方向26米左右",
        "tel": "",
        "category": "基础设施:公共设施:公共厕所",
        "type": 0,
        "location": {
            "lat": 18.755287,
            "lng": 109.175543
        },
        "ad_info": {
            "adcode": 469027,
            "province": "海南省",
            "city": "",
            "district": "乐东黎族自治县"
        }
    },
    {
        "id": "9791337347564402919",
        "title": "一体化智慧公共厕所",
        "address": "海南省乐东黎族自治县莺歌唱晚停车区",
        "tel": "",
        "category": "基础设施:公共设施:公共厕所",
        "type": 0,
        "location": {
            "lat": 18.51843,
            "lng": 108.70177
        },
        "ad_info": {
            "adcode": 469027,
            "province": "海南省",
            "city": "",
            "district": "乐东黎族自治县"
        }
    },
    {
        "id": "10006495411044494749",
        "title": "乐东服务区公共厕所",
        "address": "海南省乐东黎族自治县海三高速附近",
        "tel": "",
        "category": "基础设施:公共设施:公共厕所",
        "type": 0,
        "location": {
            "lat": 18.790052,
            "lng": 109.177008
        },
        "ad_info": {
            "adcode": 469027,
            "province": "海南省",
            "city": "",
            "district": "乐东黎族自治县"
        }
    },
    {
        "id": "4421704207336614001",
        "title": "海盐文化馆公共厕所",
        "address": "海南省乐东黎族自治县海盐文化馆",
        "tel": "",
        "category": "基础设施:公共设施:公共厕所",
        "type": 0,
        "location": {
            "lat": 18.496901,
            "lng": 108.737114
        },
        "ad_info": {
            "adcode": 469027,
            "province": "海南省",
            "city": "",
            "district": "乐东黎族自治县"
        }
    },
    {
        "id": "13245173220926894995",
        "title": "海特民宿附近公共厕所",
        "address": "海南省乐东黎族自治县创业路与神庙路交叉口正西方向45米左右",
        "tel": "",
        "category": "基础设施:公共设施:公共厕所",
        "type": 0,
        "location": {
            "lat": 18.508115,
            "lng": 108.703447
        },
        "ad_info": {
            "adcode": 469027,
            "province": "海南省",
            "city": "",
            "district": "乐东黎族自治县"
        }
    },
    {
        "id": "18059453783801542619",
        "title": "尖峰服务区公共厕所",
        "address": "海南省乐东黎族自治县",
        "tel": "",
        "category": "基础设施:公共设施:公共厕所",
        "type": 0,
        "location": {
            "lat": 18.645529,
            "lng": 108.74883
        },
        "ad_info": {
            "adcode": 469027,
            "province": "海南省",
            "city": "",
            "district": "乐东黎族自治县"
        }
    },
    {
        "id": "3147006028353352156",
        "title": "九所服务区公共厕所",
        "address": "海南省乐东黎族自治县环岛高速九所服务区",
        "tel": "",
        "category": "基础设施:公共设施:公共厕所",
        "type": 0,
        "location": {
            "lat": 18.45085,
            "lng": 108.961529
        },
        "ad_info": {
            "adcode": 469027,
            "province": "海南省",
            "city": "",
            "district": "乐东黎族自治县"
        }
    },
    {
        "id": "12443075015476456219",
        "title": "砖混结构公共厕所",
        "address": "海南省乐东黎族自治县九所养护公区",
        "tel": "",
        "category": "基础设施:公共设施:公共厕所",
        "type": 0,
        "location": {
            "lat": 18.426471,
            "lng": 108.893191
        },
        "ad_info": {
            "adcode": 469027,
            "province": "海南省",
            "city": "",
            "district": "乐东黎族自治县"
        }
    },
    {
        "id": "185212176514158445",
        "title": "九所服务区公共厕所",
        "address": "海南省乐东黎族自治县九所互通与海南环岛高速交叉口东南方向365米左右",
        "tel": "",
        "category": "基础设施:公共设施:公共厕所",
        "type": 0,
        "location": {
            "lat": 18.451119,
            "lng": 108.963107
        },
        "ad_info": {
            "adcode": 469027,
            "province": "海南省",
            "city": "",
            "district": "乐东黎族自治县"
        }
    },
    {
        "id": "9350861267393448827",
        "title": "莺歌踏浪停车区公共厕所",
        "address": "海南省乐东黎族自治县X780与光明街交叉口正北方向135米左右",
        "tel": "",
        "category": "基础设施:公共设施:公共厕所",
        "type": 0,
        "location": {
            "lat": 18.519301,
            "lng": 108.701668
        },
        "ad_info": {
            "adcode": 469027,
            "province": "海南省",
            "city": "",
            "district": "乐东黎族自治县"
        }
    },
    {
        "id": "16570298361140868736",
        "title": "金瑞实业发展有限公司公共厕所",
        "address": "海南省乐东黎族自治县黄流镇金瑞实业发展有限公司内",
        "tel": "",
        "category": "基础设施:公共设施:公共厕所",
        "type": 0,
        "location": {
            "lat": 18.482209,
            "lng": 108.799065
        },
        "ad_info": {
            "adcode": 469027,
            "province": "海南省",
            "city": "",
            "district": "乐东黎族自治县"
        }
    },
    {
        "id": "2221995371955274494",
        "title": "海南龙沐湾温德姆至尊豪廷大酒店-洗手间",
        "address": "海南省乐东黎族自治县龙沐湾温泉海景公寓西侧210米",
        "tel": "",
        "category": "基础设施:公共设施:公共厕所",
        "type": 0,
        "location": {
            "lat": 18.625839,
            "lng": 108.708572
        },
        "ad_info": {
            "adcode": 469027,
            "province": "海南省",
            "city": "",
            "district": "乐东黎族自治县"
        }
    },
    {
        "id": "10528855320946999507",
        "title": "尖峰服务区公共厕所",
        "address": "海南省乐东黎族自治县X782与山道东路交叉口西南方向1977米左右",
        "tel": "",
        "category": "基础设施:公共设施:公共厕所",
        "type": 0,
        "location": {
            "lat": 18.646631,
            "lng": 108.749467
        },
        "ad_info": {
            "adcode": 469027,
            "province": "海南省",
            "city": "",
            "district": "乐东黎族自治县"
        }
    },
    {
        "id": "10612082232839506947",
        "title": "公共厕所",
        "address": "海南省乐东黎族自治县九龙大道与海南环岛旅游公路交叉口北120米",
        "tel": "",
        "category": "基础设施:公共设施:公共厕所",
        "type": 0,
        "location": {
            "lat": 18.42742,
            "lng": 108.893407
        },
        "ad_info": {
            "adcode": 469027,
            "province": "海南省",
            "city": "",
            "district": "乐东黎族自治县"
        }
    },
    {
        "id": "5634461313848183689",
        "title": "公共厕所",
        "address": "海南省乐东黎族自治县X780与光明街交叉口正北方向160米左右",
        "tel": "",
        "category": "基础设施:公共设施:公共厕所",
        "type": 0,
        "location": {
            "lat": 18.51953,
            "lng": 108.701644
        },
        "ad_info": {
            "adcode": 469027,
            "province": "海南省",
            "city": "",
            "district": "乐东黎族自治县"
        }
    },
    {
        "id": "2728030448980567798",
        "title": "公共厕所",
        "address": "海南省乐东黎族自治县九龙大道与海南环岛旅游公路交叉口北120米",
        "tel": "",
        "category": "基础设施:公共设施:公共厕所",
        "type": 0,
        "location": {
            "lat": 18.427419,
            "lng": 108.893162
        },
        "ad_info": {
            "adcode": 469027,
            "province": "海南省",
            "city": "",
            "district": "乐东黎族自治县"
        }
    }
]