[
    {
        "id": "10763712115733425179",
        "title": "公共厕所",
        "address": "江西省九江市浔阳区天福支巷与天福路交叉口正东方向148米左右",
        "tel": "",
        "category": "基础设施:公共设施:公共厕所",
        "type": 0,
        "location": {
            "lat": 29.696679,
            "lng": 115.987615
        },
        "ad_info": {
            "adcode": 360403,
            "province": "江西省",
            "city": "九江市",
            "district": "浔阳区"
        }
    },
    {
        "id": "5039098263439312342",
        "title": "公共厕所",
        "address": "江西省九江市浔阳区女儿街一支巷与女儿街二支巷交叉口正北方向105米左右",
        "tel": "",
        "category": "基础设施:公共设施:公共厕所",
        "type": 0,
        "location": {
            "lat": 29.706005,
            "lng": 115.99049
        },
        "ad_info": {
            "adcode": 360403,
            "province": "江西省",
            "city": "九江市",
            "district": "浔阳区"
        }
    },
    {
        "id": "5207038768817708298",
        "title": "公共厕所",
        "address": "江西省九江市浔阳区大中路步行街与督府巷交叉口东南方向69米左右",
        "tel": "",
        "category": "基础设施:公共设施:公共厕所",
        "type": 0,
        "location": {
            "lat": 29.725414,
            "lng": 115.995242
        },
        "ad_info": {
            "adcode": 360403,
            "province": "江西省",
            "city": "九江市",
            "district": "浔阳区"
        }
    },
    {
        "id": "2706217920560578264",
        "title": "公共厕所",
        "address": "江西省九江市浔阳区右河二支巷与大中路交叉口东南方向15米左右",
        "tel": "",
        "category": "基础设施:公共设施:公共厕所",
        "type": 0,
        "location": {
            "lat": 29.720983,
            "lng": 115.980666
        },
        "ad_info": {
            "adcode": 360403,
            "province": "江西省",
            "city": "九江市",
            "district": "浔阳区"
        }
    },
    {
        "id": "1503688391111837542",
        "title": "公共厕所",
        "address": "江西省九江市浔阳区双峰路与大中路步行街交叉口东南方向83米左右",
        "tel": "",
        "category": "基础设施:公共设施:公共厕所",
        "type": 0,
        "location": {
            "lat": 29.725206,
            "lng": 115.992272
        },
        "ad_info": {
            "adcode": 360403,
            "province": "江西省",
            "city": "九江市",
            "district": "浔阳区"
        }
    },
    {
        "id": "12550516600494764895",
        "title": "公共厕所",
        "address": "江西省九江市浔阳区长虹大道辅路与站前东路交叉口西北220米",
        "tel": "",
        "category": "基础设施:公共设施:公共厕所",
        "type": 0,
        "location": {
            "lat": 29.709119,
            "lng": 116.00576
        },
        "ad_info": {
            "adcode": 360403,
            "province": "江西省",
            "city": "九江市",
            "district": "浔阳区"
        }
    },
    {
        "id": "3758759898352745026",
        "title": "公共厕所",
        "address": "江西省九江市浔阳区浔阳路与环城路交叉口东北方向110米左右",
        "tel": "",
        "category": "基础设施:公共设施:公共厕所",
        "type": 0,
        "location": {
            "lat": 29.724698,
            "lng": 115.987755
        },
        "ad_info": {
            "adcode": 360403,
            "province": "江西省",
            "city": "九江市",
            "district": "浔阳区"
        }
    },
    {
        "id": "12636248890529898503",
        "title": "公共厕所",
        "address": "江西省九江市浔阳区利江支巷与西苑路交叉口西北方向79米左右",
        "tel": "",
        "category": "基础设施:公共设施:公共厕所",
        "type": 0,
        "location": {
            "lat": 29.70392,
            "lng": 115.973054
        },
        "ad_info": {
            "adcode": 360403,
            "province": "江西省",
            "city": "九江市",
            "district": "浔阳区"
        }
    },
    {
        "id": "5175683282730382697",
        "title": "公共厕所",
        "address": "江西省九江市浔阳区十里大道与桃园一支路交叉口正西方向71米左右",
        "tel": "",
        "category": "基础设施:公共设施:公共厕所",
        "type": 0,
        "location": {
            "lat": 29.703275,
            "lng": 115.981809
        },
        "ad_info": {
            "adcode": 360403,
            "province": "江西省",
            "city": "九江市",
            "district": "浔阳区"
        }
    },
    {
        "id": "16239511351443129855",
        "title": "公共厕所",
        "address": "江西省九江市浔阳区八里湖路与陆鑫路交叉口正南方向177米左右",
        "tel": "",
        "category": "基础设施:公共设施:公共厕所",
        "type": 0,
        "location": {
            "lat": 29.715957,
            "lng": 115.973116
        },
        "ad_info": {
            "adcode": 360403,
            "province": "江西省",
            "city": "九江市",
            "district": "浔阳区"
        }
    },
    {
        "id": "825329733001311751",
        "title": "公共厕所",
        "address": "江西省九江市浔阳区九瑞大道与兴业大道交叉口正南方向68米左右",
        "tel": "",
        "category": "基础设施:公共设施:公共厕所",
        "type": 0,
        "location": {
            "lat": 29.70378,
            "lng": 115.96178
        },
        "ad_info": {
            "adcode": 360403,
            "province": "江西省",
            "city": "九江市",
            "district": "浔阳区"
        }
    },
    {
        "id": "13244158665326641440",
        "title": "公共厕所",
        "address": "江西省九江市浔阳区庐山路与普润路交叉口正西方向116米左右",
        "tel": "",
        "category": "基础设施:公共设施:公共厕所",
        "type": 0,
        "location": {
            "lat": 29.713573,
            "lng": 115.982488
        },
        "ad_info": {
            "adcode": 360403,
            "province": "江西省",
            "city": "九江市",
            "district": "浔阳区"
        }
    },
    {
        "id": "9705422158149779515",
        "title": "公共厕所",
        "address": "江西省九江市修水县梯云路人民广场(联盛广场东)内",
        "tel": "",
        "category": "基础设施:公共设施:公共厕所",
        "type": 0,
        "location": {
            "lat": 29.024232,
            "lng": 114.546565
        },
        "ad_info": {
            "adcode": 360424,
            "province": "江西省",
            "city": "九江市",
            "district": "修水县"
        }
    },
    {
        "id": "2115148913015077725",
        "title": "公共厕所",
        "address": "江西省九江市浔阳区中环路与九瑞大道交叉口正西方向178米左右",
        "tel": "",
        "category": "基础设施:公共设施:公共厕所",
        "type": 0,
        "location": {
            "lat": 29.705299,
            "lng": 115.965301
        },
        "ad_info": {
            "adcode": 360403,
            "province": "江西省",
            "city": "九江市",
            "district": "浔阳区"
        }
    },
    {
        "id": "1663375875532168738",
        "title": "公共厕所",
        "address": "江西省九江市浔阳区丁官路与环城路交叉口正南方向78米左右",
        "tel": "",
        "category": "基础设施:公共设施:公共厕所",
        "type": 0,
        "location": {
            "lat": 29.722276,
            "lng": 115.98812
        },
        "ad_info": {
            "adcode": 360403,
            "province": "江西省",
            "city": "九江市",
            "district": "浔阳区"
        }
    },
    {
        "id": "4539804384302496699",
        "title": "公共厕所",
        "address": "江西省九江市武宁县九岭大道与鸿锦路交叉口西北方向180米左右",
        "tel": "",
        "category": "基础设施:公共设施:公共厕所",
        "type": 0,
        "location": {
            "lat": 29.246868,
            "lng": 115.116963
        },
        "ad_info": {
            "adcode": 360423,
            "province": "江西省",
            "city": "九江市",
            "district": "武宁县"
        }
    },
    {
        "id": "15717391319731577661",
        "title": "公共厕所",
        "address": "江西省九江市修水县沿江大道与赣北巷交叉口西南方向120米左右",
        "tel": "",
        "category": "基础设施:公共设施:公共厕所",
        "type": 0,
        "location": {
            "lat": 29.029836,
            "lng": 114.574543
        },
        "ad_info": {
            "adcode": 360424,
            "province": "江西省",
            "city": "九江市",
            "district": "修水县"
        }
    },
    {
        "id": "4886946584684424179",
        "title": "公共厕所",
        "address": "江西省九江市濂溪区站前广场东5口下B1层右拐",
        "tel": "",
        "category": "基础设施:公共设施:公共厕所",
        "type": 0,
        "location": {
            "lat": 29.705283,
            "lng": 116.005872
        },
        "ad_info": {
            "adcode": 360402,
            "province": "江西省",
            "city": "九江市",
            "district": "濂溪区"
        }
    },
    {
        "id": "11177879913315090014",
        "title": "公共厕所",
        "address": "江西省九江市修水县义宁大道与梯云路交叉口东南方向92米左右",
        "tel": "",
        "category": "基础设施:公共设施:公共厕所",
        "type": 0,
        "location": {
            "lat": 29.024486,
            "lng": 114.546525
        },
        "ad_info": {
            "adcode": 360424,
            "province": "江西省",
            "city": "九江市",
            "district": "修水县"
        }
    },
    {
        "id": "12170207807899144876",
        "title": "公共厕所",
        "address": "江西省九江市永修县亚新巷与虬上线交叉口东北方向1335米左右",
        "tel": "",
        "category": "基础设施:公共设施:公共厕所",
        "type": 0,
        "location": {
            "lat": 28.968922,
            "lng": 115.84112
        },
        "ad_info": {
            "adcode": 360425,
            "province": "江西省",
            "city": "九江市",
            "district": "永修县"
        }
    },
    {
        "id": "13928203909914816230",
        "title": "公共厕所",
        "address": "江西省九江市武宁县武陵岩大道阳光小区",
        "tel": "",
        "category": "基础设施:公共设施:公共厕所",
        "type": 0,
        "location": {
            "lat": 29.244776,
            "lng": 115.102107
        },
        "ad_info": {
            "adcode": 360423,
            "province": "江西省",
            "city": "九江市",
            "district": "武宁县"
        }
    },
    {
        "id": "11467424992785411606",
        "title": "公共厕所",
        "address": "江西省九江市修水县工业大道与罗桥路交叉口正南方向45米左右",
        "tel": "",
        "category": "基础设施:公共设施:公共厕所",
        "type": 0,
        "location": {
            "lat": 29.022201,
            "lng": 114.585811
        },
        "ad_info": {
            "adcode": 360424,
            "province": "江西省",
            "city": "九江市",
            "district": "修水县"
        }
    },
    {
        "id": "18069317929265862519",
        "title": "公共厕所",
        "address": "江西省九江市浔阳区浔阳东路213号",
        "tel": "",
        "category": "基础设施:公共设施:公共厕所",
        "type": 0,
        "location": {
            "lat": 29.713772,
            "lng": 116.01399
        },
        "ad_info": {
            "adcode": 360403,
            "province": "江西省",
            "city": "九江市",
            "district": "浔阳区"
        }
    },
    {
        "id": "4409370322998791420",
        "title": "公共厕所",
        "address": "江西省九江市濂溪区锦城支巷与青年路交叉口东北方向87米左右",
        "tel": "",
        "category": "基础设施:公共设施:公共厕所",
        "type": 0,
        "location": {
            "lat": 29.694466,
            "lng": 116.000336
        },
        "ad_info": {
            "adcode": 360402,
            "province": "江西省",
            "city": "九江市",
            "district": "濂溪区"
        }
    },
    {
        "id": "3497880641465638947",
        "title": "公共厕所",
        "address": "江西省九江市濂溪区木樨路与濂溪大道交叉口西北方向161米左右",
        "tel": "",
        "category": "基础设施:公共设施:公共厕所",
        "type": 0,
        "location": {
            "lat": 29.658429,
            "lng": 116.002885
        },
        "ad_info": {
            "adcode": 360402,
            "province": "江西省",
            "city": "九江市",
            "district": "濂溪区"
        }
    },
    {
        "id": "196322503826577532",
        "title": "公共厕所",
        "address": "江西省九江市都昌县东湖路与先鹏路交叉口东南方向74米左右",
        "tel": "",
        "category": "基础设施:公共设施:公共厕所",
        "type": 0,
        "location": {
            "lat": 29.26766,
            "lng": 116.20534
        },
        "ad_info": {
            "adcode": 360428,
            "province": "江西省",
            "city": "九江市",
            "district": "都昌县"
        }
    },
    {
        "id": "7542951858726355129",
        "title": "公共厕所",
        "address": "江西省九江市修水县金峰路中国石化白岭加油站",
        "tel": "",
        "category": "基础设施:公共设施:公共厕所",
        "type": 0,
        "location": {
            "lat": 29.077914,
            "lng": 114.036431
        },
        "ad_info": {
            "adcode": 360424,
            "province": "江西省",
            "city": "九江市",
            "district": "修水县"
        }
    },
    {
        "id": "8735806172323242448",
        "title": "公共厕所",
        "address": "江西省九江市浔阳区滨江路与花果园北路交叉口正南方向198米左右",
        "tel": "",
        "category": "基础设施:公共设施:公共厕所",
        "type": 0,
        "location": {
            "lat": 29.73614,
            "lng": 116.013657
        },
        "ad_info": {
            "adcode": 360403,
            "province": "江西省",
            "city": "九江市",
            "district": "浔阳区"
        }
    },
    {
        "id": "4352606099515342925",
        "title": "公共厕所",
        "address": "江西省九江市濂溪区濂溪大道与花溪路交叉口西北方向98米左右",
        "tel": "",
        "category": "基础设施:公共设施:公共厕所",
        "type": 0,
        "location": {
            "lat": 29.65786,
            "lng": 115.996354
        },
        "ad_info": {
            "adcode": 360402,
            "province": "江西省",
            "city": "九江市",
            "district": "濂溪区"
        }
    },
    {
        "id": "5804214904764256044",
        "title": "公共厕所",
        "address": "江西省九江市濂溪区前进东路与前进西路交叉口正南方向137米左右",
        "tel": "",
        "category": "基础设施:公共设施:公共厕所",
        "type": 0,
        "location": {
            "lat": 29.675713,
            "lng": 115.989233
        },
        "ad_info": {
            "adcode": 360402,
            "province": "江西省",
            "city": "九江市",
            "district": "濂溪区"
        }
    },
    {
        "id": "4868511912659167875",
        "title": "公共厕所",
        "address": "江西省九江市修水县工业大道与武修线交叉口东北方向416米左右",
        "tel": "",
        "category": "基础设施:公共设施:公共厕所",
        "type": 0,
        "location": {
            "lat": 29.023009,
            "lng": 114.604724
        },
        "ad_info": {
            "adcode": 360424,
            "province": "江西省",
            "city": "九江市",
            "district": "修水县"
        }
    },
    {
        "id": "3103033322453942934",
        "title": "公共厕所",
        "address": "江西省九江市浔阳区九针规划路与浔阳东路交叉口西北方向162米左右",
        "tel": "",
        "category": "基础设施:公共设施:公共厕所",
        "type": 0,
        "location": {
            "lat": 29.718376,
            "lng": 116.007951
        },
        "ad_info": {
            "adcode": 360403,
            "province": "江西省",
            "city": "九江市",
            "district": "浔阳区"
        }
    },
    {
        "id": "13266911675522234284",
        "title": "公共厕所",
        "address": "江西省九江市濂溪区铂宫支巷与陆家垅路交叉口东北方向48米左右",
        "tel": "",
        "category": "基础设施:公共设施:公共厕所",
        "type": 0,
        "location": {
            "lat": 29.692782,
            "lng": 116.006749
        },
        "ad_info": {
            "adcode": 360402,
            "province": "江西省",
            "city": "九江市",
            "district": "濂溪区"
        }
    },
    {
        "id": "4435545002676188029",
        "title": "公共厕所",
        "address": "江西省九江市濂溪区八里湖东路与八里湖大道交叉口西南方向125米左右",
        "tel": "",
        "category": "基础设施:公共设施:公共厕所",
        "type": 0,
        "location": {
            "lat": 29.659459,
            "lng": 115.947042
        },
        "ad_info": {
            "adcode": 360402,
            "province": "江西省",
            "city": "九江市",
            "district": "濂溪区"
        }
    },
    {
        "id": "6520541447711087744",
        "title": "公共厕所",
        "address": "江西省九江市浔阳区十里大道356号",
        "tel": "",
        "category": "基础设施:公共设施:公共厕所",
        "type": 0,
        "location": {
            "lat": 29.702569,
            "lng": 115.978779
        },
        "ad_info": {
            "adcode": 360403,
            "province": "江西省",
            "city": "九江市",
            "district": "浔阳区"
        }
    },
    {
        "id": "14676069025355800972",
        "title": "公共厕所",
        "address": "江西省九江市永修县牛头山大道与蓝天大道交叉口正南方向165米左右",
        "tel": "",
        "category": "基础设施:公共设施:公共厕所",
        "type": 0,
        "location": {
            "lat": 29.133979,
            "lng": 115.861216
        },
        "ad_info": {
            "adcode": 360425,
            "province": "江西省",
            "city": "九江市",
            "district": "永修县"
        }
    },
    {
        "id": "9753847323714415440",
        "title": "公共厕所",
        "address": "江西省九江市濂溪区富华支巷与长虹大道辅路交叉口西南方向171米左右",
        "tel": "",
        "category": "基础设施:公共设施:公共厕所",
        "type": 0,
        "location": {
            "lat": 29.706467,
            "lng": 116.005715
        },
        "ad_info": {
            "adcode": 360402,
            "province": "江西省",
            "city": "九江市",
            "district": "濂溪区"
        }
    },
    {
        "id": "10326083239071991284",
        "title": "公共厕所",
        "address": "江西省九江市濂溪区G105与东林桥交叉口西南方向211米左右",
        "tel": "",
        "category": "基础设施:公共设施:公共厕所",
        "type": 0,
        "location": {
            "lat": 29.596364,
            "lng": 115.938607
        },
        "ad_info": {
            "adcode": 360402,
            "province": "江西省",
            "city": "九江市",
            "district": "濂溪区"
        }
    },
    {
        "id": "2361939367391774212",
        "title": "公共厕所",
        "address": "江西省九江市浔阳区濂溪路33号",
        "tel": "",
        "category": "基础设施:公共设施:公共厕所",
        "type": 0,
        "location": {
            "lat": 29.722242,
            "lng": 115.992096
        },
        "ad_info": {
            "adcode": 360403,
            "province": "江西省",
            "city": "九江市",
            "district": "浔阳区"
        }
    },
    {
        "id": "13022378373173870615",
        "title": "公共厕所",
        "address": "江西省九江市濂溪区前进西路与十里印象支巷交叉口正北方向101米左右",
        "tel": "",
        "category": "基础设施:公共设施:公共厕所",
        "type": 0,
        "location": {
            "lat": 29.677735,
            "lng": 115.982116
        },
        "ad_info": {
            "adcode": 360402,
            "province": "江西省",
            "city": "九江市",
            "district": "濂溪区"
        }
    },
    {
        "id": "8784404781194330927",
        "title": "公共厕所",
        "address": "江西省九江市柴桑区柴桑路与沙黄路交叉口正东方向295米左右",
        "tel": "",
        "category": "基础设施:公共设施:公共厕所",
        "type": 0,
        "location": {
            "lat": 29.597504,
            "lng": 115.885732
        },
        "ad_info": {
            "adcode": 360404,
            "province": "江西省",
            "city": "九江市",
            "district": "柴桑区"
        }
    },
    {
        "id": "7008874375876627466",
        "title": "公共厕所",
        "address": "江西省九江市彭泽县Y824与爱泉路交叉口正东方向1964米左右",
        "tel": "",
        "category": "基础设施:公共设施:公共厕所",
        "type": 0,
        "location": {
            "lat": 29.916124,
            "lng": 116.634794
        },
        "ad_info": {
            "adcode": 360430,
            "province": "江西省",
            "city": "九江市",
            "district": "彭泽县"
        }
    },
    {
        "id": "14574281407192715567",
        "title": "公共厕所",
        "address": "江西省九江市永修县",
        "tel": "",
        "category": "基础设施:公共设施:公共厕所",
        "type": 0,
        "location": {
            "lat": 29.109368,
            "lng": 115.970002
        },
        "ad_info": {
            "adcode": 360425,
            "province": "江西省",
            "city": "九江市",
            "district": "永修县"
        }
    },
    {
        "id": "7583770017889568055",
        "title": "公共厕所",
        "address": "江西省九江市濂溪区前进东路与濂溪大道交叉口西南方向153米左右",
        "tel": "",
        "category": "基础设施:公共设施:公共厕所",
        "type": 0,
        "location": {
            "lat": 29.672353,
            "lng": 116.003868
        },
        "ad_info": {
            "adcode": 360402,
            "province": "江西省",
            "city": "九江市",
            "district": "濂溪区"
        }
    },
    {
        "id": "2875206991391471641",
        "title": "公共厕所",
        "address": "江西省九江市武宁县交通路158-7号",
        "tel": "",
        "category": "基础设施:公共设施:公共厕所",
        "type": 0,
        "location": {
            "lat": 29.262314,
            "lng": 115.108557
        },
        "ad_info": {
            "adcode": 360423,
            "province": "江西省",
            "city": "九江市",
            "district": "武宁县"
        }
    },
    {
        "id": "16985881904540008434",
        "title": "公共厕所",
        "address": "江西省九江市彭泽县塔桥路与彭湖高速交叉口西南方向87米左右",
        "tel": "",
        "category": "基础设施:公共设施:公共厕所",
        "type": 0,
        "location": {
            "lat": 29.855595,
            "lng": 116.604752
        },
        "ad_info": {
            "adcode": 360430,
            "province": "江西省",
            "city": "九江市",
            "district": "彭泽县"
        }
    },
    {
        "id": "4742486361187746462",
        "title": "公共厕所",
        "address": "江西省九江市浔阳区花果园路满庭春MOMA",
        "tel": "",
        "category": "基础设施:公共设施:公共厕所",
        "type": 0,
        "location": {
            "lat": 29.730277,
            "lng": 116.01175
        },
        "ad_info": {
            "adcode": 360403,
            "province": "江西省",
            "city": "九江市",
            "district": "浔阳区"
        }
    },
    {
        "id": "14149384494594686777",
        "title": "公共厕所",
        "address": "江西省九江市浔阳区陆家垅路名湖广场",
        "tel": "",
        "category": "基础设施:公共设施:公共厕所",
        "type": 0,
        "location": {
            "lat": 29.706317,
            "lng": 115.998529
        },
        "ad_info": {
            "adcode": 360403,
            "province": "江西省",
            "city": "九江市",
            "district": "浔阳区"
        }
    },
    {
        "id": "6606953487106600848",
        "title": "公共厕所",
        "address": "江西省九江市彭泽县培罗成大道与龙城大道交叉口东南方向231米左右",
        "tel": "",
        "category": "基础设施:公共设施:公共厕所",
        "type": 0,
        "location": {
            "lat": 29.870788,
            "lng": 116.524409
        },
        "ad_info": {
            "adcode": 360430,
            "province": "江西省",
            "city": "九江市",
            "district": "彭泽县"
        }
    },
    {
        "id": "15618701373612319737",
        "title": "公共厕所",
        "address": "江西省九江市濂溪区怡康中路与育才路交叉口正北方向96米左右",
        "tel": "",
        "category": "基础设施:公共设施:公共厕所",
        "type": 0,
        "location": {
            "lat": 29.693329,
            "lng": 116.026189
        },
        "ad_info": {
            "adcode": 360402,
            "province": "江西省",
            "city": "九江市",
            "district": "濂溪区"
        }
    },
    {
        "id": "8225330249027377899",
        "title": "公共厕所",
        "address": "江西省九江市濂溪区九园路与兴城大道交叉口正西方向46米左右",
        "tel": "",
        "category": "基础设施:公共设施:公共厕所",
        "type": 0,
        "location": {
            "lat": 29.648914,
            "lng": 115.967493
        },
        "ad_info": {
            "adcode": 360402,
            "province": "江西省",
            "city": "九江市",
            "district": "濂溪区"
        }
    },
    {
        "id": "13051353364801647113",
        "title": "公共厕所",
        "address": "江西省九江市濂溪区浔南大道与花谷西路交叉口东南方向95米左右",
        "tel": "",
        "category": "基础设施:公共设施:公共厕所",
        "type": 0,
        "location": {
            "lat": 29.698522,
            "lng": 116.010043
        },
        "ad_info": {
            "adcode": 360402,
            "province": "江西省",
            "city": "九江市",
            "district": "濂溪区"
        }
    },
    {
        "id": "7397734354879394719",
        "title": "公共厕所",
        "address": "江西省九江市濂溪区广场北路与金凤路交叉口正南方向48米左右",
        "tel": "",
        "category": "基础设施:公共设施:公共厕所",
        "type": 0,
        "location": {
            "lat": 29.705756,
            "lng": 116.013294
        },
        "ad_info": {
            "adcode": 360402,
            "province": "江西省",
            "city": "九江市",
            "district": "濂溪区"
        }
    },
    {
        "id": "11882060703891352391",
        "title": "公共厕所",
        "address": "江西省九江市都昌县皇赐路与金昌东路交叉口正东方向224米左右",
        "tel": "",
        "category": "基础设施:公共设施:公共厕所",
        "type": 0,
        "location": {
            "lat": 29.289214,
            "lng": 116.216122
        },
        "ad_info": {
            "adcode": 360428,
            "province": "江西省",
            "city": "九江市",
            "district": "都昌县"
        }
    },
    {
        "id": "17977259932824580901",
        "title": "公共厕所",
        "address": "江西省九江市濂溪区八里湖新区长虹西大道城市展示馆旁",
        "tel": "",
        "category": "基础设施:公共设施:公共厕所",
        "type": 0,
        "location": {
            "lat": 29.672656,
            "lng": 115.944729
        },
        "ad_info": {
            "adcode": 360402,
            "province": "江西省",
            "city": "九江市",
            "district": "濂溪区"
        }
    },
    {
        "id": "5716248354100031700",
        "title": "公共厕所",
        "address": "江西省九江市柴桑区庐山南路一支巷与庐山南路交叉口正东方向54米左右",
        "tel": "",
        "category": "基础设施:公共设施:公共厕所",
        "type": 0,
        "location": {
            "lat": 29.598261,
            "lng": 115.898551
        },
        "ad_info": {
            "adcode": 360404,
            "province": "江西省",
            "city": "九江市",
            "district": "柴桑区"
        }
    },
    {
        "id": "15800020106701711052",
        "title": "公共厕所",
        "address": "江西省九江市濂溪区德化路与陶洼东路交叉口东南方向278米左右",
        "tel": "",
        "category": "基础设施:公共设施:公共厕所",
        "type": 0,
        "location": {
            "lat": 29.686156,
            "lng": 116.008444
        },
        "ad_info": {
            "adcode": 360402,
            "province": "江西省",
            "city": "九江市",
            "district": "濂溪区"
        }
    },
    {
        "id": "13536594869084567146",
        "title": "公共厕所",
        "address": "江西省九江市浔阳区浔阳鱼楼",
        "tel": "",
        "category": "基础设施:公共设施:公共厕所",
        "type": 0,
        "location": {
            "lat": 29.724038,
            "lng": 115.986325
        },
        "ad_info": {
            "adcode": 360403,
            "province": "江西省",
            "city": "九江市",
            "district": "浔阳区"
        }
    },
    {
        "id": "15930823571209988749",
        "title": "公共厕所",
        "address": "江西省九江市都昌县府前大道与站前大道交叉口正北方向347米左右",
        "tel": "",
        "category": "基础设施:公共设施:公共厕所",
        "type": 0,
        "location": {
            "lat": 29.479823,
            "lng": 116.416754
        },
        "ad_info": {
            "adcode": 360428,
            "province": "江西省",
            "city": "九江市",
            "district": "都昌县"
        }
    },
    {
        "id": "16659478918582219538",
        "title": "公共厕所",
        "address": "江西省九江市濂溪区浔阳东路与长虹立交桥交叉口东南方向65米左右",
        "tel": "",
        "category": "基础设施:公共设施:公共厕所",
        "type": 0,
        "location": {
            "lat": 29.712527,
            "lng": 116.01535
        },
        "ad_info": {
            "adcode": 360402,
            "province": "江西省",
            "city": "九江市",
            "district": "濂溪区"
        }
    },
    {
        "id": "1170051357133112770",
        "title": "公共厕所",
        "address": "江西省九江市修水县刘家埠路与山谷大道交叉口正东方向90米左右",
        "tel": "",
        "category": "基础设施:公共设施:公共厕所",
        "type": 0,
        "location": {
            "lat": 29.024797,
            "lng": 114.560104
        },
        "ad_info": {
            "adcode": 360424,
            "province": "江西省",
            "city": "九江市",
            "district": "修水县"
        }
    },
    {
        "id": "682966404489978818",
        "title": "公共厕所",
        "address": "江西省九江市柴桑区S506与杨柳桥交叉口西北方向316米左右",
        "tel": "",
        "category": "基础设施:公共设施:公共厕所",
        "type": 0,
        "location": {
            "lat": 29.430924,
            "lng": 115.828851
        },
        "ad_info": {
            "adcode": 360404,
            "province": "江西省",
            "city": "九江市",
            "district": "柴桑区"
        }
    },
    {
        "id": "2078523220178583155",
        "title": "公共厕所",
        "address": "江西省九江市浔阳区二马路巷道与二马路支巷交叉口正西方向34米左右",
        "tel": "",
        "category": "基础设施:公共设施:公共厕所",
        "type": 0,
        "location": {
            "lat": 29.715909,
            "lng": 115.979026
        },
        "ad_info": {
            "adcode": 360403,
            "province": "江西省",
            "city": "九江市",
            "district": "浔阳区"
        }
    },
    {
        "id": "14879817723634385012",
        "title": "公共厕所",
        "address": "江西省九江市濂溪区九园路与通岭大道交叉口正东方向1355米左右",
        "tel": "",
        "category": "基础设施:公共设施:公共厕所",
        "type": 0,
        "location": {
            "lat": 29.612392,
            "lng": 115.951967
        },
        "ad_info": {
            "adcode": 360402,
            "province": "江西省",
            "city": "九江市",
            "district": "濂溪区"
        }
    },
    {
        "id": "10006148210894017469",
        "title": "公共厕所",
        "address": "江西省九江市濂溪区思德路与祥和路交叉口正南方向67米左右",
        "tel": "",
        "category": "基础设施:公共设施:公共厕所",
        "type": 0,
        "location": {
            "lat": 29.656992,
            "lng": 115.953213
        },
        "ad_info": {
            "adcode": 360402,
            "province": "江西省",
            "city": "九江市",
            "district": "濂溪区"
        }
    },
    {
        "id": "5679229467958659417",
        "title": "公共厕所",
        "address": "江西省九江市浔阳区春安里一支巷与春安里二支巷交叉口正东方向14米左右",
        "tel": "",
        "category": "基础设施:公共设施:公共厕所",
        "type": 0,
        "location": {
            "lat": 29.717502,
            "lng": 115.970888
        },
        "ad_info": {
            "adcode": 360403,
            "province": "江西省",
            "city": "九江市",
            "district": "浔阳区"
        }
    },
    {
        "id": "17583694319633375339",
        "title": "无障碍公共厕所",
        "address": "江西省九江市浔阳区长城路与长江大道交叉口正西方向143米左右",
        "tel": "",
        "category": "基础设施:公共设施:公共厕所",
        "type": 0,
        "location": {
            "lat": 29.709269,
            "lng": 115.969545
        },
        "ad_info": {
            "adcode": 360403,
            "province": "江西省",
            "city": "九江市",
            "district": "浔阳区"
        }
    },
    {
        "id": "13067705622162839329",
        "title": "新增公共厕所",
        "address": "江西省九江市浔阳区庐峰路与庾亮南路交叉口东南方向192米左右",
        "tel": "",
        "category": "基础设施:公共设施:公共厕所",
        "type": 0,
        "location": {
            "lat": 29.71696,
            "lng": 115.997425
        },
        "ad_info": {
            "adcode": 360403,
            "province": "江西省",
            "city": "九江市",
            "district": "浔阳区"
        }
    },
    {
        "id": "14792228727076444301",
        "title": "公共厕所",
        "address": "江西省九江市濂溪区G105与东林桥交叉口正东方向1142米左右",
        "tel": "",
        "category": "基础设施:公共设施:公共厕所",
        "type": 0,
        "location": {
            "lat": 29.597101,
            "lng": 115.952229
        },
        "ad_info": {
            "adcode": 360402,
            "province": "江西省",
            "city": "九江市",
            "district": "濂溪区"
        }
    },
    {
        "id": "8274838714842577750",
        "title": "公共厕所",
        "address": "江西省九江市永修县G316与南武路交叉口正南方向41米左右",
        "tel": "",
        "category": "基础设施:公共设施:公共厕所",
        "type": 0,
        "location": {
            "lat": 29.179811,
            "lng": 115.611382
        },
        "ad_info": {
            "adcode": 360425,
            "province": "江西省",
            "city": "九江市",
            "district": "永修县"
        }
    },
    {
        "id": "12030555242971003253",
        "title": "公共厕所",
        "address": "江西省九江市瑞昌市罗湖路与荆林街交叉口正南方向90米左右",
        "tel": "",
        "category": "基础设施:公共设施:公共厕所",
        "type": 0,
        "location": {
            "lat": 29.672319,
            "lng": 115.661372
        },
        "ad_info": {
            "adcode": 360481,
            "province": "江西省",
            "city": "九江市",
            "district": "瑞昌市"
        }
    },
    {
        "id": "2805001986662257499",
        "title": "公共厕所",
        "address": "江西省九江市彭泽县Y805与牛九线交叉口东北方向1278米左右",
        "tel": "",
        "category": "基础设施:公共设施:公共厕所",
        "type": 0,
        "location": {
            "lat": 29.969367,
            "lng": 116.654627
        },
        "ad_info": {
            "adcode": 360430,
            "province": "江西省",
            "city": "九江市",
            "district": "彭泽县"
        }
    },
    {
        "id": "827430423270835737",
        "title": "公共厕所",
        "address": "江西省九江市庐山市桃源大道与秀峰大道东路交叉口北40米",
        "tel": "",
        "category": "基础设施:公共设施:公共厕所",
        "type": 0,
        "location": {
            "lat": 29.455506,
            "lng": 116.05276
        },
        "ad_info": {
            "adcode": 360483,
            "province": "江西省",
            "city": "九江市",
            "district": "庐山市"
        }
    },
    {
        "id": "5807130499777706542",
        "title": "浔阳江广场公共厕所",
        "address": "江西省九江市浔阳区滨江路693号",
        "tel": "",
        "category": "基础设施:公共设施:公共厕所",
        "type": 0,
        "location": {
            "lat": 29.73152,
            "lng": 115.997995
        },
        "ad_info": {
            "adcode": 360403,
            "province": "江西省",
            "city": "九江市",
            "district": "浔阳区"
        }
    },
    {
        "id": "12115829171936585750",
        "title": "公共厕所",
        "address": "江西省九江市瑞昌市兵马垄路与建设路交叉口西南方向50米左右",
        "tel": "",
        "category": "基础设施:公共设施:公共厕所",
        "type": 0,
        "location": {
            "lat": 29.677643,
            "lng": 115.662659
        },
        "ad_info": {
            "adcode": 360481,
            "province": "江西省",
            "city": "九江市",
            "district": "瑞昌市"
        }
    },
    {
        "id": "15237899070123987440",
        "title": "公共厕所",
        "address": "江西省九江市德安县金带路中国石化(德安第八加油站)",
        "tel": "",
        "category": "基础设施:公共设施:公共厕所",
        "type": 0,
        "location": {
            "lat": 29.31581,
            "lng": 115.749827
        },
        "ad_info": {
            "adcode": 360426,
            "province": "江西省",
            "city": "九江市",
            "district": "德安县"
        }
    },
    {
        "id": "9892830494745818575",
        "title": "麦当劳(名湖广场店)-洗手间",
        "address": "江西省九江市浔阳区庐山南路286-287号名湘广场1楼(近沃尔玛)",
        "tel": "",
        "category": "基础设施:公共设施:公共厕所",
        "type": 0,
        "location": {
            "lat": 29.70858,
            "lng": 115.998263
        },
        "ad_info": {
            "adcode": 360403,
            "province": "江西省",
            "city": "九江市",
            "district": "浔阳区"
        }
    },
    {
        "id": "14575578404823967320",
        "title": "公共厕所",
        "address": "江西省九江市柴桑区涌泉乡卫生院南侧",
        "tel": "",
        "category": "基础设施:公共设施:公共厕所",
        "type": 0,
        "location": {
            "lat": 29.613735,
            "lng": 115.679264
        },
        "ad_info": {
            "adcode": 360404,
            "province": "江西省",
            "city": "九江市",
            "district": "柴桑区"
        }
    },
    {
        "id": "11828245277052907212",
        "title": "公共厕所",
        "address": "江西省九江市修水县老中医胡佳聂诊所东侧130米",
        "tel": "",
        "category": "基础设施:公共设施:公共厕所",
        "type": 0,
        "location": {
            "lat": 29.059459,
            "lng": 114.158322
        },
        "ad_info": {
            "adcode": 360424,
            "province": "江西省",
            "city": "九江市",
            "district": "修水县"
        }
    },
    {
        "id": "15766441563278844553",
        "title": "公共厕所",
        "address": "江西省九江市濂溪区莲花大道与隆兴路交叉口东南方向32米左右",
        "tel": "",
        "category": "基础设施:公共设施:公共厕所",
        "type": 0,
        "location": {
            "lat": 29.642752,
            "lng": 116.000979
        },
        "ad_info": {
            "adcode": 360402,
            "province": "江西省",
            "city": "九江市",
            "district": "濂溪区"
        }
    },
    {
        "id": "9280077477077890298",
        "title": "公共厕所",
        "address": "江西省九江市共青城市共青城市发展大道与翰林路交叉口正西方向252米左右",
        "tel": "",
        "category": "基础设施:公共设施:公共厕所",
        "type": 0,
        "location": {
            "lat": 29.242021,
            "lng": 115.775242
        },
        "ad_info": {
            "adcode": 360482,
            "province": "江西省",
            "city": "九江市",
            "district": "共青城市"
        }
    },
    {
        "id": "14386568367212466945",
        "title": "公共厕所",
        "address": "江西省九江市德安县义峰路福乐家园",
        "tel": "",
        "category": "基础设施:公共设施:公共厕所",
        "type": 0,
        "location": {
            "lat": 29.321954,
            "lng": 115.757774
        },
        "ad_info": {
            "adcode": 360426,
            "province": "江西省",
            "city": "九江市",
            "district": "德安县"
        }
    },
    {
        "id": "15748840483982694219",
        "title": "公共厕所",
        "address": "江西省九江市柴桑区塔南路与沿河北路交叉口东北方向56米左右",
        "tel": "",
        "category": "基础设施:公共设施:公共厕所",
        "type": 0,
        "location": {
            "lat": 29.608309,
            "lng": 115.895468
        },
        "ad_info": {
            "adcode": 360404,
            "province": "江西省",
            "city": "九江市",
            "district": "柴桑区"
        }
    },
    {
        "id": "3746475095890499206",
        "title": "公共厕所",
        "address": "江西省九江市湖口县景湖路湖口人民广场(西侧)",
        "tel": "",
        "category": "基础设施:公共设施:公共厕所",
        "type": 0,
        "location": {
            "lat": 29.726392,
            "lng": 116.243723
        },
        "ad_info": {
            "adcode": 360429,
            "province": "江西省",
            "city": "九江市",
            "district": "湖口县"
        }
    },
    {
        "id": "8254356902776640260",
        "title": "公共厕所",
        "address": "江西省九江市共青城市共青城市共青大道与北峰路交叉口正西方向16米左右",
        "tel": "",
        "category": "基础设施:公共设施:公共厕所",
        "type": 0,
        "location": {
            "lat": 29.247909,
            "lng": 115.809386
        },
        "ad_info": {
            "adcode": 360482,
            "province": "江西省",
            "city": "九江市",
            "district": "共青城市"
        }
    },
    {
        "id": "6067381030485432387",
        "title": "公共厕所",
        "address": "江西省九江市瑞昌市瑞南线与范镇大桥交叉口东北方向1368米左右",
        "tel": "",
        "category": "基础设施:公共设施:公共厕所",
        "type": 0,
        "location": {
            "lat": 29.587701,
            "lng": 115.585946
        },
        "ad_info": {
            "adcode": 360481,
            "province": "江西省",
            "city": "九江市",
            "district": "瑞昌市"
        }
    },
    {
        "id": "11578534249277825252",
        "title": "公共厕所",
        "address": "江西省九江市瑞昌市市府东路与杨林大道交叉口正北方向159米左右",
        "tel": "",
        "category": "基础设施:公共设施:公共厕所",
        "type": 0,
        "location": {
            "lat": 29.674765,
            "lng": 115.683246
        },
        "ad_info": {
            "adcode": 360481,
            "province": "江西省",
            "city": "九江市",
            "district": "瑞昌市"
        }
    },
    {
        "id": "11740391429903451634",
        "title": "江西省城乡公共厕所",
        "address": "江西省九江市德安县东风路57号",
        "tel": "",
        "category": "基础设施:公共设施:公共厕所",
        "type": 0,
        "location": {
            "lat": 29.328392,
            "lng": 115.763974
        },
        "ad_info": {
            "adcode": 360426,
            "province": "江西省",
            "city": "九江市",
            "district": "德安县"
        }
    },
    {
        "id": "3538629296049963438",
        "title": "旅游公共厕所",
        "address": "江西省九江市武宁县万福大道与源口二路交叉口正东方向380米左右",
        "tel": "",
        "category": "基础设施:公共设施:公共厕所",
        "type": 0,
        "location": {
            "lat": 29.213559,
            "lng": 115.148777
        },
        "ad_info": {
            "adcode": 360423,
            "province": "江西省",
            "city": "九江市",
            "district": "武宁县"
        }
    },
    {
        "id": "15201378865571582458",
        "title": "公共厕所",
        "address": "江西省九江市都昌县东风大道与东风路交叉口西北方向93米左右",
        "tel": "",
        "category": "基础设施:公共设施:公共厕所",
        "type": 0,
        "location": {
            "lat": 29.270366,
            "lng": 116.198043
        },
        "ad_info": {
            "adcode": 360428,
            "province": "江西省",
            "city": "九江市",
            "district": "都昌县"
        }
    },
    {
        "id": "3739796819870611688",
        "title": "公共厕所",
        "address": "江西省九江市永修县发达路与新城北大道交叉口东北方向104米左右",
        "tel": "",
        "category": "基础设施:公共设施:公共厕所",
        "type": 0,
        "location": {
            "lat": 29.021456,
            "lng": 115.809973
        },
        "ad_info": {
            "adcode": 360425,
            "province": "江西省",
            "city": "九江市",
            "district": "永修县"
        }
    },
    {
        "id": "502972365491903727",
        "title": "公共厕所",
        "address": "江西省九江市湖口县南门路与大中路交叉口东南方向481米左右",
        "tel": "",
        "category": "基础设施:公共设施:公共厕所",
        "type": 0,
        "location": {
            "lat": 29.73345,
            "lng": 116.220052
        },
        "ad_info": {
            "adcode": 360429,
            "province": "江西省",
            "city": "九江市",
            "district": "湖口县"
        }
    },
    {
        "id": "16358517154602399509",
        "title": "公共厕所",
        "address": "江西省九江市瑞昌市Y910与九界线交叉口西北方向1175米左右",
        "tel": "",
        "category": "基础设施:公共设施:公共厕所",
        "type": 0,
        "location": {
            "lat": 29.743037,
            "lng": 115.634382
        },
        "ad_info": {
            "adcode": 360481,
            "province": "江西省",
            "city": "九江市",
            "district": "瑞昌市"
        }
    },
    {
        "id": "12429767106831313827",
        "title": "南山公园公共厕所",
        "address": "江西省九江市濂溪区九莲南路与南山南路交叉口东北方向45米左右",
        "tel": "",
        "category": "基础设施:公共设施:公共厕所",
        "type": 0,
        "location": {
            "lat": 29.665574,
            "lng": 115.994684
        },
        "ad_info": {
            "adcode": 360402,
            "province": "江西省",
            "city": "九江市",
            "district": "濂溪区"
        }
    },
    {
        "id": "7093844655421494372",
        "title": "何市服务区第一公共厕所",
        "address": "江西省九江市修水县X107与Y339交叉口正北方向919米左右",
        "tel": "",
        "category": "基础设施:公共设施:公共厕所",
        "type": 0,
        "location": {
            "lat": 28.817018,
            "lng": 114.637616
        },
        "ad_info": {
            "adcode": 360424,
            "province": "江西省",
            "city": "九江市",
            "district": "修水县"
        }
    },
    {
        "id": "2377137139208366665",
        "title": "公共厕所",
        "address": "江西省九江市濂溪区重庆路九江市双语实验学校",
        "tel": "",
        "category": "基础设施:公共设施:公共厕所",
        "type": 0,
        "location": {
            "lat": 29.705772,
            "lng": 115.950049
        },
        "ad_info": {
            "adcode": 360402,
            "province": "江西省",
            "city": "九江市",
            "district": "濂溪区"
        }
    },
    {
        "id": "12159285984947789692",
        "title": "公共厕所",
        "address": "江西省九江市濂溪区陆家垅路84号德化路小广场",
        "tel": "",
        "category": "基础设施:公共设施:公共厕所",
        "type": 0,
        "location": {
            "lat": 29.689323,
            "lng": 116.00922
        },
        "ad_info": {
            "adcode": 360402,
            "province": "江西省",
            "city": "九江市",
            "district": "濂溪区"
        }
    },
    {
        "id": "5699899247677949218",
        "title": "公共厕所",
        "address": "江西省九江市彭泽县东风路与龙城大道交叉口西南方向53米左右",
        "tel": "",
        "category": "基础设施:公共设施:公共厕所",
        "type": 0,
        "location": {
            "lat": 29.897941,
            "lng": 116.556245
        },
        "ad_info": {
            "adcode": 360430,
            "province": "江西省",
            "city": "九江市",
            "district": "彭泽县"
        }
    },
    {
        "id": "6243619217162715909",
        "title": "修水服务区第二公共厕所",
        "address": "江西省九江市修水县G45大广高速附近",
        "tel": "",
        "category": "基础设施:公共设施:公共厕所",
        "type": 0,
        "location": {
            "lat": 29.150809,
            "lng": 114.776369
        },
        "ad_info": {
            "adcode": 360424,
            "province": "江西省",
            "city": "九江市",
            "district": "修水县"
        }
    },
    {
        "id": "5944421417141854399",
        "title": "公共厕所",
        "address": "江西省九江市濂溪区宋家牌路与庐山大道交叉口东北方向235米左右",
        "tel": "",
        "category": "基础设施:公共设施:公共厕所",
        "type": 0,
        "location": {
            "lat": 29.696552,
            "lng": 116.038566
        },
        "ad_info": {
            "adcode": 360402,
            "province": "江西省",
            "city": "九江市",
            "district": "濂溪区"
        }
    },
    {
        "id": "15153622787741309157",
        "title": "修水服务区第一公共厕所",
        "address": "江西省九江市修水县大广高速公路",
        "tel": "",
        "category": "基础设施:公共设施:公共厕所",
        "type": 0,
        "location": {
            "lat": 29.149627,
            "lng": 114.775706
        },
        "ad_info": {
            "adcode": 360424,
            "province": "江西省",
            "city": "九江市",
            "district": "修水县"
        }
    },
    {
        "id": "8057273286656047540",
        "title": "公共厕所",
        "address": "江西省九江市濂溪区九星公路与濂溪大道交叉口东北方向101米左右",
        "tel": "",
        "category": "基础设施:公共设施:公共厕所",
        "type": 0,
        "location": {
            "lat": 29.68418,
            "lng": 116.046172
        },
        "ad_info": {
            "adcode": 360402,
            "province": "江西省",
            "city": "九江市",
            "district": "濂溪区"
        }
    },
    {
        "id": "13433364450886127165",
        "title": "鄱阳湖公共厕所",
        "address": "江西省九江市都昌县东坡路与东湖大坝交叉口东南方向746米左右",
        "tel": "",
        "category": "基础设施:公共设施:公共厕所",
        "type": 0,
        "location": {
            "lat": 29.248422,
            "lng": 116.197649
        },
        "ad_info": {
            "adcode": 360428,
            "province": "江西省",
            "city": "九江市",
            "district": "都昌县"
        }
    },
    {
        "id": "2333060329610392849",
        "title": "西海服务区第一公共厕所",
        "address": "江西省九江市武宁县官莲乡东山村",
        "tel": "",
        "category": "基础设施:公共设施:公共厕所",
        "type": 0,
        "location": {
            "lat": 29.323428,
            "lng": 115.36364
        },
        "ad_info": {
            "adcode": 360423,
            "province": "江西省",
            "city": "九江市",
            "district": "武宁县"
        }
    },
    {
        "id": "13546383694201784873",
        "title": "西海服务区第二公共厕所",
        "address": "江西省九江市武宁县官莲乡东山村",
        "tel": "",
        "category": "基础设施:公共设施:公共厕所",
        "type": 0,
        "location": {
            "lat": 29.323351,
            "lng": 115.364351
        },
        "ad_info": {
            "adcode": 360423,
            "province": "江西省",
            "city": "九江市",
            "district": "武宁县"
        }
    },
    {
        "id": "13964247547566640504",
        "title": "人民北路无障碍公共厕所",
        "address": "江西省九江市瑞昌市人民机械厂三村东北侧80米",
        "tel": "",
        "category": "基础设施:公共设施:公共厕所",
        "type": 0,
        "location": {
            "lat": 29.681477,
            "lng": 115.665755
        },
        "ad_info": {
            "adcode": 360481,
            "province": "江西省",
            "city": "九江市",
            "district": "瑞昌市"
        }
    },
    {
        "id": "16319705425193964960",
        "title": "庐山服务区公共厕所",
        "address": "江西省九江市柴桑区X182与Y071交叉口正西方向1262米左右",
        "tel": "",
        "category": "基础设施:公共设施:公共厕所",
        "type": 0,
        "location": {
            "lat": 29.424434,
            "lng": 115.816004
        },
        "ad_info": {
            "adcode": 360404,
            "province": "江西省",
            "city": "九江市",
            "district": "柴桑区"
        }
    },
    {
        "id": "5942114818401379877",
        "title": "涌泉服务区-公共厕所",
        "address": "江西省九江市柴桑区Y061与双瑞线交叉口东南方向1201米左右",
        "tel": "",
        "category": "基础设施:公共设施:公共厕所",
        "type": 0,
        "location": {
            "lat": 29.62467,
            "lng": 115.69492
        },
        "ad_info": {
            "adcode": 360404,
            "province": "江西省",
            "city": "九江市",
            "district": "柴桑区"
        }
    },
    {
        "id": "13154006213407694363",
        "title": "庐山服务区第二公共厕所",
        "address": "江西省九江市柴桑区S506与Y071交叉口正南方向1178米左右",
        "tel": "",
        "category": "基础设施:公共设施:公共厕所",
        "type": 0,
        "location": {
            "lat": 29.425489,
            "lng": 115.815274
        },
        "ad_info": {
            "adcode": 360404,
            "province": "江西省",
            "city": "九江市",
            "district": "柴桑区"
        }
    },
    {
        "id": "14538313188857488912",
        "title": "湖口站公共厕所",
        "address": "江西省九江市湖口县湖口火车站候车厅内",
        "tel": "",
        "category": "基础设施:公共设施:公共厕所",
        "type": 0,
        "location": {
            "lat": 29.729073,
            "lng": 116.284598
        },
        "ad_info": {
            "adcode": 360429,
            "province": "江西省",
            "city": "九江市",
            "district": "湖口县"
        }
    },
    {
        "id": "17774369243460478709",
        "title": "涌泉服务区第二公共厕所",
        "address": "江西省九江市柴桑区Y061与双瑞线交叉口东南方向1052米左右",
        "tel": "",
        "category": "基础设施:公共设施:公共厕所",
        "type": 0,
        "location": {
            "lat": 29.625257,
            "lng": 115.693382
        },
        "ad_info": {
            "adcode": 360404,
            "province": "江西省",
            "city": "九江市",
            "district": "柴桑区"
        }
    },
    {
        "id": "8940186769373533044",
        "title": "修水服务区第一公共厕所",
        "address": "江西省九江市修水县石化修水服务区西加油站东北侧",
        "tel": "",
        "category": "基础设施:公共设施:公共厕所",
        "type": 0,
        "location": {
            "lat": 29.15157,
            "lng": 114.774898
        },
        "ad_info": {
            "adcode": 360424,
            "province": "江西省",
            "city": "九江市",
            "district": "修水县"
        }
    },
    {
        "id": "13162467149914013627",
        "title": "何市服务区第二公共厕所",
        "address": "江西省九江市修水县X107与Y339交叉口正北方向998米左右",
        "tel": "",
        "category": "基础设施:公共设施:公共厕所",
        "type": 0,
        "location": {
            "lat": 28.817831,
            "lng": 114.636722
        },
        "ad_info": {
            "adcode": 360424,
            "province": "江西省",
            "city": "九江市",
            "district": "修水县"
        }
    },
    {
        "id": "11369837141376837861",
        "title": "庐山服务区第一公共厕所",
        "address": "江西省九江市柴桑区S506与Y071交叉口正南方向984米左右",
        "tel": "",
        "category": "基础设施:公共设施:公共厕所",
        "type": 0,
        "location": {
            "lat": 29.426842,
            "lng": 115.81702
        },
        "ad_info": {
            "adcode": 360404,
            "province": "江西省",
            "city": "九江市",
            "district": "柴桑区"
        }
    },
    {
        "id": "14784082906745665900",
        "title": "生态公共厕所",
        "address": "江西省九江市瑞昌市人民北路69号",
        "tel": "",
        "category": "基础设施:公共设施:公共厕所",
        "type": 0,
        "location": {
            "lat": 29.681449,
            "lng": 115.665717
        },
        "ad_info": {
            "adcode": 360481,
            "province": "江西省",
            "city": "九江市",
            "district": "瑞昌市"
        }
    },
    {
        "id": "12593450092086977506",
        "title": "石钟山服务区公共厕所",
        "address": "江西省九江市湖口县马影镇杭瑞高速公路石钟山服务区",
        "tel": "13767013355",
        "category": "基础设施:公共设施:公共厕所",
        "type": 0,
        "location": {
            "lat": 29.70257,
            "lng": 116.281219
        },
        "ad_info": {
            "adcode": 360429,
            "province": "江西省",
            "city": "九江市",
            "district": "湖口县"
        }
    },
    {
        "id": "13309111604762437829",
        "title": "男卫生间",
        "address": "江西省九江市浔阳区浔阳路57号联盛购物广场F6",
        "tel": "",
        "category": "基础设施:公共设施:男洗手间",
        "type": 0,
        "location": {
            "lat": 29.723656,
            "lng": 115.990176
        },
        "ad_info": {
            "adcode": 360403,
            "province": "江西省",
            "city": "九江市",
            "district": "浔阳区"
        }
    },
    {
        "id": "6312021607148197124",
        "title": "女洗手间(联盛购物广场)",
        "address": "江西省九江市浔阳区浔阳路57号联盛购物广场F6",
        "tel": "",
        "category": "基础设施:公共设施:女洗手间",
        "type": 0,
        "location": {
            "lat": 29.723658,
            "lng": 115.990194
        },
        "ad_info": {
            "adcode": 360403,
            "province": "江西省",
            "city": "九江市",
            "district": "浔阳区"
        }
    },
    {
        "id": "11743259175475254834",
        "title": "公共厕所",
        "address": "江西省九江市濂溪区南山中路与李家河路交叉口东南方向70米左右",
        "tel": "",
        "category": "基础设施:公共设施:公共厕所",
        "type": 0,
        "location": {
            "lat": 29.66658,
            "lng": 115.991341
        },
        "ad_info": {
            "adcode": 360402,
            "province": "江西省",
            "city": "九江市",
            "district": "濂溪区"
        }
    },
    {
        "id": "672715531632534272",
        "title": "公共厕所",
        "address": "江西省九江市柴桑区双瑞路与沿河北路交叉口正西方向157米左右",
        "tel": "",
        "category": "基础设施:公共设施:公共厕所",
        "type": 0,
        "location": {
            "lat": 29.613961,
            "lng": 115.889183
        },
        "ad_info": {
            "adcode": 360404,
            "province": "江西省",
            "city": "九江市",
            "district": "柴桑区"
        }
    },
    {
        "id": "6906013771378715192",
        "title": "公共厕所",
        "address": "江西省九江市永修县南洲村仙洲组",
        "tel": "",
        "category": "基础设施:公共设施:公共厕所",
        "type": 0,
        "location": {
            "lat": 29.075177,
            "lng": 115.816639
        },
        "ad_info": {
            "adcode": 360425,
            "province": "江西省",
            "city": "九江市",
            "district": "永修县"
        }
    },
    {
        "id": "16777801212656799355",
        "title": "公共厕所",
        "address": "江西省九江市浔阳区向阳路与西苑南路交叉口正南方向87米左右",
        "tel": "",
        "category": "基础设施:公共设施:公共厕所",
        "type": 0,
        "location": {
            "lat": 29.69955,
            "lng": 115.974568
        },
        "ad_info": {
            "adcode": 360403,
            "province": "江西省",
            "city": "九江市",
            "district": "浔阳区"
        }
    },
    {
        "id": "2893259233738300",
        "title": "公共厕所",
        "address": "江西省九江市湖口县易捷便利店(均桥加油站)西南侧",
        "tel": "",
        "category": "基础设施:公共设施:公共厕所",
        "type": 0,
        "location": {
            "lat": 29.667798,
            "lng": 116.301754
        },
        "ad_info": {
            "adcode": 360429,
            "province": "江西省",
            "city": "九江市",
            "district": "湖口县"
        }
    },
    {
        "id": "11442571239766005318",
        "title": "公共厕所",
        "address": "江西省九江市共青城市共青城市九仙大道与共青大道交叉口正西方向261米左右",
        "tel": "",
        "category": "基础设施:公共设施:公共厕所",
        "type": 0,
        "location": {
            "lat": 29.249956,
            "lng": 115.771253
        },
        "ad_info": {
            "adcode": 360482,
            "province": "江西省",
            "city": "九江市",
            "district": "共青城市"
        }
    },
    {
        "id": "15148236214782092153",
        "title": "公共厕所",
        "address": "江西省九江市修水县沿江大道与站前路交叉口正东方向90米左右",
        "tel": "",
        "category": "基础设施:公共设施:公共厕所",
        "type": 0,
        "location": {
            "lat": 29.038645,
            "lng": 114.575323
        },
        "ad_info": {
            "adcode": 360424,
            "province": "江西省",
            "city": "九江市",
            "district": "修水县"
        }
    },
    {
        "id": "9935367338541188053",
        "title": "公共厕所",
        "address": "江西省九江市都昌县S209与中馆互通交叉口东南方向264米左右",
        "tel": "",
        "category": "基础设施:公共设施:公共厕所",
        "type": 0,
        "location": {
            "lat": 29.387328,
            "lng": 116.524835
        },
        "ad_info": {
            "adcode": 360428,
            "province": "江西省",
            "city": "九江市",
            "district": "都昌县"
        }
    },
    {
        "id": "14344930361250579310",
        "title": "公共厕所",
        "address": "江西省九江市浔阳区浔阳西路与长江大道交叉口正东方向49米左右",
        "tel": "",
        "category": "基础设施:公共设施:公共厕所",
        "type": 0,
        "location": {
            "lat": 29.714606,
            "lng": 115.967472
        },
        "ad_info": {
            "adcode": 360403,
            "province": "江西省",
            "city": "九江市",
            "district": "浔阳区"
        }
    },
    {
        "id": "8916181258081180454",
        "title": "公共厕所",
        "address": "江西省九江市德安县义峰路与隆平大道交叉口东南方向85米左右",
        "tel": "",
        "category": "基础设施:公共设施:公共厕所",
        "type": 0,
        "location": {
            "lat": 29.319137,
            "lng": 115.756006
        },
        "ad_info": {
            "adcode": 360426,
            "province": "江西省",
            "city": "九江市",
            "district": "德安县"
        }
    },
    {
        "id": "10731240565979089839",
        "title": "公共厕所",
        "address": "江西省九江市瑞昌市黄金北路48号",
        "tel": "",
        "category": "基础设施:公共设施:公共厕所",
        "type": 0,
        "location": {
            "lat": 29.686693,
            "lng": 115.681068
        },
        "ad_info": {
            "adcode": 360481,
            "province": "江西省",
            "city": "九江市",
            "district": "瑞昌市"
        }
    },
    {
        "id": "14851544926264699404",
        "title": "公共厕所",
        "address": "江西省九江市德安县宝塔大道中国石化(德安第一卡点)",
        "tel": "",
        "category": "基础设施:公共设施:公共厕所",
        "type": 0,
        "location": {
            "lat": 29.30734,
            "lng": 115.764075
        },
        "ad_info": {
            "adcode": 360426,
            "province": "江西省",
            "city": "九江市",
            "district": "德安县"
        }
    },
    {
        "id": "2424168067795485546",
        "title": "公共厕所",
        "address": "江西省九江市瑞昌市人民南路与柴桑路交叉口东南方向60米左右",
        "tel": "",
        "category": "基础设施:公共设施:公共厕所",
        "type": 0,
        "location": {
            "lat": 29.668612,
            "lng": 115.667686
        },
        "ad_info": {
            "adcode": 360481,
            "province": "江西省",
            "city": "九江市",
            "district": "瑞昌市"
        }
    },
    {
        "id": "8043505801770852942",
        "title": "公共厕所",
        "address": "江西省九江市湖口县学士路石塘小区",
        "tel": "",
        "category": "基础设施:公共设施:公共厕所",
        "type": 0,
        "location": {
            "lat": 29.738502,
            "lng": 116.261126
        },
        "ad_info": {
            "adcode": 360429,
            "province": "江西省",
            "city": "九江市",
            "district": "湖口县"
        }
    },
    {
        "id": "10029924034733059688",
        "title": "公共厕所",
        "address": "江西省九江市都昌县万里大道与东风大道交叉口西北方向301米左右",
        "tel": "",
        "category": "基础设施:公共设施:公共厕所",
        "type": 0,
        "location": {
            "lat": 29.28535,
            "lng": 116.221777
        },
        "ad_info": {
            "adcode": 360428,
            "province": "江西省",
            "city": "九江市",
            "district": "都昌县"
        }
    },
    {
        "id": "17703129155568431432",
        "title": "公共厕所",
        "address": "江西省九江市都昌县东风大道与幸福路交叉口东180米",
        "tel": "",
        "category": "基础设施:公共设施:公共厕所",
        "type": 0,
        "location": {
            "lat": 29.267844,
            "lng": 116.196568
        },
        "ad_info": {
            "adcode": 360428,
            "province": "江西省",
            "city": "九江市",
            "district": "都昌县"
        }
    },
    {
        "id": "12061269891902601867",
        "title": "鄱阳湖-公共厕所",
        "address": "江西省九江市都昌县东坡路与东湖大坝交叉口东南方向962米左右",
        "tel": "",
        "category": "基础设施:公共设施:公共厕所",
        "type": 0,
        "location": {
            "lat": 29.247949,
            "lng": 116.200445
        },
        "ad_info": {
            "adcode": 360428,
            "province": "江西省",
            "city": "九江市",
            "district": "都昌县"
        }
    },
    {
        "id": "16725553402372252053",
        "title": "公共厕所",
        "address": "江西省九江市濂溪区十里河南路与广电巷交叉口西南方向419米左右",
        "tel": "",
        "category": "基础设施:公共设施:公共厕所",
        "type": 0,
        "location": {
            "lat": 29.665214,
            "lng": 115.983374
        },
        "ad_info": {
            "adcode": 360402,
            "province": "江西省",
            "city": "九江市",
            "district": "濂溪区"
        }
    },
    {
        "id": "9792848697488747105",
        "title": "无障碍公共厕所",
        "address": "江西省九江市湖口县九江富达实业有限公司东侧290米",
        "tel": "",
        "category": "基础设施:公共设施:公共厕所",
        "type": 0,
        "location": {
            "lat": 29.770247,
            "lng": 116.261676
        },
        "ad_info": {
            "adcode": 360429,
            "province": "江西省",
            "city": "九江市",
            "district": "湖口县"
        }
    },
    {
        "id": "14794245037632646798",
        "title": "公共厕所",
        "address": "江西省九江市浔阳区小校场路78号",
        "tel": "",
        "category": "基础设施:公共设施:公共厕所",
        "type": 0,
        "location": {
            "lat": 29.724573,
            "lng": 115.997998
        },
        "ad_info": {
            "adcode": 360403,
            "province": "江西省",
            "city": "九江市",
            "district": "浔阳区"
        }
    },
    {
        "id": "3861618608876766893",
        "title": "公共厕所",
        "address": "江西省九江市浔阳区滨江东路与滨江路交叉口东北方向135米左右",
        "tel": "",
        "category": "基础设施:公共设施:公共厕所",
        "type": 0,
        "location": {
            "lat": 29.739735,
            "lng": 116.018704
        },
        "ad_info": {
            "adcode": 360403,
            "province": "江西省",
            "city": "九江市",
            "district": "浔阳区"
        }
    },
    {
        "id": "324080760577164619",
        "title": "公共厕所",
        "address": "江西省九江市共青城市共青城市共安中大道与共安大道交叉口正西方向238米左右",
        "tel": "",
        "category": "基础设施:公共设施:公共厕所",
        "type": 0,
        "location": {
            "lat": 29.250093,
            "lng": 115.778001
        },
        "ad_info": {
            "adcode": 360482,
            "province": "江西省",
            "city": "九江市",
            "district": "共青城市"
        }
    },
    {
        "id": "187814236618096106",
        "title": "何市服务区第一公共厕所",
        "address": "江西省九江市修水县X107与Y339交叉口东北方向483米左右",
        "tel": "",
        "category": "基础设施:公共设施:公共厕所",
        "type": 0,
        "location": {
            "lat": 28.812533,
            "lng": 114.638669
        },
        "ad_info": {
            "adcode": 360424,
            "province": "江西省",
            "city": "九江市",
            "district": "修水县"
        }
    },
    {
        "id": "13221106640781231284",
        "title": "公共厕所",
        "address": "江西省九江市修水县梯云路与秀水大道交叉口东北方向47米左右",
        "tel": "",
        "category": "基础设施:公共设施:公共厕所",
        "type": 0,
        "location": {
            "lat": 29.031731,
            "lng": 114.544659
        },
        "ad_info": {
            "adcode": 360424,
            "province": "江西省",
            "city": "九江市",
            "district": "修水县"
        }
    },
    {
        "id": "3976371479324907709",
        "title": "公共厕所",
        "address": "江西省九江市濂溪区大桥路与民生路交叉口东南方向174米左右",
        "tel": "",
        "category": "基础设施:公共设施:公共厕所",
        "type": 0,
        "location": {
            "lat": 29.667371,
            "lng": 116.07524
        },
        "ad_info": {
            "adcode": 360402,
            "province": "江西省",
            "city": "九江市",
            "district": "濂溪区"
        }
    },
    {
        "id": "11716154546375606559",
        "title": "石钟山服务区公共厕所",
        "address": "江西省九江市湖口县湖口枢纽与都九高速交叉口西北方向842米左右",
        "tel": "",
        "category": "基础设施:公共设施:公共厕所",
        "type": 0,
        "location": {
            "lat": 29.7021,
            "lng": 116.279134
        },
        "ad_info": {
            "adcode": 360429,
            "province": "江西省",
            "city": "九江市",
            "district": "湖口县"
        }
    },
    {
        "id": "16856564170533004249",
        "title": "公共厕所",
        "address": "江西省九江市修水县G353与景西路交叉口正东方向232米左右",
        "tel": "",
        "category": "基础设施:公共设施:公共厕所",
        "type": 0,
        "location": {
            "lat": 29.077147,
            "lng": 114.089717
        },
        "ad_info": {
            "adcode": 360424,
            "province": "江西省",
            "city": "九江市",
            "district": "修水县"
        }
    },
    {
        "id": "6820731495990216338",
        "title": "公共厕所",
        "address": "江西省九江市德安县河东大道与滨河东大道交叉口西北方向94米左右",
        "tel": "",
        "category": "基础设施:公共设施:公共厕所",
        "type": 0,
        "location": {
            "lat": 29.332686,
            "lng": 115.769005
        },
        "ad_info": {
            "adcode": 360426,
            "province": "江西省",
            "city": "九江市",
            "district": "德安县"
        }
    },
    {
        "id": "710813421416172104",
        "title": "公共厕所",
        "address": "江西省九江市浔阳区南湖路与环城路交叉口正南方向198米左右",
        "tel": "",
        "category": "基础设施:公共设施:公共厕所",
        "type": 0,
        "location": {
            "lat": 29.716383,
            "lng": 115.996539
        },
        "ad_info": {
            "adcode": 360403,
            "province": "江西省",
            "city": "九江市",
            "district": "浔阳区"
        }
    },
    {
        "id": "16417621916092244820",
        "title": "公共厕所",
        "address": "江西省九江市湖口县大中路与登山路交叉口西南方向148米左右",
        "tel": "",
        "category": "基础设施:公共设施:公共厕所",
        "type": 0,
        "location": {
            "lat": 29.741802,
            "lng": 116.222601
        },
        "ad_info": {
            "adcode": 360429,
            "province": "江西省",
            "city": "九江市",
            "district": "湖口县"
        }
    },
    {
        "id": "1636547031886001822",
        "title": "旅游公共厕所",
        "address": "江西省九江市浔阳区庐山北路与滨江路交叉口东北方向179米左右",
        "tel": "",
        "category": "基础设施:公共设施:公共厕所",
        "type": 0,
        "location": {
            "lat": 29.724495,
            "lng": 115.982138
        },
        "ad_info": {
            "adcode": 360403,
            "province": "江西省",
            "city": "九江市",
            "district": "浔阳区"
        }
    },
    {
        "id": "1234427455022495113",
        "title": "江西省城乡公共厕所",
        "address": "江西省九江市浔阳区东门口支路与沪浔路交叉口正南方向79米左右",
        "tel": "",
        "category": "基础设施:公共设施:公共厕所",
        "type": 0,
        "location": {
            "lat": 29.722405,
            "lng": 116.008075
        },
        "ad_info": {
            "adcode": 360403,
            "province": "江西省",
            "city": "九江市",
            "district": "浔阳区"
        }
    },
    {
        "id": "7962987639449056473",
        "title": "公共厕所",
        "address": "江西省九江市永修县南津街与新城北大道交叉口正西方向93米左右",
        "tel": "",
        "category": "基础设施:公共设施:公共厕所",
        "type": 0,
        "location": {
            "lat": 29.023509,
            "lng": 115.809699
        },
        "ad_info": {
            "adcode": 360425,
            "province": "江西省",
            "city": "九江市",
            "district": "永修县"
        }
    },
    {
        "id": "2552339673487287417",
        "title": "公共厕所",
        "address": "江西省九江市庐山市大林路2号",
        "tel": "",
        "category": "基础设施:公共设施:公共厕所",
        "type": 0,
        "location": {
            "lat": 29.569612,
            "lng": 115.980183
        },
        "ad_info": {
            "adcode": 360483,
            "province": "江西省",
            "city": "九江市",
            "district": "庐山市"
        }
    },
    {
        "id": "8492391898842803955",
        "title": "公共厕所",
        "address": "江西省九江市濂溪区华发路与瑞华路交叉口东北方向88米左右",
        "tel": "",
        "category": "基础设施:公共设施:公共厕所",
        "type": 0,
        "location": {
            "lat": 29.701577,
            "lng": 115.941925
        },
        "ad_info": {
            "adcode": 360402,
            "province": "江西省",
            "city": "九江市",
            "district": "濂溪区"
        }
    },
    {
        "id": "12809302437115321981",
        "title": "公共厕所",
        "address": "江西省九江市濂溪区九棉二厂宿舍东侧90米",
        "tel": "",
        "category": "基础设施:公共设施:公共厕所",
        "type": 0,
        "location": {
            "lat": 29.66506,
            "lng": 116.008642
        },
        "ad_info": {
            "adcode": 360402,
            "province": "江西省",
            "city": "九江市",
            "district": "濂溪区"
        }
    },
    {
        "id": "4865313120454876854",
        "title": "公共厕所",
        "address": "江西省九江市柴桑区贤母路中国石油(东泉路)",
        "tel": "",
        "category": "基础设施:公共设施:公共厕所",
        "type": 0,
        "location": {
            "lat": 29.61844,
            "lng": 115.910043
        },
        "ad_info": {
            "adcode": 360404,
            "province": "江西省",
            "city": "九江市",
            "district": "柴桑区"
        }
    },
    {
        "id": "4419771036696002767",
        "title": "公共厕所",
        "address": "江西省九江市都昌县万里大道辅路与幸运路交叉口正北方向401米左右",
        "tel": "",
        "category": "基础设施:公共设施:公共厕所",
        "type": 0,
        "location": {
            "lat": 29.283243,
            "lng": 116.197629
        },
        "ad_info": {
            "adcode": 360428,
            "province": "江西省",
            "city": "九江市",
            "district": "都昌县"
        }
    },
    {
        "id": "14132840410999834893",
        "title": "公共厕所",
        "address": "江西省九江市柴桑区渊明大道瑞景新城",
        "tel": "",
        "category": "基础设施:公共设施:公共厕所",
        "type": 0,
        "location": {
            "lat": 29.619266,
            "lng": 115.899972
        },
        "ad_info": {
            "adcode": 360404,
            "province": "江西省",
            "city": "九江市",
            "district": "柴桑区"
        }
    },
    {
        "id": "16808120575221039220",
        "title": "公共厕所",
        "address": "江西省九江市浔阳区三马路巷道与北径路交叉口东北方向26米左右",
        "tel": "",
        "category": "基础设施:公共设施:公共厕所",
        "type": 0,
        "location": {
            "lat": 29.720711,
            "lng": 115.976964
        },
        "ad_info": {
            "adcode": 360403,
            "province": "江西省",
            "city": "九江市",
            "district": "浔阳区"
        }
    },
    {
        "id": "9631966092298628366",
        "title": "公共厕所",
        "address": "江西省九江市永修县S306(焦武线)",
        "tel": "",
        "category": "基础设施:公共设施:公共厕所",
        "type": 0,
        "location": {
            "lat": 29.19503,
            "lng": 115.473666
        },
        "ad_info": {
            "adcode": 360425,
            "province": "江西省",
            "city": "九江市",
            "district": "永修县"
        }
    },
    {
        "id": "11777598823378739086",
        "title": "公共厕所",
        "address": "江西省九江市武宁县G220与南皋二桥交叉口正北方向25米左右",
        "tel": "",
        "category": "基础设施:公共设施:公共厕所",
        "type": 0,
        "location": {
            "lat": 29.340672,
            "lng": 115.14918
        },
        "ad_info": {
            "adcode": 360423,
            "province": "江西省",
            "city": "九江市",
            "district": "武宁县"
        }
    },
    {
        "id": "1170512887801382580",
        "title": "公共厕所",
        "address": "江西省九江市浔阳区启航路与长虹西大道辅路交叉口西北120米",
        "tel": "",
        "category": "基础设施:公共设施:公共厕所",
        "type": 0,
        "location": {
            "lat": 29.685154,
            "lng": 115.972581
        },
        "ad_info": {
            "adcode": 360403,
            "province": "江西省",
            "city": "九江市",
            "district": "浔阳区"
        }
    },
    {
        "id": "4747460885532741299",
        "title": "公共厕所",
        "address": "江西省九江市浔阳区三泰二路与长城路交叉口正南方向143米左右",
        "tel": "",
        "category": "基础设施:公共设施:公共厕所",
        "type": 0,
        "location": {
            "lat": 29.709236,
            "lng": 115.975472
        },
        "ad_info": {
            "adcode": 360403,
            "province": "江西省",
            "city": "九江市",
            "district": "浔阳区"
        }
    },
    {
        "id": "10869026259247241403",
        "title": "信义巷公共厕所",
        "address": "江西省九江市湖口县大中路与登山路交叉口正北方向65米左右",
        "tel": "",
        "category": "基础设施:公共设施:公共厕所",
        "type": 0,
        "location": {
            "lat": 29.743006,
            "lng": 116.223846
        },
        "ad_info": {
            "adcode": 360429,
            "province": "江西省",
            "city": "九江市",
            "district": "湖口县"
        }
    },
    {
        "id": "5227624420993268053",
        "title": "公共厕所",
        "address": "江西省九江市浔阳区学府支巷与庐山南路交叉口西南方向307米左右",
        "tel": "",
        "category": "基础设施:公共设施:公共厕所",
        "type": 0,
        "location": {
            "lat": 29.706881,
            "lng": 115.993362
        },
        "ad_info": {
            "adcode": 360403,
            "province": "江西省",
            "city": "九江市",
            "district": "浔阳区"
        }
    },
    {
        "id": "13294670071554256170",
        "title": "公共厕所",
        "address": "江西省九江市都昌县东风大道与广苑路交叉口正南方向45米左右",
        "tel": "",
        "category": "基础设施:公共设施:公共厕所",
        "type": 0,
        "location": {
            "lat": 29.279515,
            "lng": 116.219684
        },
        "ad_info": {
            "adcode": 360428,
            "province": "江西省",
            "city": "九江市",
            "district": "都昌县"
        }
    },
    {
        "id": "11045904896755219961",
        "title": "鄱阳湖服务区公共厕所",
        "address": "江西省九江市都昌县都九高速附近",
        "tel": "",
        "category": "基础设施:公共设施:公共厕所",
        "type": 0,
        "location": {
            "lat": 29.3673,
            "lng": 116.092033
        },
        "ad_info": {
            "adcode": 360428,
            "province": "江西省",
            "city": "九江市",
            "district": "都昌县"
        }
    },
    {
        "id": "2549464796664453272",
        "title": "男卫生间",
        "address": "江西省九江市浔阳区浔阳路57号联盛购物广场F4",
        "tel": "",
        "category": "基础设施:公共设施:男洗手间",
        "type": 0,
        "location": {
            "lat": 29.723618,
            "lng": 115.989758
        },
        "ad_info": {
            "adcode": 360403,
            "province": "江西省",
            "city": "九江市",
            "district": "浔阳区"
        }
    },
    {
        "id": "3858315632096271670",
        "title": "无障碍公共厕所",
        "address": "江西省九江市浔阳区环城路与莲花池路交叉口东北方向112米左右",
        "tel": "",
        "category": "基础设施:公共设施:公共厕所",
        "type": 0,
        "location": {
            "lat": 29.722289,
            "lng": 115.989541
        },
        "ad_info": {
            "adcode": 360403,
            "province": "江西省",
            "city": "九江市",
            "district": "浔阳区"
        }
    },
    {
        "id": "14338791559068064933",
        "title": "永修服务区公共厕所",
        "address": "江西省九江市永修县南昌绕城高速与福银高速交叉口西北方向587米左右",
        "tel": "",
        "category": "基础设施:公共设施:公共厕所",
        "type": 0,
        "location": {
            "lat": 28.967797,
            "lng": 115.810263
        },
        "ad_info": {
            "adcode": 360425,
            "province": "江西省",
            "city": "九江市",
            "district": "永修县"
        }
    },
    {
        "id": "10724441934423168285",
        "title": "公共厕所",
        "address": "江西省九江市庐山市牯岭街22号",
        "tel": "",
        "category": "基础设施:公共设施:公共厕所",
        "type": 0,
        "location": {
            "lat": 29.569085,
            "lng": 115.981791
        },
        "ad_info": {
            "adcode": 360483,
            "province": "江西省",
            "city": "九江市",
            "district": "庐山市"
        }
    },
    {
        "id": "14199848917846070601",
        "title": "公共厕所",
        "address": "江西省九江市修水县芦良大道与黄庭坚大道交叉口正南方向75米左右",
        "tel": "",
        "category": "基础设施:公共设施:公共厕所",
        "type": 0,
        "location": {
            "lat": 29.008547,
            "lng": 114.588458
        },
        "ad_info": {
            "adcode": 360424,
            "province": "江西省",
            "city": "九江市",
            "district": "修水县"
        }
    },
    {
        "id": "1916230294779558994",
        "title": "公共厕所",
        "address": "江西省九江市修水县北门一支路与北门二支路交叉口正北方向106米左右",
        "tel": "",
        "category": "基础设施:公共设施:公共厕所",
        "type": 0,
        "location": {
            "lat": 29.036138,
            "lng": 114.570814
        },
        "ad_info": {
            "adcode": 360424,
            "province": "江西省",
            "city": "九江市",
            "district": "修水县"
        }
    },
    {
        "id": "1924592351346574243",
        "title": "公共厕所",
        "address": "江西省九江市濂溪区前进东路与广西大道支巷交叉口正南方向110米左右",
        "tel": "",
        "category": "基础设施:公共设施:公共厕所",
        "type": 0,
        "location": {
            "lat": 29.667721,
            "lng": 116.008796
        },
        "ad_info": {
            "adcode": 360402,
            "province": "江西省",
            "city": "九江市",
            "district": "濂溪区"
        }
    },
    {
        "id": "8416137997120901782",
        "title": "公共厕所",
        "address": "江西省九江市瑞昌市G220与镇南路交叉口正西方向266米左右",
        "tel": "",
        "category": "基础设施:公共设施:公共厕所",
        "type": 0,
        "location": {
            "lat": 29.81162,
            "lng": 115.59052
        },
        "ad_info": {
            "adcode": 360481,
            "province": "江西省",
            "city": "九江市",
            "district": "瑞昌市"
        }
    },
    {
        "id": "10608054486686276738",
        "title": "公共厕所",
        "address": "江西省九江市武宁县G220与G316交叉口正东方向383米左右",
        "tel": "",
        "category": "基础设施:公共设施:公共厕所",
        "type": 0,
        "location": {
            "lat": 29.437493,
            "lng": 115.213553
        },
        "ad_info": {
            "adcode": 360423,
            "province": "江西省",
            "city": "九江市",
            "district": "武宁县"
        }
    },
    {
        "id": "6155731540843020448",
        "title": "公共厕所",
        "address": "江西省九江市濂溪区九莲北路与德化路交叉口正东方向181米左右",
        "tel": "",
        "category": "基础设施:公共设施:公共厕所",
        "type": 0,
        "location": {
            "lat": 29.686178,
            "lng": 115.993238
        },
        "ad_info": {
            "adcode": 360402,
            "province": "江西省",
            "city": "九江市",
            "district": "濂溪区"
        }
    },
    {
        "id": "15034561521654872048",
        "title": "江西省城乡公共厕所",
        "address": "江西省九江市浔阳区东门口路与浔阳东路交叉口西北方向92米左右",
        "tel": "",
        "category": "基础设施:公共设施:公共厕所",
        "type": 0,
        "location": {
            "lat": 29.721797,
            "lng": 116.00354
        },
        "ad_info": {
            "adcode": 360403,
            "province": "江西省",
            "city": "九江市",
            "district": "浔阳区"
        }
    },
    {
        "id": "18322659498125727544",
        "title": "庐山云天别墅(原蒋经国别墅)-洗手间",
        "address": "江西省九江市庐山市牯岭正街33号(工商银行旁的胡同内)",
        "tel": "",
        "category": "基础设施:公共设施:公共厕所",
        "type": 0,
        "location": {
            "lat": 29.569952,
            "lng": 115.980862
        },
        "ad_info": {
            "adcode": 360483,
            "province": "江西省",
            "city": "九江市",
            "district": "庐山市"
        }
    },
    {
        "id": "751935682570455364",
        "title": "公共厕所",
        "address": "江西省九江市德安县G316与白水街交叉口西北方向869米左右",
        "tel": "",
        "category": "基础设施:公共设施:公共厕所",
        "type": 0,
        "location": {
            "lat": 29.422557,
            "lng": 115.425972
        },
        "ad_info": {
            "adcode": 360426,
            "province": "江西省",
            "city": "九江市",
            "district": "德安县"
        }
    },
    {
        "id": "378443199376816476",
        "title": "公共厕所",
        "address": "江西省九江市都昌县G351与X710交叉口正西方向945米左右",
        "tel": "",
        "category": "基础设施:公共设施:公共厕所",
        "type": 0,
        "location": {
            "lat": 29.378022,
            "lng": 116.55044
        },
        "ad_info": {
            "adcode": 360428,
            "province": "江西省",
            "city": "九江市",
            "district": "都昌县"
        }
    },
    {
        "id": "7311677309245072421",
        "title": "公共厕所",
        "address": "江西省九江市庐山市石门涧景区内",
        "tel": "",
        "category": "基础设施:公共设施:公共厕所",
        "type": 0,
        "location": {
            "lat": 29.555806,
            "lng": 115.949032
        },
        "ad_info": {
            "adcode": 360483,
            "province": "江西省",
            "city": "九江市",
            "district": "庐山市"
        }
    },
    {
        "id": "2521988273364681589",
        "title": "旅游公共厕所",
        "address": "江西省九江市都昌县东坡路与东湖大坝交叉口东南方向1168米左右",
        "tel": "",
        "category": "基础设施:公共设施:公共厕所",
        "type": 0,
        "location": {
            "lat": 29.246967,
            "lng": 116.202301
        },
        "ad_info": {
            "adcode": 360428,
            "province": "江西省",
            "city": "九江市",
            "district": "都昌县"
        }
    },
    {
        "id": "14137123620708840861",
        "title": "公共厕所",
        "address": "江西省九江市浔阳区长江大道397号",
        "tel": "",
        "category": "基础设施:公共设施:公共厕所",
        "type": 0,
        "location": {
            "lat": 29.696809,
            "lng": 115.973142
        },
        "ad_info": {
            "adcode": 360403,
            "province": "江西省",
            "city": "九江市",
            "district": "浔阳区"
        }
    },
    {
        "id": "15312583846437099478",
        "title": "公共厕所",
        "address": "江西省九江市永修县S508与古艾大道交叉口正北方向363米左右",
        "tel": "",
        "category": "基础设施:公共设施:公共厕所",
        "type": 0,
        "location": {
            "lat": 29.110978,
            "lng": 115.796274
        },
        "ad_info": {
            "adcode": 360425,
            "province": "江西省",
            "city": "九江市",
            "district": "永修县"
        }
    },
    {
        "id": "18401816947245471975",
        "title": "公共厕所",
        "address": "江西省九江市武宁县九岭大道与月山路交叉口西南方向75米左右",
        "tel": "",
        "category": "基础设施:公共设施:公共厕所",
        "type": 0,
        "location": {
            "lat": 29.245024,
            "lng": 115.115534
        },
        "ad_info": {
            "adcode": 360423,
            "province": "江西省",
            "city": "九江市",
            "district": "武宁县"
        }
    },
    {
        "id": "11829670227794281051",
        "title": "公共厕所",
        "address": "江西省九江市永修县南全路与香山大道交叉口东北方向37米左右",
        "tel": "",
        "category": "基础设施:公共设施:公共厕所",
        "type": 0,
        "location": {
            "lat": 29.163915,
            "lng": 115.683435
        },
        "ad_info": {
            "adcode": 360425,
            "province": "江西省",
            "city": "九江市",
            "district": "永修县"
        }
    },
    {
        "id": "5314738656925025532",
        "title": "公共厕所",
        "address": "江西省九江市彭泽县狄公路与龙城大道交叉口西北方向35米左右",
        "tel": "",
        "category": "基础设施:公共设施:公共厕所",
        "type": 0,
        "location": {
            "lat": 29.901744,
            "lng": 116.560391
        },
        "ad_info": {
            "adcode": 360430,
            "province": "江西省",
            "city": "九江市",
            "district": "彭泽县"
        }
    },
    {
        "id": "17352526502143342827",
        "title": "公共厕所",
        "address": "江西省九江市修水县S304与沿江大道交叉口西北方向264米左右",
        "tel": "",
        "category": "基础设施:公共设施:公共厕所",
        "type": 0,
        "location": {
            "lat": 29.04104,
            "lng": 114.572492
        },
        "ad_info": {
            "adcode": 360424,
            "province": "江西省",
            "city": "九江市",
            "district": "修水县"
        }
    },
    {
        "id": "14330567384544960225",
        "title": "公共厕所",
        "address": "江西省九江市修水县S304与Y273交叉口东北方向156米左右",
        "tel": "",
        "category": "基础设施:公共设施:公共厕所",
        "type": 0,
        "location": {
            "lat": 29.146931,
            "lng": 114.601897
        },
        "ad_info": {
            "adcode": 360424,
            "province": "江西省",
            "city": "九江市",
            "district": "修水县"
        }
    },
    {
        "id": "3068671409538924321",
        "title": "天海连锁酒店(出口加工区特色店)-洗手间",
        "address": "江西省九江市柴桑区同德路与锦绣大道交叉口正东方向42米左右",
        "tel": "",
        "category": "基础设施:公共设施:公共厕所",
        "type": 0,
        "location": {
            "lat": 29.60362,
            "lng": 115.925282
        },
        "ad_info": {
            "adcode": 360404,
            "province": "江西省",
            "city": "九江市",
            "district": "柴桑区"
        }
    },
    {
        "id": "16231485388706555102",
        "title": "公共厕所",
        "address": "江西省九江市濂溪区上海路与九莲南路交叉口东南方向152米左右",
        "tel": "",
        "category": "基础设施:公共设施:公共厕所",
        "type": 0,
        "location": {
            "lat": 29.673217,
            "lng": 115.997351
        },
        "ad_info": {
            "adcode": 360402,
            "province": "江西省",
            "city": "九江市",
            "district": "濂溪区"
        }
    },
    {
        "id": "9499846326251732272",
        "title": "公共厕所",
        "address": "江西省九江市浔阳区浔阳东路与龙山路交叉口正南方向70米左右",
        "tel": "",
        "category": "基础设施:公共设施:公共厕所",
        "type": 0,
        "location": {
            "lat": 29.723463,
            "lng": 115.998963
        },
        "ad_info": {
            "adcode": 360403,
            "province": "江西省",
            "city": "九江市",
            "district": "浔阳区"
        }
    },
    {
        "id": "9437188667987060997",
        "title": "公共厕所",
        "address": "江西省九江市柴桑区Y061与双瑞线交叉口东南方向103米左右",
        "tel": "",
        "category": "基础设施:公共设施:公共厕所",
        "type": 0,
        "location": {
            "lat": 29.631882,
            "lng": 115.687112
        },
        "ad_info": {
            "adcode": 360404,
            "province": "江西省",
            "city": "九江市",
            "district": "柴桑区"
        }
    },
    {
        "id": "6941328353578354990",
        "title": "公共厕所",
        "address": "江西省九江市浔阳区三里街菜场东支巷与南湖路交叉口东南方向145米左右",
        "tel": "",
        "category": "基础设施:公共设施:公共厕所",
        "type": 0,
        "location": {
            "lat": 29.717292,
            "lng": 116.0141
        },
        "ad_info": {
            "adcode": 360403,
            "province": "江西省",
            "city": "九江市",
            "district": "浔阳区"
        }
    },
    {
        "id": "17931798446800551262",
        "title": "公共厕所",
        "address": "江西省九江市浔阳区人民路590号",
        "tel": "",
        "category": "基础设施:公共设施:公共厕所",
        "type": 0,
        "location": {
            "lat": 29.69724,
            "lng": 115.989545
        },
        "ad_info": {
            "adcode": 360403,
            "province": "江西省",
            "city": "九江市",
            "district": "浔阳区"
        }
    },
    {
        "id": "9053066740022633468",
        "title": "公共厕所",
        "address": "江西省九江市柴桑区S301与双瑞路交叉口正南方向366米左右",
        "tel": "",
        "category": "基础设施:公共设施:公共厕所",
        "type": 0,
        "location": {
            "lat": 29.603199,
            "lng": 115.874022
        },
        "ad_info": {
            "adcode": 360404,
            "province": "江西省",
            "city": "九江市",
            "district": "柴桑区"
        }
    },
    {
        "id": "3651893097882425795",
        "title": "公共厕所",
        "address": "江西省九江市瑞昌市瀼溪西路126号",
        "tel": "",
        "category": "基础设施:公共设施:公共厕所",
        "type": 0,
        "location": {
            "lat": 29.670054,
            "lng": 115.65694
        },
        "ad_info": {
            "adcode": 360481,
            "province": "江西省",
            "city": "九江市",
            "district": "瑞昌市"
        }
    },
    {
        "id": "13554799030758981524",
        "title": "公共厕所",
        "address": "江西省九江市瑞昌市瀼溪东路与赤乌大道交叉口正北方向58米左右",
        "tel": "",
        "category": "基础设施:公共设施:公共厕所",
        "type": 0,
        "location": {
            "lat": 29.676254,
            "lng": 115.672288
        },
        "ad_info": {
            "adcode": 360481,
            "province": "江西省",
            "city": "九江市",
            "district": "瑞昌市"
        }
    },
    {
        "id": "869411458632896312",
        "title": "公共厕所",
        "address": "江西省九江市永修县新城南大道与永丰路交叉口西北方向114米左右",
        "tel": "",
        "category": "基础设施:公共设施:公共厕所",
        "type": 0,
        "location": {
            "lat": 28.994434,
            "lng": 115.806999
        },
        "ad_info": {
            "adcode": 360425,
            "province": "江西省",
            "city": "九江市",
            "district": "永修县"
        }
    },
    {
        "id": "11721070920900987412",
        "title": "公共厕所",
        "address": "江西省九江市湖口县大中路与登山路交叉口正西方向174米左右",
        "tel": "",
        "category": "基础设施:公共设施:公共厕所",
        "type": 0,
        "location": {
            "lat": 29.742722,
            "lng": 116.222192
        },
        "ad_info": {
            "adcode": 360429,
            "province": "江西省",
            "city": "九江市",
            "district": "湖口县"
        }
    },
    {
        "id": "7311677309245072421",
        "title": "公共厕所",
        "address": "江西省九江市庐山市石门涧景区内",
        "tel": "",
        "category": "基础设施:公共设施:公共厕所",
        "type": 0,
        "location": {
            "lat": 29.555806,
            "lng": 115.949032
        },
        "ad_info": {
            "adcode": 360483,
            "province": "江西省",
            "city": "九江市",
            "district": "庐山市"
        }
    },
    {
        "id": "2521988273364681589",
        "title": "旅游公共厕所",
        "address": "江西省九江市都昌县东坡路与东湖大坝交叉口东南方向1168米左右",
        "tel": "",
        "category": "基础设施:公共设施:公共厕所",
        "type": 0,
        "location": {
            "lat": 29.246967,
            "lng": 116.202301
        },
        "ad_info": {
            "adcode": 360428,
            "province": "江西省",
            "city": "九江市",
            "district": "都昌县"
        }
    },
    {
        "id": "14137123620708840861",
        "title": "公共厕所",
        "address": "江西省九江市浔阳区长江大道397号",
        "tel": "",
        "category": "基础设施:公共设施:公共厕所",
        "type": 0,
        "location": {
            "lat": 29.696809,
            "lng": 115.973142
        },
        "ad_info": {
            "adcode": 360403,
            "province": "江西省",
            "city": "九江市",
            "district": "浔阳区"
        }
    },
    {
        "id": "15312583846437099478",
        "title": "公共厕所",
        "address": "江西省九江市永修县S508与古艾大道交叉口正北方向363米左右",
        "tel": "",
        "category": "基础设施:公共设施:公共厕所",
        "type": 0,
        "location": {
            "lat": 29.110978,
            "lng": 115.796274
        },
        "ad_info": {
            "adcode": 360425,
            "province": "江西省",
            "city": "九江市",
            "district": "永修县"
        }
    },
    {
        "id": "18401816947245471975",
        "title": "公共厕所",
        "address": "江西省九江市武宁县九岭大道与月山路交叉口西南方向75米左右",
        "tel": "",
        "category": "基础设施:公共设施:公共厕所",
        "type": 0,
        "location": {
            "lat": 29.245024,
            "lng": 115.115534
        },
        "ad_info": {
            "adcode": 360423,
            "province": "江西省",
            "city": "九江市",
            "district": "武宁县"
        }
    },
    {
        "id": "11829670227794281051",
        "title": "公共厕所",
        "address": "江西省九江市永修县南全路与香山大道交叉口东北方向37米左右",
        "tel": "",
        "category": "基础设施:公共设施:公共厕所",
        "type": 0,
        "location": {
            "lat": 29.163915,
            "lng": 115.683435
        },
        "ad_info": {
            "adcode": 360425,
            "province": "江西省",
            "city": "九江市",
            "district": "永修县"
        }
    },
    {
        "id": "5314738656925025532",
        "title": "公共厕所",
        "address": "江西省九江市彭泽县狄公路与龙城大道交叉口西北方向35米左右",
        "tel": "",
        "category": "基础设施:公共设施:公共厕所",
        "type": 0,
        "location": {
            "lat": 29.901744,
            "lng": 116.560391
        },
        "ad_info": {
            "adcode": 360430,
            "province": "江西省",
            "city": "九江市",
            "district": "彭泽县"
        }
    },
    {
        "id": "17352526502143342827",
        "title": "公共厕所",
        "address": "江西省九江市修水县S304与沿江大道交叉口西北方向264米左右",
        "tel": "",
        "category": "基础设施:公共设施:公共厕所",
        "type": 0,
        "location": {
            "lat": 29.04104,
            "lng": 114.572492
        },
        "ad_info": {
            "adcode": 360424,
            "province": "江西省",
            "city": "九江市",
            "district": "修水县"
        }
    },
    {
        "id": "14330567384544960225",
        "title": "公共厕所",
        "address": "江西省九江市修水县S304与Y273交叉口东北方向156米左右",
        "tel": "",
        "category": "基础设施:公共设施:公共厕所",
        "type": 0,
        "location": {
            "lat": 29.146931,
            "lng": 114.601897
        },
        "ad_info": {
            "adcode": 360424,
            "province": "江西省",
            "city": "九江市",
            "district": "修水县"
        }
    },
    {
        "id": "3068671409538924321",
        "title": "天海连锁酒店(出口加工区特色店)-洗手间",
        "address": "江西省九江市柴桑区同德路与锦绣大道交叉口正东方向42米左右",
        "tel": "",
        "category": "基础设施:公共设施:公共厕所",
        "type": 0,
        "location": {
            "lat": 29.60362,
            "lng": 115.925282
        },
        "ad_info": {
            "adcode": 360404,
            "province": "江西省",
            "city": "九江市",
            "district": "柴桑区"
        }
    },
    {
        "id": "16231485388706555102",
        "title": "公共厕所",
        "address": "江西省九江市濂溪区上海路与九莲南路交叉口东南方向152米左右",
        "tel": "",
        "category": "基础设施:公共设施:公共厕所",
        "type": 0,
        "location": {
            "lat": 29.673217,
            "lng": 115.997351
        },
        "ad_info": {
            "adcode": 360402,
            "province": "江西省",
            "city": "九江市",
            "district": "濂溪区"
        }
    },
    {
        "id": "9499846326251732272",
        "title": "公共厕所",
        "address": "江西省九江市浔阳区浔阳东路与龙山路交叉口正南方向70米左右",
        "tel": "",
        "category": "基础设施:公共设施:公共厕所",
        "type": 0,
        "location": {
            "lat": 29.723463,
            "lng": 115.998963
        },
        "ad_info": {
            "adcode": 360403,
            "province": "江西省",
            "city": "九江市",
            "district": "浔阳区"
        }
    },
    {
        "id": "9437188667987060997",
        "title": "公共厕所",
        "address": "江西省九江市柴桑区Y061与双瑞线交叉口东南方向103米左右",
        "tel": "",
        "category": "基础设施:公共设施:公共厕所",
        "type": 0,
        "location": {
            "lat": 29.631882,
            "lng": 115.687112
        },
        "ad_info": {
            "adcode": 360404,
            "province": "江西省",
            "city": "九江市",
            "district": "柴桑区"
        }
    },
    {
        "id": "6941328353578354990",
        "title": "公共厕所",
        "address": "江西省九江市浔阳区三里街菜场东支巷与南湖路交叉口东南方向145米左右",
        "tel": "",
        "category": "基础设施:公共设施:公共厕所",
        "type": 0,
        "location": {
            "lat": 29.717292,
            "lng": 116.0141
        },
        "ad_info": {
            "adcode": 360403,
            "province": "江西省",
            "city": "九江市",
            "district": "浔阳区"
        }
    },
    {
        "id": "17931798446800551262",
        "title": "公共厕所",
        "address": "江西省九江市浔阳区人民路590号",
        "tel": "",
        "category": "基础设施:公共设施:公共厕所",
        "type": 0,
        "location": {
            "lat": 29.69724,
            "lng": 115.989545
        },
        "ad_info": {
            "adcode": 360403,
            "province": "江西省",
            "city": "九江市",
            "district": "浔阳区"
        }
    },
    {
        "id": "9053066740022633468",
        "title": "公共厕所",
        "address": "江西省九江市柴桑区S301与双瑞路交叉口正南方向366米左右",
        "tel": "",
        "category": "基础设施:公共设施:公共厕所",
        "type": 0,
        "location": {
            "lat": 29.603199,
            "lng": 115.874022
        },
        "ad_info": {
            "adcode": 360404,
            "province": "江西省",
            "city": "九江市",
            "district": "柴桑区"
        }
    },
    {
        "id": "3651893097882425795",
        "title": "公共厕所",
        "address": "江西省九江市瑞昌市瀼溪西路126号",
        "tel": "",
        "category": "基础设施:公共设施:公共厕所",
        "type": 0,
        "location": {
            "lat": 29.670054,
            "lng": 115.65694
        },
        "ad_info": {
            "adcode": 360481,
            "province": "江西省",
            "city": "九江市",
            "district": "瑞昌市"
        }
    },
    {
        "id": "13554799030758981524",
        "title": "公共厕所",
        "address": "江西省九江市瑞昌市瀼溪东路与赤乌大道交叉口正北方向58米左右",
        "tel": "",
        "category": "基础设施:公共设施:公共厕所",
        "type": 0,
        "location": {
            "lat": 29.676254,
            "lng": 115.672288
        },
        "ad_info": {
            "adcode": 360481,
            "province": "江西省",
            "city": "九江市",
            "district": "瑞昌市"
        }
    },
    {
        "id": "869411458632896312",
        "title": "公共厕所",
        "address": "江西省九江市永修县新城南大道与永丰路交叉口西北方向114米左右",
        "tel": "",
        "category": "基础设施:公共设施:公共厕所",
        "type": 0,
        "location": {
            "lat": 28.994434,
            "lng": 115.806999
        },
        "ad_info": {
            "adcode": 360425,
            "province": "江西省",
            "city": "九江市",
            "district": "永修县"
        }
    },
    {
        "id": "11721070920900987412",
        "title": "公共厕所",
        "address": "江西省九江市湖口县大中路与登山路交叉口正西方向174米左右",
        "tel": "",
        "category": "基础设施:公共设施:公共厕所",
        "type": 0,
        "location": {
            "lat": 29.742722,
            "lng": 116.222192
        },
        "ad_info": {
            "adcode": 360429,
            "province": "江西省",
            "city": "九江市",
            "district": "湖口县"
        }
    },
    {
        "id": "7311677309245072421",
        "title": "公共厕所",
        "address": "江西省九江市庐山市石门涧景区内",
        "tel": "",
        "category": "基础设施:公共设施:公共厕所",
        "type": 0,
        "location": {
            "lat": 29.555806,
            "lng": 115.949032
        },
        "ad_info": {
            "adcode": 360483,
            "province": "江西省",
            "city": "九江市",
            "district": "庐山市"
        }
    },
    {
        "id": "2521988273364681589",
        "title": "旅游公共厕所",
        "address": "江西省九江市都昌县东坡路与东湖大坝交叉口东南方向1168米左右",
        "tel": "",
        "category": "基础设施:公共设施:公共厕所",
        "type": 0,
        "location": {
            "lat": 29.246967,
            "lng": 116.202301
        },
        "ad_info": {
            "adcode": 360428,
            "province": "江西省",
            "city": "九江市",
            "district": "都昌县"
        }
    },
    {
        "id": "14137123620708840861",
        "title": "公共厕所",
        "address": "江西省九江市浔阳区长江大道397号",
        "tel": "",
        "category": "基础设施:公共设施:公共厕所",
        "type": 0,
        "location": {
            "lat": 29.696809,
            "lng": 115.973142
        },
        "ad_info": {
            "adcode": 360403,
            "province": "江西省",
            "city": "九江市",
            "district": "浔阳区"
        }
    },
    {
        "id": "15312583846437099478",
        "title": "公共厕所",
        "address": "江西省九江市永修县S508与古艾大道交叉口正北方向363米左右",
        "tel": "",
        "category": "基础设施:公共设施:公共厕所",
        "type": 0,
        "location": {
            "lat": 29.110978,
            "lng": 115.796274
        },
        "ad_info": {
            "adcode": 360425,
            "province": "江西省",
            "city": "九江市",
            "district": "永修县"
        }
    },
    {
        "id": "18401816947245471975",
        "title": "公共厕所",
        "address": "江西省九江市武宁县九岭大道与月山路交叉口西南方向75米左右",
        "tel": "",
        "category": "基础设施:公共设施:公共厕所",
        "type": 0,
        "location": {
            "lat": 29.245024,
            "lng": 115.115534
        },