[
    {
        "id": "8877427024239000901",
        "title": "公共厕所",
        "address": "广东省云浮市新兴县Y284与太平街交叉口正东方向114米左右",
        "tel": "",
        "category": "基础设施:公共设施:公共厕所",
        "type": 0,
        "location": {
            "lat": 22.639848,
            "lng": 112.261079
        },
        "ad_info": {
            "adcode": 445321,
            "province": "广东省",
            "city": "云浮市",
            "district": "新兴县"
        }
    },
    {
        "id": "8879220400856060763",
        "title": "公共厕所",
        "address": "广东省云浮市新兴县广兴大道与惠能北路交叉口东南方向117米左右",
        "tel": "",
        "category": "基础设施:公共设施:公共厕所",
        "type": 0,
        "location": {
            "lat": 22.699238,
            "lng": 112.248274
        },
        "ad_info": {
            "adcode": 445321,
            "province": "广东省",
            "city": "云浮市",
            "district": "新兴县"
        }
    },
    {
        "id": "4075261985477581304",
        "title": "公共厕所",
        "address": "广东省云浮市新兴县环城中路与环城西路交叉口东南方向44米左右",
        "tel": "",
        "category": "基础设施:公共设施:公共厕所",
        "type": 0,
        "location": {
            "lat": 22.695932,
            "lng": 112.227041
        },
        "ad_info": {
            "adcode": 445321,
            "province": "广东省",
            "city": "云浮市",
            "district": "新兴县"
        }
    },
    {
        "id": "2577958571706439282",
        "title": "公共厕所",
        "address": "广东省云浮市新兴县建设南路与果园路交叉口正东方向42米左右",
        "tel": "",
        "category": "基础设施:公共设施:公共厕所",
        "type": 0,
        "location": {
            "lat": 22.691252,
            "lng": 112.227385
        },
        "ad_info": {
            "adcode": 445321,
            "province": "广东省",
            "city": "云浮市",
            "district": "新兴县"
        }
    },
    {
        "id": "17500956959311656189",
        "title": "公共厕所",
        "address": "广东省云浮市新兴县东堤南路与六祖大道交叉口东北方向167米左右",
        "tel": "",
        "category": "基础设施:公共设施:公共厕所",
        "type": 0,
        "location": {
            "lat": 22.670316,
            "lng": 112.226103
        },
        "ad_info": {
            "adcode": 445321,
            "province": "广东省",
            "city": "云浮市",
            "district": "新兴县"
        }
    },
    {
        "id": "13539632271214285443",
        "title": "公共厕所",
        "address": "广东省云浮市云城区兴云东路与翠石路交叉口正西方向63米左右",
        "tel": "",
        "category": "基础设施:公共设施:公共厕所",
        "type": 0,
        "location": {
            "lat": 22.934676,
            "lng": 112.051135
        },
        "ad_info": {
            "adcode": 445302,
            "province": "广东省",
            "city": "云浮市",
            "district": "云城区"
        }
    },
    {
        "id": "9672708322769538206",
        "title": "公共厕所",
        "address": "广东省云浮市云城区富华北路9号",
        "tel": "",
        "category": "基础设施:公共设施:公共厕所",
        "type": 0,
        "location": {
            "lat": 22.917586,
            "lng": 112.036073
        },
        "ad_info": {
            "adcode": 445302,
            "province": "广东省",
            "city": "云浮市",
            "district": "云城区"
        }
    },
    {
        "id": "12497122650621958302",
        "title": "公共厕所",
        "address": "广东省云浮市云城区城基路与解放东路交叉口东南方向24米左右",
        "tel": "",
        "category": "基础设施:公共设施:公共厕所",
        "type": 0,
        "location": {
            "lat": 22.929366,
            "lng": 112.043946
        },
        "ad_info": {
            "adcode": 445302,
            "province": "广东省",
            "city": "云浮市",
            "district": "云城区"
        }
    },
    {
        "id": "2480929824575712142",
        "title": "公共厕所",
        "address": "广东省云浮市云城区翠玉一路益华国际广场",
        "tel": "",
        "category": "基础设施:公共设施:公共厕所",
        "type": 0,
        "location": {
            "lat": 22.933547,
            "lng": 112.049619
        },
        "ad_info": {
            "adcode": 445302,
            "province": "广东省",
            "city": "云浮市",
            "district": "云城区"
        }
    },
    {
        "id": "17549882340835212621",
        "title": "公共厕所",
        "address": "广东省云浮市云城区湖边路与解放东路交叉口正东方向33米左右",
        "tel": "",
        "category": "基础设施:公共设施:公共厕所",
        "type": 0,
        "location": {
            "lat": 22.930751,
            "lng": 112.045984
        },
        "ad_info": {
            "adcode": 445302,
            "province": "广东省",
            "city": "云浮市",
            "district": "云城区"
        }
    },
    {
        "id": "5255636601289478272",
        "title": "公共厕所",
        "address": "广东省云浮市云城区城南路云浮人民广场(东北角)",
        "tel": "",
        "category": "基础设施:公共设施:公共厕所",
        "type": 0,
        "location": {
            "lat": 22.918369,
            "lng": 112.045031
        },
        "ad_info": {
            "adcode": 445302,
            "province": "广东省",
            "city": "云浮市",
            "district": "云城区"
        }
    },
    {
        "id": "6486956981088244300",
        "title": "公共厕所",
        "address": "广东省云浮市罗定市增智巷与工业二路交叉口东北方向36米左右",
        "tel": "",
        "category": "基础设施:公共设施:公共厕所",
        "type": 0,
        "location": {
            "lat": 22.766685,
            "lng": 111.585077
        },
        "ad_info": {
            "adcode": 445381,
            "province": "广东省",
            "city": "云浮市",
            "district": "罗定市"
        }
    },
    {
        "id": "7830451307845161458",
        "title": "公共厕所",
        "address": "广东省云浮市云城区环市中路与金马路交叉口正北方向277米左右",
        "tel": "",
        "category": "基础设施:公共设施:公共厕所",
        "type": 0,
        "location": {
            "lat": 22.938445,
            "lng": 112.027244
        },
        "ad_info": {
            "adcode": 445302,
            "province": "广东省",
            "city": "云浮市",
            "district": "云城区"
        }
    },
    {
        "id": "17824435284199220555",
        "title": "公共厕所",
        "address": "广东省云浮市新兴县兴南路与教育路交叉口正北方向26米左右",
        "tel": "",
        "category": "基础设施:公共设施:公共厕所",
        "type": 0,
        "location": {
            "lat": 22.686183,
            "lng": 112.23015
        },
        "ad_info": {
            "adcode": 445321,
            "province": "广东省",
            "city": "云浮市",
            "district": "新兴县"
        }
    },
    {
        "id": "14702845673413152111",
        "title": "公共厕所",
        "address": "广东省云浮市云城区光明路与府前路交叉口正北方向62米左右",
        "tel": "",
        "category": "基础设施:公共设施:公共厕所",
        "type": 0,
        "location": {
            "lat": 22.956615,
            "lng": 112.116137
        },
        "ad_info": {
            "adcode": 445302,
            "province": "广东省",
            "city": "云浮市",
            "district": "云城区"
        }
    },
    {
        "id": "4261296275846127842",
        "title": "公共厕所",
        "address": "广东省云浮市云城区岩前路与星岩一路交叉口正西方向50米左右",
        "tel": "",
        "category": "基础设施:公共设施:公共厕所",
        "type": 0,
        "location": {
            "lat": 22.933893,
            "lng": 112.044072
        },
        "ad_info": {
            "adcode": 445302,
            "province": "广东省",
            "city": "云浮市",
            "district": "云城区"
        }
    },
    {
        "id": "8314310327567160024",
        "title": "公共厕所",
        "address": "广东省云浮市云城区屏峰路与新平路交叉口东南方向76米左右",
        "tel": "",
        "category": "基础设施:公共设施:公共厕所",
        "type": 0,
        "location": {
            "lat": 22.928813,
            "lng": 112.029394
        },
        "ad_info": {
            "adcode": 445302,
            "province": "广东省",
            "city": "云浮市",
            "district": "云城区"
        }
    },
    {
        "id": "14592508143905275005",
        "title": "公共厕所",
        "address": "广东省云浮市云城区建设北路与珊瑚路交叉口正东方向20米左右",
        "tel": "",
        "category": "基础设施:公共设施:公共厕所",
        "type": 0,
        "location": {
            "lat": 22.939031,
            "lng": 112.044485
        },
        "ad_info": {
            "adcode": 445302,
            "province": "广东省",
            "city": "云浮市",
            "district": "云城区"
        }
    },
    {
        "id": "12032908407471397197",
        "title": "公共厕所",
        "address": "广东省云浮市罗定市园前路46号",
        "tel": "",
        "category": "基础设施:公共设施:公共厕所",
        "type": 0,
        "location": {
            "lat": 22.766838,
            "lng": 111.57219
        },
        "ad_info": {
            "adcode": 445381,
            "province": "广东省",
            "city": "云浮市",
            "district": "罗定市"
        }
    },
    {
        "id": "4267343647943680948",
        "title": "公共厕所",
        "address": "广东省云浮市云城区九记电器(星岩二路店)",
        "tel": "",
        "category": "基础设施:公共设施:公共厕所",
        "type": 0,
        "location": {
            "lat": 22.937501,
            "lng": 112.043292
        },
        "ad_info": {
            "adcode": 445302,
            "province": "广东省",
            "city": "云浮市",
            "district": "云城区"
        }
    },
    {
        "id": "11162301712725786322",
        "title": "公共厕所",
        "address": "广东省云浮市云城区天平路与星岩一路交叉口西南方向48米左右",
        "tel": "",
        "category": "基础设施:公共设施:公共厕所",
        "type": 0,
        "location": {
            "lat": 22.932894,
            "lng": 112.044623
        },
        "ad_info": {
            "adcode": 445302,
            "province": "广东省",
            "city": "云浮市",
            "district": "云城区"
        }
    },
    {
        "id": "66107616897597236",
        "title": "公共厕所",
        "address": "广东省云浮市新兴县S276(旧)",
        "tel": "",
        "category": "基础设施:公共设施:公共厕所",
        "type": 0,
        "location": {
            "lat": 22.594653,
            "lng": 112.216154
        },
        "ad_info": {
            "adcode": 445321,
            "province": "广东省",
            "city": "云浮市",
            "district": "新兴县"
        }
    },
    {
        "id": "8275046715095729183",
        "title": "公共厕所",
        "address": "广东省云浮市罗定市工业一路与莲池东街交叉口正南方向164米左右",
        "tel": "",
        "category": "基础设施:公共设施:公共厕所",
        "type": 0,
        "location": {
            "lat": 22.763048,
            "lng": 111.576686
        },
        "ad_info": {
            "adcode": 445381,
            "province": "广东省",
            "city": "云浮市",
            "district": "罗定市"
        }
    },
    {
        "id": "2502475083982318229",
        "title": "公共厕所",
        "address": "广东省云浮市罗定市Y967与龙华西路交叉口正西方向238米左右",
        "tel": "",
        "category": "基础设施:公共设施:公共厕所",
        "type": 0,
        "location": {
            "lat": 22.752554,
            "lng": 111.563331
        },
        "ad_info": {
            "adcode": 445381,
            "province": "广东省",
            "city": "云浮市",
            "district": "罗定市"
        }
    },
    {
        "id": "2874238056069228968",
        "title": "公共厕所",
        "address": "广东省云浮市罗定市海泉湾水疗会所西北侧",
        "tel": "",
        "category": "基础设施:公共设施:公共厕所",
        "type": 0,
        "location": {
            "lat": 22.778294,
            "lng": 111.61982
        },
        "ad_info": {
            "adcode": 445381,
            "province": "广东省",
            "city": "云浮市",
            "district": "罗定市"
        }
    },
    {
        "id": "768069628740274907",
        "title": "公共厕所",
        "address": "广东省云浮市郁南县中山二路与中山路交叉口正北方向74米左右",
        "tel": "",
        "category": "基础设施:公共设施:公共厕所",
        "type": 0,
        "location": {
            "lat": 23.235442,
            "lng": 111.535973
        },
        "ad_info": {
            "adcode": 445322,
            "province": "广东省",
            "city": "云浮市",
            "district": "郁南县"
        }
    },
    {
        "id": "8766067735392799617",
        "title": "公共厕所",
        "address": "广东省云浮市罗定市Y966与迎宾路交叉口西北方向168米左右",
        "tel": "",
        "category": "基础设施:公共设施:公共厕所",
        "type": 0,
        "location": {
            "lat": 22.73622,
            "lng": 111.59366
        },
        "ad_info": {
            "adcode": 445381,
            "province": "广东省",
            "city": "云浮市",
            "district": "罗定市"
        }
    },
    {
        "id": "1126467077254096931",
        "title": "公共厕所",
        "address": "广东省云浮市罗定市人民中路与人民南路交叉口东北方向43米左右",
        "tel": "",
        "category": "基础设施:公共设施:公共厕所",
        "type": 0,
        "location": {
            "lat": 22.764292,
            "lng": 111.575693
        },
        "ad_info": {
            "adcode": 445381,
            "province": "广东省",
            "city": "云浮市",
            "district": "罗定市"
        }
    },
    {
        "id": "2009691896833993215",
        "title": "公共厕所",
        "address": "广东省云浮市罗定市泷洲北路与祥华路交叉口东南方向48米左右",
        "tel": "",
        "category": "基础设施:公共设施:公共厕所",
        "type": 0,
        "location": {
            "lat": 22.772569,
            "lng": 111.580074
        },
        "ad_info": {
            "adcode": 445381,
            "province": "广东省",
            "city": "云浮市",
            "district": "罗定市"
        }
    },
    {
        "id": "8521850332927078469",
        "title": "公共厕所",
        "address": "广东省云浮市罗定市泷州中路与黄屋一巷交叉口正西方向50米左右",
        "tel": "",
        "category": "基础设施:公共设施:公共厕所",
        "type": 0,
        "location": {
            "lat": 22.768475,
            "lng": 111.578634
        },
        "ad_info": {
            "adcode": 445381,
            "province": "广东省",
            "city": "云浮市",
            "district": "罗定市"
        }
    },
    {
        "id": "377336862057767867",
        "title": "公共厕所",
        "address": "广东省云浮市罗定市佛牛塘一巷罗定人民体育场",
        "tel": "",
        "category": "基础设施:公共设施:公共厕所",
        "type": 0,
        "location": {
            "lat": 22.769037,
            "lng": 111.581572
        },
        "ad_info": {
            "adcode": 445381,
            "province": "广东省",
            "city": "云浮市",
            "district": "罗定市"
        }
    },
    {
        "id": "3348576072085114150",
        "title": "公共厕所",
        "address": "广东省云浮市罗定市园前路与龙园西路交叉口正东方向123米左右",
        "tel": "",
        "category": "基础设施:公共设施:公共厕所",
        "type": 0,
        "location": {
            "lat": 22.76698,
            "lng": 111.574589
        },
        "ad_info": {
            "adcode": 445381,
            "province": "广东省",
            "city": "云浮市",
            "district": "罗定市"
        }
    },
    {
        "id": "4612258975001708659",
        "title": "公共厕所",
        "address": "广东省云浮市罗定市大木塘二路与黄屋一巷交叉口西北方向184米左右",
        "tel": "",
        "category": "基础设施:公共设施:公共厕所",
        "type": 0,
        "location": {
            "lat": 22.768935,
            "lng": 111.575657
        },
        "ad_info": {
            "adcode": 445381,
            "province": "广东省",
            "city": "云浮市",
            "district": "罗定市"
        }
    },
    {
        "id": "540638766215711826",
        "title": "公共厕所",
        "address": "广东省云浮市罗定市祥发中路与祥发路交叉口东南方向99米左右",
        "tel": "",
        "category": "基础设施:公共设施:公共厕所",
        "type": 0,
        "location": {
            "lat": 22.747595,
            "lng": 111.754684
        },
        "ad_info": {
            "adcode": 445381,
            "province": "广东省",
            "city": "云浮市",
            "district": "罗定市"
        }
    },
    {
        "id": "10753090029617357079",
        "title": "公共厕所",
        "address": "广东省云浮市郁南县四一八路与飞凤路交叉口正南方向15米左右",
        "tel": "",
        "category": "基础设施:公共设施:公共厕所",
        "type": 0,
        "location": {
            "lat": 23.233864,
            "lng": 111.527164
        },
        "ad_info": {
            "adcode": 445322,
            "province": "广东省",
            "city": "云浮市",
            "district": "郁南县"
        }
    },
    {
        "id": "17034518586427839337",
        "title": "天堂镇停车区公共厕所",
        "address": "广东省云浮市新兴县天堂镇停车区与S14汕湛高速交叉口西南340米",
        "tel": "",
        "category": "基础设施:公共设施:公共厕所",
        "type": 0,
        "location": {
            "lat": 22.55748,
            "lng": 112.046013
        },
        "ad_info": {
            "adcode": 445321,
            "province": "广东省",
            "city": "云浮市",
            "district": "新兴县"
        }
    },
    {
        "id": "3067961295649015274",
        "title": "公共厕所",
        "address": "广东省云浮市郁南县中山路与幸福路交叉口东北方向57米左右",
        "tel": "",
        "category": "基础设施:公共设施:公共厕所",
        "type": 0,
        "location": {
            "lat": 23.23356,
            "lng": 111.534442
        },
        "ad_info": {
            "adcode": 445322,
            "province": "广东省",
            "city": "云浮市",
            "district": "郁南县"
        }
    },
    {
        "id": "15859717833050931087",
        "title": "公共厕所",
        "address": "广东省云浮市郁南县建城镇地心小学东南侧110米",
        "tel": "",
        "category": "基础设施:公共设施:公共厕所",
        "type": 0,
        "location": {
            "lat": 23.163026,
            "lng": 111.644103
        },
        "ad_info": {
            "adcode": 445322,
            "province": "广东省",
            "city": "云浮市",
            "district": "郁南县"
        }
    },
    {
        "id": "1074912255523416553",
        "title": "公共厕所",
        "address": "广东省云浮市郁南县中山二路与中山路交叉口正南方向41米左右",
        "tel": "",
        "category": "基础设施:公共设施:公共厕所",
        "type": 0,
        "location": {
            "lat": 23.234412,
            "lng": 111.535759
        },
        "ad_info": {
            "adcode": 445322,
            "province": "广东省",
            "city": "云浮市",
            "district": "郁南县"
        }
    },
    {
        "id": "1815849404401051486",
        "title": "公共厕所",
        "address": "广东省云浮市罗定市G324与Y960交叉口东南方向332米左右",
        "tel": "",
        "category": "基础设施:公共设施:公共厕所",
        "type": 0,
        "location": {
            "lat": 22.713682,
            "lng": 111.636422
        },
        "ad_info": {
            "adcode": 445381,
            "province": "广东省",
            "city": "云浮市",
            "district": "罗定市"
        }
    },
    {
        "id": "13562445052471405370",
        "title": "公共厕所",
        "address": "广东省云浮市郁南县木英副食商店东北侧180米",
        "tel": "",
        "category": "基础设施:公共设施:公共厕所",
        "type": 0,
        "location": {
            "lat": 22.843739,
            "lng": 111.572815
        },
        "ad_info": {
            "adcode": 445322,
            "province": "广东省",
            "city": "云浮市",
            "district": "郁南县"
        }
    },
    {
        "id": "10914561050581508463",
        "title": "公共厕所",
        "address": "广东省云浮市罗定市围底镇中心小学莲塘头教学点东侧260米",
        "tel": "",
        "category": "基础设施:公共设施:公共厕所",
        "type": 0,
        "location": {
            "lat": 22.700449,
            "lng": 111.692434
        },
        "ad_info": {
            "adcode": 445381,
            "province": "广东省",
            "city": "云浮市",
            "district": "罗定市"
        }
    },
    {
        "id": "9849225895001863486",
        "title": "公共厕所",
        "address": "广东省云浮市罗定市人民北路与北角路交叉口正北方向296米左右",
        "tel": "",
        "category": "基础设施:公共设施:公共厕所",
        "type": 0,
        "location": {
            "lat": 22.775237,
            "lng": 111.564864
        },
        "ad_info": {
            "adcode": 445381,
            "province": "广东省",
            "city": "云浮市",
            "district": "罗定市"
        }
    },
    {
        "id": "14525268459451729221",
        "title": "公共厕所",
        "address": "广东省云浮市罗定市G324与Y041交叉口东北方向237米左右",
        "tel": "",
        "category": "基础设施:公共设施:公共厕所",
        "type": 0,
        "location": {
            "lat": 22.802671,
            "lng": 111.474462
        },
        "ad_info": {
            "adcode": 445381,
            "province": "广东省",
            "city": "云浮市",
            "district": "罗定市"
        }
    },
    {
        "id": "5395674035885519405",
        "title": "长坑公厕",
        "address": "广东省云浮市新兴县",
        "tel": "",
        "category": "基础设施:公共设施:公共厕所",
        "type": 0,
        "location": {
            "lat": 22.611802,
            "lng": 112.129995
        },
        "ad_info": {
            "adcode": 445321,
            "province": "广东省",
            "city": "云浮市",
            "district": "新兴县"
        }
    },
    {
        "id": "2211245230179948936",
        "title": "杉坑公厕",
        "address": "广东省云浮市新兴县",
        "tel": "",
        "category": "基础设施:公共设施:公共厕所",
        "type": 0,
        "location": {
            "lat": 22.636492,
            "lng": 112.150327
        },
        "ad_info": {
            "adcode": 445321,
            "province": "广东省",
            "city": "云浮市",
            "district": "新兴县"
        }
    },
    {
        "id": "13083829097797733314",
        "title": "下龙门公厕",
        "address": "广东省云浮市新兴县X484",
        "tel": "",
        "category": "基础设施:公共设施:公共厕所",
        "type": 0,
        "location": {
            "lat": 22.546894,
            "lng": 112.165549
        },
        "ad_info": {
            "adcode": 445321,
            "province": "广东省",
            "city": "云浮市",
            "district": "新兴县"
        }
    },
    {
        "id": "17396257307673600233",
        "title": "高溪村公厕",
        "address": "广东省云浮市新兴县X484",
        "tel": "",
        "category": "基础设施:公共设施:公共厕所",
        "type": 0,
        "location": {
            "lat": 22.537369,
            "lng": 112.150932
        },
        "ad_info": {
            "adcode": 445321,
            "province": "广东省",
            "city": "云浮市",
            "district": "新兴县"
        }
    },
    {
        "id": "428930925061373164",
        "title": "新冲公厕",
        "address": "广东省云浮市新兴县X484",
        "tel": "",
        "category": "基础设施:公共设施:公共厕所",
        "type": 0,
        "location": {
            "lat": 22.560434,
            "lng": 112.153133
        },
        "ad_info": {
            "adcode": 445321,
            "province": "广东省",
            "city": "云浮市",
            "district": "新兴县"
        }
    },
    {
        "id": "9161272823113727819",
        "title": "山口村公厕",
        "address": "广东省云浮市新兴县",
        "tel": "",
        "category": "基础设施:公共设施:公共厕所",
        "type": 0,
        "location": {
            "lat": 22.621237,
            "lng": 112.179844
        },
        "ad_info": {
            "adcode": 445321,
            "province": "广东省",
            "city": "云浮市",
            "district": "新兴县"
        }
    },
    {
        "id": "17019023208941102116",
        "title": "上龙门公厕",
        "address": "广东省云浮市新兴县X484",
        "tel": "",
        "category": "基础设施:公共设施:公共厕所",
        "type": 0,
        "location": {
            "lat": 22.547313,
            "lng": 112.167376
        },
        "ad_info": {
            "adcode": 445321,
            "province": "广东省",
            "city": "云浮市",
            "district": "新兴县"
        }
    },
    {
        "id": "16827867238628282147",
        "title": "古伦村公厕",
        "address": "广东省云浮市新兴县X484",
        "tel": "",
        "category": "基础设施:公共设施:公共厕所",
        "type": 0,
        "location": {
            "lat": 22.578324,
            "lng": 112.16074
        },
        "ad_info": {
            "adcode": 445321,
            "province": "广东省",
            "city": "云浮市",
            "district": "新兴县"
        }
    },
    {
        "id": "2632070001636971009",
        "title": "龙门村公厕",
        "address": "广东省云浮市新兴县X484",
        "tel": "",
        "category": "基础设施:公共设施:公共厕所",
        "type": 0,
        "location": {
            "lat": 22.547009,
            "lng": 112.161695
        },
        "ad_info": {
            "adcode": 445321,
            "province": "广东省",
            "city": "云浮市",
            "district": "新兴县"
        }
    },
    {
        "id": "8968448757858320569",
        "title": "田表公厕",
        "address": "广东省云浮市新兴县",
        "tel": "",
        "category": "基础设施:公共设施:公共厕所",
        "type": 0,
        "location": {
            "lat": 22.594695,
            "lng": 112.137687
        },
        "ad_info": {
            "adcode": 445321,
            "province": "广东省",
            "city": "云浮市",
            "district": "新兴县"
        }
    },
    {
        "id": "1984699988273937332",
        "title": "龙岗村公厕",
        "address": "广东省云浮市新兴县S274",
        "tel": "",
        "category": "基础设施:公共设施:公共厕所",
        "type": 0,
        "location": {
            "lat": 22.603437,
            "lng": 112.188565
        },
        "ad_info": {
            "adcode": 445321,
            "province": "广东省",
            "city": "云浮市",
            "district": "新兴县"
        }
    },
    {
        "id": "839732185496038676",
        "title": "梧村公厕",
        "address": "广东省云浮市新兴县",
        "tel": "",
        "category": "基础设施:公共设施:公共厕所",
        "type": 0,
        "location": {
            "lat": 22.618125,
            "lng": 112.194824
        },
        "ad_info": {
            "adcode": 445321,
            "province": "广东省",
            "city": "云浮市",
            "district": "新兴县"
        }
    },
    {
        "id": "10029242792021758665",
        "title": "茶园公厕",
        "address": "广东省云浮市新兴县",
        "tel": "",
        "category": "基础设施:公共设施:公共厕所",
        "type": 0,
        "location": {
            "lat": 22.595477,
            "lng": 112.146524
        },
        "ad_info": {
            "adcode": 445321,
            "province": "广东省",
            "city": "云浮市",
            "district": "新兴县"
        }
    },
    {
        "id": "12295206505635007721",
        "title": "黄田公厕",
        "address": "广东省云浮市新兴县",
        "tel": "",
        "category": "基础设施:公共设施:公共厕所",
        "type": 0,
        "location": {
            "lat": 22.602845,
            "lng": 112.17318
        },
        "ad_info": {
            "adcode": 445321,
            "province": "广东省",
            "city": "云浮市",
            "district": "新兴县"
        }
    },
    {
        "id": "17294830687990113032",
        "title": "公共厕所",
        "address": "广东省云浮市云城区环市中路与聚福路交叉口正南方向125米左右",
        "tel": "",
        "category": "基础设施:公共设施:公共厕所",
        "type": 0,
        "location": {
            "lat": 22.953492,
            "lng": 112.040544
        },
        "ad_info": {
            "adcode": 445302,
            "province": "广东省",
            "city": "云浮市",
            "district": "云城区"
        }
    },
    {
        "id": "7164798580605832328",
        "title": "公共厕所",
        "address": "广东省云浮市郁南县G234与水口桥交叉口西北方向1307米左右",
        "tel": "",
        "category": "基础设施:公共设施:公共厕所",
        "type": 0,
        "location": {
            "lat": 22.841105,
            "lng": 111.644182
        },
        "ad_info": {
            "adcode": 445322,
            "province": "广东省",
            "city": "云浮市",
            "district": "郁南县"
        }
    },
    {
        "id": "14576056090425816623",
        "title": "公共厕所",
        "address": "广东省云浮市郁南县S279与S294交叉口东北方向34米左右",
        "tel": "",
        "category": "基础设施:公共设施:公共厕所",
        "type": 0,
        "location": {
            "lat": 23.131249,
            "lng": 111.547593
        },
        "ad_info": {
            "adcode": 445322,
            "province": "广东省",
            "city": "云浮市",
            "district": "郁南县"
        }
    },
    {
        "id": "6134670993181968565",
        "title": "天堂镇停车区公共厕所",
        "address": "广东省云浮市新兴县天堂镇停车区与S14汕湛高速交叉口西南380米",
        "tel": "",
        "category": "基础设施:公共设施:公共厕所",
        "type": 0,
        "location": {
            "lat": 22.556349,
            "lng": 112.04658
        },
        "ad_info": {
            "adcode": 445321,
            "province": "广东省",
            "city": "云浮市",
            "district": "新兴县"
        }
    },
    {
        "id": "11324372563628846100",
        "title": "公共厕所",
        "address": "广东省云浮市罗定市G324(福昆线)",
        "tel": "",
        "category": "基础设施:公共设施:公共厕所",
        "type": 0,
        "location": {
            "lat": 22.865043,
            "lng": 111.335723
        },
        "ad_info": {
            "adcode": 445381,
            "province": "广东省",
            "city": "云浮市",
            "district": "罗定市"
        }
    },
    {
        "id": "16803461972302679936",
        "title": "上洞大楼公厕",
        "address": "广东省云浮市新兴县佛光路",
        "tel": "",
        "category": "基础设施:公共设施:公共厕所",
        "type": 0,
        "location": {
            "lat": 22.592349,
            "lng": 112.218904
        },
        "ad_info": {
            "adcode": 445321,
            "province": "广东省",
            "city": "云浮市",
            "district": "新兴县"
        }
    },
    {
        "id": "2574572437436735720",
        "title": "清洞村公厕",
        "address": "广东省云浮市新兴县X484",
        "tel": "",
        "category": "基础设施:公共设施:公共厕所",
        "type": 0,
        "location": {
            "lat": 22.587558,
            "lng": 112.165813
        },
        "ad_info": {
            "adcode": 445321,
            "province": "广东省",
            "city": "云浮市",
            "district": "新兴县"
        }
    },
    {
        "id": "12403235896433840447",
        "title": "东朗村公厕",
        "address": "广东省云浮市新兴县",
        "tel": "",
        "category": "基础设施:公共设施:公共厕所",
        "type": 0,
        "location": {
            "lat": 22.634528,
            "lng": 112.164169
        },
        "ad_info": {
            "adcode": 445321,
            "province": "广东省",
            "city": "云浮市",
            "district": "新兴县"
        }
    },
    {
        "id": "1029852688923399806",
        "title": "南蛇岗村公厕",
        "address": "广东省云浮市新兴县",
        "tel": "",
        "category": "基础设施:公共设施:公共厕所",
        "type": 0,
        "location": {
            "lat": 22.62387,
            "lng": 112.180322
        },
        "ad_info": {
            "adcode": 445321,
            "province": "广东省",
            "city": "云浮市",
            "district": "新兴县"
        }
    },
    {
        "id": "16144496250698082223",
        "title": "河郎村公厕",
        "address": "广东省云浮市新兴县",
        "tel": "",
        "category": "基础设施:公共设施:公共厕所",
        "type": 0,
        "location": {
            "lat": 22.532995,
            "lng": 112.163109
        },
        "ad_info": {
            "adcode": 445321,
            "province": "广东省",
            "city": "云浮市",
            "district": "新兴县"
        }
    },
    {
        "id": "4243144440735037815",
        "title": "塘坪村公厕",
        "address": "广东省云浮市新兴县X484",
        "tel": "",
        "category": "基础设施:公共设施:公共厕所",
        "type": 0,
        "location": {
            "lat": 22.537383,
            "lng": 112.164915
        },
        "ad_info": {
            "adcode": 445321,
            "province": "广东省",
            "city": "云浮市",
            "district": "新兴县"
        }
    },
    {
        "id": "10162960333092653162",
        "title": "湴表村公厕",
        "address": "广东省云浮市新兴县X484",
        "tel": "",
        "category": "基础设施:公共设施:公共厕所",
        "type": 0,
        "location": {
            "lat": 22.579787,
            "lng": 112.166739
        },
        "ad_info": {
            "adcode": 445321,
            "province": "广东省",
            "city": "云浮市",
            "district": "新兴县"
        }
    },
    {
        "id": "8947469133828780765",
        "title": "下马脚坑公厕",
        "address": "广东省云浮市新兴县",
        "tel": "",
        "category": "基础设施:公共设施:公共厕所",
        "type": 0,
        "location": {
            "lat": 22.544794,
            "lng": 112.142676
        },
        "ad_info": {
            "adcode": 445321,
            "province": "广东省",
            "city": "云浮市",
            "district": "新兴县"
        }
    },
    {
        "id": "8507303655241973647",
        "title": "剪洞村公厕",
        "address": "广东省云浮市新兴县X484",
        "tel": "",
        "category": "基础设施:公共设施:公共厕所",
        "type": 0,
        "location": {
            "lat": 22.566992,
            "lng": 112.159934
        },
        "ad_info": {
            "adcode": 445321,
            "province": "广东省",
            "city": "云浮市",
            "district": "新兴县"
        }
    },
    {
        "id": "3926055787298949587",
        "title": "湴表村公厕",
        "address": "广东省云浮市新兴县X484",
        "tel": "",
        "category": "基础设施:公共设施:公共厕所",
        "type": 0,
        "location": {
            "lat": 22.579787,
            "lng": 112.166739
        },
        "ad_info": {
            "adcode": 445321,
            "province": "广东省",
            "city": "云浮市",
            "district": "新兴县"
        }
    },
    {
        "id": "17276200940228704317",
        "title": "岗尾村边公厕",
        "address": "广东省云浮市新兴县",
        "tel": "",
        "category": "基础设施:公共设施:公共厕所",
        "type": 0,
        "location": {
            "lat": 22.614177,
            "lng": 112.176007
        },
        "ad_info": {
            "adcode": 445321,
            "province": "广东省",
            "city": "云浮市",
            "district": "新兴县"
        }
    },
    {
        "id": "2161152655143586209",
        "title": "剪洞村公厕",
        "address": "广东省云浮市新兴县X484",
        "tel": "",
        "category": "基础设施:公共设施:公共厕所",
        "type": 0,
        "location": {
            "lat": 22.566992,
            "lng": 112.159934
        },
        "ad_info": {
            "adcode": 445321,
            "province": "广东省",
            "city": "云浮市",
            "district": "新兴县"
        }
    },
    {
        "id": "13434058165517852460",
        "title": "吊船公厕",
        "address": "广东省云浮市新兴县",
        "tel": "",
        "category": "基础设施:公共设施:公共厕所",
        "type": 0,
        "location": {
            "lat": 22.624314,
            "lng": 112.129796
        },
        "ad_info": {
            "adcode": 445321,
            "province": "广东省",
            "city": "云浮市",
            "district": "新兴县"
        }
    },
    {
        "id": "6515385423866461903",
        "title": "上洞公厕",
        "address": "广东省云浮市新兴县S276",
        "tel": "",
        "category": "基础设施:公共设施:公共厕所",
        "type": 0,
        "location": {
            "lat": 22.591117,
            "lng": 112.221818
        },
        "ad_info": {
            "adcode": 445321,
            "province": "广东省",
            "city": "云浮市",
            "district": "新兴县"
        }
    },
    {
        "id": "12394686228296584591",
        "title": "杨家宅村尾公厕",
        "address": "广东省云浮市新兴县",
        "tel": "",
        "category": "基础设施:公共设施:公共厕所",
        "type": 0,
        "location": {
            "lat": 22.542001,
            "lng": 112.194933
        },
        "ad_info": {
            "adcode": 445321,
            "province": "广东省",
            "city": "云浮市",
            "district": "新兴县"
        }
    },
    {
        "id": "2771937237149719501",
        "title": "塘窝水村公厕",
        "address": "广东省云浮市新兴县",
        "tel": "",
        "category": "基础设施:公共设施:公共厕所",
        "type": 0,
        "location": {
            "lat": 22.534442,
            "lng": 112.190226
        },
        "ad_info": {
            "adcode": 445321,
            "province": "广东省",
            "city": "云浮市",
            "district": "新兴县"
        }
    },
    {
        "id": "17218866584968782946",
        "title": "夏卢三组公厕",
        "address": "广东省云浮市新兴县S276(旧)",
        "tel": "",
        "category": "基础设施:公共设施:公共厕所",
        "type": 0,
        "location": {
            "lat": 22.592257,
            "lng": 112.216724
        },
        "ad_info": {
            "adcode": 445321,
            "province": "广东省",
            "city": "云浮市",
            "district": "新兴县"
        }
    },
    {
        "id": "4926635134869752104",
        "title": "西睦居委南公厕",
        "address": "广东省云浮市新兴县X484",
        "tel": "",
        "category": "基础设施:公共设施:公共厕所",
        "type": 0,
        "location": {
            "lat": 22.616158,
            "lng": 112.187293
        },
        "ad_info": {
            "adcode": 445321,
            "province": "广东省",
            "city": "云浮市",
            "district": "新兴县"
        }
    },
    {
        "id": "6189275155423242600",
        "title": "旧马骨村公厕",
        "address": "广东省云浮市新兴县",
        "tel": "",
        "category": "基础设施:公共设施:公共厕所",
        "type": 0,
        "location": {
            "lat": 22.60156,
            "lng": 112.171228
        },
        "ad_info": {
            "adcode": 445321,
            "province": "广东省",
            "city": "云浮市",
            "district": "新兴县"
        }
    },
    {
        "id": "15134822491280639552",
        "title": "湴表村南公厕",
        "address": "广东省云浮市新兴县X484",
        "tel": "",
        "category": "基础设施:公共设施:公共厕所",
        "type": 0,
        "location": {
            "lat": 22.57759,
            "lng": 112.168863
        },
        "ad_info": {
            "adcode": 445321,
            "province": "广东省",
            "city": "云浮市",
            "district": "新兴县"
        }
    },
    {
        "id": "3116652371609481949",
        "title": "夏卢四组公厕",
        "address": "广东省云浮市新兴县S276(旧)",
        "tel": "",
        "category": "基础设施:公共设施:公共厕所",
        "type": 0,
        "location": {
            "lat": 22.592048,
            "lng": 112.216949
        },
        "ad_info": {
            "adcode": 445321,
            "province": "广东省",
            "city": "云浮市",
            "district": "新兴县"
        }
    },
    {
        "id": "2990640749237490708",
        "title": "湴表村北公厕",
        "address": "广东省云浮市新兴县X484",
        "tel": "",
        "category": "基础设施:公共设施:公共厕所",
        "type": 0,
        "location": {
            "lat": 22.579208,
            "lng": 112.169719
        },
        "ad_info": {
            "adcode": 445321,
            "province": "广东省",
            "city": "云浮市",
            "district": "新兴县"
        }
    },
    {
        "id": "7876568013152794647",
        "title": "新冲村委会公厕",
        "address": "广东省云浮市新兴县X484",
        "tel": "",
        "category": "基础设施:公共设施:公共厕所",
        "type": 0,
        "location": {
            "lat": 22.533322,
            "lng": 112.153609
        },
        "ad_info": {
            "adcode": 445321,
            "province": "广东省",
            "city": "云浮市",
            "district": "新兴县"
        }
    },
    {
        "id": "5546739459090142026",
        "title": "岗尾村口公厕",
        "address": "广东省云浮市新兴县",
        "tel": "",
        "category": "基础设施:公共设施:公共厕所",
        "type": 0,
        "location": {
            "lat": 22.611028,
            "lng": 112.17971
        },
        "ad_info": {
            "adcode": 445321,
            "province": "广东省",
            "city": "云浮市",
            "district": "新兴县"
        }
    },
    {
        "id": "16699765799768653021",
        "title": "冼村三组公厕",
        "address": "广东省云浮市新兴县S274",
        "tel": "",
        "category": "基础设施:公共设施:公共厕所",
        "type": 0,
        "location": {
            "lat": 22.603867,
            "lng": 112.186768
        },
        "ad_info": {
            "adcode": 445321,
            "province": "广东省",
            "city": "云浮市",
            "district": "新兴县"
        }
    },
    {
        "id": "16900234690634293383",
        "title": "新马骨村公厕",
        "address": "广东省云浮市新兴县X484",
        "tel": "",
        "category": "基础设施:公共设施:公共厕所",
        "type": 0,
        "location": {
            "lat": 22.597126,
            "lng": 112.175042
        },
        "ad_info": {
            "adcode": 445321,
            "province": "广东省",
            "city": "云浮市",
            "district": "新兴县"
        }
    },
    {
        "id": "7465959620714127610",
        "title": "樟村1、2队公厕",
        "address": "广东省云浮市新兴县",
        "tel": "",
        "category": "基础设施:公共设施:公共厕所",
        "type": 0,
        "location": {
            "lat": 22.598241,
            "lng": 112.230142
        },
        "ad_info": {
            "adcode": 445321,
            "province": "广东省",
            "city": "云浮市",
            "district": "新兴县"
        }
    },
    {
        "id": "13692906438488862731",
        "title": "荔枝岗村公厕",
        "address": "广东省云浮市新兴县",
        "tel": "",
        "category": "基础设施:公共设施:公共厕所",
        "type": 0,
        "location": {
            "lat": 22.625343,
            "lng": 112.163822
        },
        "ad_info": {
            "adcode": 445321,
            "province": "广东省",
            "city": "云浮市",
            "district": "新兴县"
        }
    },
    {
        "id": "16822276703760172751",
        "title": "腾马坑公厕",
        "address": "广东省云浮市新兴县X484",
        "tel": "",
        "category": "基础设施:公共设施:公共厕所",
        "type": 0,
        "location": {
            "lat": 22.544793,
            "lng": 112.160939
        },
        "ad_info": {
            "adcode": 445321,
            "province": "广东省",
            "city": "云浮市",
            "district": "新兴县"
        }
    },
    {
        "id": "1137179446386234876",
        "title": "横水四队公厕",
        "address": "广东省云浮市新兴县",
        "tel": "",
        "category": "基础设施:公共设施:公共厕所",
        "type": 0,
        "location": {
            "lat": 22.63362,
            "lng": 112.168157
        },
        "ad_info": {
            "adcode": 445321,
            "province": "广东省",
            "city": "云浮市",
            "district": "新兴县"
        }
    },
    {
        "id": "10355875814963576793",
        "title": "横水三队公厕",
        "address": "广东省云浮市新兴县",
        "tel": "",
        "category": "基础设施:公共设施:公共厕所",
        "type": 0,
        "location": {
            "lat": 22.632939,
            "lng": 112.168709
        },
        "ad_info": {
            "adcode": 445321,
            "province": "广东省",
            "city": "云浮市",
            "district": "新兴县"
        }
    },
    {
        "id": "15971982931535402085",
        "title": "水湄村文化广场公厕",
        "address": "广东省云浮市新兴县",
        "tel": "",
        "category": "基础设施:公共设施:公共厕所",
        "type": 0,
        "location": {
            "lat": 22.615961,
            "lng": 112.18151
        },
        "ad_info": {
            "adcode": 445321,
            "province": "广东省",
            "city": "云浮市",
            "district": "新兴县"
        }
    },
    {
        "id": "16584174258822250019",
        "title": "公共厕所",
        "address": "广东省云浮市罗定市人民北路与泷江路交叉口东北方向5米左右",
        "tel": "",
        "category": "基础设施:公共设施:公共厕所",
        "type": 0,
        "location": {
            "lat": 22.768782,
            "lng": 111.565037
        },
        "ad_info": {
            "adcode": 445381,
            "province": "广东省",
            "city": "云浮市",
            "district": "罗定市"
        }
    },
    {
        "id": "7143015895078525780",
        "title": "公共厕所",
        "address": "广东省云浮市云安区G324与Y727交叉口东北方向140米左右",
        "tel": "",
        "category": "基础设施:公共设施:公共厕所",
        "type": 0,
        "location": {
            "lat": 22.839692,
            "lng": 111.988142
        },
        "ad_info": {
            "adcode": 445303,
            "province": "广东省",
            "city": "云浮市",
            "district": "云安区"
        }
    },
    {
        "id": "4553718894250496430",
        "title": "夏卢五组公厕",
        "address": "广东省云浮市新兴县佛光路",
        "tel": "",
        "category": "基础设施:公共设施:公共厕所",
        "type": 0,
        "location": {
            "lat": 22.593309,
            "lng": 112.216269
        },
        "ad_info": {
            "adcode": 445321,
            "province": "广东省",
            "city": "云浮市",
            "district": "新兴县"
        }
    },
    {
        "id": "5035832530535959760",
        "title": "夏卢一组公厕",
        "address": "广东省云浮市新兴县S276(旧)",
        "tel": "",
        "category": "基础设施:公共设施:公共厕所",
        "type": 0,
        "location": {
            "lat": 22.589425,
            "lng": 112.215936
        },
        "ad_info": {
            "adcode": 445321,
            "province": "广东省",
            "city": "云浮市",
            "district": "新兴县"
        }
    },
    {
        "id": "10804164399787040285",
        "title": "凯旋大酒店-洗手间",
        "address": "广东省云浮市云城区建设北路11号(与玉皇路交汇处)",
        "tel": "",
        "category": "基础设施:公共设施:公共厕所",
        "type": 0,
        "location": {
            "lat": 22.934922,
            "lng": 112.047374
        },
        "ad_info": {
            "adcode": 445302,
            "province": "广东省",
            "city": "云浮市",
            "district": "云城区"
        }
    },
    {
        "id": "6859238398096053809",
        "title": "金凯莱酒店麦当劳-洗手间",
        "address": "广东省云浮市云城区兴云中路1号",
        "tel": "",
        "category": "基础设施:公共设施:公共厕所",
        "type": 0,
        "location": {
            "lat": 22.932221,
            "lng": 112.048125
        },
        "ad_info": {
            "adcode": 445302,
            "province": "广东省",
            "city": "云浮市",
            "district": "云城区"
        }
    },
    {
        "id": "512393904454447854",
        "title": "公共厕所",
        "address": "广东省云浮市罗定市人民北路与北角路交叉口东南方向49米左右",
        "tel": "",
        "category": "基础设施:公共设施:公共厕所",
        "type": 0,
        "location": {
            "lat": 22.772213,
            "lng": 111.564696
        },
        "ad_info": {
            "adcode": 445381,
            "province": "广东省",
            "city": "云浮市",
            "district": "罗定市"
        }
    },
    {
        "id": "11133278785447333253",
        "title": "安塘服务区第一公共厕所",
        "address": "广东省云浮市云城区石艺路与钱岗路交叉口西北方向205米左右",
        "tel": "",
        "category": "基础设施:公共设施:公共厕所",
        "type": 0,
        "location": {
            "lat": 22.938131,
            "lng": 112.184809
        },
        "ad_info": {
            "adcode": 445302,
            "province": "广东省",
            "city": "云浮市",
            "district": "云城区"
        }
    },
    {
        "id": "7439914872903945447",
        "title": "罗定国际酒店-洗手间",
        "address": "广东省云浮市罗定市人民南路与泷洲南路交叉口西南方向44米左右",
        "tel": "",
        "category": "基础设施:公共设施:公共厕所",
        "type": 0,
        "location": {
            "lat": 22.758749,
            "lng": 111.578749
        },
        "ad_info": {
            "adcode": 445381,
            "province": "广东省",
            "city": "云浮市",
            "district": "罗定市"
        }
    },
    {
        "id": "10193623701860566006",
        "title": "安塘服务区第一公共厕所",
        "address": "广东省云浮市云城区石艺路与钱岗路交叉口正北方向288米左右",
        "tel": "",
        "category": "基础设施:公共设施:公共厕所",
        "type": 0,
        "location": {
            "lat": 22.939368,
            "lng": 112.185863
        },
        "ad_info": {
            "adcode": 445302,
            "province": "广东省",
            "city": "云浮市",
            "district": "云城区"
        }
    },
    {
        "id": "6137999607425687121",
        "title": "公共厕所",
        "address": "广东省云浮市罗定市丽久路42号",
        "tel": "",
        "category": "基础设施:公共设施:公共厕所",
        "type": 0,
        "location": {
            "lat": 22.763364,
            "lng": 111.572054
        },
        "ad_info": {
            "adcode": 445381,
            "province": "广东省",
            "city": "云浮市",
            "district": "罗定市"
        }
    },
    {
        "id": "13415214266056515523",
        "title": "公共洗手间",
        "address": "广东省云浮市罗定市丽久路42号",
        "tel": "",
        "category": "基础设施:公共设施:公共厕所",
        "type": 0,
        "location": {
            "lat": 22.761795,
            "lng": 111.572532
        },
        "ad_info": {
            "adcode": 445381,
            "province": "广东省",
            "city": "云浮市",
            "district": "罗定市"
        }
    },
    {
        "id": "13860031618551685107",
        "title": "附城服务区公共厕所",
        "address": "广东省云浮市罗定市附城街道深罗高速公路附城服务区",
        "tel": "",
        "category": "基础设施:公共设施:公共厕所",
        "type": 0,
        "location": {
            "lat": 22.793397,
            "lng": 111.570743
        },
        "ad_info": {
            "adcode": 445381,
            "province": "广东省",
            "city": "云浮市",
            "district": "罗定市"
        }
    },
    {
        "id": "4052552842347210290",
        "title": "公共厕所",
        "address": "广东省云浮市罗定市黄牛木小学西侧180米",
        "tel": "",
        "category": "基础设施:公共设施:公共厕所",
        "type": 0,
        "location": {
            "lat": 22.647855,
            "lng": 111.609845
        },
        "ad_info": {
            "adcode": 445381,
            "province": "广东省",
            "city": "云浮市",
            "district": "罗定市"
        }
    },
    {
        "id": "17038988952603903",
        "title": "附城服务区公共厕所",
        "address": "广东省云浮市罗定市宝龙路与建业路交叉口正北方向739米左右",
        "tel": "",
        "category": "基础设施:公共设施:公共厕所",
        "type": 0,
        "location": {
            "lat": 22.795047,
            "lng": 111.56893
        },
        "ad_info": {
            "adcode": 445381,
            "province": "广东省",
            "city": "云浮市",
            "district": "罗定市"
        }
    },
    {
        "id": "1984922468890994516",
        "title": "罗平服务区公共厕所",
        "address": "广东省云浮市罗定市广东交通集团汽车充电站(云茂高速罗平东行)北侧70米",
        "tel": "",
        "category": "基础设施:公共设施:公共厕所",
        "type": 0,
        "location": {
            "lat": 22.643348,
            "lng": 111.594925
        },
        "ad_info": {
            "adcode": 445381,
            "province": "广东省",
            "city": "云浮市",
            "district": "罗定市"
        }
    },
    {
        "id": "13445155952690726946",
        "title": "公共厕所",
        "address": "广东省云浮市郁南县光明路与武陵路交叉口正西方向68米左右",
        "tel": "",
        "category": "基础设施:公共设施:公共厕所",
        "type": 0,
        "location": {
            "lat": 23.230845,
            "lng": 111.531558
        },
        "ad_info": {
            "adcode": 445322,
            "province": "广东省",
            "city": "云浮市",
            "district": "郁南县"
        }
    },
    {
        "id": "4497733121082255038",
        "title": "苹塘服务区公共厕所",
        "address": "广东省云浮市罗定市Y823与Y862交叉口西北方向1141米左右",
        "tel": "",
        "category": "基础设施:公共设施:公共厕所",
        "type": 0,
        "location": {
            "lat": 22.764543,
            "lng": 111.753405
        },
        "ad_info": {
            "adcode": 445381,
            "province": "广东省",
            "city": "云浮市",
            "district": "罗定市"
        }
    },
    {
        "id": "7538818912663299939",
        "title": "建城服务区公共厕所",
        "address": "广东省云浮市郁南县S279与中山路交叉口正北方向585米左右",
        "tel": "",
        "category": "基础设施:公共设施:公共厕所",
        "type": 0,
        "location": {
            "lat": 23.148544,
            "lng": 111.544174
        },
        "ad_info": {
            "adcode": 445322,
            "province": "广东省",
            "city": "云浮市",
            "district": "郁南县"
        }
    },
    {
        "id": "9015327574434732520",
        "title": "葵洞服务区公共厕所",
        "address": "广东省云浮市云安区C333与Y673交叉口西南方向1151米左右",
        "tel": "",
        "category": "基础设施:公共设施:公共厕所",
        "type": 0,
        "location": {
            "lat": 22.96859,
            "lng": 111.886431
        },
        "ad_info": {
            "adcode": 445303,
            "province": "广东省",
            "city": "云浮市",
            "district": "云安区"
        }
    },
    {
        "id": "13464376466813227288",
        "title": "华石服务区公共厕所",
        "address": "广东省云浮市罗定市S279与Y957交叉口正南方向1617米左右",
        "tel": "",
        "category": "基础设施:公共设施:公共厕所",
        "type": 0,
        "location": {
            "lat": 22.739031,
            "lng": 111.669385
        },
        "ad_info": {
            "adcode": 445381,
            "province": "广东省",
            "city": "云浮市",
            "district": "罗定市"
        }
    },
    {
        "id": "15270798351068645944",
        "title": "都杨停车区公共厕所",
        "address": "广东省云浮市云安区S14汕湛高速与都杨停车区交叉口东南480米",
        "tel": "",
        "category": "基础设施:公共设施:公共厕所",
        "type": 0,
        "location": {
            "lat": 22.996757,
            "lng": 112.191819
        },
        "ad_info": {
            "adcode": 445303,
            "province": "广东省",
            "city": "云浮市",
            "district": "云安区"
        }
    },
    {
        "id": "364582169767028046",
        "title": "华石服务区公共厕所",
        "address": "广东省云浮市罗定市S51肇阳高速与华石服务区交叉口西北360米",
        "tel": "",
        "category": "基础设施:公共设施:公共厕所",
        "type": 0,
        "location": {
            "lat": 22.73817,
            "lng": 111.667184
        },
        "ad_info": {
            "adcode": 445381,
            "province": "广东省",
            "city": "云浮市",
            "district": "罗定市"
        }
    },
    {
        "id": "2408807383809387885",
        "title": "十亩洞公共厕所",
        "address": "广东省云浮市云安区如意路与康华路交叉口正东方向52米左右",
        "tel": "",
        "category": "基础设施:公共设施:公共厕所",
        "type": 0,
        "location": {
            "lat": 23.072311,
            "lng": 112.003807
        },
        "ad_info": {
            "adcode": 445303,
            "province": "广东省",
            "city": "云浮市",
            "district": "云安区"
        }
    },
    {
        "id": "2616660516230534269",
        "title": "都杨停车区公共厕所",
        "address": "广东省云浮市云安区汕湛高速",
        "tel": "",
        "category": "基础设施:公共设施:公共厕所",
        "type": 0,
        "location": {
            "lat": 22.997231,
            "lng": 112.193374
        },
        "ad_info": {
            "adcode": 445303,
            "province": "广东省",
            "city": "云浮市",
            "district": "云安区"
        }
    },
    {
        "id": "11384120734919350863",
        "title": "旧岗峡村公厕",
        "address": "广东省云浮市新兴县",
        "tel": "",
        "category": "基础设施:公共设施:公共厕所",
        "type": 0,
        "location": {
            "lat": 22.595329,
            "lng": 112.185942
        },
        "ad_info": {
            "adcode": 445321,
            "province": "广东省",
            "city": "云浮市",
            "district": "新兴县"
        }
    },
    {
        "id": "18313103045948409267",
        "title": "高洞村公共厕所",
        "address": "广东省云浮市新兴县",
        "tel": "",
        "category": "基础设施:公共设施:公共厕所",
        "type": 0,
        "location": {
            "lat": 22.555332,
            "lng": 112.225992
        },
        "ad_info": {
            "adcode": 445321,
            "province": "广东省",
            "city": "云浮市",
            "district": "新兴县"
        }
    },
    {
        "id": "421762945277561095",
        "title": "新桔洞公厕",
        "address": "广东省云浮市新兴县X484",
        "tel": "",
        "category": "基础设施:公共设施:公共厕所",
        "type": 0,
        "location": {
            "lat": 22.651286,
            "lng": 112.207325
        },
        "ad_info": {
            "adcode": 445321,
            "province": "广东省",
            "city": "云浮市",
            "district": "新兴县"
        }
    },
    {
        "id": "976702427690432438",
        "title": "冼村一组五组公厕",
        "address": "广东省云浮市新兴县X484",
        "tel": "",
        "category": "基础设施:公共设施:公共厕所",
        "type": 0,
        "location": {
            "lat": 22.603759,
            "lng": 112.183486
        },
        "ad_info": {
            "adcode": 445321,
            "province": "广东省",
            "city": "云浮市",
            "district": "新兴县"
        }
    },
    {
        "id": "4960449500409661877",
        "title": "新宏山公厕",
        "address": "广东省云浮市新兴县",
        "tel": "",
        "category": "基础设施:公共设施:公共厕所",
        "type": 0,
        "location": {
            "lat": 22.606419,
            "lng": 112.1723
        },
        "ad_info": {
            "adcode": 445321,
            "province": "广东省",
            "city": "云浮市",
            "district": "新兴县"
        }
    },
    {
        "id": "18228177362976410039",
        "title": "边洞村公厕",
        "address": "广东省云浮市新兴县S276",
        "tel": "",
        "category": "基础设施:公共设施:公共厕所",
        "type": 0,
        "location": {
            "lat": 22.526034,
            "lng": 112.201097
        },
        "ad_info": {
            "adcode": 445321,
            "province": "广东省",
            "city": "云浮市",
            "district": "新兴县"
        }
    },
    {
        "id": "7863017756247130991",
        "title": "腰岗村公厕",
        "address": "广东省云浮市新兴县",
        "tel": "",
        "category": "基础设施:公共设施:公共厕所",
        "type": 0,
        "location": {
            "lat": 22.578152,
            "lng": 112.18146
        },
        "ad_info": {
            "adcode": 445321,
            "province": "广东省",
            "city": "云浮市",
            "district": "新兴县"
        }
    },
    {
        "id": "4275215389759220936",
        "title": "新兴县六祖镇禾泰农场公共厕所",
        "address": "广东省云浮市新兴县六祖镇禾泰农场荔枝林厕所",
        "tel": "",
        "category": "基础设施:公共设施:公共厕所",
        "type": 0,
        "location": {
            "lat": 22.579593,
            "lng": 112.216941
        },
        "ad_info": {
            "adcode": 445321,
            "province": "广东省",
            "city": "云浮市",
            "district": "新兴县"
        }
    },
    {
        "id": "13612333411141786263",
        "title": "公共厕所",
        "address": "广东省云浮市罗定市光明路与永盛路交叉口西南方向166米左右",
        "tel": "",
        "category": "基础设施:公共设施:公共厕所",
        "type": 0,
        "location": {
            "lat": 22.781163,
            "lng": 111.568463
        },
        "ad_info": {
            "adcode": 445381,
            "province": "广东省",
            "city": "云浮市",
            "district": "罗定市"
        }
    },
    {
        "id": "5652935909964312455",
        "title": "公共厕所",
        "address": "广东省云浮市罗定市沿江四路与白荷路交叉口正南方向34米左右",
        "tel": "",
        "category": "基础设施:公共设施:公共厕所",
        "type": 0,
        "location": {
            "lat": 22.777359,
            "lng": 111.588226
        },
        "ad_info": {
            "adcode": 445381,
            "province": "广东省",
            "city": "云浮市",
            "district": "罗定市"
        }
    },
    {
        "id": "15533081839714152314",
        "title": "许村二队公厕",
        "address": "广东省云浮市新兴县六祖大道",
        "tel": "",
        "category": "基础设施:公共设施:公共厕所",
        "type": 0,
        "location": {
            "lat": 22.613268,
            "lng": 112.220652
        },
        "ad_info": {
            "adcode": 445321,
            "province": "广东省",
            "city": "云浮市",
            "district": "新兴县"
        }
    },
    {
        "id": "1669112464925236819",
        "title": "罗平服务区公共厕所",
        "address": "广东省云浮市罗定市天路汽车充电站(云茂高速罗平西行)南侧70米",
        "tel": "",
        "category": "基础设施:公共设施:公共厕所",
        "type": 0,
        "location": {
            "lat": 22.645379,
            "lng": 111.59395
        },
        "ad_info": {
            "adcode": 445381,
            "province": "广东省",
            "city": "云浮市",
            "district": "罗定市"
        }
    },
    {
        "id": "7389330274612907941",
        "title": "新城服务区公共厕所",
        "address": "广东省云浮市新兴县兴安路与地块连接线交叉口正西方向130米左右",
        "tel": "",
        "category": "基础设施:公共设施:公共厕所",
        "type": 0,
        "location": {
            "lat": 22.733188,
            "lng": 112.216097
        },
        "ad_info": {
            "adcode": 445321,
            "province": "广东省",
            "city": "云浮市",
            "district": "新兴县"
        }
    },
    {
        "id": "17843447202166488628",
        "title": "长田岗村公厕",
        "address": "广东省云浮市新兴县S276",
        "tel": "",
        "category": "基础设施:公共设施:公共厕所",
        "type": 0,
        "location": {
            "lat": 22.582979,
            "lng": 112.227121
        },
        "ad_info": {
            "adcode": 445321,
            "province": "广东省",
            "city": "云浮市",
            "district": "新兴县"
        }
    },
    {
        "id": "8978397209787006673",
        "title": "公共厕所",
        "address": "广东省云浮市罗定市丽久路与大岗东路交叉口正北方向229米左右",
        "tel": "",
        "category": "基础设施:公共设施:公共厕所",
        "type": 0,
        "location": {
            "lat": 22.761528,
            "lng": 111.57224
        },
        "ad_info": {
            "adcode": 445381,
            "province": "广东省",
            "city": "云浮市",
            "district": "罗定市"
        }
    },
    {
        "id": "7984077024837398609",
        "title": "新郎村大堂公厕",
        "address": "广东省云浮市新兴县二环路",
        "tel": "",
        "category": "基础设施:公共设施:公共厕所",
        "type": 0,
        "location": {
            "lat": 22.66041,
            "lng": 112.216912
        },
        "ad_info": {
            "adcode": 445321,
            "province": "广东省",
            "city": "云浮市",
            "district": "新兴县"
        }
    },
    {
        "id": "2538744538106615226",
        "title": "公共厕所",
        "address": "广东省云浮市新兴县建设南路与沿江二路交叉口正南方向64米左右",
        "tel": "",
        "category": "基础设施:公共设施:公共厕所",
        "type": 0,
        "location": {
            "lat": 22.689256,
            "lng": 112.231743
        },
        "ad_info": {
            "adcode": 445321,
            "province": "广东省",
            "city": "云浮市",
            "district": "新兴县"
        }
    },
    {
        "id": "2901590834106076987",
        "title": "乐山岗公厕",
        "address": "广东省云浮市新兴县",
        "tel": "",
        "category": "基础设施:公共设施:公共厕所",
        "type": 0,
        "location": {
            "lat": 22.601392,
            "lng": 112.226853
        },
        "ad_info": {
            "adcode": 445321,
            "province": "广东省",
            "city": "云浮市",
            "district": "新兴县"
        }
    },
    {
        "id": "2787871976565656060",
        "title": "帛村三队公厕",
        "address": "广东省云浮市新兴县",
        "tel": "",
        "category": "基础设施:公共设施:公共厕所",
        "type": 0,
        "location": {
            "lat": 22.653475,
            "lng": 112.195915
        },
        "ad_info": {
            "adcode": 445321,
            "province": "广东省",
            "city": "云浮市",
            "district": "新兴县"
        }
    },
    {
        "id": "14761263091197827472",
        "title": "公共厕所",
        "address": "广东省云浮市罗定市X488与Y921交叉口东北方向589米左右",
        "tel": "",
        "category": "基础设施:公共设施:公共厕所",
        "type": 0,
        "location": {
            "lat": 22.785129,
            "lng": 111.610408
        },
        "ad_info": {
            "adcode": 445381,
            "province": "广东省",
            "city": "云浮市",
            "district": "罗定市"
        }
    },
    {
        "id": "5735850334790630057",
        "title": "琴楼地公厕",
        "address": "广东省云浮市新兴县",
        "tel": "",
        "category": "基础设施:公共设施:公共厕所",
        "type": 0,
        "location": {
            "lat": 22.606212,
            "lng": 112.234146
        },
        "ad_info": {
            "adcode": 445321,
            "province": "广东省",
            "city": "云浮市",
            "district": "新兴县"
        }
    },
    {
        "id": "28792504010618391",
        "title": "许村一队公厕",
        "address": "广东省云浮市新兴县六祖大道",
        "tel": "",
        "category": "基础设施:公共设施:公共厕所",
        "type": 0,
        "location": {
            "lat": 22.611778,
            "lng": 112.217875
        },
        "ad_info": {
            "adcode": 445321,
            "province": "广东省",
            "city": "云浮市",
            "district": "新兴县"
        }
    },
    {
        "id": "14229793233674646308",
        "title": "公共厕所",
        "address": "广东省云浮市云安区G324与车田桥交叉口正南方向180米左右",
        "tel": "",
        "category": "基础设施:公共设施:公共厕所",
        "type": 0,
        "location": {
            "lat": 22.740917,
            "lng": 111.94354
        },
        "ad_info": {
            "adcode": 445303,
            "province": "广东省",
            "city": "云浮市",
            "district": "云安区"
        }
    },
    {
        "id": "1342357203060025534",
        "title": "公共厕所",
        "address": "广东省云浮市新兴县东兴路与翔兴路交叉口正北方向131米左右",
        "tel": "",
        "category": "基础设施:公共设施:公共厕所",
        "type": 0,
        "location": {
            "lat": 22.68534,
            "lng": 112.23565
        },
        "ad_info": {
            "adcode": 445321,
            "province": "广东省",
            "city": "云浮市",
            "district": "新兴县"
        }
    },
    {
        "id": "465290367418061647",
        "title": "公共厕所",
        "address": "广东省云浮市罗定市园前路与龙园西路交叉口东北方向136米左右",
        "tel": "",
        "category": "基础设施:公共设施:公共厕所",
        "type": 0,
        "location": {
            "lat": 22.767486,
            "lng": 111.574357
        },
        "ad_info": {
            "adcode": 445381,
            "province": "广东省",
            "city": "云浮市",
            "district": "罗定市"
        }
    },
    {
        "id": "2378136850626104134",
        "title": "公共厕所(新兴县翔顺金水台温泉小镇景区)",
        "address": "广东省云浮市新兴县翔顺金水台温泉小镇景区茗泉居一楼卫生间",
        "tel": "",
        "category": "基础设施:公共设施:公共厕所",
        "type": 0,
        "location": {
            "lat": 22.607791,
            "lng": 112.468293
        },
        "ad_info": {
            "adcode": 445321,
            "province": "广东省",
            "city": "云浮市",
            "district": "新兴县"
        }
    },
    {
        "id": "16383616170016651266",
        "title": "公共洗手间(太平小院)",
        "address": "广东省云浮市罗定市G359与太平水利桥交叉口正西方向891米左右",
        "tel": "",
        "category": "基础设施:公共设施:公共厕所",
        "type": 0,
        "location": {
            "lat": 22.51152,
            "lng": 111.490252
        },
        "ad_info": {
            "adcode": 445381,
            "province": "广东省",
            "city": "云浮市",
            "district": "罗定市"
        }
    },
    {
        "id": "12105643973893106898",
        "title": "胜塘村公厕",
        "address": "广东省云浮市新兴县S276",
        "tel": "",
        "category": "基础设施:公共设施:公共厕所",
        "type": 0,
        "location": {
            "lat": 22.556968,
            "lng": 112.214774
        },
        "ad_info": {
            "adcode": 445321,
            "province": "广东省",
            "city": "云浮市",
            "district": "新兴县"
        }
    },
    {
        "id": "10238987461526343583",
        "title": "许村九队公厕",
        "address": "广东省云浮市新兴县六祖大道",
        "tel": "",
        "category": "基础设施:公共设施:公共厕所",
        "type": 0,
        "location": {
            "lat": 22.618822,
            "lng": 112.22
        },
        "ad_info": {
            "adcode": 445321,
            "province": "广东省",
            "city": "云浮市",
            "district": "新兴县"
        }
    },
    {
        "id": "8381889557574149829",
        "title": "公共厕所(罗定市太平镇太西村委)",
        "address": "广东省云浮市罗定市Y889与同德路交叉口西北方向179米左右",
        "tel": "",
        "category": "基础设施:公共设施:公共厕所",
        "type": 0,
        "location": {
            "lat": 22.535515,
            "lng": 111.495549
        },
        "ad_info": {
            "adcode": 445381,
            "province": "广东省",
            "city": "云浮市",
            "district": "罗定市"
        }
    },
    {
        "id": "9946583586884961460",
        "title": "含桃1组厕所",
        "address": "广东省云浮市新兴县六祖大道",
        "tel": "",
        "category": "基础设施:公共设施:公共厕所",
        "type": 0,
        "location": {
            "lat": 22.636788,
            "lng": 112.224012
        },
        "ad_info": {
            "adcode": 445321,
            "province": "广东省",
            "city": "云浮市",
            "district": "新兴县"
        }
    },
    {
        "id": "11094398234083633602",
        "title": "公共厕所",
        "address": "广东省云浮市新兴县彭津大道与环村道交叉口正西方向162米左右",
        "tel": "",
        "category": "基础设施:公共设施:公共厕所",
        "type": 0,
        "location": {
            "lat": 22.687321,
            "lng": 112.340659
        },
        "ad_info": {
            "adcode": 445321,
            "province": "广东省",
            "city": "云浮市",
            "district": "新兴县"
        }
    },
    {
        "id": "10064163101901823355",
        "title": "公共厕所",
        "address": "广东省云浮市新兴县S276与Y295交叉口东北方向53米左右",
        "tel": "",
        "category": "基础设施:公共设施:公共厕所",
        "type": 0,
        "location": {
            "lat": 22.489094,
            "lng": 112.202342
        },
        "ad_info": {
            "adcode": 445321,
            "province": "广东省",
            "city": "云浮市",
            "district": "新兴县"
        }
    },
    {
        "id": "6946016938953813209",
        "title": "体育公园公共厕所",
        "address": "广东省云浮市云城区云浮伊顿实验学校东北侧280米",
        "tel": "",
        "category": "基础设施:公共设施:公共厕所",
        "type": 0,
        "location": {
            "lat": 22.903289,
            "lng": 112.007165
        },
        "ad_info": {
            "adcode": 445302,
            "province": "广东省",
            "city": "云浮市",
            "district": "云城区"
        }
    },
    {
        "id": "17193211473926428081",
        "title": "水台停车区公共厕所",
        "address": "广东省云浮市新兴县水台停车区(深罗高速公路东)",
        "tel": "",
        "category": "基础设施:公共设施:公共厕所",
        "type": 0,
        "location": {
            "lat": 22.670019,
            "lng": 112.491137
        },
        "ad_info": {
            "adcode": 445321,
            "province": "广东省",
            "city": "云浮市",
            "district": "新兴县"
        }
    },
    {
        "id": "16695016299423974416",
        "title": "美惠洗手盆",
        "address": "广东省云浮市云城区创发厂隔壁",
        "tel": "13542412977",
        "category": "基础设施:公共设施:公共厕所",
        "type": 0,
        "location": {
            "lat": 22.949762,
            "lng": 112.087647
        },
        "ad_info": {
            "adcode": 445302,
            "province": "广东省",
            "city": "云浮市",
            "district": "云城区"
        }
    },
    {
        "id": "2573498190472097884",
        "title": "帛村四队公厕",
        "address": "广东省云浮市新兴县",
        "tel": "",
        "category": "基础设施:公共设施:公共厕所",
        "type": 0,
        "location": {
            "lat": 22.655903,
            "lng": 112.195248
        },
        "ad_info": {
            "adcode": 445321,
            "province": "广东省",
            "city": "云浮市",
            "district": "新兴县"
        }
    },
    {
        "id": "8626176439848082119",
        "title": "公共厕所(新寨村乡村)",
        "address": "广东省云浮市郁南县475乡道西侧",
        "tel": "",
        "category": "基础设施:公共设施:公共厕所",
        "type": 0,
        "location": {
            "lat": 23.243481,
            "lng": 111.381099
        },
        "ad_info": {
            "adcode": 445322,
            "province": "广东省",
            "city": "云浮市",
            "district": "郁南县"
        }
    },
    {
        "id": "4263112847976888799",
        "title": "凤村公厕",
        "address": "广东省云浮市新兴县龙凤路",
        "tel": "",
        "category": "基础设施:公共设施:公共厕所",
        "type": 0,
        "location": {
            "lat": 22.591885,
            "lng": 112.239721
        },
        "ad_info": {
            "adcode": 445321,
            "province": "广东省",
            "city": "云浮市",
            "district": "新兴县"
        }
    },
    {
        "id": "3839392155223391984",
        "title": "公共厕所(GD-YF-0308)",
        "address": "广东省云浮市云城区X468与布务桥交叉口正西方向1178米左右",
        "tel": "",
        "category": "基础设施:公共设施:公共厕所",
        "type": 0,
        "location": {
            "lat": 22.972251,
            "lng": 112.100158
        },
        "ad_info": {
            "adcode": 445302,
            "province": "广东省",
            "city": "云浮市",
            "district": "云城区"
        }
    },
    {
        "id": "4171861054292100018",
        "title": "官洞14组公厕",
        "address": "广东省云浮市新兴县六祖大道",
        "tel": "",
        "category": "基础设施:公共设施:公共厕所",
        "type": 0,
        "location": {
            "lat": 22.627165,
            "lng": 112.228271
        },
        "ad_info": {
            "adcode": 445321,
            "province": "广东省",
            "city": "云浮市",
            "district": "新兴县"
        }
    },
    {
        "id": "6625119903246953986",
        "title": "官洞欧村公厕",
        "address": "广东省云浮市新兴县X485",
        "tel": "",
        "category": "基础设施:公共设施:公共厕所",
        "type": 0,
        "location": {
            "lat": 22.617825,
            "lng": 112.236193
        },
        "ad_info": {
            "adcode": 445321,
            "province": "广东省",
            "city": "云浮市",
            "district": "新兴县"
        }
    },
    {
        "id": "3451210886950853009",
        "title": "鹤门村公厕",
        "address": "广东省云浮市新兴县六祖大道",
        "tel": "",
        "category": "基础设施:公共设施:公共厕所",
        "type": 0,
        "location": {
            "lat": 22.595264,
            "lng": 112.224198
        },
        "ad_info": {
            "adcode": 445321,
            "province": "广东省",
            "city": "云浮市",
            "district": "新兴县"
        }
    },
    {
        "id": "7570714414091881732",
        "title": "洗手间",
        "address": "广东省云浮市云城区S538与环市中路交叉口西北方向118米左右",
        "tel": "",
        "category": "基础设施:公共设施:公共厕所",
        "type": 0,
        "location": {
            "lat": 22.929652,
            "lng": 112.021902
        },
        "ad_info": {
            "adcode": 445302,
            "province": "广东省",
            "city": "云浮市",
            "district": "云城区"
        }
    },
    {
        "id": "16672251210874514762",
        "title": "公共厕所",
        "address": "广东省云浮市罗定市S294与城西大道交叉口正北方向232米左右",
        "tel": "",
        "category": "基础设施:公共设施:公共厕所",
        "type": 0,
        "location": {
            "lat": 22.528922,
            "lng": 111.499974
        },
        "ad_info": {
            "adcode": 445381,
            "province": "广东省",
            "city": "云浮市",
            "district": "罗定市"
        }
    },
    {
        "id": "15395714683520855500",
        "title": "龙岩公厕",
        "address": "广东省云浮市新兴县X485",
        "tel": "",
        "category": "基础设施:公共设施:公共厕所",
        "type": 0,
        "location": {
            "lat": 22.621039,
            "lng": 112.232216
        },
        "ad_info": {
            "adcode": 445321,
            "province": "广东省",
            "city": "云浮市",
            "district": "新兴县"
        }
    },
    {
        "id": "100945591924252906",
        "title": "官洞11组公厕",
        "address": "广东省云浮市新兴县X485",
        "tel": "",
        "category": "基础设施:公共设施:公共厕所",
        "type": 0,
        "location": {
            "lat": 22.625304,
            "lng": 112.227512
        },
        "ad_info": {
            "adcode": 445321,
            "province": "广东省",
            "city": "云浮市",
            "district": "新兴县"
        }
    },
    {
        "id": "14402988905389006128",
        "title": "新隆村公厕",
        "address": "广东省云浮市新兴县S276",
        "tel": "",
        "category": "基础设施:公共设施:公共厕所",
        "type": 0,
        "location": {
            "lat": 22.555699,
            "lng": 112.213241
        },
        "ad_info": {
            "adcode": 445321,
            "province": "广东省",
            "city": "云浮市",
            "district": "新兴县"
        }
    },
    {
        "id": "133787353766394075",
        "title": "逍遥口停车区公共厕所",
        "address": "广东省云浮市郁南县G80广昆高速与逍遥口停车区交叉口南80米",
        "tel": "",
        "category": "基础设施:公共设施:公共厕所",
        "type": 0,
        "location": {
            "lat": 22.999182,
            "lng": 111.751784
        },
        "ad_info": {
            "adcode": 445322,
            "province": "广东省",
            "city": "云浮市",
            "district": "郁南县"
        }
    },
    {
        "id": "16445273615921623744",
        "title": "南塘村公共厕所",
        "address": "广东省云浮市新兴县六祖大道",
        "tel": "",
        "category": "基础设施:公共设施:公共厕所",
        "type": 0,
        "location": {
            "lat": 22.64312,
            "lng": 112.225349
        },
        "ad_info": {
            "adcode": 445321,
            "province": "广东省",
            "city": "云浮市",
            "district": "新兴县"
        }
    },
    {
        "id": "9268389727826497280",
        "title": "公共厕所(罗定市太平镇太东加油站)",
        "address": "广东省云浮市罗定市G359与Y811交叉口正北方向26米左右",
        "tel": "",
        "category": "基础设施:公共设施:公共厕所",
        "type": 0,
        "location": {
            "lat": 22.530466,
            "lng": 111.516333
        },
        "ad_info": {
            "adcode": 445381,
            "province": "广东省",
            "city": "云浮市",
            "district": "罗定市"
        }
    },
    {
        "id": "17424586072455913691",
        "title": "灯心塘公厕",
        "address": "广东省云浮市新兴县",
        "tel": "",
        "category": "基础设施:公共设施:公共厕所",
        "type": 0,
        "location": {
            "lat": 22.557947,
            "lng": 112.198821
        },
        "ad_info": {
            "adcode": 445321,
            "province": "广东省",
            "city": "云浮市",
            "district": "新兴县"
        }
    },
    {
        "id": "17690960189923116752",
        "title": "官洞12组公厕",
        "address": "广东省云浮市新兴县X485",
        "tel": "",
        "category": "基础设施:公共设施:公共厕所",
        "type": 0,
        "location": {
            "lat": 22.62594,
            "lng": 112.227994
        },
        "ad_info": {
            "adcode": 445321,
            "province": "广东省",
            "city": "云浮市",
            "district": "新兴县"
        }
    },
    {
        "id": "3965010792803425765",
        "title": "公共厕所",
        "address": "广东省云浮市云城区Y701与河仔口桥交叉口正南方向520米左右",
        "tel": "",
        "category": "基础设施:公共设施:公共厕所",
        "type": 0,
        "location": {
            "lat": 22.806282,
            "lng": 112.109801
        },
        "ad_info": {
            "adcode": 445302,
            "province": "广东省",
            "city": "云浮市",
            "district": "云城区"
        }
    },
    {
        "id": "14328646839521813066",
        "title": "上流村二组公共厕所",
        "address": "广东省云浮市新兴县",
        "tel": "",
        "category": "基础设施:公共设施:公共厕所",
        "type": 0,
        "location": {
            "lat": 22.562287,
            "lng": 112.219892
        },
        "ad_info": {
            "adcode": 445321,
            "province": "广东省",
            "city": "云浮市",
            "district": "新兴县"
        }
    },
    {
        "id": "13878692363463552825",
        "title": "公共厕所",
        "address": "广东省云浮市云城区湖边路与解放东路交叉口正东方向57米左右",
        "tel": "",
        "category": "基础设施:公共设施:公共厕所",
        "type": 0,
        "location": {
            "lat": 22.930936,
            "lng": 112.046187
        },
        "ad_info": {
            "adcode": 445302,
            "province": "广东省",
            "city": "云浮市",
            "district": "云城区"
        }
    },
    {
        "id": "12461484056151458843",
        "title": "郁南停车区公共厕所",
        "address": "广东省云浮市郁南县郁南停车区北侧",
        "tel": "",
        "category": "基础设施:公共设施:公共厕所",
        "type": 0,
        "location": {
            "lat": 23.280319,
            "lng": 111.511862
        },
        "ad_info": {
            "adcode": 445322,
            "province": "广东省",
            "city": "云浮市",
            "district": "郁南县"
        }
    },
    {
        "id": "1292786509465692763",
        "title": "根溪公厕",
        "address": "广东省云浮市新兴县",
        "tel": "",
        "category": "基础设施:公共设施:公共厕所",
        "type": 0,
        "location": {
            "lat": 22.551972,
            "lng": 112.194737
        },
        "ad_info": {
            "adcode": 445321,
            "province": "广东省",
            "city": "云浮市",
            "district": "新兴县"
        }
    },
    {
        "id": "10266298005620165411",
        "title": "公共厕所(大湾镇五星村委文化广场)",
        "address": "广东省云浮市郁南县大湾镇五星村委文化广场旁",
        "tel": "",
        "category": "基础设施:公共设施:公共厕所",
        "type": 0,
        "location": {
            "lat": 22.817378,
            "lng": 111.648819
        },
        "ad_info": {
            "adcode": 445322,
            "province": "广东省",
            "city": "云浮市",
            "district": "郁南县"
        }
    },
    {
        "id": "13043919934528750240",
        "title": "上朝村公厕",
        "address": "广东省云浮市新兴县",
        "tel": "",
        "category": "基础设施:公共设施:公共厕所",
        "type": 0,
        "location": {
            "lat": 22.586355,
            "lng": 112.239918
        },
        "ad_info": {
            "adcode": 445321,
            "province": "广东省",
            "city": "云浮市",
            "district": "新兴县"
        }
    },
    {
        "id": "17249266244718410301",
        "title": "上流村三组公共厕所",
        "address": "广东省云浮市新兴县",
        "tel": "",
        "category": "基础设施:公共设施:公共厕所",
        "type": 0,
        "location": {
            "lat": 22.56601,
            "lng": 112.218798
        },
        "ad_info": {
            "adcode": 445321,
            "province": "广东省",
            "city": "云浮市",
            "district": "新兴县"
        }
    },
    {
        "id": "15433795055072569368",
        "title": "公共厕所",
        "address": "广东省云浮市云安区托洞加油站",
        "tel": "",
        "category": "基础设施:公共设施:公共厕所",
        "type": 0,
        "location": {
            "lat": 22.743324,
            "lng": 111.951341
        },
        "ad_info": {
            "adcode": 445303,
            "province": "广东省",
            "city": "云浮市",
            "district": "云安区"
        }
    },
    {
        "id": "14510576924712126446",
        "title": "盘龙洗手盘",
        "address": "广东省云浮市云城区牧羊路口东方时代广场对面",
        "tel": "",
        "category": "基础设施:公共设施:公共厕所",
        "type": 0,
        "location": {
            "lat": 22.942044,
            "lng": 112.058537
        },
        "ad_info": {
            "adcode": 445302,
            "province": "广东省",
            "city": "云浮市",
            "district": "云城区"
        }
    },
    {
        "id": "18334994878106357122",
        "title": "公共厕所",
        "address": "广东省云浮市罗定市G324",
        "tel": "",
        "category": "基础设施:公共设施:公共厕所",
        "type": 0,
        "location": {
            "lat": 22.866318,
            "lng": 111.335213
        },
        "ad_info": {
            "adcode": 445381,
            "province": "广东省",
            "city": "云浮市",
            "district": "罗定市"
        }
    },
    {
        "id": "9807546904094963",
        "title": "公共厕所",
        "address": "广东省云浮市罗定市S352与中桂街交叉口正东方向56米左右",
        "tel": "",
        "category": "基础设施:公共设施:公共厕所",
        "type": 0,
        "location": {
            "lat": 22.709935,
            "lng": 111.316501
        },
        "ad_info": {
            "adcode": 445381,
            "province": "广东省",
            "city": "云浮市",
            "district": "罗定市"
        }
    },
    {
        "id": "4454010786782121161",
        "title": "公共厕所",
        "address": "广东省云浮市郁南县千官大道与教育路交叉口正东方向32米左右",
        "tel": "",
        "category": "基础设施:公共设施:公共厕所",
        "type": 0,
        "location": {
            "lat": 22.877315,
            "lng": 111.597501
        },
        "ad_info": {
            "adcode": 445322,
            "province": "广东省",
            "city": "云浮市",
            "district": "郁南县"
        }
    },
    {
        "id": "13741039152847447697",
        "title": "石淇湾村委公共厕所",
        "address": "广东省云浮市罗定市罗镜镇石其湾村委会卫生站东北侧80米",
        "tel": "",
        "category": "基础设施:公共设施:公共厕所",
        "type": 0,
        "location": {
            "lat": 22.534962,
            "lng": 111.444571
        },
        "ad_info": {
            "adcode": 445381,
            "province": "广东省",
            "city": "云浮市",
            "district": "罗定市"
        }
    },
    {
        "id": "8007112202332536986",
        "title": "新兴文化广场公共厕所",
        "address": "广东省云浮市新兴县祥和街新兴文化广场(西南角)",
        "tel": "",
        "category": "基础设施:公共设施:公共厕所",
        "type": 0,
        "location": {
            "lat": 22.707263,
            "lng": 112.231238
        },
        "ad_info": {
            "adcode": 445321,
            "province": "广东省",
            "city": "云浮市",
            "district": "新兴县"
        }
    },
    {
        "id": "14058956412192919226",
        "title": "公共厕所",
        "address": "广东省云浮市罗定市大新北路与宝定路交叉口东南方向52米左右",
        "tel": "",
        "category": "基础设施:公共设施:公共厕所",
        "type": 0,
        "location": {
            "lat": 22.767821,
            "lng": 111.571071
        },
        "ad_info": {
            "adcode": 445381,
            "province": "广东省",
            "city": "云浮市",
            "district": "罗定市"
        }
    },
    {
        "id": "4583849661946762263",
        "title": "洞心村公厕",
        "address": "广东省云浮市新兴县",
        "tel": "",
        "category": "基础设施:公共设施:公共厕所",
        "type": 0,
        "location": {
            "lat": 22.58433,
            "lng": 112.23838
        },
        "ad_info": {
            "adcode": 445321,
            "province": "广东省",
            "city": "云浮市",
            "district": "新兴县"
        }
    },
    {
        "id": "15531986250875174690",
        "title": "大洞山公厕",
        "address": "广东省云浮市新兴县",
        "tel": "",
        "category": "基础设施:公共设施:公共厕所",
        "type": 0,
        "location": {
            "lat": 22.599553,
            "lng": 112.235884
        },
        "ad_info": {
            "adcode": 445321,
            "province": "广东省",
            "city": "云浮市",
            "district": "新兴县"
        }
    },
    {
        "id": "5835046359628398155",
        "title": "樟村3、4队公厕",
        "address": "广东省云浮市新兴县",
        "tel": "",
        "category": "基础设施:公共设施:公共厕所",
        "type": 0,
        "location": {
            "lat": 22.597664,
            "lng": 112.231536
        },
        "ad_info": {
            "adcode": 445321,
            "province": "广东省",
            "city": "云浮市",
            "district": "新兴县"
        }
    },
    {
        "id": "7067092066086560778",
        "title": "公共厕所",
        "address": "广东省云浮市云城区S265与Y684交叉口东南方向268米左右",
        "tel": "",
        "category": "基础设施:公共设施:公共厕所",
        "type": 0,
        "location": {
            "lat": 22.810136,
            "lng": 112.123832
        },
        "ad_info": {
            "adcode": 445302,
            "province": "广东省",
            "city": "云浮市",
            "district": "云城区"
        }
    },
    {
        "id": "13085037246828747048",
        "title": "村头坊村公共厕所",
        "address": "广东省云浮市新兴县",
        "tel": "",
        "category": "基础设施:公共设施:公共厕所",
        "type": 0,
        "location": {
            "lat": 22.651521,
            "lng": 112.219864
        },
        "ad_info": {
            "adcode": 445321,
            "province": "广东省",
            "city": "云浮市",
            "district": "新兴县"
        }
    },
    {
        "id": "17805212270024140230",
        "title": "上江村公厕",
        "address": "广东省云浮市新兴县S276",
        "tel": "",
        "category": "基础设施:公共设施:公共厕所",
        "type": 0,
        "location": {
            "lat": 22.560393,
            "lng": 112.214139
        },
        "ad_info": {
            "adcode": 445321,
            "province": "广东省",
            "city": "云浮市",
            "district": "新兴县"
        }
    },
    {
        "id": "5416940094869298107",
        "title": "栢力洗手盆",
        "address": "广东省云浮市云城区G324与康民路交叉口西北方向32米左右",
        "tel": "",
        "category": "基础设施:公共设施:公共厕所",
        "type": 0,
        "location": {
            "lat": 22.934401,
            "lng": 112.187557
        },
        "ad_info": {
            "adcode": 445302,
            "province": "广东省",
            "city": "云浮市",
            "district": "云城区"
        }
    },
    {
        "id": "15289663990707363593",
        "title": "旧郎村西公共厕所",
        "address": "广东省云浮市新兴县二环路",
        "tel": "",
        "category": "基础设施:公共设施:公共厕所",
        "type": 0,
        "location": {
            "lat": 22.65669,
            "lng": 112.21979
        },
        "ad_info": {
            "adcode": 445321,
            "province": "广东省",
            "city": "云浮市",
            "district": "新兴县"
        }
    },
    {
        "id": "5153861287778949860",
        "title": "下朝公厕",
        "address": "广东省云浮市新兴县龙凤路",
        "tel": "",
        "category": "基础设施:公共设施:公共厕所",
        "type": 0,
        "location": {
            "lat": 22.588911,
            "lng": 112.242918
        },
        "ad_info": {
            "adcode": 445321,
            "province": "广东省",
            "city": "云浮市",
            "district": "新兴县"
        }
    },
    {
        "id": "13971803591852285488",
        "title": "南庆村公共厕所",
        "address": "广东省云浮市新兴县六祖大道",
        "tel": "",
        "category": "基础设施:公共设施:公共厕所",
        "type": 0,
        "location": {
            "lat": 22.652921,
            "lng": 112.222432
        },
        "ad_info": {
            "adcode": 445321,
            "province": "广东省",
            "city": "云浮市",
            "district": "新兴县"
        }
    },
    {
        "id": "9591490259419770515",
        "title": "公共厕所(罗定市太平镇嘉盈广场一楼)",
        "address": "广东省云浮市罗定市S294与城西大道交叉口正西方向302米左右",
        "tel": "",
        "category": "基础设施:公共设施:公共厕所",
        "type": 0,
        "location": {
            "lat": 22.527764,
            "lng": 111.496856
        },
        "ad_info": {
            "adcode": 445381,
            "province": "广东省",
            "city": "云浮市",
            "district": "罗定市"
        }
    },
    {
        "id": "17249266244718410301",
        "title": "上流村三组公共厕所",
        "address": "广东省云浮市新兴县",
        "tel": "",
        "category": "基础设施:公共设施:公共厕所",
        "type": 0,
        "location": {
            "lat": 22.56601,
            "lng": 112.218798
        },
        "ad_info": {
            "adcode": 445321,
            "province": "广东省",
            "city": "云浮市",
            "district": "新兴县"
        }
    },
    {
        "id": "15433795055072569368",
        "title": "公共厕所",
        "address": "广东省云浮市云安区托洞加油站",
        "tel": "",
        "category": "基础设施:公共设施:公共厕所",
        "type": 0,
        "location": {
            "lat": 22.743324,
            "lng": 111.951341
        },
        "ad_info": {
            "adcode": 445303,
            "province": "广东省",
            "city": "云浮市",
            "district": "云安区"
        }
    },
    {
        "id": "14510576924712126446",
        "title": "盘龙洗手盘",
        "address": "广东省云浮市云城区牧羊路口东方时代广场对面",
        "tel": "",
        "category": "基础设施:公共设施:公共厕所",
        "type": 0,
        "location": {
            "lat": 22.942044,
            "lng": 112.058537
        },
        "ad_info": {
            "adcode": 445302,
            "province": "广东省",
            "city": "云浮市",
            "district": "云城区"
        }
    },
    {
        "id": "18334994878106357122",
        "title": "公共厕所",
        "address": "广东省云浮市罗定市G324",
        "tel": "",
        "category": "基础设施:公共设施:公共厕所",
        "type": 0,
        "location": {
            "lat": 22.866318,
            "lng": 111.335213
        },
        "ad_info": {
            "adcode": 445381,
            "province": "广东省",
            "city": "云浮市",
            "district": "罗定市"
        }
    },
    {
        "id": "9807546904094963",
        "title": "公共厕所",
        "address": "广东省云浮市罗定市S352与中桂街交叉口正东方向56米左右",
        "tel": "",
        "category": "基础设施:公共设施:公共厕所",
        "type": 0,
        "location": {
            "lat": 22.709935,
            "lng": 111.316501
        },
        "ad_info": {
            "adcode": 445381,
            "province": "广东省",
            "city": "云浮市",
            "district": "罗定市"
        }
    },
    {
        "id": "4454010786782121161",
        "title": "公共厕所",
        "address": "广东省云浮市郁南县千官大道与教育路交叉口正东方向32米左右",
        "tel": "",
        "category": "基础设施:公共设施:公共厕所",
        "type": 0,
        "location": {
            "lat": 22.877315,
            "lng": 111.597501
        },
        "ad_info": {
            "adcode": 445322,
            "province": "广东省",
            "city": "云浮市",
            "district": "郁南县"
        }
    },
    {
        "id": "13741039152847447697",
        "title": "石淇湾村委公共厕所",
        "address": "广东省云浮市罗定市罗镜镇石其湾村委会卫生站东北侧80米",
        "tel": "",
        "category": "基础设施:公共设施:公共厕所",
        "type": 0,
        "location": {
            "lat": 22.534962,
            "lng": 111.444571
        },
        "ad_info": {
            "adcode": 445381,
            "province": "广东省",
            "city": "云浮市",
            "district": "罗定市"
        }
    },
    {
        "id": "8007112202332536986",
        "title": "新兴文化广场公共厕所",
        "address": "广东省云浮市新兴县祥和街新兴文化广场(西南角)",
        "tel": "",
        "category": "基础设施:公共设施:公共厕所",
        "type": 0,
        "location": {
            "lat": 22.707263,
            "lng": 112.231238
        },
        "ad_info": {
            "adcode": 445321,
            "province": "广东省",
            "city": "云浮市",
            "district": "新兴县"
        }
    },
    {
        "id": "14058956412192919226",
        "title": "公共厕所",
        "address": "广东省云浮市罗定市大新北路与宝定路交叉口东南方向52米左右",
        "tel": "",
        "category": "基础设施:公共设施:公共厕所",
        "type": 0,
        "location": {
            "lat": 22.767821,
            "lng": 111.571071
        },
        "ad_info": {
            "adcode": 445381,
            "province": "广东省",
            "city": "云浮市",
            "district": "罗定市"
        }
    },
    {
        "id": "4583849661946762263",
        "title": "洞心村公厕",
        "address": "广东省云浮市新兴县",
        "tel": "",
        "category": "基础设施:公共设施:公共厕所",
        "type": 0,
        "location": {
            "lat": 22.58433,
            "lng": 112.23838
        },
        "ad_info": {
            "adcode": 445321,
            "province": "广东省",
            "city": "云浮市",
            "district": "新兴县"
        }
    },
    {
        "id": "15531986250875174690",
        "title": "大洞山公厕",
        "address": "广东省云浮市新兴县",
        "tel": "",
        "category": "基础设施:公共设施:公共厕所",
        "type": 0,
        "location": {
            "lat": 22.599553,
            "lng": 112.235884
        },
        "ad_info": {
            "adcode": 445321,
            "province": "广东省",
            "city": "云浮市",
            "district": "新兴县"
        }
    },
    {
        "id": "5835046359628398155",
        "title": "樟村3、4队公厕",
        "address": "广东省云浮市新兴县",
        "tel": "",
        "category": "基础设施:公共设施:公共厕所",
        "type": 0,
        "location": {
            "lat": 22.597664,
            "lng": 112.231536
        },
        "ad_info": {
            "adcode": 445321,
            "province": "广东省",
            "city": "云浮市",
            "district": "新兴县"
        }
    },
    {
        "id": "7067092066086560778",
        "title": "公共厕所",
        "address": "广东省云浮市云城区S265与Y684交叉口东南方向268米左右",
        "tel": "",
        "category": "基础设施:公共设施:公共厕所",
        "type": 0,
        "location": {
            "lat": 22.810136,
            "lng": 112.123832
        },
        "ad_info": {
            "adcode": 445302,
            "province": "广东省",
            "city": "云浮市",
            "district": "云城区"
        }
    },
    {
        "id": "13085037246828747048",
        "title": "村头坊村公共厕所",
        "address": "广东省云浮市新兴县",
        "tel": "",
        "category": "基础设施:公共设施:公共厕所",
        "type": 0,
        "location": {
            "lat": 22.651521,
            "lng": 112.219864
        },
        "ad_info": {
            "adcode": 445321,
            "province": "广东省",
            "city": "云浮市",
            "district": "新兴县"
        }
    },
    {
        "id": "17805212270024140230",
        "title": "上江村公厕",
        "address": "广东省云浮市新兴县S276",
        "tel": "",
        "category": "基础设施:公共设施:公共厕所",
        "type": 0,
        "location": {
            "lat": 22.560393,
            "lng": 112.214139
        },
        "ad_info": {
            "adcode": 445321,
            "province": "广东省",
            "city": "云浮市",
            "district": "新兴县"
        }
    },
    {
        "id": "5416940094869298107",
        "title": "栢力洗手盆",
        "address": "广东省云浮市云城区G324与康民路交叉口西北方向32米左右",
        "tel": "",
        "category": "基础设施:公共设施:公共厕所",
        "type": 0,
        "location": {
            "lat": 22.934401,
            "lng": 112.187557
        },
        "ad_info": {
            "adcode": 445302,
            "province": "广东省",
            "city": "云浮市",
            "district": "云城区"
        }
    },
    {
        "id": "15289663990707363593",
        "title": "旧郎村西公共厕所",
        "address": "广东省云浮市新兴县二环路",
        "tel": "",
        "category": "基础设施:公共设施:公共厕所",
        "type": 0,
        "location": {
            "lat": 22.65669,
            "lng": 112.21979
        },
        "ad_info": {
            "adcode": 445321,
            "province": "广东省",
            "city": "云浮市",
            "district": "新兴县"
        }
    },
    {
        "id": "5153861287778949860",
        "title": "下朝公厕",
        "address": "广东省云浮市新兴县龙凤路",
        "tel": "",
        "category": "基础设施:公共设施:公共厕所",
        "type": 0,
        "location": {
            "lat": 22.588911,
            "lng": 112.242918
        },
        "ad_info": {
            "adcode": 445321,
            "province": "广东省",
            "city": "云浮市",
            "district": "新兴县"
        }
    },
    {
        "id": "13971803591852285488",
        "title": "南庆村公共厕所",
        "address": "广东省云浮市新兴县六祖大道",
        "tel": "",
        "category": "基础设施:公共设施:公共厕所",
        "type": 0,
        "location": {
            "lat": 22.652921,
            "lng": 112.222432
        },
        "ad_info": {
            "adcode": 445321,
            "province": "广东省",
            "city": "云浮市",
            "district": "新兴县"
        }
    },
    {
        "id": "9591490259419770515",
        "title": "公共厕所(罗定市太平镇嘉盈广场一楼)",
        "address": "广东省云浮市罗定市S294与城西大道交叉口正西方向302米左右",
        "tel": "",
        "category": "基础设施:公共设施:公共厕所",
        "type": 0,
        "location": {
            "lat": 22.527764,
            "lng": 111.496856
        },
        "ad_info": {
            "adcode": 445381,
            "province": "广东省",
            "city": "云浮市",
            "district": "罗定市"
        }
    },
    {
        "id": "17249266244718410301",
        "title": "上流村三组公共厕所",
        "address": "广东省云浮市新兴县",
        "tel": "",
        "category": "基础设施:公共设施:公共厕所",
        "type": 0,
        "location": {
            "lat": 22.56601,
            "lng": 112.218798
        },
        "ad_info": {
            "adcode": 445321,
            "province": "广东省",
            "city": "云浮市",
            "district": "新兴县"
        }
    },
    {
        "id": "15433795055072569368",
        "title": "公共厕所",
        "address": "广东省云浮市云安区托洞加油站",
        "tel": "",
        "category": "基础设施:公共设施:公共厕所",
        "type": 0,
        "location": {
            "lat": 22.743324,
            "lng": 111.951341
        },
        "ad_info": {
            "adcode": 445303,
            "province": "广东省",
            "city": "云浮市",
            "district": "云安区"
        }
    },
    {
        "id": "14510576924712126446",
        "title": "盘龙洗手盘",
        "address": "广东省云浮市云城区牧羊路口东方时代广场对面",
        "tel": "",
        "category": "基础设施:公共设施:公共厕所",
        "type": 0,
        "location": {
            "lat": 22.942044,
            "lng": 112.058537
        },
        "ad_info": {
            "adcode": 445302,
            "province": "广东省",
            "city": "云浮市",
            "district": "云城区"
        }
    },
    {
        "id": "18334994878106357122",
        "title": "公共厕所",
        "address": "广东省云浮市罗定市G324",
        "tel": "",
        "category": "基础设施:公共设施:公共厕所",
        "type": 0,
        "location": {
            "lat": 22.866318,
            "lng": 111.335213
        },
        "ad_info": {
            "adcode": 445381,
            "province": "广东省",
            "city": "云浮市",
            "district": "罗定市"
        }
    },
    {
        "id": "9807546904094963",
        "title": "公共厕所",
        "address": "广东省云浮市罗定市S352与中桂街交叉口正东方向56米左右",
        "tel": "",
        "category": "基础设施:公共设施:公共厕所",
        "type": 0,
        "location": {
            "lat": 22.709935,
            "lng": 111.316501
        },
        "ad_info": {
            "adcode": 445381,
            "province": "广东省",
            "city": "云浮市",
            "district": "罗定市"
        }
    },
    {
        "id": "4454010786782121161",
        "title": "公共厕所",
        "address": "广东省云浮市郁南县千官大道与教育路交叉口正东方向32米左右",
        "tel": "",
        "category": "基础设施:公共设施:公共厕所",
        "type": 0,
        "location": {
            "lat": 22.877315,
            "lng": 111.597501
        },
        "ad_info": {
            "adcode": 445322,
            "province": "广东省",
            "city": "云浮市",
            "district": "郁南县"
        }
    },
    {
        "id": "13741039152847447697",
        "title": "石淇湾村委公共厕所",
        "address": "广东省云浮市罗定市罗镜镇石其湾村委会卫生站东北侧80米",
        "tel": "",
        "category": "基础设施:公共设施:公共厕所",
        "type": 0,
        "location": {
            "lat": 22.534962,
            "lng": 111.444571
        },
        "ad_info": {
            "adcode": 445381,
            "province": "广东省",
            "city": "云浮市",
            "district": "罗定市"
        }
    },
    {
        "id": "8007112202332536986",
        "title": "新兴文化广场公共厕所",
        "address": "广东省云浮市新兴县祥和街新兴文化广场(西南角)",
        "tel": "",
        "category": "基础设施:公共设施:公共厕所",
        "type": 0,
        "location": {
            "lat": 22.707263,
            "lng": 112.231238
        },
        "ad_info": {
            "adcode": 445321,
            "province": "广东省",
            "city": "云浮市",
            "district": "新兴县"
        }
    },
    {
        "id": "14058956412192919226",
        "title": "公共厕所",
        "address": "广东省云浮市罗定市大新北路与宝定路交叉口东南方向52米左右",
        "tel": "",
        "category": "基础设施:公共设施:公共厕所",
        "type": 0,
        "location": {
            "lat": 22.767821,
            "lng": 111.571071
        },
        "ad_info": {
            "adcode": 445381,
            "province": "广东省",
            "city": "云浮市",
            "district": "罗定市"
        }
    },
    {
        "id": "4583849661946762263",
        "title": "洞心村公厕",
        "address": "广东省云浮市新兴县",
        "tel": "",
        "category": "基础设施:公共设施:公共厕所",
        "type": 0,
        "location": {
            "lat": 22.58433,
            "lng": 112.23838
        },
        "ad_info": {
            "adcode": 445321,
            "province": "广东省",
            "city": "云浮市",
            "district": "新兴县"
        }
    },
    {
        "id": "15531986250875174690",
        "title": "大洞山公厕",
        "address": "广东省云浮市新兴县",
        "tel": "",
        "category": "基础设施:公共设施:公共厕所",
        "type": 0,
        "location": {
            "lat": 22.599553,
            "lng": 112.235884
        },
        "ad_info": {
            "adcode": 445321,
            "province": "广东省",
            "city": "云浮市",
            "district": "新兴县"
        }
    },
    {
        "id": "5835046359628398155",
        "title": "樟村3、4队公厕",
        "address": "广东省云浮市新兴县",
        "tel": "",
        "category": "基础设施:公共设施:公共厕所",
        "type": 0,
        "location": {
            "lat": 22.597664,
            "lng": 112.231536
        },
        "ad_info": {
            "adcode": 445321,
            "province": "广东省",
            "city": "云浮市",
            "district": "新兴县"
        }
    },
    {
        "id": "7067092066086560778",
        "title": "公共厕所",
        "address": "广东省云浮市云城区S265与Y684交叉口东南方向268米左右",
        "tel": "",
        "category": "基础设施:公共设施:公共厕所",
        "type": 0,
        "location": {
            "lat": 22.810136,
            "lng": 112.123832
        },
        "ad_info": {
            "adcode": 445302,
            "province": "广东省",
            "city": "云浮市",
            "district": "云城区"
        }
    },
    {
        "id": "13085037246828747048",
        "title": "村头坊村公共厕所",
        "address": "广东省云浮市新兴县",
        "tel": "",
        "category": "基础设施:公共设施:公共厕所",
        "type": 0,
        "location": {
            "lat": 22.651521,
            "lng": 112.219864
        },
        "ad_info": {
            "adcode": 445321,
            "province": "广东省",
            "city": "云浮市",
            "district": "新兴县"
        }
    },
    {
        "id": "17805212270024140230",
        "title": "上江村公厕",
        "address": "广东省云浮市新兴县S276",
        "tel": "",
        "category": "基础设施:公共设施:公共厕所",
        "type": 0,
        "location": {
            "lat": 22.560393,
            "lng": 112.214139
        },
        "ad_info": {
            "adcode": 445321,
            "province": "广东省",
            "city": "云浮市",
            "district": "新兴县"
        }
    },
    {
        "id": "5416940094869298107",
        "title": "栢力洗手盆",
        "address": "广东省云浮市云城区G324与康民路交叉口西北方向32米左右",
        "tel": "",
        "category": "基础设施:公共设施:公共厕所",
        "type": 0,
        "location": {
            "lat": 22.934401,
            "lng": 112.187557
        },
        "ad_info": {
            "adcode": 445302,
            "province": "广东省",
            "city": "云浮市",
            "district": "云城区"
        }
    },
    {
        "id": "15289663990707363593",
        "title": "旧郎村西公共厕所",
        "address": "广东省云浮市新兴县二环路",
        "tel": "",
        "category": "基础设施:公共设施:公共厕所",
        "type": 0,
        "location": {
            "lat": 22.65669,
            "lng": 112.21979
        },
        "ad_info": {
            "adcode": 445321,
            "province": "广东省",
            "city": "云浮市",
            "district": "新兴县"
        }
    },
    {
        "id": "5153861287778949860",
        "title": "下朝公厕",
        "address": "广东省云浮市新兴县龙凤路",
        "tel": "",
        "category": "基础设施:公共设施:公共厕所",
        "type": 0,
        "location": {
            "lat": 22.588911,
            "lng": 112.242918
        },
        "ad_info": {
            "adcode": 445321,
            "province": "广东省",
            "city": "云浮市",
            "district": "新兴县"
        }
    },
    {
        "id": "13971803591852285488",
        "title": "南庆村公共厕所",
        "address": "广东省云浮市新兴县六祖大道",
        "tel": "",
        "category": "基础设施:公共设施:公共厕所",
        "type": 0,
        "location": {
            "lat": 22.652921,
            "lng": 112.222432
        },
        "ad_info": {
            "adcode": 445321,
            "province": "广东省",
            "city": "云浮市",
            "district": "新兴县"
        }
    },
    {
        "id": "9591490259419770515",
        "title": "公共厕所(罗定市太平镇嘉盈广场一楼)",
        "address": "广东省云浮市罗定市S294与城西大道交叉口正西方向302米左右",
        "tel": "",
        "category": "基础设施:公共设施:公共厕所",
        "type": 0,
        "location": {
            "lat": 22.527764,
            "lng": 111.496856
        },
        "ad_info": {
            "adcode": 445381,
            "province": "广东省",
            "city": "云浮市",
            "district": "罗定市"
        }
    },
    {
        "id": "17249266244718410301",
        "title": "上流村三组公共厕所",
        "address": "广东省云浮市新兴县",
        "tel": "",
        "category": "基础设施:公共设施:公共厕所",
        "type": 0,
        "location": {
            "lat": 22.56601,
            "lng": 112.218798
        },
        "ad_info": {
            "adcode": 445321,
            "province": "广东省",
            "city": "云浮市",
            "district": "新兴县"
        }
    },
    {
        "id": "15433795055072569368",
        "title": "公共厕所",
        "address": "广东省云浮市云安区托洞加油站",
        "tel": "",
        "category": "基础设施:公共设施:公共厕所",
        "type": 0,
        "location": {
            "lat": 22.743324,
            "lng": 111.951341
        },
        "ad_info": {
            "adcode": 445303,
            "province": "广东省",
            "city": "云浮市",
            "district": "云安区"
        }
    },
    {
        "id": "14510576924712126446",
        "title": "盘龙洗手盘",
        "address": "广东省云浮市云城区牧羊路口东方时代广场对面",
        "tel": "",
        "category": "基础设施:公共设施:公共厕所",
        "type": 0,
        "location": {
            "lat": 22.942044,
            "lng": 112.058537
        },
        "ad_info": {
            "adcode": 445302,
            "province": "广东省",
            "city": "云浮市",
            "district": "云城区"
        }
    },
    {
        "id": "18334994878106357122",
        "title": "公共厕所",
        "address": "广东省云浮市罗定市G324",
        "tel": "",
        "category": "基础设施:公共设施:公共厕所",
        "type": 0,
        "location": {
            "lat": 22.866318,
            "lng": 111.335213
        },
        "ad_info": {
            "adcode": 445381,
            "province": "广东省",
            "city": "云浮市",
            "district": "罗定市"
        }
    },
    {
        "id": "9807546904094963",
        "title": "公共厕所",
        "address": "广东省云浮市罗定市S352与中桂街交叉口正东方向56米左右",
        "tel": "",
        "category": "基础设施:公共设施:公共厕所",
        "type": 0,
        "location": {
            "lat": 22.709935,
            "lng": 111.316501
        },
        "ad_info": {
            "adcode": 445381,
            "province": "广东省",
            "city": "云浮市",
            "district": "罗定市"
        }
    },
    {
        "id": "4454010786782121161",
        "title": "公共厕所",
        "address": "广东省云浮市郁南县千官大道与教育路交叉口正东方向32米左右",
        "tel": "",
        "category": "基础设施:公共设施:公共厕所",
        "type": 0,
        "location": {
            "lat": 22.877315,
            "lng": 111.597501
        },
        "ad_info": {
            "adcode": 445322,
            "province": "广东省",
            "city": "云浮市",
            "district": "郁南县"
        }
    },
    {
        "id": "13741039152847447697",
        "title": "石淇湾村委公共厕所",
        "address": "广东省云浮市罗定市罗镜镇石其湾村委会卫生站东北侧80米",
        "tel": "",
        "category": "基础设施:公共设施:公共厕所",
        "type": 0,
        "location": {
            "lat": 22.534962,
            "lng": 111.444571
        },
        "ad_info": {
            "adcode": 445381,
            "province": "广东省",
            "city": "云浮市",
            "district": "罗定市"
        }
    },
    {
        "id": "8007112202332536986",
        "title": "新兴文化广场公共厕所",
        "address": "广东省云浮市新兴县祥和街新兴文化广场(西南角)",
        "tel": "",
        "category": "基础设施:公共设施:公共厕所",
        "type": 0,
        "location": {
            "lat": 22.707263,
            "lng": 112.231238
        },
        "ad_info": {
            "adcode": 445321,
            "province": "广东省",
            "city": "云浮市",
            "district": "新兴县"
        }
    },
    {
        "id": "14058956412192919226",
        "title": "公共厕所",
        "address": "广东省云浮市罗定市大新北路与宝定路交叉口东南方向52米左右",
        "tel": "",
        "category": "基础设施:公共设施:公共厕所",
        "type": 0,
        "location": {
            "lat": 22.767821,
            "lng": 111.571071
        },
        "ad_info": {
            "adcode": 445381,
            "province": "广东省",
            "city": "云浮市",
            "district": "罗定市"
        }
    },
    {
        "id": "4583849661946762263",
        "title": "洞心村公厕",
        "address": "广东省云浮市新兴县",
        "tel": "",
        "category": "基础设施:公共设施:公共厕所",
        "type": 0,
        "location": {
            "lat": 22.58433,
            "lng": 112.23838
        },
        "ad_info": {
            "adcode": 445321,
            "province": "广东省",
            "city": "云浮市",
            "district": "新兴县"
        }
    },
    {
        "id": "15531986250875174690",
        "title": "大洞山公厕",
        "address": "广东省云浮市新兴县",
        "tel": "",
        "category": "基础设施:公共设施:公共厕所",
        "type": 0,
        "location": {
            "lat": 22.599553,
            "lng": 112.235884
        },
        "ad_info": {
            "adcode": 445321,
            "province": "广东省",
            "city": "云浮市",
            "district": "新兴县"
        }
    },
    {
        "id": "5835046359628398155",
        "title": "樟村3、4队公厕",
        "address": "广东省云浮市新兴县",
        "tel": "",
        "category": "基础设施:公共设施:公共厕所",
        "type": 0,
        "location": {
            "lat": 22.597664,
            "lng": 112.231536
        },
        "ad_info": {
            "adcode": 445321,
            "province": "广东省",
            "city": "云浮市",
            "district": "新兴县"
        }
    },
    {
        "id": "7067092066086560778",
        "title": "公共厕所",
        "address": "广东省云浮市云城区S265与Y684交叉口东南方向268米左右",
        "tel": "",
        "category": "基础设施:公共设施:公共厕所",
        "type": 0,
        "location": {
            "lat": 22.810136,
            "lng": 112.123832
        },
        "ad_info": {
            "adcode": 445302,
            "province": "广东省",
            "city": "云浮市",
            "district": "云城区"
        }
    },
    {
        "id": "13085037246828747048",
        "title": "村头坊村公共厕所",
        "address": "广东省云浮市新兴县",
        "tel": "",
        "category": "基础设施:公共设施:公共厕所",
        "type": 0,
        "location": {
            "lat": 22.651521,
            "lng": 112.219864
        },
        "ad_info": {
            "adcode": 445321,
            "province": "广东省",
            "city": "云浮市",
            "district": "新兴县"
        }
    },
    {
        "id": "17805212270024140230",
        "title": "上江村公厕",
        "address": "广东省云浮市新兴县S276",
        "tel": "",
        "category": "基础设施:公共设施:公共厕所",
        "type": 0,
        "location": {
            "lat": 22.560393,
            "lng": 112.214139
        },
        "ad_info": {
            "adcode": 445321,
            "province": "广东省",
            "city": "云浮市",
            "district": "新兴县"
        }
    },
    {
        "id": "5416940094869298107",
        "title": "栢力洗手盆",
        "address": "广东省云浮市云城区G324与康民路交叉口西北方向32米左右",
        "tel": "",
        "category": "基础设施:公共设施:公共厕所",
        "type": 0,
        "location": {
            "lat": 22.934401,
            "lng": 112.187557
        },
        "ad_info": {
            "adcode": 445302,
            "province": "广东省",
            "city": "云浮市",
            "district": "云城区"
        }
    },
    {
        "id": "15289663990707363593",
        "title": "旧郎村西公共厕所",
        "address": "广东省云浮市新兴县二环路",
        "tel": "",
        "category": "基础设施:公共设施:公共厕所",
        "type": 0,
        "location": {
            "lat": 22.65669,
            "lng": 112.21979
        },
        "ad_info": {
            "adcode": 445321,
            "province": "广东省",
            "city": "云浮市",
            "district": "新兴县"
        }
    },
    {
        "id": "5153861287778949860",
        "title": "下朝公厕",
        "address": "广东省云浮市新兴县龙凤路",
        "tel": "",
        "category": "基础设施:公共设施:公共厕所",
        "type": 0,
        "location": {
            "lat": 22.588911,
            "lng": 112.242918
        },
        "ad_info": {
            "adcode": 445321,
            "province": "广东省",
            "city": "云浮市",
            "district": "新兴县"
        }
    },
    {
        "id": "13971803591852285488",
        "title": "南庆村公共厕所",
        "address": "广东省云浮市新兴县六祖大道",
        "tel": "",
        "category": "基础设施:公共设施:公共厕所",
        "type": 0,
        "location": {
            "lat": 22.652921,
            "lng": 112.222432
        },
        "ad_info": {
            "adcode": 445321,
            "province": "广东省",
            "city": "云浮市",
            "district": "新兴县"
        }
    },
    {
        "id": "9591490259419770515",
        "title": "公共厕所(罗定市太平镇嘉盈广场一楼)",
        "address": "广东省云浮市罗定市S294与城西大道交叉口正西方向302米左右",
        "tel": "",
        "category": "基础设施:公共设施:公共厕所",
        "type": 0,
        "location": {
            "lat": 22.527764,
            "lng": 111.496856
        },
        "ad_info": {
            "adcode": 445381,
            "province": "广东省",
            "city": "云浮市",
            "district": "罗定市"
        }
    },
    {
        "id": "17249266244718410301",
        "title": "上流村三组公共厕所",
        "address": "广东省云浮市新兴县",
        "tel": "",
        "category": "基础设施:公共设施:公共厕所",
        "type": 0,
        "location": {
            "lat": 22.56601,
            "lng": 112.218798
        },
        "ad_info": {
            "adcode": 445321,
            "province": "广东省",
            "city": "云浮市",
            "district": "新兴县"
        }
    },
    {
        "id": "15433795055072569368",
        "title": "公共厕所",
        "address": "广东省云浮市云安区托洞加油站",
        "tel": "",
        "category": "基础设施:公共设施:公共厕所",
        "type": 0,
        "location": {
            "lat": 22.743324,
            "lng": 111.951341
        },
        "ad_info": {
            "adcode": 445303,
            "province": "广东省",
            "city": "云浮市",
            "district": "云安区"
        }
    },
    {
        "id": "14510576924712126446",
        "title": "盘龙洗手盘",
        "address": "广东省云浮市云城区牧羊路口东方时代广场对面",
        "tel": "",
        "category": "基础设施:公共设施:公共厕所",
        "type": 0,
        "location": {
            "lat": 22.942044,
            "lng": 112.058537
        },
        "ad_info": {
            "adcode": 445302,
            "province": "广东省",
            "city": "云浮市",
            "district": "云城区"
        }
    },
    {
        "id": "18334994878106357122",
        "title": "公共厕所",
        "address": "广东省云浮市罗定市G324",
        "tel": "",
        "category": "基础设施:公共设施:公共厕所",
        "type": 0,
        "location": {
            "lat": 22.866318,
            "lng": 111.335213
        },
        "ad_info": {
            "adcode": 445381,
            "province": "广东省",
            "city": "云浮市",
            "district": "罗定市"
        }
    },
    {
        "id": "9807546904094963",
        "title": "公共厕所",
        "address": "广东省云浮市罗定市S352与中桂街交叉口正东方向56米左右",
        "tel": "",
        "category": "基础设施:公共设施:公共厕所",
        "type": 0,
        "location": {
            "lat": 22.709935,
            "lng": 111.316501
        },
        "ad_info": {
            "adcode": 445381,
            "province": "广东省",
            "city": "云浮市",
            "district": "罗定市"
        }
    },
    {
        "id": "4454010786782121161",
        "title": "公共厕所",
        "address": "广东省云浮市郁南县千官大道与教育路交叉口正东方向32米左右",
        "tel": "",
        "category": "基础设施:公共设施:公共厕所",
        "type": 0,
        "location": {
            "lat": 22.877315,
            "lng": 111.597501
        },
        "ad_info": {
            "adcode": 445322,
            "province": "广东省",
            "city": "云浮市",
            "district": "郁南县"
        }
    },
    {
        "id": "13741039152847447697",
        "title": "石淇湾村委公共厕所",
        "address": "广东省云浮市罗定市罗镜镇石其湾村委会卫生站东北侧80米",
        "tel": "",
        "category": "基础设施:公共设施:公共厕所",
        "type": 0,
        "location": {
            "lat": 22.534962,
            "lng": 111.444571
        },
        "ad_info": {
            "adcode": 445381,
            "province": "广东省",
            "city": "云浮市",
            "district": "罗定市"
        }
    },
    {
        "id": "8007112202332536986",
        "title": "新兴文化广场公共厕所",
        "address": "广东省云浮市新兴县祥和街新兴文化广场(西南角)",
        "tel": "",
        "category": "基础设施:公共设施:公共厕所",
        "type": 0,
        "location": {
            "lat": 22.707263,
            "lng": 112.231238
        },
        "ad_info": {
            "adcode": 445321,
            "province": "广东省",
            "city": "云浮市",
            "district": "新兴县"
        }
    },
    {
        "id": "14058956412192919226",
        "title": "公共厕所",
        "address": "广东省云浮市罗定市大新北路与宝定路交叉口东南方向52米左右",
        "tel": "",
        "category": "基础设施:公共设施:公共厕所",
        "type": 0,
        "location": {
            "lat": 22.767821,
            "lng": 111.571071
        },
        "ad_info": {
            "adcode": 445381,
            "province": "广东省",
            "city": "云浮市",
            "district": "罗定市"
        }
    },
    {
        "id": "4583849661946762263",
        "title": "洞心村公厕",
        "address": "广东省云浮市新兴县",
        "tel": "",
        "category": "基础设施:公共设施:公共厕所",
        "type": 0,
        "location": {
            "lat": 22.58433,
            "lng": 112.23838
        },
        "ad_info": {
            "adcode": 445321,
            "province": "广东省",
            "city": "云浮市",
            "district": "新兴县"
        }
    },
    {
        "id": "15531986250875174690",
        "title": "大洞山公厕",
        "address": "广东省云浮市新兴县",
        "tel": "",
        "category": "基础设施:公共设施:公共厕所",
        "type": 0,
        "location": {
            "lat": 22.599553,
            "lng": 112.235884
        },
        "ad_info": {
            "adcode": 445321,
            "province": "广东省",
            "city": "云浮市",
            "district": "新兴县"
        }
    },
    {
        "id": "5835046359628398155",
        "title": "樟村3、4队公厕",
        "address": "广东省云浮市新兴县",
        "tel": "",
        "category": "基础设施:公共设施:公共厕所",
        "type": 0,
        "location": {
            "lat": 22.597664,
            "lng": 112.231536
        },
        "ad_info": {
            "adcode": 445321,
            "province": "广东省",
            "city": "云浮市",
            "district": "新兴县"
        }
    },
    {
        "id": "7067092066086560778",
        "title": "公共厕所",
        "address": "广东省云浮市云城区S265与Y684交叉口东南方向268米左右",
        "tel": "",
        "category": "基础设施:公共设施:公共厕所",
        "type": 0,
        "location": {
            "lat": 22.810136,
            "lng": 112.123832
        },
        "ad_info": {
            "adcode": 445302,
            "province": "广东省",
            "city": "云浮市",
            "district": "云城区"
        }
    },
    {
        "id": "13085037246828747048",
        "title": "村头坊村公共厕所",
        "address": "广东省云浮市新兴县",
        "tel": "",
        "category": "基础设施:公共设施:公共厕所",
        "type": 0,
        "location": {
            "lat": 22.651521,
            "lng": 112.219864
        },
        "ad_info": {
            "adcode": 445321,
            "province": "广东省",
            "city": "云浮市",
            "district": "新兴县"
        }
    },
    {
        "id": "17805212270024140230",
        "title": "上江村公厕",
        "address": "广东省云浮市新兴县S276",
        "tel": "",
        "category": "基础设施:公共设施:公共厕所",
        "type": 0,
        "location": {
            "lat": 22.560393,
            "lng": 112.214139
        },
        "ad_info": {
            "adcode": 445321,
            "province": "广东省",
            "city": "云浮市",
            "district": "新兴县"
        }
    },
    {
        "id": "5416940094869298107",
        "title": "栢力洗手盆",
        "address": "广东省云浮市云城区G324与康民路交叉口西北方向32米左右",
        "tel": "",
        "category": "基础设施:公共设施:公共厕所",
        "type": 0,
        "location": {
            "lat": 22.934401,
            "lng": 112.187557
        },
        "ad_info": {
            "adcode": 445302,
            "province": "广东省",
            "city": "云浮市",
            "district": "云城区"
        }
    },
    {
        "id": "15289663990707363593",
        "title": "旧郎村西公共厕所",
        "address": "广东省云浮市新兴县二环路",
        "tel": "",
        "category": "基础设施:公共设施:公共厕所",
        "type": 0,
        "location": {
            "lat": 22.65669,
            "lng": 112.21979
        },
        "ad_info": {
            "adcode": 445321,
            "province": "广东省",
            "city": "云浮市",
            "district": "新兴县"
        }
    },
    {
        "id": "5153861287778949860",
        "title": "下朝公厕",
        "address": "广东省云浮市新兴县龙凤路",
        "tel": "",
        "category": "基础设施:公共设施:公共厕所",
        "type": 0,
        "location": {
            "lat": 22.588911,
            "lng": 112.242918
        },
        "ad_info": {
            "adcode": 445321,
            "province": "广东省",
            "city": "云浮市",
            "district": "新兴县"
        }
    },
    {
        "id": "13971803591852285488",
        "title": "南庆村公共厕所",
        "address": "广东省云浮市新兴县六祖大道",
        "tel": "",
        "category": "基础设施:公共设施:公共厕所",
        "type": 0,
        "location": {
            "lat": 22.652921,
            "lng": 112.222432
        },
        "ad_info": {
            "adcode": 445321,
            "province": "广东省",
            "city": "云浮市",
            "district": "新兴县"
        }
    },
    {
        "id": "9591490259419770515",
        "title": "公共厕所(罗定市太平镇嘉盈广场一楼)",
        "address": "广东省云浮市罗定市S294与城西大道交叉口正西方向302米左右",
        "tel": "",
        "category": "基础设施:公共设施:公共厕所",
        "type": 0,
        "location": {
            "lat": 22.527764,
            "lng": 111.496856
        },
        "ad_info": {
            "adcode": 445381,
            "province": "广东省",
            "city": "云浮市",
            "district": "罗定市"
        }
    }
]