[
    {
        "id": "2682825627006319027",
        "title": "公共厕所",
        "address": "新疆维吾尔自治区五家渠市人民北路952号",
        "tel": "",
        "category": "基础设施:公共设施:公共厕所",
        "type": 0,
        "location": {
            "lat": 44.171934,
            "lng": 87.546238
        },
        "ad_info": {
            "adcode": 659004,
            "province": "新疆维吾尔自治区",
            "city": "",
            "district": "五家渠市"
        }
    },
    {
        "id": "2758820055450897031",
        "title": "公共厕所",
        "address": "新疆维吾尔自治区五家渠市军垦南路阿龙造型旁",
        "tel": "",
        "category": "基础设施:公共设施:公共厕所",
        "type": 0,
        "location": {
            "lat": 44.163074,
            "lng": 87.523704
        },
        "ad_info": {
            "adcode": 659004,
            "province": "新疆维吾尔自治区",
            "city": "",
            "district": "五家渠市"
        }
    },
    {
        "id": "17318119869821816748",
        "title": "公共厕所",
        "address": "新疆维吾尔自治区五家渠市学苑北路与长征东街交叉口正西方向191米左右",
        "tel": "",
        "category": "基础设施:公共设施:公共厕所",
        "type": 0,
        "location": {
            "lat": 44.164229,
            "lng": 87.549034
        },
        "ad_info": {
            "adcode": 659004,
            "province": "新疆维吾尔自治区",
            "city": "",
            "district": "五家渠市"
        }
    },
    {
        "id": "15721125848090007394",
        "title": "公共厕所",
        "address": "新疆维吾尔自治区五家渠市友谊路与长征西街交叉口正西方向29米左右",
        "tel": "",
        "category": "基础设施:公共设施:公共厕所",
        "type": 0,
        "location": {
            "lat": 44.164855,
            "lng": 87.53004
        },
        "ad_info": {
            "adcode": 659004,
            "province": "新疆维吾尔自治区",
            "city": "",
            "district": "五家渠市"
        }
    },
    {
        "id": "11709283480788119480",
        "title": "公共厕所",
        "address": "新疆维吾尔自治区五家渠市天山北路与天山南路交叉口正北方向105米左右",
        "tel": "",
        "category": "基础设施:公共设施:公共厕所",
        "type": 0,
        "location": {
            "lat": 44.165743,
            "lng": 87.527144
        },
        "ad_info": {
            "adcode": 659004,
            "province": "新疆维吾尔自治区",
            "city": "",
            "district": "五家渠市"
        }
    },
    {
        "id": "9022574355762337267",
        "title": "公共厕所",
        "address": "新疆维吾尔自治区五家渠市五家渠葡萄谷西南侧170米",
        "tel": "",
        "category": "基础设施:公共设施:公共厕所",
        "type": 0,
        "location": {
            "lat": 44.228831,
            "lng": 87.56849
        },
        "ad_info": {
            "adcode": 659004,
            "province": "新疆维吾尔自治区",
            "city": "",
            "district": "五家渠市"
        }
    },
    {
        "id": "15483838400819065848",
        "title": "公共厕所",
        "address": "新疆维吾尔自治区五家渠市迎宾大道与青湖南路交叉口西北方向55米左右",
        "tel": "",
        "category": "基础设施:公共设施:公共厕所",
        "type": 0,
        "location": {
            "lat": 44.145288,
            "lng": 87.532571
        },
        "ad_info": {
            "adcode": 659004,
            "province": "新疆维吾尔自治区",
            "city": "",
            "district": "五家渠市"
        }
    },
    {
        "id": "11927165818486038920",
        "title": "公共厕所",
        "address": "新疆维吾尔自治区五家渠市长征东街603号",
        "tel": "",
        "category": "基础设施:公共设施:公共厕所",
        "type": 0,
        "location": {
            "lat": 44.168688,
            "lng": 87.541875
        },
        "ad_info": {
            "adcode": 659004,
            "province": "新疆维吾尔自治区",
            "city": "",
            "district": "五家渠市"
        }
    },
    {
        "id": "311655790842725341",
        "title": "公共厕所",
        "address": "新疆维吾尔自治区五家渠市振兴街与西林北路交叉口东南方向58米左右",
        "tel": "",
        "category": "基础设施:公共设施:公共厕所",
        "type": 0,
        "location": {
            "lat": 44.166935,
            "lng": 87.517063
        },
        "ad_info": {
            "adcode": 659004,
            "province": "新疆维吾尔自治区",
            "city": "",
            "district": "五家渠市"
        }
    },
    {
        "id": "12021670469197422556",
        "title": "公共厕所",
        "address": "新疆维吾尔自治区五家渠市荷花东街与荷花西街交叉口正北方向657米左右",
        "tel": "",
        "category": "基础设施:公共设施:公共厕所",
        "type": 0,
        "location": {
            "lat": 44.135115,
            "lng": 87.532315
        },
        "ad_info": {
            "adcode": 659004,
            "province": "新疆维吾尔自治区",
            "city": "",
            "district": "五家渠市"
        }
    },
    {
        "id": "664715618020237530",
        "title": "公共厕所",
        "address": "新疆维吾尔自治区五家渠市西林北路与西林路交叉口西南方向31米左右",
        "tel": "",
        "category": "基础设施:公共设施:公共厕所",
        "type": 0,
        "location": {
            "lat": 44.16426,
            "lng": 87.514948
        },
        "ad_info": {
            "adcode": 659004,
            "province": "新疆维吾尔自治区",
            "city": "",
            "district": "五家渠市"
        }
    },
    {
        "id": "5193173214759239536",
        "title": "公共厕所",
        "address": "新疆维吾尔自治区五家渠市长征东街与长征西街交叉口正东方向143米左右",
        "tel": "",
        "category": "基础设施:公共设施:公共厕所",
        "type": 0,
        "location": {
            "lat": 44.164883,
            "lng": 87.536121
        },
        "ad_info": {
            "adcode": 659004,
            "province": "新疆维吾尔自治区",
            "city": "",
            "district": "五家渠市"
        }
    },
    {
        "id": "10737587375175618204",
        "title": "公共厕所",
        "address": "新疆维吾尔自治区五家渠市香甜路103团中学",
        "tel": "",
        "category": "基础设施:公共设施:公共厕所",
        "type": 0,
        "location": {
            "lat": 44.40591,
            "lng": 87.534528
        },
        "ad_info": {
            "adcode": 659004,
            "province": "新疆维吾尔自治区",
            "city": "",
            "district": "五家渠市"
        }
    },
    {
        "id": "13258937659317742088",
        "title": "公共厕所",
        "address": "新疆维吾尔自治区五家渠市富强东街与富强西街交叉口正东方向32米左右",
        "tel": "",
        "category": "基础设施:公共设施:公共厕所",
        "type": 0,
        "location": {
            "lat": 44.162303,
            "lng": 87.534609
        },
        "ad_info": {
            "adcode": 659004,
            "province": "新疆维吾尔自治区",
            "city": "",
            "district": "五家渠市"
        }
    },
    {
        "id": "10685544180255330242",
        "title": "公共厕所",
        "address": "新疆维吾尔自治区五家渠市西林北路与西林路交叉口东北方向32米左右",
        "tel": "",
        "category": "基础设施:公共设施:公共厕所",
        "type": 0,
        "location": {
            "lat": 44.16466,
            "lng": 87.515486
        },
        "ad_info": {
            "adcode": 659004,
            "province": "新疆维吾尔自治区",
            "city": "",
            "district": "五家渠市"
        }
    },
    {
        "id": "9619484199529094418",
        "title": "公共厕所",
        "address": "新疆维吾尔自治区五家渠市猛进南路与猛进路交叉口正南方向571米左右",
        "tel": "",
        "category": "基础设施:公共设施:公共厕所",
        "type": 0,
        "location": {
            "lat": 44.143522,
            "lng": 87.552003
        },
        "ad_info": {
            "adcode": 659004,
            "province": "新疆维吾尔自治区",
            "city": "",
            "district": "五家渠市"
        }
    },
    {
        "id": "4045471556012046813",
        "title": "公共厕所",
        "address": "新疆维吾尔自治区五家渠市荷花东街与荷花西街交叉口东北方向242米左右",
        "tel": "",
        "category": "基础设施:公共设施:公共厕所",
        "type": 0,
        "location": {
            "lat": 44.131224,
            "lng": 87.537073
        },
        "ad_info": {
            "adcode": 659004,
            "province": "新疆维吾尔自治区",
            "city": "",
            "district": "五家渠市"
        }
    },
    {
        "id": "16170096988392786192",
        "title": "公共厕所",
        "address": "新疆维吾尔自治区五家渠市荷花东街与荷花西街交叉口东北方向982米左右",
        "tel": "",
        "category": "基础设施:公共设施:公共厕所",
        "type": 0,
        "location": {
            "lat": 44.133613,
            "lng": 87.546034
        },
        "ad_info": {
            "adcode": 659004,
            "province": "新疆维吾尔自治区",
            "city": "",
            "district": "五家渠市"
        }
    },
    {
        "id": "13677327841224605390",
        "title": "滨河公园厕所",
        "address": "新疆维吾尔自治区五家渠市滨河北路与长征东街交叉口正南方向479米左右",
        "tel": "",
        "category": "基础设施:公共设施:公共厕所",
        "type": 0,
        "location": {
            "lat": 44.160565,
            "lng": 87.540692
        },
        "ad_info": {
            "adcode": 659004,
            "province": "新疆维吾尔自治区",
            "city": "",
            "district": "五家渠市"
        }
    },
    {
        "id": "5654979269525633355",
        "title": "公共厕所",
        "address": "新疆维吾尔自治区五家渠市新华西街96号",
        "tel": "",
        "category": "基础设施:公共设施:公共厕所",
        "type": 0,
        "location": {
            "lat": 44.154006,
            "lng": 87.534332
        },
        "ad_info": {
            "adcode": 659004,
            "province": "新疆维吾尔自治区",
            "city": "",
            "district": "五家渠市"
        }
    },
    {
        "id": "1298058111173036532",
        "title": "友谊公共厕所",
        "address": "新疆维吾尔自治区五家渠市友谊路348号",
        "tel": "",
        "category": "基础设施:公共设施:公共厕所",
        "type": 0,
        "location": {
            "lat": 44.168774,
            "lng": 87.530545
        },
        "ad_info": {
            "adcode": 659004,
            "province": "新疆维吾尔自治区",
            "city": "",
            "district": "五家渠市"
        }
    },
    {
        "id": "18263153520775317717",
        "title": "五家渠青格达湖旅游风景区-公共厕所",
        "address": "新疆维吾尔自治区五家渠市荷花东街与荷花西街交叉口正南方向47米左右",
        "tel": "",
        "category": "基础设施:公共设施:公共厕所",
        "type": 0,
        "location": {
            "lat": 44.129155,
            "lng": 87.534915
        },
        "ad_info": {
            "adcode": 659004,
            "province": "新疆维吾尔自治区",
            "city": "",
            "district": "五家渠市"
        }
    },
    {
        "id": "18218116978257574386",
        "title": "文化广场(长征西街)公共厕所",
        "address": "新疆维吾尔自治区五家渠市天山北路与振兴街交叉口西南方向74米左右",
        "tel": "",
        "category": "基础设施:公共设施:公共厕所",
        "type": 0,
        "location": {
            "lat": 44.16617,
            "lng": 87.5271
        },
        "ad_info": {
            "adcode": 659004,
            "province": "新疆维吾尔自治区",
            "city": "",
            "district": "五家渠市"
        }
    }
]