[
    {
        "id": "14477908781403746446",
        "title": "公共厕所",
        "address": "海南省五指山市三月三大道与逸清路交叉口正东方向179米左右",
        "tel": "",
        "category": "基础设施:公共设施:公共厕所",
        "type": 0,
        "location": {
            "lat": 18.769435,
            "lng": 109.522347
        },
        "ad_info": {
            "adcode": 469001,
            "province": "海南省",
            "city": "",
            "district": "五指山市"
        }
    },
    {
        "id": "5042956898910550380",
        "title": "公共厕所",
        "address": "海南省五指山市怡景路与逸清路交叉口正西方向61米左右",
        "tel": "",
        "category": "基础设施:公共设施:公共厕所",
        "type": 0,
        "location": {
            "lat": 18.769327,
            "lng": 109.524448
        },
        "ad_info": {
            "adcode": 469001,
            "province": "海南省",
            "city": "",
            "district": "五指山市"
        }
    },
    {
        "id": "5573939829473863342",
        "title": "公共厕所",
        "address": "海南省五指山市环市西路与理文路交叉口正北方向57米左右",
        "tel": "",
        "category": "基础设施:公共设施:公共厕所",
        "type": 0,
        "location": {
            "lat": 18.770719,
            "lng": 109.51431
        },
        "ad_info": {
            "adcode": 469001,
            "province": "海南省",
            "city": "",
            "district": "五指山市"
        }
    },
    {
        "id": "18110125168260840889",
        "title": "公共厕所",
        "address": "海南省五指山市河南东路与翡翠大道交叉口正西方向111米左右",
        "tel": "",
        "category": "基础设施:公共设施:公共厕所",
        "type": 0,
        "location": {
            "lat": 18.76871,
            "lng": 109.52909
        },
        "ad_info": {
            "adcode": 469001,
            "province": "海南省",
            "city": "",
            "district": "五指山市"
        }
    },
    {
        "id": "8066367644036089968",
        "title": "公共厕所",
        "address": "海南省五指山市通什镇解放路总工会后面",
        "tel": "",
        "category": "基础设施:公共设施:公共厕所",
        "type": 0,
        "location": {
            "lat": 18.775034,
            "lng": 109.513806
        },
        "ad_info": {
            "adcode": 469001,
            "province": "海南省",
            "city": "",
            "district": "五指山市"
        }
    },
    {
        "id": "12414616415958397069",
        "title": "公共厕所",
        "address": "海南省五指山市海榆北路62号",
        "tel": "",
        "category": "基础设施:公共设施:公共厕所",
        "type": 0,
        "location": {
            "lat": 18.781094,
            "lng": 109.520695
        },
        "ad_info": {
            "adcode": 469001,
            "province": "海南省",
            "city": "",
            "district": "五指山市"
        }
    },
    {
        "id": "13468134558260225256",
        "title": "公共厕所",
        "address": "海南省五指山市天文路与河南东路交叉口正东方向157米左右",
        "tel": "",
        "category": "基础设施:公共设施:公共厕所",
        "type": 0,
        "location": {
            "lat": 18.773837,
            "lng": 109.523955
        },
        "ad_info": {
            "adcode": 469001,
            "province": "海南省",
            "city": "",
            "district": "五指山市"
        }
    },
    {
        "id": "17943935331957907666",
        "title": "公共厕所",
        "address": "海南省五指山市山兰路与河南西路交叉口东南方向26米左右",
        "tel": "",
        "category": "基础设施:公共设施:公共厕所",
        "type": 0,
        "location": {
            "lat": 18.778775,
            "lng": 109.518201
        },
        "ad_info": {
            "adcode": 469001,
            "province": "海南省",
            "city": "",
            "district": "五指山市"
        }
    },
    {
        "id": "2415185591027621368",
        "title": "公共厕所",
        "address": "海南省五指山市正义路与翡翠大道交叉口正东方向137米左右",
        "tel": "",
        "category": "基础设施:公共设施:公共厕所",
        "type": 0,
        "location": {
            "lat": 18.775417,
            "lng": 109.526782
        },
        "ad_info": {
            "adcode": 469001,
            "province": "海南省",
            "city": "",
            "district": "五指山市"
        }
    },
    {
        "id": "14810943650892941442",
        "title": "公共厕所",
        "address": "海南省五指山市山兰路与解放路交叉口东南方向64米左右",
        "tel": "",
        "category": "基础设施:公共设施:公共厕所",
        "type": 0,
        "location": {
            "lat": 18.777539,
            "lng": 109.518242
        },
        "ad_info": {
            "adcode": 469001,
            "province": "海南省",
            "city": "",
            "district": "五指山市"
        }
    },
    {
        "id": "9604786501877650432",
        "title": "公共厕所",
        "address": "海南省五指山市南水路与振兴路交叉口东北方向829米左右",
        "tel": "",
        "category": "基础设施:公共设施:公共厕所",
        "type": 0,
        "location": {
            "lat": 18.741475,
            "lng": 109.600792
        },
        "ad_info": {
            "adcode": 469001,
            "province": "海南省",
            "city": "",
            "district": "五指山市"
        }
    },
    {
        "id": "11754986710817568085",
        "title": "公共厕所",
        "address": "海南省五指山市天文路与河南东路交叉口东南方向123米左右",
        "tel": "",
        "category": "基础设施:公共设施:公共厕所",
        "type": 0,
        "location": {
            "lat": 18.77257,
            "lng": 109.523126
        },
        "ad_info": {
            "adcode": 469001,
            "province": "海南省",
            "city": "",
            "district": "五指山市"
        }
    },
    {
        "id": "9452704491255227771",
        "title": "公共厕所",
        "address": "海南省五指山市三月三大道与海榆中线交叉口正南方向61米左右",
        "tel": "",
        "category": "基础设施:公共设施:公共厕所",
        "type": 0,
        "location": {
            "lat": 18.788165,
            "lng": 109.518754
        },
        "ad_info": {
            "adcode": 469001,
            "province": "海南省",
            "city": "",
            "district": "五指山市"
        }
    },
    {
        "id": "17070549890343117260",
        "title": "公共厕所",
        "address": "海南省五指山市三月三大道与澜湖路交叉口西北方向50米左右",
        "tel": "",
        "category": "基础设施:公共设施:公共厕所",
        "type": 0,
        "location": {
            "lat": 18.762723,
            "lng": 109.527884
        },
        "ad_info": {
            "adcode": 469001,
            "province": "海南省",
            "city": "",
            "district": "五指山市"
        }
    },
    {
        "id": "11649597799338101775",
        "title": "公共厕所",
        "address": "海南省五指山市三月三大道与正气路交叉口正南方向101米左右",
        "tel": "",
        "category": "基础设施:公共设施:公共厕所",
        "type": 0,
        "location": {
            "lat": 18.781899,
            "lng": 109.518318
        },
        "ad_info": {
            "adcode": 469001,
            "province": "海南省",
            "city": "",
            "district": "五指山市"
        }
    },
    {
        "id": "441727683145997963",
        "title": "公共厕所",
        "address": "海南省五指山市三月三大道与国兴路交叉口正东方向97米左右",
        "tel": "",
        "category": "基础设施:公共设施:公共厕所",
        "type": 0,
        "location": {
            "lat": 18.77522,
            "lng": 109.519359
        },
        "ad_info": {
            "adcode": 469001,
            "province": "海南省",
            "city": "",
            "district": "五指山市"
        }
    },
    {
        "id": "18346479074271478756",
        "title": "公共厕所",
        "address": "海南省五指山市理文路与香格里路交叉口正东方向37米左右",
        "tel": "",
        "category": "基础设施:公共设施:公共厕所",
        "type": 0,
        "location": {
            "lat": 18.765911,
            "lng": 109.519292
        },
        "ad_info": {
            "adcode": 469001,
            "province": "海南省",
            "city": "",
            "district": "五指山市"
        }
    },
    {
        "id": "1736408726790861667",
        "title": "公共厕所",
        "address": "海南省五指山市河南东路与河南西路交叉口西南方向16米左右",
        "tel": "",
        "category": "基础设施:公共设施:公共厕所",
        "type": 0,
        "location": {
            "lat": 18.777586,
            "lng": 109.519665
        },
        "ad_info": {
            "adcode": 469001,
            "province": "海南省",
            "city": "",
            "district": "五指山市"
        }
    },
    {
        "id": "10169381470705291097",
        "title": "五指山亚泰雨林酒店-洗手间",
        "address": "海南省五指山市水满乡五指山国家级自然保护区雅宾区",
        "tel": "",
        "category": "基础设施:公共设施:公共厕所",
        "type": 0,
        "location": {
            "lat": 18.90534,
            "lng": 109.679787
        },
        "ad_info": {
            "adcode": 469001,
            "province": "海南省",
            "city": "",
            "district": "五指山市"
        }
    },
    {
        "id": "13472995343270914028",
        "title": "毛阳停车区公共厕所",
        "address": "海南省五指山市海三高速",
        "tel": "",
        "category": "基础设施:公共设施:公共厕所",
        "type": 0,
        "location": {
            "lat": 18.931104,
            "lng": 109.464952
        },
        "ad_info": {
            "adcode": 469001,
            "province": "海南省",
            "city": "",
            "district": "五指山市"
        }
    },
    {
        "id": "12932656028259471073",
        "title": "华爵商务酒店-洗手间",
        "address": "海南省五指山市越丰路18号",
        "tel": "",
        "category": "基础设施:公共设施:公共厕所",
        "type": 0,
        "location": {
            "lat": 18.770519,
            "lng": 109.518199
        },
        "ad_info": {
            "adcode": 469001,
            "province": "海南省",
            "city": "",
            "district": "五指山市"
        }
    },
    {
        "id": "13772191081859267922",
        "title": "毛阳停车区公共厕所",
        "address": "海南省五指山市中线高速",
        "tel": "",
        "category": "基础设施:公共设施:公共厕所",
        "type": 0,
        "location": {
            "lat": 18.931547,
            "lng": 109.470075
        },
        "ad_info": {
            "adcode": 469001,
            "province": "海南省",
            "city": "",
            "district": "五指山市"
        }
    }
]