[
    {
        "id": "5875833523398450642",
        "title": "公共厕所",
        "address": "安徽省亳州市谯城区希夷大道与芍花路交叉口正西方向113米左右",
        "tel": "",
        "category": "基础设施:公共设施:公共厕所",
        "type": 0,
        "location": {
            "lat": 33.848404,
            "lng": 115.779201
        },
        "ad_info": {
            "adcode": 341602,
            "province": "安徽省",
            "city": "亳州市",
            "district": "谯城区"
        }
    },
    {
        "id": "15706149509857215262",
        "title": "公共厕所",
        "address": "安徽省亳州市谯城区嵇康路与紫苑路交叉口南180米",
        "tel": "",
        "category": "基础设施:公共设施:公共厕所",
        "type": 0,
        "location": {
            "lat": 33.823411,
            "lng": 115.783448
        },
        "ad_info": {
            "adcode": 341602,
            "province": "安徽省",
            "city": "亳州市",
            "district": "谯城区"
        }
    },
    {
        "id": "13303336109519557581",
        "title": "公共厕所",
        "address": "安徽省亳州市蒙城县刘海路与秋水路交叉口正西方向56米左右",
        "tel": "",
        "category": "基础设施:公共设施:公共厕所",
        "type": 0,
        "location": {
            "lat": 33.258766,
            "lng": 116.583486
        },
        "ad_info": {
            "adcode": 341622,
            "province": "安徽省",
            "city": "亳州市",
            "district": "蒙城县"
        }
    },
    {
        "id": "4744814127516616355",
        "title": "公共厕所",
        "address": "安徽省亳州市谯城区合欢路与汤王大道交叉口西南方向126米左右",
        "tel": "",
        "category": "基础设施:公共设施:公共厕所",
        "type": 0,
        "location": {
            "lat": 33.778457,
            "lng": 115.763828
        },
        "ad_info": {
            "adcode": 341602,
            "province": "安徽省",
            "city": "亳州市",
            "district": "谯城区"
        }
    },
    {
        "id": "9305244787060864346",
        "title": "公共厕所",
        "address": "安徽省亳州市谯城区人民路与董园巷交叉口正南方向276米左右",
        "tel": "",
        "category": "基础设施:公共设施:公共厕所",
        "type": 0,
        "location": {
            "lat": 33.868704,
            "lng": 115.793529
        },
        "ad_info": {
            "adcode": 341602,
            "province": "安徽省",
            "city": "亳州市",
            "district": "谯城区"
        }
    },
    {
        "id": "18406066523306971433",
        "title": "公共厕所",
        "address": "安徽省亳州市谯城区嵇康路亳州市政公园",
        "tel": "",
        "category": "基础设施:公共设施:公共厕所",
        "type": 0,
        "location": {
            "lat": 33.80806,
            "lng": 115.782411
        },
        "ad_info": {
            "adcode": 341602,
            "province": "安徽省",
            "city": "亳州市",
            "district": "谯城区"
        }
    },
    {
        "id": "5091552992185622572",
        "title": "公共厕所",
        "address": "安徽省亳州市谯城区古井大道与酒城大道交叉口西南方向256米左右",
        "tel": "",
        "category": "基础设施:公共设施:公共厕所",
        "type": 0,
        "location": {
            "lat": 33.786853,
            "lng": 115.714563
        },
        "ad_info": {
            "adcode": 341602,
            "province": "安徽省",
            "city": "亳州市",
            "district": "谯城区"
        }
    },
    {
        "id": "5016966296872557976",
        "title": "公共卫生间",
        "address": "安徽省亳州市谯城区汤王大道与芍花路交叉口正东方向414米左右",
        "tel": "",
        "category": "基础设施:公共设施:公共厕所",
        "type": 0,
        "location": {
            "lat": 33.848501,
            "lng": 115.770191
        },
        "ad_info": {
            "adcode": 341602,
            "province": "安徽省",
            "city": "亳州市",
            "district": "谯城区"
        }
    },
    {
        "id": "9963829852245824353",
        "title": "公共厕所",
        "address": "安徽省亳州市利辛县国强路与建设北路交叉口东北方向151米左右",
        "tel": "",
        "category": "基础设施:公共设施:公共厕所",
        "type": 0,
        "location": {
            "lat": 33.1515,
            "lng": 116.210912
        },
        "ad_info": {
            "adcode": 341623,
            "province": "安徽省",
            "city": "亳州市",
            "district": "利辛县"
        }
    },
    {
        "id": "13372740228751264516",
        "title": "公共厕所",
        "address": "安徽省亳州市谯城区G105与梅北路交叉口西南方向374米左右",
        "tel": "",
        "category": "基础设施:公共设施:公共厕所",
        "type": 0,
        "location": {
            "lat": 33.746066,
            "lng": 115.703503
        },
        "ad_info": {
            "adcode": 341602,
            "province": "安徽省",
            "city": "亳州市",
            "district": "谯城区"
        }
    },
    {
        "id": "5618936689224392779",
        "title": "公共厕所",
        "address": "安徽省亳州市谯城区东寨外街与魏武大道交叉口正东方向56米左右",
        "tel": "",
        "category": "基础设施:公共设施:公共厕所",
        "type": 0,
        "location": {
            "lat": 33.884908,
            "lng": 115.791138
        },
        "ad_info": {
            "adcode": 341602,
            "province": "安徽省",
            "city": "亳州市",
            "district": "谯城区"
        }
    },
    {
        "id": "17919483980255929780",
        "title": "公共厕所",
        "address": "安徽省亳州市蒙城县五爱巷与北蒙大道交叉口东北方向103米左右",
        "tel": "",
        "category": "基础设施:公共设施:公共厕所",
        "type": 0,
        "location": {
            "lat": 33.271979,
            "lng": 116.556426
        },
        "ad_info": {
            "adcode": 341622,
            "province": "安徽省",
            "city": "亳州市",
            "district": "蒙城县"
        }
    },
    {
        "id": "6599750035278934249",
        "title": "公共厕所",
        "address": "安徽省亳州市谯城区亳州中药材商品交易中心",
        "tel": "",
        "category": "基础设施:公共设施:公共厕所",
        "type": 0,
        "location": {
            "lat": 33.800381,
            "lng": 115.789518
        },
        "ad_info": {
            "adcode": 341602,
            "province": "安徽省",
            "city": "亳州市",
            "district": "谯城区"
        }
    },
    {
        "id": "7549414778452120681",
        "title": "公共厕所",
        "address": "安徽省亳州市蒙城县八蔡路与北蒙大道交叉口西北方向100米左右",
        "tel": "",
        "category": "基础设施:公共设施:公共厕所",
        "type": 0,
        "location": {
            "lat": 33.233025,
            "lng": 116.546742
        },
        "ad_info": {
            "adcode": 341622,
            "province": "安徽省",
            "city": "亳州市",
            "district": "蒙城县"
        }
    },
    {
        "id": "16568104915371552777",
        "title": "公共厕所",
        "address": "安徽省亳州市谯城区希夷大道与药都路交叉口西北方向137米左右",
        "tel": "",
        "category": "基础设施:公共设施:公共厕所",
        "type": 0,
        "location": {
            "lat": 33.840433,
            "lng": 115.777307
        },
        "ad_info": {
            "adcode": 341602,
            "province": "安徽省",
            "city": "亳州市",
            "district": "谯城区"
        }
    },
    {
        "id": "17781859840848785113",
        "title": "公共厕所",
        "address": "安徽省亳州市蒙城县八蔡路与齐山路交叉口西南方向36米左右",
        "tel": "",
        "category": "基础设施:公共设施:公共厕所",
        "type": 0,
        "location": {
            "lat": 33.233478,
            "lng": 116.539187
        },
        "ad_info": {
            "adcode": 341622,
            "province": "安徽省",
            "city": "亳州市",
            "district": "蒙城县"
        }
    },
    {
        "id": "12519321890791668869",
        "title": "公共厕所",
        "address": "安徽省亳州市谯城区农贸城内",
        "tel": "",
        "category": "基础设施:公共设施:公共厕所",
        "type": 0,
        "location": {
            "lat": 33.884657,
            "lng": 115.801641
        },
        "ad_info": {
            "adcode": 341602,
            "province": "安徽省",
            "city": "亳州市",
            "district": "谯城区"
        }
    },
    {
        "id": "4285308514449132323",
        "title": "公共厕所",
        "address": "安徽省亳州市蒙城县涡河路与漆园街交叉口西北方向38米左右",
        "tel": "",
        "category": "基础设施:公共设施:公共厕所",
        "type": 0,
        "location": {
            "lat": 33.270824,
            "lng": 116.557966
        },
        "ad_info": {
            "adcode": 341622,
            "province": "安徽省",
            "city": "亳州市",
            "district": "蒙城县"
        }
    },
    {
        "id": "17873867509219420550",
        "title": "公共厕所",
        "address": "安徽省亳州市谯城区养生大道与张良路交叉口东南方向105米左右",
        "tel": "",
        "category": "基础设施:公共设施:公共厕所",
        "type": 0,
        "location": {
            "lat": 33.817013,
            "lng": 115.731348
        },
        "ad_info": {
            "adcode": 341602,
            "province": "安徽省",
            "city": "亳州市",
            "district": "谯城区"
        }
    },
    {
        "id": "3803596801457894020",
        "title": "公共厕所",
        "address": "安徽省亳州市蒙城县西一路与阜蒙河路交叉口西北方向110米左右",
        "tel": "",
        "category": "基础设施:公共设施:公共厕所",
        "type": 0,
        "location": {
            "lat": 33.253181,
            "lng": 116.531255
        },
        "ad_info": {
            "adcode": 341622,
            "province": "安徽省",
            "city": "亳州市",
            "district": "蒙城县"
        }
    },
    {
        "id": "9969040199031897750",
        "title": "公共厕所",
        "address": "安徽省亳州市利辛县向阳中路与晴岚路交汇处北50米路西",
        "tel": "",
        "category": "基础设施:公共设施:公共厕所",
        "type": 0,
        "location": {
            "lat": 33.142398,
            "lng": 116.181992
        },
        "ad_info": {
            "adcode": 341623,
            "province": "安徽省",
            "city": "亳州市",
            "district": "利辛县"
        }
    },
    {
        "id": "12257689699165962883",
        "title": "公共厕所",
        "address": "安徽省亳州市利辛县建设中路与建设北路交叉口西北方向115米左右",
        "tel": "",
        "category": "基础设施:公共设施:公共厕所",
        "type": 0,
        "location": {
            "lat": 33.148674,
            "lng": 116.210136
        },
        "ad_info": {
            "adcode": 341623,
            "province": "安徽省",
            "city": "亳州市",
            "district": "利辛县"
        }
    },
    {
        "id": "15367035925921755218",
        "title": "公共厕所",
        "address": "安徽省亳州市谯城区文化巷与魏武大道交叉口正北方向123米左右",
        "tel": "",
        "category": "基础设施:公共设施:公共厕所",
        "type": 0,
        "location": {
            "lat": 33.87045,
            "lng": 115.78795
        },
        "ad_info": {
            "adcode": 341602,
            "province": "安徽省",
            "city": "亳州市",
            "district": "谯城区"
        }
    },
    {
        "id": "1168935320429136538",
        "title": "公共厕所",
        "address": "安徽省亳州市谯城区香蒲路819号",
        "tel": "",
        "category": "基础设施:公共设施:公共厕所",
        "type": 0,
        "location": {
            "lat": 33.81313,
            "lng": 115.797787
        },
        "ad_info": {
            "adcode": 341602,
            "province": "安徽省",
            "city": "亳州市",
            "district": "谯城区"
        }
    },
    {
        "id": "7369760678825628568",
        "title": "公共厕所",
        "address": "安徽省亳州市谯城区人民路与新华南路交叉口西北方向138米左右",
        "tel": "",
        "category": "基础设施:公共设施:公共厕所",
        "type": 0,
        "location": {
            "lat": 33.8726,
            "lng": 115.779293
        },
        "ad_info": {
            "adcode": 341602,
            "province": "安徽省",
            "city": "亳州市",
            "district": "谯城区"
        }
    },
    {
        "id": "3658673792946224067",
        "title": "公共厕所",
        "address": "安徽省亳州市谯城区亳阜路与芍花路交叉口西南方向283米左右",
        "tel": "",
        "category": "基础设施:公共设施:公共厕所",
        "type": 0,
        "location": {
            "lat": 33.845774,
            "lng": 115.774297
        },
        "ad_info": {
            "adcode": 341602,
            "province": "安徽省",
            "city": "亳州市",
            "district": "谯城区"
        }
    },
    {
        "id": "16890337984455366554",
        "title": "公共厕所",
        "address": "安徽省亳州市谯城区减王路与怀花酒路交叉口正西方向272米左右",
        "tel": "",
        "category": "基础设施:公共设施:公共厕所",
        "type": 0,
        "location": {
            "lat": 33.988051,
            "lng": 115.675896
        },
        "ad_info": {
            "adcode": 341602,
            "province": "安徽省",
            "city": "亳州市",
            "district": "谯城区"
        }
    },
    {
        "id": "17778369770820546236",
        "title": "公共厕所",
        "address": "安徽省亳州市谯城区涡阳路建安中学东南侧约100米",
        "tel": "",
        "category": "基础设施:公共设施:公共厕所",
        "type": 0,
        "location": {
            "lat": 33.866554,
            "lng": 115.769814
        },
        "ad_info": {
            "adcode": 341602,
            "province": "安徽省",
            "city": "亳州市",
            "district": "谯城区"
        }
    },
    {
        "id": "12686512063901490308",
        "title": "公共厕所",
        "address": "安徽省亳州市谯城区白衣路与香港步行街交叉口东北方向112米左右",
        "tel": "",
        "category": "基础设施:公共设施:公共厕所",
        "type": 0,
        "location": {
            "lat": 33.853493,
            "lng": 115.793134
        },
        "ad_info": {
            "adcode": 341602,
            "province": "安徽省",
            "city": "亳州市",
            "district": "谯城区"
        }
    },
    {
        "id": "727005231469616415",
        "title": "公共厕所",
        "address": "安徽省亳州市蒙城县北蒙大道与鲲鹏路交叉口正北方向169米左右",
        "tel": "",
        "category": "基础设施:公共设施:公共厕所",
        "type": 0,
        "location": {
            "lat": 33.251447,
            "lng": 116.551149
        },
        "ad_info": {
            "adcode": 341622,
            "province": "安徽省",
            "city": "亳州市",
            "district": "蒙城县"
        }
    },
    {
        "id": "15194841543451591495",
        "title": "公共厕所",
        "address": "安徽省亳州市蒙城县再就业一条街与民政街交叉口正东方向71米左右",
        "tel": "",
        "category": "基础设施:公共设施:公共厕所",
        "type": 0,
        "location": {
            "lat": 33.262662,
            "lng": 116.563555
        },
        "ad_info": {
            "adcode": 341622,
            "province": "安徽省",
            "city": "亳州市",
            "district": "蒙城县"
        }
    },
    {
        "id": "10483646308543347598",
        "title": "公共厕所",
        "address": "安徽省亳州市蒙城县水杉大道与新时代大道交叉口东北120米",
        "tel": "",
        "category": "基础设施:公共设施:公共厕所",
        "type": 0,
        "location": {
            "lat": 33.193544,
            "lng": 116.666526
        },
        "ad_info": {
            "adcode": 341622,
            "province": "安徽省",
            "city": "亳州市",
            "district": "蒙城县"
        }
    },
    {
        "id": "13724958372458443942",
        "title": "公共厕所",
        "address": "安徽省亳州市谯城区古泉路与新华北路交叉口东北方向313米左右",
        "tel": "",
        "category": "基础设施:公共设施:公共厕所",
        "type": 0,
        "location": {
            "lat": 33.892717,
            "lng": 115.78254
        },
        "ad_info": {
            "adcode": 341602,
            "province": "安徽省",
            "city": "亳州市",
            "district": "谯城区"
        }
    },
    {
        "id": "5747368528666919384",
        "title": "公共厕所",
        "address": "安徽省亳州市蒙城县漆园办事处二里杨花仙子幼儿园南",
        "tel": "",
        "category": "基础设施:公共设施:公共厕所",
        "type": 0,
        "location": {
            "lat": 33.261375,
            "lng": 116.55525
        },
        "ad_info": {
            "adcode": 341622,
            "province": "安徽省",
            "city": "亳州市",
            "district": "蒙城县"
        }
    },
    {
        "id": "13263528865124117411",
        "title": "公共厕所",
        "address": "安徽省亳州市谯城区陵西湖公园停车场附近小广场",
        "tel": "",
        "category": "基础设施:公共设施:公共厕所",
        "type": 0,
        "location": {
            "lat": 33.90356,
            "lng": 115.776454
        },
        "ad_info": {
            "adcode": 341602,
            "province": "安徽省",
            "city": "亳州市",
            "district": "谯城区"
        }
    },
    {
        "id": "9842000215478887831",
        "title": "公共厕所",
        "address": "安徽省亳州市利辛县浩翔路与霸王路交叉口西北方向19米左右",
        "tel": "",
        "category": "基础设施:公共设施:公共厕所",
        "type": 0,
        "location": {
            "lat": 33.142033,
            "lng": 116.203406
        },
        "ad_info": {
            "adcode": 341623,
            "province": "安徽省",
            "city": "亳州市",
            "district": "利辛县"
        }
    },
    {
        "id": "1335308276827620212",
        "title": "公共厕所",
        "address": "安徽省亳州市蒙城县宝塔路与望月路交叉口正东方向106米左右",
        "tel": "",
        "category": "基础设施:公共设施:公共厕所",
        "type": 0,
        "location": {
            "lat": 33.26329,
            "lng": 116.551073
        },
        "ad_info": {
            "adcode": 341622,
            "province": "安徽省",
            "city": "亳州市",
            "district": "蒙城县"
        }
    },
    {
        "id": "13736137049760242980",
        "title": "公共厕所",
        "address": "安徽省亳州市谯城区南京巷与和平路交叉口正北方向68米左右",
        "tel": "",
        "category": "基础设施:公共设施:公共厕所",
        "type": 0,
        "location": {
            "lat": 33.880092,
            "lng": 115.775533
        },
        "ad_info": {
            "adcode": 341602,
            "province": "安徽省",
            "city": "亳州市",
            "district": "谯城区"
        }
    },
    {
        "id": "1115741585744195224",
        "title": "公共厕所",
        "address": "安徽省亳州市谯城区木兰大道与杜仲路交叉口正北方向79米左右",
        "tel": "",
        "category": "基础设施:公共设施:公共厕所",
        "type": 0,
        "location": {
            "lat": 33.830549,
            "lng": 115.81687
        },
        "ad_info": {
            "adcode": 341602,
            "province": "安徽省",
            "city": "亳州市",
            "district": "谯城区"
        }
    },
    {
        "id": "16257357437724358739",
        "title": "公共厕所",
        "address": "安徽省亳州市蒙城县发达路与鲲鹏路交叉口正南方向122米左右",
        "tel": "",
        "category": "基础设施:公共设施:公共厕所",
        "type": 0,
        "location": {
            "lat": 33.248473,
            "lng": 116.552933
        },
        "ad_info": {
            "adcode": 341622,
            "province": "安徽省",
            "city": "亳州市",
            "district": "蒙城县"
        }
    },
    {
        "id": "10805425899960900190",
        "title": "公共厕所",
        "address": "安徽省亳州市涡阳县九龙大道与站前路交叉口正东方向364米左右",
        "tel": "",
        "category": "基础设施:公共设施:公共厕所",
        "type": 0,
        "location": {
            "lat": 33.488563,
            "lng": 116.239957
        },
        "ad_info": {
            "adcode": 341621,
            "province": "安徽省",
            "city": "亳州市",
            "district": "涡阳县"
        }
    },
    {
        "id": "15299266163302250363",
        "title": "公共厕所",
        "address": "安徽省亳州市谯城区州后街134号",
        "tel": "",
        "category": "基础设施:公共设施:公共厕所",
        "type": 0,
        "location": {
            "lat": 33.87505,
            "lng": 115.781639
        },
        "ad_info": {
            "adcode": 341602,
            "province": "安徽省",
            "city": "亳州市",
            "district": "谯城区"
        }
    },
    {
        "id": "3632116773428956137",
        "title": "公共厕所",
        "address": "安徽省亳州市利辛县S238与团结路交叉口西南方向42米左右",
        "tel": "",
        "category": "基础设施:公共设施:公共厕所",
        "type": 0,
        "location": {
            "lat": 33.212359,
            "lng": 115.960986
        },
        "ad_info": {
            "adcode": 341623,
            "province": "安徽省",
            "city": "亳州市",
            "district": "利辛县"
        }
    },
    {
        "id": "11085513192842417158",
        "title": "公共厕所",
        "address": "安徽省亳州市利辛县S312与老利凤路交叉口西北方向63米左右",
        "tel": "",
        "category": "基础设施:公共设施:公共厕所",
        "type": 0,
        "location": {
            "lat": 32.993129,
            "lng": 116.336077
        },
        "ad_info": {
            "adcode": 341623,
            "province": "安徽省",
            "city": "亳州市",
            "district": "利辛县"
        }
    },
    {
        "id": "3165763446873934901",
        "title": "公共厕所",
        "address": "安徽省亳州市利辛县彰阳路与文化路交叉口正南方向126米左右",
        "tel": "",
        "category": "基础设施:公共设施:公共厕所",
        "type": 0,
        "location": {
            "lat": 33.017276,
            "lng": 116.113942
        },
        "ad_info": {
            "adcode": 341623,
            "province": "安徽省",
            "city": "亳州市",
            "district": "利辛县"
        }
    },
    {
        "id": "13408609564994107991",
        "title": "公共厕所",
        "address": "安徽省亳州市蒙城县南华路与商城西路交叉口正北方向103米左右",
        "tel": "",
        "category": "基础设施:公共设施:公共厕所",
        "type": 0,
        "location": {
            "lat": 33.257184,
            "lng": 116.556603
        },
        "ad_info": {
            "adcode": 341622,
            "province": "安徽省",
            "city": "亳州市",
            "district": "蒙城县"
        }
    },
    {
        "id": "3522019394030549774",
        "title": "公共厕所",
        "address": "安徽省亳州市蒙城县兴城东路16号",
        "tel": "",
        "category": "基础设施:公共设施:公共厕所",
        "type": 0,
        "location": {
            "lat": 33.265688,
            "lng": 116.565321
        },
        "ad_info": {
            "adcode": 341622,
            "province": "安徽省",
            "city": "亳州市",
            "district": "蒙城县"
        }
    },
    {
        "id": "6193048411304248929",
        "title": "公共厕所",
        "address": "安徽省亳州市谯城区药王大道与酒城大道交叉口正西方向261米左右",
        "tel": "",
        "category": "基础设施:公共设施:公共厕所",
        "type": 0,
        "location": {
            "lat": 33.788135,
            "lng": 115.746591
        },
        "ad_info": {
            "adcode": 341602,
            "province": "安徽省",
            "city": "亳州市",
            "district": "谯城区"
        }
    },
    {
        "id": "14109989435158938092",
        "title": "公共厕所",
        "address": "安徽省亳州市谯城区香附路和谐佳苑",
        "tel": "",
        "category": "基础设施:公共设施:公共厕所",
        "type": 0,
        "location": {
            "lat": 33.897639,
            "lng": 115.797249
        },
        "ad_info": {
            "adcode": 341602,
            "province": "安徽省",
            "city": "亳州市",
            "district": "谯城区"
        }
    },
    {
        "id": "12175701298118903072",
        "title": "公共厕所",
        "address": "安徽省亳州市利辛县人民路与复兴路交叉口西南方向218米左右",
        "tel": "",
        "category": "基础设施:公共设施:公共厕所",
        "type": 0,
        "location": {
            "lat": 33.131843,
            "lng": 116.206016
        },
        "ad_info": {
            "adcode": 341623,
            "province": "安徽省",
            "city": "亳州市",
            "district": "利辛县"
        }
    },
    {
        "id": "8119560143718992053",
        "title": "公共厕所",
        "address": "安徽省亳州市谯城区元化路与文帝西路交叉口正南方向101米左右",
        "tel": "",
        "category": "基础设施:公共设施:公共厕所",
        "type": 0,
        "location": {
            "lat": 33.86007,
            "lng": 115.7706
        },
        "ad_info": {
            "adcode": 341602,
            "province": "安徽省",
            "city": "亳州市",
            "district": "谯城区"
        }
    },
    {
        "id": "16662610553031747693",
        "title": "公共厕所",
        "address": "安徽省亳州市涡阳县新四军四师纪念馆院内",
        "tel": "",
        "category": "基础设施:公共设施:公共厕所",
        "type": 0,
        "location": {
            "lat": 33.704172,
            "lng": 116.224262
        },
        "ad_info": {
            "adcode": 341621,
            "province": "安徽省",
            "city": "亳州市",
            "district": "涡阳县"
        }
    },
    {
        "id": "4184188801827966311",
        "title": "公共厕所",
        "address": "安徽省亳州市利辛县人民中路与前进东路交叉口西北方向77米左右",
        "tel": "",
        "category": "基础设施:公共设施:公共厕所",
        "type": 0,
        "location": {
            "lat": 33.147098,
            "lng": 116.206605
        },
        "ad_info": {
            "adcode": 341623,
            "province": "安徽省",
            "city": "亳州市",
            "district": "利辛县"
        }
    },
    {
        "id": "4500940493151062607",
        "title": "公共厕所",
        "address": "安徽省亳州市谯城区汤王大道与亳芜大道辅路交叉口西北100米",
        "tel": "",
        "category": "基础设施:公共设施:公共厕所",
        "type": 0,
        "location": {
            "lat": 33.766735,
            "lng": 115.764055
        },
        "ad_info": {
            "adcode": 341602,
            "province": "安徽省",
            "city": "亳州市",
            "district": "谯城区"
        }
    },
    {
        "id": "15394852712449489836",
        "title": "公共厕所",
        "address": "安徽省亳州市谯城区宋汤河路与柴胡路交叉口东南方向183米左右",
        "tel": "",
        "category": "基础设施:公共设施:公共厕所",
        "type": 0,
        "location": {
            "lat": 33.833575,
            "lng": 115.768172
        },
        "ad_info": {
            "adcode": 341602,
            "province": "安徽省",
            "city": "亳州市",
            "district": "谯城区"
        }
    },
    {
        "id": "846650841174564735",
        "title": "公共厕所(团结路)",
        "address": "安徽省亳州市涡阳县工农路与涡河路交叉口正西方向74米左右",
        "tel": "",
        "category": "基础设施:公共设施:公共厕所",
        "type": 0,
        "location": {
            "lat": 33.510677,
            "lng": 116.218276
        },
        "ad_info": {
            "adcode": 341621,
            "province": "安徽省",
            "city": "亳州市",
            "district": "涡阳县"
        }
    },
    {
        "id": "15293787162921376896",
        "title": "公共厕所",
        "address": "安徽省亳州市涡阳县建设路与青年路交叉口东南方向51米左右",
        "tel": "",
        "category": "基础设施:公共设施:公共厕所",
        "type": 0,
        "location": {
            "lat": 33.504869,
            "lng": 116.221519
        },
        "ad_info": {
            "adcode": 341621,
            "province": "安徽省",
            "city": "亳州市",
            "district": "涡阳县"
        }
    },
    {
        "id": "6799798343407491860",
        "title": "公共厕所",
        "address": "安徽省亳州市涡阳县S250与标孙路交叉口正东方向1081米左右",
        "tel": "",
        "category": "基础设施:公共设施:公共厕所",
        "type": 0,
        "location": {
            "lat": 33.520201,
            "lng": 116.004045
        },
        "ad_info": {
            "adcode": 341621,
            "province": "安徽省",
            "city": "亳州市",
            "district": "涡阳县"
        }
    },
    {
        "id": "7666125995074454793",
        "title": "公共厕所",
        "address": "安徽省亳州市涡阳县S201与三八路交叉口正西方向126米左右",
        "tel": "",
        "category": "基础设施:公共设施:公共厕所",
        "type": 0,
        "location": {
            "lat": 33.710274,
            "lng": 116.220945
        },
        "ad_info": {
            "adcode": 341621,
            "province": "安徽省",
            "city": "亳州市",
            "district": "涡阳县"
        }
    },
    {
        "id": "8709728407097766514",
        "title": "公共厕所",
        "address": "安徽省亳州市谯城区养生大道与汤王大道交叉口正东方向154米左右",
        "tel": "",
        "category": "基础设施:公共设施:公共厕所",
        "type": 0,
        "location": {
            "lat": 33.816779,
            "lng": 115.766682
        },
        "ad_info": {
            "adcode": 341602,
            "province": "安徽省",
            "city": "亳州市",
            "district": "谯城区"
        }
    },
    {
        "id": "10599905518661075500",
        "title": "公共厕所",
        "address": "安徽省亳州市谯城区桐花路与汤王大道交叉口正东方向223米左右",
        "tel": "",
        "category": "基础设施:公共设施:公共厕所",
        "type": 0,
        "location": {
            "lat": 33.82145,
            "lng": 115.767727
        },
        "ad_info": {
            "adcode": 341602,
            "province": "安徽省",
            "city": "亳州市",
            "district": "谯城区"
        }
    },
    {
        "id": "18125216761575390947",
        "title": "公共厕所",
        "address": "安徽省亳州市谯城区药都路与魏武大道交叉口东北方向196米左右",
        "tel": "",
        "category": "基础设施:公共设施:公共厕所",
        "type": 0,
        "location": {
            "lat": 33.840554,
            "lng": 115.788614
        },
        "ad_info": {
            "adcode": 341602,
            "province": "安徽省",
            "city": "亳州市",
            "district": "谯城区"
        }
    },
    {
        "id": "293368236774262506",
        "title": "公共厕所",
        "address": "安徽省亳州市蒙城县体育路庄子小区",
        "tel": "",
        "category": "基础设施:公共设施:公共厕所",
        "type": 0,
        "location": {
            "lat": 33.251767,
            "lng": 116.565385
        },
        "ad_info": {
            "adcode": 341622,
            "province": "安徽省",
            "city": "亳州市",
            "district": "蒙城县"
        }
    },
    {
        "id": "5730310166615256785",
        "title": "公共厕所",
        "address": "安徽省亳州市蒙城县仁和路与逍遥南路交叉口正南方向141米左右",
        "tel": "",
        "category": "基础设施:公共设施:公共厕所",
        "type": 0,
        "location": {
            "lat": 33.235284,
            "lng": 116.562461
        },
        "ad_info": {
            "adcode": 341622,
            "province": "安徽省",
            "city": "亳州市",
            "district": "蒙城县"
        }
    },
    {
        "id": "5391856173203639964",
        "title": "公共厕所",
        "address": "安徽省亳州市涡阳县西阳镇三里财政所",
        "tel": "",
        "category": "基础设施:公共设施:公共厕所",
        "type": 0,
        "location": {
            "lat": 33.390127,
            "lng": 116.371375
        },
        "ad_info": {
            "adcode": 341621,
            "province": "安徽省",
            "city": "亳州市",
            "district": "涡阳县"
        }
    },
    {
        "id": "5010282955314756995",
        "title": "公共厕所",
        "address": "安徽省亳州市利辛县建设中路与建设北路交叉口西北方向70米左右",
        "tel": "",
        "category": "基础设施:公共设施:公共厕所",
        "type": 0,
        "location": {
            "lat": 33.14821,
            "lng": 116.210322
        },
        "ad_info": {
            "adcode": 341623,
            "province": "安徽省",
            "city": "亳州市",
            "district": "利辛县"
        }
    },
    {
        "id": "667871342771054624",
        "title": "公共厕所",
        "address": "安徽省亳州市蒙城县嵇康湖公园(永兴路北)",
        "tel": "",
        "category": "基础设施:公共设施:公共厕所",
        "type": 0,
        "location": {
            "lat": 33.233783,
            "lng": 116.557799
        },
        "ad_info": {
            "adcode": 341622,
            "province": "安徽省",
            "city": "亳州市",
            "district": "蒙城县"
        }
    },
    {
        "id": "6328293725977378145",
        "title": "公共厕所",
        "address": "安徽省亳州市蒙城县仁和路与张庄路交叉口正北方向159米左右",
        "tel": "",
        "category": "基础设施:公共设施:公共厕所",
        "type": 0,
        "location": {
            "lat": 33.236451,
            "lng": 116.57374
        },
        "ad_info": {
            "adcode": 341622,
            "province": "安徽省",
            "city": "亳州市",
            "district": "蒙城县"
        }
    },
    {
        "id": "13122070981665815307",
        "title": "男洗手间(亳州高新万达广场)",
        "address": "安徽省亳州市谯城区希夷大道与杜仲路交叉口亳州高新万达广场1F",
        "tel": "",
        "category": "基础设施:公共设施:公共厕所",
        "type": 0,
        "location": {
            "lat": 33.829235,
            "lng": 115.77967
        },
        "ad_info": {
            "adcode": 341602,
            "province": "安徽省",
            "city": "亳州市",
            "district": "谯城区"
        }
    },
    {
        "id": "12436196233186288095",
        "title": "公共厕所",
        "address": "安徽省亳州市蒙城县中心路与二里杨中心路交叉口正南方向99米左右",
        "tel": "",
        "category": "基础设施:公共设施:公共厕所",
        "type": 0,
        "location": {
            "lat": 33.252079,
            "lng": 116.557241
        },
        "ad_info": {
            "adcode": 341622,
            "province": "安徽省",
            "city": "亳州市",
            "district": "蒙城县"
        }
    },
    {
        "id": "2947259593535493540",
        "title": "公共厕所",
        "address": "安徽省亳州市利辛县S306与Y113交叉口正东方向480米左右",
        "tel": "",
        "category": "基础设施:公共设施:公共厕所",
        "type": 0,
        "location": {
            "lat": 33.073053,
            "lng": 116.090497
        },
        "ad_info": {
            "adcode": 341623,
            "province": "安徽省",
            "city": "亳州市",
            "district": "利辛县"
        }
    },
    {
        "id": "1365477133145891805",
        "title": "公共厕所",
        "address": "安徽省亳州市谯城区仙翁路亳州市政公园内",
        "tel": "",
        "category": "基础设施:公共设施:公共厕所",
        "type": 0,
        "location": {
            "lat": 33.807823,
            "lng": 115.774628
        },
        "ad_info": {
            "adcode": 341602,
            "province": "安徽省",
            "city": "亳州市",
            "district": "谯城区"
        }
    },
    {
        "id": "6737030840280568785",
        "title": "公共厕所",
        "address": "安徽省亳州市谯城区养生大道与张良路交叉口东南方向115米左右",
        "tel": "",
        "category": "基础设施:公共设施:公共厕所",
        "type": 0,
        "location": {
            "lat": 33.816827,
            "lng": 115.731171
        },
        "ad_info": {
            "adcode": 341602,
            "province": "安徽省",
            "city": "亳州市",
            "district": "谯城区"
        }
    },
    {
        "id": "11836239637767241963",
        "title": "公共厕所",
        "address": "安徽省亳州市蒙城县一里丁巷与嵇康路交叉口正北方向268米左右",
        "tel": "",
        "category": "基础设施:公共设施:公共厕所",
        "type": 0,
        "location": {
            "lat": 33.258932,
            "lng": 116.561197
        },
        "ad_info": {
            "adcode": 341622,
            "province": "安徽省",
            "city": "亳州市",
            "district": "蒙城县"
        }
    },
    {
        "id": "17942372291292994338",
        "title": "公共厕所",
        "address": "安徽省亳州市蒙城县义河路与利民街交叉口正东方向178米左右",
        "tel": "",
        "category": "基础设施:公共设施:公共厕所",
        "type": 0,
        "location": {
            "lat": 33.0964,
            "lng": 116.476714
        },
        "ad_info": {
            "adcode": 341622,
            "province": "安徽省",
            "city": "亳州市",
            "district": "蒙城县"
        }
    },
    {
        "id": "5443581819321758679",
        "title": "公共厕所",
        "address": "安徽省亳州市谯城区花戏楼路与香附路交叉口西北方向32米左右",
        "tel": "",
        "category": "基础设施:公共设施:公共厕所",
        "type": 0,
        "location": {
            "lat": 33.89718,
            "lng": 115.771905
        },
        "ad_info": {
            "adcode": 341602,
            "province": "安徽省",
            "city": "亳州市",
            "district": "谯城区"
        }
    },
    {
        "id": "18121660171526228378",
        "title": "公共厕所",
        "address": "安徽省亳州市涡阳县西施北路与西施南路交叉口正北方向149米左右",
        "tel": "",
        "category": "基础设施:公共设施:公共厕所",
        "type": 0,
        "location": {
            "lat": 33.394447,
            "lng": 116.37077
        },
        "ad_info": {
            "adcode": 341621,
            "province": "安徽省",
            "city": "亳州市",
            "district": "涡阳县"
        }
    },
    {
        "id": "13320664675138854377",
        "title": "无障碍公共厕所",
        "address": "安徽省亳州市谯城区木兰大道与迎春路交叉口正北方向176米左右",
        "tel": "",
        "category": "基础设施:公共设施:公共厕所",
        "type": 0,
        "location": {
            "lat": 33.804562,
            "lng": 115.831404
        },
        "ad_info": {
            "adcode": 341602,
            "province": "安徽省",
            "city": "亳州市",
            "district": "谯城区"
        }
    },
    {
        "id": "14985004876600388469",
        "title": "公共厕所",
        "address": "安徽省亳州市涡阳县乐行路与向阳大道交叉口西北方向176米左右",
        "tel": "",
        "category": "基础设施:公共设施:公共厕所",
        "type": 0,
        "location": {
            "lat": 33.488301,
            "lng": 116.208393
        },
        "ad_info": {
            "adcode": 341621,
            "province": "安徽省",
            "city": "亳州市",
            "district": "涡阳县"
        }
    },
    {
        "id": "14518101434819513074",
        "title": "男洗手间(金桥购物中心)",
        "address": "安徽省亳州市谯城区魏武大道与光明路交叉口928号金桥购物中心F2层",
        "tel": "",
        "category": "基础设施:公共设施:公共厕所",
        "type": 0,
        "location": {
            "lat": 33.856259,
            "lng": 115.78887
        },
        "ad_info": {
            "adcode": 341602,
            "province": "安徽省",
            "city": "亳州市",
            "district": "谯城区"
        }
    },
    {
        "id": "6530779944677917371",
        "title": "女洗手间(亳州高新万达广场)",
        "address": "安徽省亳州市谯城区希夷大道与杜仲路交叉口亳州高新万达广场1F",
        "tel": "",
        "category": "基础设施:公共设施:公共厕所",
        "type": 0,
        "location": {
            "lat": 33.82825,
            "lng": 115.779866
        },
        "ad_info": {
            "adcode": 341602,
            "province": "安徽省",
            "city": "亳州市",
            "district": "谯城区"
        }
    },
    {
        "id": "18015987916934219767",
        "title": "公共厕所",
        "address": "安徽省亳州市涡阳县向阳大道与站前路交叉口正南方向271米左右",
        "tel": "",
        "category": "基础设施:公共设施:公共厕所",
        "type": 0,
        "location": {
            "lat": 33.495971,
            "lng": 116.211456
        },
        "ad_info": {
            "adcode": 341621,
            "province": "安徽省",
            "city": "亳州市",
            "district": "涡阳县"
        }
    },
    {
        "id": "9454562754737163948",
        "title": "旅游厕所",
        "address": "安徽省亳州市谯城区亳城路与亳芜大道交叉口正南方向183米左右",
        "tel": "",
        "category": "基础设施:公共设施:公共厕所",
        "type": 0,
        "location": {
            "lat": 33.769061,
            "lng": 115.850324
        },
        "ad_info": {
            "adcode": 341602,
            "province": "安徽省",
            "city": "亳州市",
            "district": "谯城区"
        }
    },
    {
        "id": "926523202992939070",
        "title": "公共厕所",
        "address": "安徽省亳州市谯城区袁牌坊新村21号楼北(文帝路北)",
        "tel": "",
        "category": "基础设施:公共设施:公共厕所",
        "type": 0,
        "location": {
            "lat": 33.861172,
            "lng": 115.792465
        },
        "ad_info": {
            "adcode": 341602,
            "province": "安徽省",
            "city": "亳州市",
            "district": "谯城区"
        }
    },
    {
        "id": "17809635834064028253",
        "title": "公共厕所",
        "address": "安徽省亳州市蒙城县庄子大道与御园街交叉口东南方向26米左右",
        "tel": "",
        "category": "基础设施:公共设施:公共厕所",
        "type": 0,
        "location": {
            "lat": 33.260937,
            "lng": 116.572999
        },
        "ad_info": {
            "adcode": 341622,
            "province": "安徽省",
            "city": "亳州市",
            "district": "蒙城县"
        }
    },
    {
        "id": "14543686905517164573",
        "title": "公共厕所",
        "address": "安徽省亳州市利辛县丹凤路68号",
        "tel": "",
        "category": "基础设施:公共设施:公共厕所",
        "type": 0,
        "location": {
            "lat": 33.146634,
            "lng": 116.195409
        },
        "ad_info": {
            "adcode": 341623,
            "province": "安徽省",
            "city": "亳州市",
            "district": "利辛县"
        }
    },
    {
        "id": "14318038302126091169",
        "title": "公共厕所",
        "address": "安徽省亳州市谯城区人民路与清真前街交叉口西北方向33米左右",
        "tel": "",
        "category": "基础设施:公共设施:公共厕所",
        "type": 0,
        "location": {
            "lat": 33.872707,
            "lng": 115.772171
        },
        "ad_info": {
            "adcode": 341602,
            "province": "安徽省",
            "city": "亳州市",
            "district": "谯城区"
        }
    },
    {
        "id": "8916174436995610548",
        "title": "公共厕所",
        "address": "安徽省亳州市谯城区G344与S252交叉口东北方向222米左右",
        "tel": "",
        "category": "基础设施:公共设施:公共厕所",
        "type": 0,
        "location": {
            "lat": 33.536893,
            "lng": 115.794065
        },
        "ad_info": {
            "adcode": 341602,
            "province": "安徽省",
            "city": "亳州市",
            "district": "谯城区"
        }
    },
    {
        "id": "15562473205811302798",
        "title": "公共厕所",
        "address": "安徽省亳州市谯城区古井君莱酒店亳州店西(薛阁路北)",
        "tel": "",
        "category": "基础设施:公共设施:公共厕所",
        "type": 0,
        "location": {
            "lat": 33.866463,
            "lng": 115.786249
        },
        "ad_info": {
            "adcode": 341602,
            "province": "安徽省",
            "city": "亳州市",
            "district": "谯城区"
        }
    },
    {
        "id": "4778468646125701187",
        "title": "新贵都城市酒店-洗手间",
        "address": "安徽省亳州市谯城区希夷大道与芍花路交叉口东南方向58米左右",
        "tel": "",
        "category": "基础设施:公共设施:公共厕所",
        "type": 0,
        "location": {
            "lat": 33.847668,
            "lng": 115.780753
        },
        "ad_info": {
            "adcode": 341602,
            "province": "安徽省",
            "city": "亳州市",
            "district": "谯城区"
        }
    },
    {
        "id": "6913348807471888135",
        "title": "公共厕所",
        "address": "安徽省亳州市利辛县富强路与黄湖路交叉口西北方向45米左右",
        "tel": "",
        "category": "基础设施:公共设施:公共厕所",
        "type": 0,
        "location": {
            "lat": 33.14681,
            "lng": 116.204299
        },
        "ad_info": {
            "adcode": 341623,
            "province": "安徽省",
            "city": "亳州市",
            "district": "利辛县"
        }
    },
    {
        "id": "3944693488974678713",
        "title": "公共厕所",
        "address": "安徽省亳州市利辛县和平路与高新路交叉口正南方向51米左右",
        "tel": "",
        "category": "基础设施:公共设施:公共厕所",
        "type": 0,
        "location": {
            "lat": 33.161726,
            "lng": 116.213655
        },
        "ad_info": {
            "adcode": 341623,
            "province": "安徽省",
            "city": "亳州市",
            "district": "利辛县"
        }
    },
    {
        "id": "7592848576008788833",
        "title": "公共厕所",
        "address": "安徽省亳州市谯城区新村路与新村路六巷交叉口正南方向49米左右",
        "tel": "",
        "category": "基础设施:公共设施:公共厕所",
        "type": 0,
        "location": {
            "lat": 33.862072,
            "lng": 115.772596
        },
        "ad_info": {
            "adcode": 341602,
            "province": "安徽省",
            "city": "亳州市",
            "district": "谯城区"
        }
    },
    {
        "id": "9488773764446010470",
        "title": "涡北吉园公共厕所",
        "address": "安徽省亳州市涡阳县X019与闸北路交叉口正北方向188米左右",
        "tel": "",
        "category": "基础设施:公共设施:公共厕所",
        "type": 0,
        "location": {
            "lat": 33.525455,
            "lng": 116.21786
        },
        "ad_info": {
            "adcode": 341621,
            "province": "安徽省",
            "city": "亳州市",
            "district": "涡阳县"
        }
    },
    {
        "id": "477762274231323521",
        "title": "公共厕所",
        "address": "安徽省亳州市蒙城县南北大街与新民街交叉口正西方向48米左右",
        "tel": "",
        "category": "基础设施:公共设施:公共厕所",
        "type": 0,
        "location": {
            "lat": 33.264429,
            "lng": 116.557903
        },
        "ad_info": {
            "adcode": 341622,
            "province": "安徽省",
            "city": "亳州市",
            "district": "蒙城县"
        }
    },
    {
        "id": "2724482007263705113",
        "title": "公共厕所",
        "address": "安徽省亳州市涡阳县城关街道站前路火车站西",
        "tel": "",
        "category": "基础设施:公共设施:公共厕所",
        "type": 0,
        "location": {
            "lat": 33.490106,
            "lng": 116.209795
        },
        "ad_info": {
            "adcode": 341621,
            "province": "安徽省",
            "city": "亳州市",
            "district": "涡阳县"
        }
    },
    {
        "id": "11994369402777100052",
        "title": "公共厕所",
        "address": "安徽省亳州市涡阳县雪枫路德和公园",
        "tel": "",
        "category": "基础设施:公共设施:公共厕所",
        "type": 0,
        "location": {
            "lat": 33.470023,
            "lng": 116.189538
        },
        "ad_info": {
            "adcode": 341621,
            "province": "安徽省",
            "city": "亳州市",
            "district": "涡阳县"
        }
    },
    {
        "id": "15954840395204795406",
        "title": "公共厕所",
        "address": "安徽省亳州市谯城区药王大道与莲子路交叉口东南方向39米左右",
        "tel": "",
        "category": "基础设施:公共设施:公共厕所",
        "type": 0,
        "location": {
            "lat": 33.828685,
            "lng": 115.756684
        },
        "ad_info": {
            "adcode": 341602,
            "province": "安徽省",
            "city": "亳州市",
            "district": "谯城区"
        }
    },
    {
        "id": "3713575522571152725",
        "title": "公共厕所",
        "address": "安徽省亳州市谯城区桐乡路与艾叶路交叉口正西方向259米左右",
        "tel": "",
        "category": "基础设施:公共设施:公共厕所",
        "type": 0,
        "location": {
            "lat": 33.852163,
            "lng": 115.758801
        },
        "ad_info": {
            "adcode": 341602,
            "province": "安徽省",
            "city": "亳州市",
            "district": "谯城区"
        }
    },
    {
        "id": "18238202014877996920",
        "title": "辛集服务区公共厕所",
        "address": "安徽省亳州市谯城区Y058与三清大道辅路交叉口正东方向484米左右",
        "tel": "",
        "category": "基础设施:公共设施:公共厕所",
        "type": 0,
        "location": {
            "lat": 33.850363,
            "lng": 115.856281
        },
        "ad_info": {
            "adcode": 341602,
            "province": "安徽省",
            "city": "亳州市",
            "district": "谯城区"
        }
    },
    {
        "id": "15784604212655295337",
        "title": "淝河之韵公共厕所",
        "address": "安徽省亳州市利辛县锦绣路250号",
        "tel": "",
        "category": "基础设施:公共设施:公共厕所",
        "type": 0,
        "location": {
            "lat": 33.137331,
            "lng": 116.192005
        },
        "ad_info": {
            "adcode": 341623,
            "province": "安徽省",
            "city": "亳州市",
            "district": "利辛县"
        }
    },
    {
        "id": "10049400953332981605",
        "title": "公共厕所",
        "address": "安徽省亳州市利辛县青年路与国强路交叉口南80米",
        "tel": "",
        "category": "基础设施:公共设施:公共厕所",
        "type": 0,
        "location": {
            "lat": 33.14998,
            "lng": 116.199223
        },
        "ad_info": {
            "adcode": 341623,
            "province": "安徽省",
            "city": "亳州市",
            "district": "利辛县"
        }
    },
    {
        "id": "10740566495651194294",
        "title": "公共厕所",
        "address": "安徽省亳州市涡阳县向阳大道与团结路交叉口东南方向96米左右",
        "tel": "",
        "category": "基础设施:公共设施:公共厕所",
        "type": 0,
        "location": {
            "lat": 33.50895,
            "lng": 116.216044
        },
        "ad_info": {
            "adcode": 341621,
            "province": "安徽省",
            "city": "亳州市",
            "district": "涡阳县"
        }
    },
    {
        "id": "6884437432407706905",
        "title": "无障碍公共厕所",
        "address": "安徽省亳州市谯城区青龙街青云小学东南侧约70米希夷大道路东",
        "tel": "",
        "category": "基础设施:公共设施:公共厕所",
        "type": 0,
        "location": {
            "lat": 33.868281,
            "lng": 115.778264
        },
        "ad_info": {
            "adcode": 341602,
            "province": "安徽省",
            "city": "亳州市",
            "district": "谯城区"
        }
    },
    {
        "id": "10316564576246925857",
        "title": "公共厕所",
        "address": "安徽省亳州市利辛县光明路与阜蚌路交叉口正东方向222米左右",
        "tel": "",
        "category": "基础设施:公共设施:公共厕所",
        "type": 0,
        "location": {
            "lat": 33.141459,
            "lng": 116.225685
        },
        "ad_info": {
            "adcode": 341623,
            "province": "安徽省",
            "city": "亳州市",
            "district": "利辛县"
        }
    },
    {
        "id": "16689673936966617597",
        "title": "公共厕所",
        "address": "安徽省亳州市涡阳县和平路与朝阳大道交叉口正南方向93米左右",
        "tel": "",
        "category": "基础设施:公共设施:公共厕所",
        "type": 0,
        "location": {
            "lat": 33.61999,
            "lng": 116.43861
        },
        "ad_info": {
            "adcode": 341621,
            "province": "安徽省",
            "city": "亳州市",
            "district": "涡阳县"
        }
    },
    {
        "id": "12340386426944010614",
        "title": "无障碍公共厕所",
        "address": "安徽省亳州市谯城区人民路与新华南路交叉口正南方向74米左右",
        "tel": "",
        "category": "基础设施:公共设施:公共厕所",
        "type": 0,
        "location": {
            "lat": 33.871424,
            "lng": 115.780737
        },
        "ad_info": {
            "adcode": 341602,
            "province": "安徽省",
            "city": "亳州市",
            "district": "谯城区"
        }
    },
    {
        "id": "12596086578324684142",
        "title": "天下道源-公共厕所",
        "address": "安徽省亳州市涡阳县老子故里·天静宫南侧330米",
        "tel": "",
        "category": "基础设施:公共设施:公共厕所",
        "type": 0,
        "location": {
            "lat": 33.542741,
            "lng": 116.191048
        },
        "ad_info": {
            "adcode": 341621,
            "province": "安徽省",
            "city": "亳州市",
            "district": "涡阳县"
        }
    },
    {
        "id": "5340233680950419139",
        "title": "旅游厕所",
        "address": "安徽省亳州市谯城区建安路与柴胡路交叉口东南方向291米左右",
        "tel": "",
        "category": "基础设施:公共设施:公共厕所",
        "type": 0,
        "location": {
            "lat": 33.834374,
            "lng": 115.794568
        },
        "ad_info": {
            "adcode": 341602,
            "province": "安徽省",
            "city": "亳州市",
            "district": "谯城区"
        }
    },
    {
        "id": "14351116262194662370",
        "title": "谯城服务区公共厕所",
        "address": "安徽省亳州市谯城区S309与Y039交叉口东北方向664米左右",
        "tel": "",
        "category": "基础设施:公共设施:公共厕所",
        "type": 0,
        "location": {
            "lat": 33.922262,
            "lng": 115.699832
        },
        "ad_info": {
            "adcode": 341602,
            "province": "安徽省",
            "city": "亳州市",
            "district": "谯城区"
        }
    },
    {
        "id": "5912113037682188269",
        "title": "无障碍公共厕所",
        "address": "安徽省亳州市谯城区光明路与希夷大道交叉口正北方向222米左右",
        "tel": "",
        "category": "基础设施:公共设施:公共厕所",
        "type": 0,
        "location": {
            "lat": 33.857703,
            "lng": 115.778182
        },
        "ad_info": {
            "adcode": 341602,
            "province": "安徽省",
            "city": "亳州市",
            "district": "谯城区"
        }
    },
    {
        "id": "16179639899978330973",
        "title": "无障碍公共厕所",
        "address": "安徽省亳州市谯城区北门大街与半截楼街交叉口正东方向95米左右",
        "tel": "",
        "category": "基础设施:公共设施:公共厕所",
        "type": 0,
        "location": {
            "lat": 33.876703,
            "lng": 115.778816
        },
        "ad_info": {
            "adcode": 341602,
            "province": "安徽省",
            "city": "亳州市",
            "district": "谯城区"
        }
    },
    {
        "id": "11441987568487803038",
        "title": "无障碍公共厕所",
        "address": "安徽省亳州市利辛县人民中路与人民路交叉口正西方向58米左右",
        "tel": "",
        "category": "基础设施:公共设施:公共厕所",
        "type": 0,
        "location": {
            "lat": 33.141741,
            "lng": 116.205966
        },
        "ad_info": {
            "adcode": 341623,
            "province": "安徽省",
            "city": "亳州市",
            "district": "利辛县"
        }
    },
    {
        "id": "11695057629723766442",
        "title": "吕望服务区公共厕所",
        "address": "安徽省亳州市蒙城县吕望服务区(宁洛高速公路北)",
        "tel": "",
        "category": "基础设施:公共设施:公共厕所",
        "type": 0,
        "location": {
            "lat": 33.182062,
            "lng": 116.473391
        },
        "ad_info": {
            "adcode": 341622,
            "province": "安徽省",
            "city": "亳州市",
            "district": "蒙城县"
        }
    },
    {
        "id": "11715757878815747414",
        "title": "亳州宾馆-洗手间",
        "address": "安徽省亳州市谯城区药都大道1599号(与希夷大道交汇处)",
        "tel": "",
        "category": "基础设施:公共设施:公共厕所",
        "type": 0,
        "location": {
            "lat": 33.84076,
            "lng": 115.77443
        },
        "ad_info": {
            "adcode": 341602,
            "province": "安徽省",
            "city": "亳州市",
            "district": "谯城区"
        }
    },
    {
        "id": "13775205126231333063",
        "title": "无障碍公共厕所",
        "address": "安徽省亳州市利辛县前进路与富强路交叉口正东方向153米左右",
        "tel": "",
        "category": "基础设施:公共设施:公共厕所",
        "type": 0,
        "location": {
            "lat": 33.144966,
            "lng": 116.206117
        },
        "ad_info": {
            "adcode": 341623,
            "province": "安徽省",
            "city": "亳州市",
            "district": "利辛县"
        }
    },
    {
        "id": "14850825291592316024",
        "title": "公共厕所",
        "address": "安徽省亳州市谯城区汤王大道与芍花路交口南半球商业广场F2",
        "tel": "",
        "category": "基础设施:公共设施:女洗手间",
        "type": 0,
        "location": {
            "lat": 33.848903,
            "lng": 115.763392
        },
        "ad_info": {
            "adcode": 341602,
            "province": "安徽省",
            "city": "亳州市",
            "district": "谯城区"
        }
    },
    {
        "id": "3026101787763603945",
        "title": "公共厕所",
        "address": "安徽省亳州市谯城区Y045与枣钱路交叉口正北方向479米左右",
        "tel": "",
        "category": "基础设施:公共设施:公共厕所",
        "type": 0,
        "location": {
            "lat": 33.804326,
            "lng": 115.65161
        },
        "ad_info": {
            "adcode": 341602,
            "province": "安徽省",
            "city": "亳州市",
            "district": "谯城区"
        }
    },
    {
        "id": "14439159726240277220",
        "title": "公共厕所",
        "address": "安徽省亳州市蒙城县尉迟大道与文化路交叉口正北方向120米左右",
        "tel": "",
        "category": "基础设施:公共设施:公共厕所",
        "type": 0,
        "location": {
            "lat": 33.417039,
            "lng": 116.686737
        },
        "ad_info": {
            "adcode": 341622,
            "province": "安徽省",
            "city": "亳州市",
            "district": "蒙城县"
        }
    },
    {
        "id": "15228245109426138660",
        "title": "公共厕所",
        "address": "安徽省亳州市蒙城县政通大道与郭许路交叉口正南方向313米左右",
        "tel": "",
        "category": "基础设施:公共设施:公共厕所",
        "type": 0,
        "location": {
            "lat": 33.420162,
            "lng": 116.682651
        },
        "ad_info": {
            "adcode": 341622,
            "province": "安徽省",
            "city": "亳州市",
            "district": "蒙城县"
        }
    },
    {
        "id": "18439898379538696322",
        "title": "公共厕所",
        "address": "安徽省亳州市蒙城县周元西路306号",
        "tel": "",
        "category": "基础设施:公共设施:公共厕所",
        "type": 0,
        "location": {
            "lat": 33.267032,
            "lng": 116.555717
        },
        "ad_info": {
            "adcode": 341622,
            "province": "安徽省",
            "city": "亳州市",
            "district": "蒙城县"
        }
    },
    {
        "id": "9050754113007203608",
        "title": "公共厕所",
        "address": "安徽省亳州市利辛县世纪大道与阜蚌路交叉口西南方向380米左右",
        "tel": "",
        "category": "基础设施:公共设施:公共厕所",
        "type": 0,
        "location": {
            "lat": 33.112279,
            "lng": 116.162911
        },
        "ad_info": {
            "adcode": 341623,
            "province": "安徽省",
            "city": "亳州市",
            "district": "利辛县"
        }
    },
    {
        "id": "3564138379507561799",
        "title": "公共厕所",
        "address": "安徽省亳州市涡阳县201省道与204乡道交叉口西北200米",
        "tel": "",
        "category": "基础设施:公共设施:公共厕所",
        "type": 0,
        "location": {
            "lat": 33.705607,
            "lng": 116.221402
        },
        "ad_info": {
            "adcode": 341621,
            "province": "安徽省",
            "city": "亳州市",
            "district": "涡阳县"
        }
    },
    {
        "id": "8815868767400524604",
        "title": "公共厕所",
        "address": "安徽省亳州市蒙城县代元路与后张路交叉口正西方向96米左右",
        "tel": "",
        "category": "基础设施:公共设施:公共厕所",
        "type": 0,
        "location": {
            "lat": 33.252516,
            "lng": 116.575737
        },
        "ad_info": {
            "adcode": 341622,
            "province": "安徽省",
            "city": "亳州市",
            "district": "蒙城县"
        }
    },
    {
        "id": "8290473391076940222",
        "title": "公共厕所",
        "address": "安徽省亳州市利辛县S238与河滨路交叉口西南方向140米左右",
        "tel": "",
        "category": "基础设施:公共设施:公共厕所",
        "type": 0,
        "location": {
            "lat": 33.127996,
            "lng": 115.930906
        },
        "ad_info": {
            "adcode": 341623,
            "province": "安徽省",
            "city": "亳州市",
            "district": "利辛县"
        }
    },
    {
        "id": "8534301373006198539",
        "title": "公共厕所",
        "address": "安徽省亳州市谯城区新华北路与新华南路交叉口正东方向17米左右",
        "tel": "",
        "category": "基础设施:公共设施:公共厕所",
        "type": 0,
        "location": {
            "lat": 33.881501,
            "lng": 115.781321
        },
        "ad_info": {
            "adcode": 341602,
            "province": "安徽省",
            "city": "亳州市",
            "district": "谯城区"
        }
    },
    {
        "id": "5579144213625103128",
        "title": "公共厕所",
        "address": "安徽省亳州市谯城区和平路与花戏楼路交叉口正东方向38米左右",
        "tel": "",
        "category": "基础设施:公共设施:公共厕所",
        "type": 0,
        "location": {
            "lat": 33.878971,
            "lng": 115.772594
        },
        "ad_info": {
            "adcode": 341602,
            "province": "安徽省",
            "city": "亳州市",
            "district": "谯城区"
        }
    },
    {
        "id": "12097295713883175277",
        "title": "公共厕所",
        "address": "安徽省亳州市谯城区药王大道与莲子路交叉口正南方向149米左右",
        "tel": "",
        "category": "基础设施:公共设施:公共厕所",
        "type": 0,
        "location": {
            "lat": 33.827568,
            "lng": 115.756824
        },
        "ad_info": {
            "adcode": 341602,
            "province": "安徽省",
            "city": "亳州市",
            "district": "谯城区"
        }
    },
    {
        "id": "14284582248565656551",
        "title": "公共厕所",
        "address": "安徽省亳州市谯城区希夷大道与薛家巷交叉口西南方向157米左右",
        "tel": "",
        "category": "基础设施:公共设施:公共厕所",
        "type": 0,
        "location": {
            "lat": 33.869958,
            "lng": 115.776328
        },
        "ad_info": {
            "adcode": 341602,
            "province": "安徽省",
            "city": "亳州市",
            "district": "谯城区"
        }
    },
    {
        "id": "15788558518285989630",
        "title": "王塘小学公共厕所",
        "address": "安徽省亳州市涡阳县X023与涡西路交叉口正北方向1203米左右",
        "tel": "",
        "category": "基础设施:公共设施:公共厕所",
        "type": 0,
        "location": {
            "lat": 33.430157,
            "lng": 116.193975
        },
        "ad_info": {
            "adcode": 341621,
            "province": "安徽省",
            "city": "亳州市",
            "district": "涡阳县"
        }
    },
    {
        "id": "15348184110647848977",
        "title": "公共厕所",
        "address": "安徽省亳州市谯城区利辛路与幸福路交叉口东北方向114米左右",
        "tel": "",
        "category": "基础设施:公共设施:公共厕所",
        "type": 0,
        "location": {
            "lat": 33.868516,
            "lng": 115.776661
        },
        "ad_info": {
            "adcode": 341602,
            "province": "安徽省",
            "city": "亳州市",
            "district": "谯城区"
        }
    },
    {
        "id": "11224595903716703845",
        "title": "公共厕所",
        "address": "安徽省亳州市谯城区古泉路与新华北路交叉口西北方向305米左右",
        "tel": "",
        "category": "基础设施:公共设施:公共厕所",
        "type": 0,
        "location": {
            "lat": 33.892614,
            "lng": 115.779583
        },
        "ad_info": {
            "adcode": 341602,
            "province": "安徽省",
            "city": "亳州市",
            "district": "谯城区"
        }
    },
    {
        "id": "3618089572179000996",
        "title": "公共厕所",
        "address": "安徽省亳州市谯城区G105与和谐路交叉口正南方向532米左右",
        "tel": "",
        "category": "基础设施:公共设施:公共厕所",
        "type": 0,
        "location": {
            "lat": 33.629793,
            "lng": 115.660553
        },
        "ad_info": {
            "adcode": 341602,
            "province": "安徽省",
            "city": "亳州市",
            "district": "谯城区"
        }
    },
    {
        "id": "4739371921509120963",
        "title": "公共厕所",
        "address": "安徽省亳州市蒙城县北蒙大道与芡河路交叉口正北方向154米左右",
        "tel": "",
        "category": "基础设施:公共设施:公共厕所",
        "type": 0,
        "location": {
            "lat": 33.269431,
            "lng": 116.55515
        },
        "ad_info": {
            "adcode": 341622,
            "province": "安徽省",
            "city": "亳州市",
            "district": "蒙城县"
        }
    },
    {
        "id": "10989293496257075789",
        "title": "公共厕所",
        "address": "安徽省亳州市谯城区药王大道与紫苑路交叉口西南220米",
        "tel": "",
        "category": "基础设施:公共设施:公共厕所",
        "type": 0,
        "location": {
            "lat": 33.824455,
            "lng": 115.754433
        },
        "ad_info": {
            "adcode": 341602,
            "province": "安徽省",
            "city": "亳州市",
            "district": "谯城区"
        }
    },
    {
        "id": "10411318483171163578",
        "title": "公共厕所",
        "address": "安徽省亳州市蒙城县237国道与053乡道交叉口西北220米",
        "tel": "",
        "category": "基础设施:公共设施:公共厕所",
        "type": 0,
        "location": {
            "lat": 33.089028,
            "lng": 116.55198
        },
        "ad_info": {
            "adcode": 341622,
            "province": "安徽省",
            "city": "亳州市",
            "district": "蒙城县"
        }
    },
    {
        "id": "2382017899581566267",
        "title": "公共厕所",
        "address": "安徽省亳州市利辛县城关镇黄寨蓝夜酒吧",
        "tel": "",
        "category": "基础设施:公共设施:公共厕所",
        "type": 0,
        "location": {
            "lat": 33.146735,
            "lng": 116.20478
        },
        "ad_info": {
            "adcode": 341623,
            "province": "安徽省",
            "city": "亳州市",
            "district": "利辛县"
        }
    },
    {
        "id": "6218176051676874652",
        "title": "公共厕所",
        "address": "安徽省亳州市蒙城县望月北路与望月路交叉口东南方向52米左右",
        "tel": "",
        "category": "基础设施:公共设施:公共厕所",
        "type": 0,
        "location": {
            "lat": 33.265604,
            "lng": 116.550683
        },
        "ad_info": {
            "adcode": 341622,
            "province": "安徽省",
            "city": "亳州市",
            "district": "蒙城县"
        }
    },
    {
        "id": "9956340812877629895",
        "title": "公共厕所",
        "address": "安徽省亳州市谯城区崔程路与镇前路交叉口西南方向9米左右",
        "tel": "",
        "category": "基础设施:公共设施:公共厕所",
        "type": 0,
        "location": {
            "lat": 33.849917,
            "lng": 115.662986
        },
        "ad_info": {
            "adcode": 341602,
            "province": "安徽省",
            "city": "亳州市",
            "district": "谯城区"
        }
    },
    {
        "id": "12194946012635720999",
        "title": "公共厕所",
        "address": "安徽省亳州市谯城区骆驼坑街估衣小学",
        "tel": "",
        "category": "基础设施:公共设施:公共厕所",
        "type": 0,
        "location": {
            "lat": 33.885207,
            "lng": 115.779894
        },
        "ad_info": {
            "adcode": 341602,
            "province": "安徽省",
            "city": "亳州市",
            "district": "谯城区"
        }
    },
    {
        "id": "16919588233750256551",
        "title": "公共厕所",
        "address": "安徽省亳州市谯城区估衣街与骆驼坑街交叉口正西方向29米左右",
        "tel": "",
        "category": "基础设施:公共设施:公共厕所",
        "type": 0,
        "location": {
            "lat": 33.885445,
            "lng": 115.779474
        },
        "ad_info": {
            "adcode": 341602,
            "province": "安徽省",
            "city": "亳州市",
            "district": "谯城区"
        }
    },
    {
        "id": "7740747819129827589",
        "title": "公共厕所",
        "address": "安徽省亳州市蒙城县仓巷街与青云街交叉口正北方向50米左右",
        "tel": "",
        "category": "基础设施:公共设施:公共厕所",
        "type": 0,
        "location": {
            "lat": 33.26418,
            "lng": 116.559833
        },
        "ad_info": {
            "adcode": 341622,
            "province": "安徽省",
            "city": "亳州市",
            "district": "蒙城县"
        }
    },
    {
        "id": "14485874026167369064",
        "title": "公共厕所",
        "address": "安徽省亳州市谯城区S202与S327交叉口正南方向96米左右",
        "tel": "",
        "category": "基础设施:公共设施:公共厕所",
        "type": 0,
        "location": {
            "lat": 34.004507,
            "lng": 115.960177
        },
        "ad_info": {
            "adcode": 341602,
            "province": "安徽省",
            "city": "亳州市",
            "district": "谯城区"
        }
    },
    {
        "id": "4038148143919533257",
        "title": "公共厕所",
        "address": "安徽省亳州市利辛县人民中路与人民路交叉口正东方向94米左右",
        "tel": "",
        "category": "基础设施:公共设施:公共厕所",
        "type": 0,
        "location": {
            "lat": 33.141601,
            "lng": 116.20758
        },
        "ad_info": {
            "adcode": 341623,
            "province": "安徽省",
            "city": "亳州市",
            "district": "利辛县"
        }
    },
    {
        "id": "1246219259410459022",
        "title": "女洗手间",
        "address": "安徽省亳州市谯城区汤王大道与芍花路交口南半球商业广场F3",
        "tel": "",
        "category": "基础设施:公共设施:女洗手间",
        "type": 0,
        "location": {
            "lat": 33.848906,
            "lng": 115.764831
        },
        "ad_info": {
            "adcode": 341602,
            "province": "安徽省",
            "city": "亳州市",
            "district": "谯城区"
        }
    },
    {
        "id": "2772552616247979427",
        "title": "公共厕所",
        "address": "安徽省亳州市利辛县丹凤路与文州大道交叉口东南方向46米左右",
        "tel": "",
        "category": "基础设施:公共设施:公共厕所",
        "type": 0,
        "location": {
            "lat": 33.148377,
            "lng": 116.195987
        },
        "ad_info": {
            "adcode": 341623,
            "province": "安徽省",
            "city": "亳州市",
            "district": "利辛县"
        }
    },
    {
        "id": "15171260494874242502",
        "title": "公共厕所",
        "address": "安徽省亳州市利辛县县乡道与阜蚌路交叉口西南方向846米左右",
        "tel": "",
        "category": "基础设施:公共设施:公共厕所",
        "type": 0,
        "location": {
            "lat": 33.143646,
            "lng": 116.233046
        },
        "ad_info": {
            "adcode": 341623,
            "province": "安徽省",
            "city": "亳州市",
            "district": "利辛县"
        }
    },
    {
        "id": "9232609778073526584",
        "title": "马集服务区公共厕所",
        "address": "安徽省亳州市蒙城县马集服务区北(济祁高速公路西)",
        "tel": "",
        "category": "基础设施:公共设施:公共厕所",
        "type": 0,
        "location": {
            "lat": 33.324919,
            "lng": 116.354811
        },
        "ad_info": {
            "adcode": 341622,
            "province": "安徽省",
            "city": "亳州市",
            "district": "蒙城县"
        }
    },
    {
        "id": "14852937895383174256",
        "title": "龙山镇步行街南公共厕所",
        "address": "安徽省亳州市涡阳县山前路与步行街交叉口正北方向127米左右",
        "tel": "",
        "category": "基础设施:公共设施:公共厕所",
        "type": 0,
        "location": {
            "lat": 33.580749,
            "lng": 116.315438
        },
        "ad_info": {
            "adcode": 341621,
            "province": "安徽省",
            "city": "亳州市",
            "district": "涡阳县"
        }
    },
    {
        "id": "8443778620137008459",
        "title": "公共厕所",
        "address": "安徽省亳州市利辛县和平路与阜蚌路交叉口正西方向137米左右",
        "tel": "",
        "category": "基础设施:公共设施:公共厕所",
        "type": 0,
        "location": {
            "lat": 33.138187,
            "lng": 116.21441
        },
        "ad_info": {
            "adcode": 341623,
            "province": "安徽省",
            "city": "亳州市",
            "district": "利辛县"
        }
    },
    {
        "id": "5683085668883365016",
        "title": "公共厕所",
        "address": "安徽省亳州市谯城区和平路与魏武大道交叉口西北方向61米左右",
        "tel": "",
        "category": "基础设施:公共设施:公共厕所",
        "type": 0,
        "location": {
            "lat": 33.880252,
            "lng": 115.787827
        },
        "ad_info": {
            "adcode": 341602,
            "province": "安徽省",
            "city": "亳州市",
            "district": "谯城区"
        }
    },
    {
        "id": "17642777260610020797",
        "title": "公共厕所",
        "address": "安徽省亳州市利辛县S245与S312交叉口东南方向78米左右",
        "tel": "",
        "category": "基础设施:公共设施:公共厕所",
        "type": 0,
        "location": {
            "lat": 32.999715,
            "lng": 116.317663
        },
        "ad_info": {
            "adcode": 341623,
            "province": "安徽省",
            "city": "亳州市",
            "district": "利辛县"
        }
    },
    {
        "id": "14275493406635102667",
        "title": "公共厕所",
        "address": "安徽省亳州市谯城区和平路与新兴路交叉口东南方向70米左右",
        "tel": "",
        "category": "基础设施:公共设施:公共厕所",
        "type": 0,
        "location": {
            "lat": 33.879141,
            "lng": 115.776936
        },
        "ad_info": {
            "adcode": 341602,
            "province": "安徽省",
            "city": "亳州市",
            "district": "谯城区"
        }
    },
    {
        "id": "30157017052926800",
        "title": "无障碍公共厕所",
        "address": "安徽省亳州市涡阳县雉河路25号",
        "tel": "",
        "category": "基础设施:公共设施:公共厕所",
        "type": 0,
        "location": {
            "lat": 33.50833,
            "lng": 116.214124
        },
        "ad_info": {
            "adcode": 341621,
            "province": "安徽省",
            "city": "亳州市",
            "district": "涡阳县"
        }
    },
    {
        "id": "12366138276598887075",
        "title": "龙山镇步行街中公共厕所",
        "address": "安徽省亳州市涡阳县人民路与步行街交叉口正北方向85米左右",
        "tel": "",
        "category": "基础设施:公共设施:公共厕所",
        "type": 0,
        "location": {
            "lat": 33.584492,
            "lng": 116.314447
        },
        "ad_info": {
            "adcode": 341621,
            "province": "安徽省",
            "city": "亳州市",
            "district": "涡阳县"
        }
    },
    {
        "id": "7440761960834715707",
        "title": "公共厕所",
        "address": "安徽省亳州市利辛县S247与S306交叉口西南方向1361米左右",
        "tel": "",
        "category": "基础设施:公共设施:公共厕所",
        "type": 0,
        "location": {
            "lat": 33.084089,
            "lng": 116.118093
        },
        "ad_info": {
            "adcode": 341623,
            "province": "安徽省",
            "city": "亳州市",
            "district": "利辛县"
        }
    },
    {
        "id": "7077893647759812141",
        "title": "公共厕所",
        "address": "安徽省亳州市谯城区振谯路与桐花路交叉口正南方向173米左右",
        "tel": "",
        "category": "基础设施:公共设施:公共厕所",
        "type": 0,
        "location": {
            "lat": 33.821705,
            "lng": 115.748928
        },
        "ad_info": {
            "adcode": 341602,
            "province": "安徽省",
            "city": "亳州市",
            "district": "谯城区"
        }
    },
    {
        "id": "4040110146432723717",
        "title": "公共厕所",
        "address": "安徽省亳州市利辛县创业路与振兴大道交叉口正西方向253米左右",
        "tel": "",
        "category": "基础设施:公共设施:公共厕所",
        "type": 0,
        "location": {
            "lat": 33.202944,
            "lng": 116.357828
        },
        "ad_info": {
            "adcode": 341623,
            "province": "安徽省",
            "city": "亳州市",
            "district": "利辛县"
        }
    },
    {
        "id": "8985191799026525441",
        "title": "公共厕所",
        "address": "安徽省亳州市谯城区利辛路与鑫泰步行街交叉口正北方向271米左右",
        "tel": "",
        "category": "基础设施:公共设施:公共厕所",
        "type": 0,
        "location": {
            "lat": 33.869853,
            "lng": 115.784254
        },
        "ad_info": {
            "adcode": 341602,
            "province": "安徽省",
            "city": "亳州市",
            "district": "谯城区"
        }
    },
    {
        "id": "14898798817931366109",
        "title": "公共厕所",
        "address": "安徽省亳州市蒙城县嵇康路与茨淮路交叉口正南方向59米左右",
        "tel": "",
        "category": "基础设施:公共设施:公共厕所",
        "type": 0,
        "location": {
            "lat": 33.263392,
            "lng": 116.561948
        },
        "ad_info": {
            "adcode": 341622,
            "province": "安徽省",
            "city": "亳州市",
            "district": "蒙城县"
        }
    },
    {
        "id": "835745479707652774",
        "title": "公共厕所",
        "address": "安徽省亳州市蒙城县X037与X055交叉口正南方向810米左右",
        "tel": "",
        "category": "基础设施:公共设施:公共厕所",
        "type": 0,
        "location": {
            "lat": 33.434636,
            "lng": 116.559398
        },
        "ad_info": {
            "adcode": 341622,
            "province": "安徽省",
            "city": "亳州市",
            "district": "蒙城县"
        }
    },
    {
        "id": "2142659075049362332",
        "title": "公共厕所",
        "address": "安徽省亳州市利辛县S245与S416交叉口西北方向96米左右",
        "tel": "",
        "category": "基础设施:公共设施:公共厕所",
        "type": 0,
        "location": {
            "lat": 33.037955,
            "lng": 116.297949
        },
        "ad_info": {
            "adcode": 341623,
            "province": "安徽省",
            "city": "亳州市",
            "district": "利辛县"
        }
    },
    {
        "id": "18049985641997981020",
        "title": "公共厕所",
        "address": "安徽省亳州市谯城区茴香路与药王大道交叉口西南方向215米左右",
        "tel": "",
        "category": "基础设施:公共设施:公共厕所",
        "type": 0,
        "location": {
            "lat": 33.773421,
            "lng": 115.747469
        },
        "ad_info": {
            "adcode": 341602,
            "province": "安徽省",
            "city": "亳州市",
            "district": "谯城区"
        }
    },
    {
        "id": "12953669197553958433",
        "title": "公共厕所",
        "address": "安徽省亳州市涡阳县淮中大道与金博大道交叉口东北方向62米左右",
        "tel": "",
        "category": "基础设施:公共设施:公共厕所",
        "type": 0,
        "location": {
            "lat": 33.510018,
            "lng": 116.189799
        },
        "ad_info": {
            "adcode": 341621,
            "province": "安徽省",
            "city": "亳州市",
            "district": "涡阳县"
        }
    },
    {
        "id": "8227521221482624236",
        "title": "公共厕所",
        "address": "安徽省亳州市谯城区S309与四女路交叉口东南方向100米左右",
        "tel": "",
        "category": "基础设施:公共设施:公共厕所",
        "type": 0,
        "location": {
            "lat": 33.632884,
            "lng": 115.986411
        },
        "ad_info": {
            "adcode": 341602,
            "province": "安徽省",
            "city": "亳州市",
            "district": "谯城区"
        }
    },
    {
        "id": "13763912261588015919",
        "title": "公共厕所",
        "address": "安徽省亳州市谯城区涡河北路与鸭嘴巷交叉口正北方向78米左右",
        "tel": "",
        "category": "基础设施:公共设施:公共厕所",
        "type": 0,
        "location": {
            "lat": 33.88394,
            "lng": 115.786373
        },
        "ad_info": {
            "adcode": 341602,
            "province": "安徽省",
            "city": "亳州市",
            "district": "谯城区"
        }
    },
    {
        "id": "17391939129075286904",
        "title": "田小庙村扶贫车间公共厕所",
        "address": "安徽省亳州市涡阳县朝阳路与民主路交叉口正西方向1677米左右",
        "tel": "",
        "category": "基础设施:公共设施:公共厕所",
        "type": 0,
        "location": {
            "lat": 33.465969,
            "lng": 116.281457
        },
        "ad_info": {
            "adcode": 341621,
            "province": "安徽省",
            "city": "亳州市",
            "district": "涡阳县"
        }
    },
    {
        "id": "8086206640270274684",
        "title": "公共厕所",
        "address": "安徽省亳州市蒙城县刘桥街与商城西路交叉口东北方向44米左右",
        "tel": "",
        "category": "基础设施:公共设施:公共厕所",
        "type": 0,
        "location": {
            "lat": 33.257438,
            "lng": 116.551552
        },
        "ad_info": {
            "adcode": 341622,
            "province": "安徽省",
            "city": "亳州市",
            "district": "蒙城县"
        }
    },
    {
        "id": "4894021273012207705",
        "title": "龙山镇沿河南公共厕所",
        "address": "安徽省亳州市涡阳县山前路与沿河路交叉口正南方向25米左右",
        "tel": "",
        "category": "基础设施:公共设施:公共厕所",
        "type": 0,
        "location": {
            "lat": 33.579393,
            "lng": 116.316303
        },
        "ad_info": {
            "adcode": 341621,
            "province": "安徽省",
            "city": "亳州市",
            "district": "涡阳县"
        }
    },
    {
        "id": "10405914595193663025",
        "title": "公共厕所",
        "address": "安徽省亳州市涡阳县G344与Y109交叉口西南方向884米左右",
        "tel": "",
        "category": "基础设施:公共设施:公共厕所",
        "type": 0,
        "location": {
            "lat": 33.46315,
            "lng": 116.39611
        },
        "ad_info": {
            "adcode": 341621,
            "province": "安徽省",
            "city": "亳州市",
            "district": "涡阳县"
        }
    },
    {
        "id": "5656277773538139538",
        "title": "公共厕所",
        "address": "安徽省亳州市蒙城县城关镇蒙城八中旁",
        "tel": "",
        "category": "基础设施:公共设施:公共厕所",
        "type": 0,
        "location": {
            "lat": 33.257741,
            "lng": 116.556762
        },
        "ad_info": {
            "adcode": 341622,
            "province": "安徽省",
            "city": "亳州市",
            "district": "蒙城县"
        }
    },
    {
        "id": "13984064198281480968",
        "title": "公共厕所",
        "address": "安徽省亳州市谯城区Y031与古井大道交叉口正西方向461米左右",
        "tel": "",
        "category": "基础设施:公共设施:公共厕所",
        "type": 0,
        "location": {
            "lat": 33.991694,
            "lng": 115.690438
        },
        "ad_info": {
            "adcode": 341602,
            "province": "安徽省",
            "city": "亳州市",
            "district": "谯城区"
        }
    },
    {
        "id": "18098203081614507510",
        "title": "公共厕所",
        "address": "安徽省亳州市蒙城县新世纪大道与蒙宿路交叉口西北方向83米左右",
        "tel": "",
        "category": "基础设施:公共设施:公共厕所",
        "type": 0,
        "location": {
            "lat": 33.326877,
            "lng": 116.695851
        },
        "ad_info": {
            "adcode": 341622,
            "province": "安徽省",
            "city": "亳州市",
            "district": "蒙城县"
        }
    },
    {
        "id": "1293917064505136574",
        "title": "公共厕所",
        "address": "安徽省亳州市蒙城县宝塔西路与灵山大道交叉口正北方向497米左右",
        "tel": "",
        "category": "基础设施:公共设施:公共厕所",
        "type": 0,
        "location": {
            "lat": 33.26739,
            "lng": 116.538228
        },
        "ad_info": {
            "adcode": 341622,
            "province": "安徽省",
            "city": "亳州市",
            "district": "蒙城县"
        }
    },
    {
        "id": "17998437713833356501",
        "title": "公共厕所",
        "address": "安徽省亳州市蒙城县秋水路53号",
        "tel": "",
        "category": "基础设施:公共设施:公共厕所",
        "type": 0,
        "location": {
            "lat": 33.259151,
            "lng": 116.57934
        },
        "ad_info": {
            "adcode": 341622,
            "province": "安徽省",
            "city": "亳州市",
            "district": "蒙城县"
        }
    },
    {
        "id": "13026198853269372795",
        "title": "无障碍公共厕所",
        "address": "安徽省亳州市谯城区人民路与州署街交叉口正南方向172米左右",
        "tel": "",
        "category": "基础设施:公共设施:公共厕所",
        "type": 0,
        "location": {
            "lat": 33.870453,
            "lng": 115.783085
        },
        "ad_info": {
            "adcode": 341602,
            "province": "安徽省",
            "city": "亳州市",
            "district": "谯城区"
        }
    },
    {
        "id": "11390804067526945001",
        "title": "公共厕所",
        "address": "安徽省亳州市谯城区振谯路与桐花路交叉口正西方向155米左右",
        "tel": "",
        "category": "基础设施:公共设施:公共厕所",
        "type": 0,
        "location": {
            "lat": 33.823346,
            "lng": 115.746613
        },
        "ad_info": {
            "adcode": 341602,
            "province": "安徽省",
            "city": "亳州市",
            "district": "谯城区"
        }
    },
    {
        "id": "9478182513978532280",
        "title": "公共厕所",
        "address": "安徽省亳州市蒙城县Y148与望月路交叉口东北方向161米左右",
        "tel": "",
        "category": "基础设施:公共设施:公共厕所",
        "type": 0,
        "location": {
            "lat": 33.275027,
            "lng": 116.549563
        },
        "ad_info": {
            "adcode": 341622,
            "province": "安徽省",
            "city": "亳州市",
            "district": "蒙城县"
        }
    },
    {
        "id": "5904327847114214335",
        "title": "公共厕所",
        "address": "安徽省亳州市谯城区亳阜路与希夷大道辅路交叉口西南方向48米左右",
        "tel": "",
        "category": "基础设施:公共设施:公共厕所",
        "type": 0,
        "location": {
            "lat": 33.85349,
            "lng": 115.77812
        },
        "ad_info": {
            "adcode": 341602,
            "province": "安徽省",
            "city": "亳州市",
            "district": "谯城区"
        }
    },
    {
        "id": "9496120985985190328",
        "title": "公共厕所",
        "address": "安徽省亳州市蒙城县文明路与玉亭西路交叉口正南方向200米左右",
        "tel": "",
        "category": "基础设施:公共设施:公共厕所",
        "type": 0,
        "location": {
            "lat": 33.417693,
            "lng": 116.690598
        },
        "ad_info": {
            "adcode": 341622,
            "province": "安徽省",
            "city": "亳州市",
            "district": "蒙城县"
        }
    },
    {
        "id": "15684991582854474777",
        "title": "公共厕所",
        "address": "安徽省亳州市利辛县S247与S312交叉口正东方向261米左右",
        "tel": "",
        "category": "基础设施:公共设施:公共厕所",
        "type": 0,
        "location": {
            "lat": 33.175548,
            "lng": 116.074426
        },
        "ad_info": {
            "adcode": 341623,
            "province": "安徽省",
            "city": "亳州市",
            "district": "利辛县"
        }
    },
    {
        "id": "4663856120111178685",
        "title": "公共厕所",
        "address": "安徽省亳州市利辛县光明路与子胥大道交叉口西北方向104米左右",
        "tel": "",
        "category": "基础设施:公共设施:公共厕所",
        "type": 0,
        "location": {
            "lat": 33.165875,
            "lng": 116.220304
        },
        "ad_info": {
            "adcode": 341623,
            "province": "安徽省",
            "city": "亳州市",
            "district": "利辛县"
        }
    },
    {
        "id": "10046885010173076271",
        "title": "公共厕所",
        "address": "安徽省亳州市谯城区魏武大道1348号",
        "tel": "",
        "category": "基础设施:公共设施:公共厕所",
        "type": 0,
        "location": {
            "lat": 33.87185,
            "lng": 115.788277
        },
        "ad_info": {
            "adcode": 341602,
            "province": "安徽省",
            "city": "亳州市",
            "district": "谯城区"
        }
    },
    {
        "id": "1880851843167745659",
        "title": "公共厕所",
        "address": "安徽省亳州市谯城区交通路与亳涡路交叉口西南方向422米左右",
        "tel": "",
        "category": "基础设施:公共设施:公共厕所",
        "type": 0,
        "location": {
            "lat": 33.86029,
            "lng": 115.801565
        },
        "ad_info": {
            "adcode": 341602,
            "province": "安徽省",
            "city": "亳州市",
            "district": "谯城区"
        }
    },
    {
        "id": "12016564119469100783",
        "title": "公共厕所",
        "address": "安徽省亳州市蒙城县水园巷与淝河路交叉口东北方向19米左右",
        "tel": "",
        "category": "基础设施:公共设施:公共厕所",
        "type": 0,
        "location": {
            "lat": 33.267492,
            "lng": 116.5706
        },
        "ad_info": {
            "adcode": 341622,
            "province": "安徽省",
            "city": "亳州市",
            "district": "蒙城县"
        }
    },
    {
        "id": "960415408070227562",
        "title": "公共厕所",
        "address": "安徽省亳州市谯城区人民路与魏园路交叉口正北方向39米左右",
        "tel": "",
        "category": "基础设施:公共设施:公共厕所",
        "type": 0,
        "location": {
            "lat": 33.871896,
            "lng": 115.788787
        },
        "ad_info": {
            "adcode": 341602,
            "province": "安徽省",
            "city": "亳州市",
            "district": "谯城区"
        }
    },
    {
        "id": "11561741135286347983",
        "title": "无障碍公共厕所",
        "address": "安徽省亳州市谯城区永康路与薛家巷交叉口东南200米",
        "tel": "",
        "category": "基础设施:公共设施:公共厕所",
        "type": 0,
        "location": {
            "lat": 33.869312,
            "lng": 115.781982
        },
        "ad_info": {
            "adcode": 341602,
            "province": "安徽省",
            "city": "亳州市",
            "district": "谯城区"
        }
    },
    {
        "id": "13195342022654971555",
        "title": "公共厕所",
        "address": "安徽省亳州市利辛县和平南路与复兴路交叉口东北方向119米左右",
        "tel": "",
        "category": "基础设施:公共设施:公共厕所",
        "type": 0,
        "location": {
            "lat": 33.13528,
            "lng": 116.21697
        },
        "ad_info": {
            "adcode": 341623,
            "province": "安徽省",
            "city": "亳州市",
            "district": "利辛县"
        }
    },
    {
        "id": "8750974983750943139",
        "title": "公共厕所",
        "address": "安徽省亳州市涡阳县杨瓦房文化广场",
        "tel": "",
        "category": "基础设施:公共设施:公共厕所",
        "type": 0,
        "location": {
            "lat": 33.455842,
            "lng": 116.341012
        },
        "ad_info": {
            "adcode": 341621,
            "province": "安徽省",
            "city": "亳州市",
            "district": "涡阳县"
        }
    },
    {
        "id": "6089775543353892860",
        "title": "标里镇卫生院前李分院公共厕所",
        "address": "安徽省亳州市涡阳县G344与Y114交叉口正西方向254米左右",
        "tel": "",
        "category": "基础设施:公共设施:公共厕所",
        "type": 0,
        "location": {
            "lat": 33.538398,
            "lng": 115.933113
        },
        "ad_info": {
            "adcode": 341621,
            "province": "安徽省",
            "city": "亳州市",
            "district": "涡阳县"
        }
    },
    {
        "id": "3458004607325995406",
        "title": "公共厕所",
        "address": "安徽省亳州市利辛县民安路与滨河路交叉口西南方向42米左右",
        "tel": "",
        "category": "基础设施:公共设施:公共厕所",
        "type": 0,
        "location": {
            "lat": 33.138111,
            "lng": 116.21212
        },
        "ad_info": {
            "adcode": 341623,
            "province": "安徽省",
            "city": "亳州市",
            "district": "利辛县"
        }
    },
    {
        "id": "17698746647048854086",
        "title": "公共厕所",
        "address": "安徽省亳州市谯城区坊子街与大有街交叉口西南方向163米左右",
        "tel": "",
        "category": "基础设施:公共设施:公共厕所",
        "type": 0,
        "location": {
            "lat": 33.878409,
            "lng": 115.767042
        },
        "ad_info": {
            "adcode": 341602,
            "province": "安徽省",
            "city": "亳州市",
            "district": "谯城区"
        }
    },
    {
        "id": "10040160030981008958",
        "title": "公共厕所",
        "address": "安徽省亳州市谯城区交通路138号",
        "tel": "",
        "category": "基础设施:公共设施:公共厕所",
        "type": 0,
        "location": {
            "lat": 33.865266,
            "lng": 115.794241
        },
        "ad_info": {
            "adcode": 341602,
            "province": "安徽省",
            "city": "亳州市",
            "district": "谯城区"
        }
    },
    {
        "id": "8332700617032812753",
        "title": "公共厕所",
        "address": "安徽省亳州市谯城区人民路与董园巷交叉口东南方向32米左右",
        "tel": "",
        "category": "基础设施:公共设施:公共厕所",
        "type": 0,
        "location": {
            "lat": 33.870953,
            "lng": 115.793331
        },
        "ad_info": {
            "adcode": 341602,
            "province": "安徽省",
            "city": "亳州市",
            "district": "谯城区"
        }
    },
    {
        "id": "15104682730384994102",
        "title": "公共厕所",
        "address": "安徽省亳州市利辛县五一中路与建设中路交叉口西南方向111米左右",
        "tel": "",
        "category": "基础设施:公共设施:公共厕所",
        "type": 0,
        "location": {
            "lat": 33.141666,
            "lng": 116.209732
        },
        "ad_info": {
            "adcode": 341623,
            "province": "安徽省",
            "city": "亳州市",
            "district": "利辛县"
        }
    },
    {
        "id": "10129137825224389175",
        "title": "公共厕所",
        "address": "安徽省亳州市利辛县复兴路与建设南路交叉口正北方向69米左右",
        "tel": "",
        "category": "基础设施:公共设施:公共厕所",
        "type": 0,
        "location": {
            "lat": 33.133622,
            "lng": 116.210326
        },
        "ad_info": {
            "adcode": 341623,
            "province": "安徽省",
            "city": "亳州市",
            "district": "利辛县"
        }
    },
    {
        "id": "14357804043894122164",
        "title": "公共厕所",
        "address": "安徽省亳州市涡阳县北环路与向阳大道交叉口西南方向57米左右",
        "tel": "",
        "category": "基础设施:公共设施:公共厕所",
        "type": 0,
        "location": {
            "lat": 33.513813,
            "lng": 116.215782
        },
        "ad_info": {
            "adcode": 341621,
            "province": "安徽省",
            "city": "亳州市",
            "district": "涡阳县"
        }
    },
    {
        "id": "4768943277463757017",
        "title": "公共厕所",
        "address": "安徽省亳州市蒙城县机耕桥与机耕路交叉口东北方向1617米左右",
        "tel": "",
        "category": "基础设施:公共设施:公共厕所",
        "type": 0,
        "location": {
            "lat": 33.247334,
            "lng": 116.629211
        },
        "ad_info": {
            "adcode": 341622,
            "province": "安徽省",
            "city": "亳州市",
            "district": "蒙城县"
        }
    },
    {
        "id": "17538687194825426067",
        "title": "公共厕所",
        "address": "安徽省亳州市利辛县X034与Y001交叉口西南方向212米左右",
        "tel": "",
        "category": "基础设施:公共设施:公共厕所",
        "type": 0,
        "location": {
            "lat": 33.016722,
            "lng": 116.316892
        },
        "ad_info": {
            "adcode": 341623,
            "province": "安徽省",
            "city": "亳州市",
            "district": "利辛县"
        }
    },
    {
        "id": "7959697897790153524",
        "title": "公共厕所",
        "address": "安徽省亳州市涡阳县S202与步行街交叉口正南方向176米左右",
        "tel": "",
        "category": "基础设施:公共设施:公共厕所",
        "type": 0,
        "location": {
            "lat": 33.586094,
            "lng": 116.313972
        },
        "ad_info": {
            "adcode": 341621,
            "province": "安徽省",
            "city": "亳州市",
            "district": "涡阳县"
        }
    },
    {
        "id": "15684991582854474777",
        "title": "公共厕所",
        "address": "安徽省亳州市利辛县S247与S312交叉口正东方向261米左右",
        "tel": "",
        "category": "基础设施:公共设施:公共厕所",
        "type": 0,
        "location": {
            "lat": 33.175548,
            "lng": 116.074426
        },
        "ad_info": {
            "adcode": 341623,
            "province": "安徽省",
            "city": "亳州市",
            "district": "利辛县"
        }
    },
    {
        "id": "4663856120111178685",
        "title": "公共厕所",
        "address": "安徽省亳州市利辛县光明路与子胥大道交叉口西北方向104米左右",
        "tel": "",
        "category": "基础设施:公共设施:公共厕所",
        "type": 0,
        "location": {
            "lat": 33.165875,
            "lng": 116.220304
        },
        "ad_info": {
            "adcode": 341623,
            "province": "安徽省",
            "city": "亳州市",
            "district": "利辛县"
        }
    },
    {
        "id": "10046885010173076271",
        "title": "公共厕所",
        "address": "安徽省亳州市谯城区魏武大道1348号",
        "tel": "",
        "category": "基础设施:公共设施:公共厕所",
        "type": 0,
        "location": {
            "lat": 33.87185,
            "lng": 115.788277
        },
        "ad_info": {
            "adcode": 341602,
            "province": "安徽省",
            "city": "亳州市",
            "district": "谯城区"
        }
    },
    {
        "id": "1880851843167745659",
        "title": "公共厕所",
        "address": "安徽省亳州市谯城区交通路与亳涡路交叉口西南方向422米左右",
        "tel": "",
        "category": "基础设施:公共设施:公共厕所",
        "type": 0,
        "location": {
            "lat": 33.86029,
            "lng": 115.801565
        },
        "ad_info": {
            "adcode": 341602,
            "province": "安徽省",
            "city": "亳州市",
            "district": "谯城区"
        }
    },
    {
        "id": "12016564119469100783",
        "title": "公共厕所",
        "address": "安徽省亳州市蒙城县水园巷与淝河路交叉口东北方向19米左右",
        "tel": "",
        "category": "基础设施:公共设施:公共厕所",
        "type": 0,
        "location": {
            "lat": 33.267492,
            "lng": 116.5706
        },
        "ad_info": {
            "adcode": 341622,
            "province": "安徽省",
            "city": "亳州市",
            "district": "蒙城县"
        }
    },
    {
        "id": "960415408070227562",
        "title": "公共厕所",
        "address": "安徽省亳州市谯城区人民路与魏园路交叉口正北方向39米左右",
        "tel": "",
        "category": "基础设施:公共设施:公共厕所",
        "type": 0,
        "location": {
            "lat": 33.871896,
            "lng": 115.788787
        },
        "ad_info": {
            "adcode": 341602,
            "province": "安徽省",
            "city": "亳州市",
            "district": "谯城区"
        }
    },
    {
        "id": "11561741135286347983",
        "title": "无障碍公共厕所",
        "address": "安徽省亳州市谯城区永康路与薛家巷交叉口东南200米",
        "tel": "",
        "category": "基础设施:公共设施:公共厕所",
        "type": 0,
        "location": {
            "lat": 33.869312,
            "lng": 115.781982
        },
        "ad_info": {
            "adcode": 341602,
            "province": "安徽省",
            "city": "亳州市",
            "district": "谯城区"
        }
    },
    {
        "id": "13195342022654971555",
        "title": "公共厕所",
        "address": "安徽省亳州市利辛县和平南路与复兴路交叉口东北方向119米左右",
        "tel": "",
        "category": "基础设施:公共设施:公共厕所",
        "type": 0,
        "location": {
            "lat": 33.13528,
            "lng": 116.21697
        },
        "ad_info": {
            "adcode": 341623,
            "province": "安徽省",
            "city": "亳州市",
            "district": "利辛县"
        }
    },
    {
        "id": "8750974983750943139",
        "title": "公共厕所",
        "address": "安徽省亳州市涡阳县杨瓦房文化广场",
        "tel": "",
        "category": "基础设施:公共设施:公共厕所",
        "type": 0,
        "location": {
            "lat": 33.455842,
            "lng": 116.341012
        },
        "ad_info": {
            "adcode": 341621,
            "province": "安徽省",
            "city": "亳州市",
            "district": "涡阳县"
        }
    },
    {
        "id": "6089775543353892860",
        "title": "标里镇卫生院前李分院公共厕所",
        "address": "安徽省亳州市涡阳县G344与Y114交叉口正西方向254米左右",
        "tel": "",
        "category": "基础设施:公共设施:公共厕所",
        "type": 0,
        "location": {
            "lat": 33.538398,
            "lng": 115.933113
        },
        "ad_info": {
            "adcode": 341621,
            "province": "安徽省",
            "city": "亳州市",
            "district": "涡阳县"
        }
    },
    {
        "id": "3458004607325995406",
        "title": "公共厕所",
        "address": "安徽省亳州市利辛县民安路与滨河路交叉口西南方向42米左右",
        "tel": "",
        "category": "基础设施:公共设施:公共厕所",
        "type": 0,
        "location": {
            "lat": 33.138111,
            "lng": 116.21212
        },
        "ad_info": {
            "adcode": 341623,
            "province": "安徽省",
            "city": "亳州市",
            "district": "利辛县"
        }
    },
    {
        "id": "17698746647048854086",
        "title": "公共厕所",
        "address": "安徽省亳州市谯城区坊子街与大有街交叉口西南方向163米左右",
        "tel": "",
        "category": "基础设施:公共设施:公共厕所",
        "type": 0,
        "location": {
            "lat": 33.878409,
            "lng": 115.767042
        },
        "ad_info": {
            "adcode": 341602,
            "province": "安徽省",
            "city": "亳州市",
            "district": "谯城区"
        }
    },
    {
        "id": "10040160030981008958",
        "title": "公共厕所",
        "address": "安徽省亳州市谯城区交通路138号",
        "tel": "",
        "category": "基础设施:公共设施:公共厕所",
        "type": 0,
        "location": {
            "lat": 33.865266,
            "lng": 115.794241
        },
        "ad_info": {
            "adcode": 341602,
            "province": "安徽省",
            "city": "亳州市",
            "district": "谯城区"
        }
    },
    {
        "id": "8332700617032812753",
        "title": "公共厕所",
        "address": "安徽省亳州市谯城区人民路与董园巷交叉口东南方向32米左右",
        "tel": "",
        "category": "基础设施:公共设施:公共厕所",
        "type": 0,
        "location": {
            "lat": 33.870953,
            "lng": 115.793331
        },
        "ad_info": {
            "adcode": 341602,
            "province": "安徽省",
            "city": "亳州市",
            "district": "谯城区"
        }
    },
    {
        "id": "15104682730384994102",
        "title": "公共厕所",
        "address": "安徽省亳州市利辛县五一中路与建设中路交叉口西南方向111米左右",
        "tel": "",
        "category": "基础设施:公共设施:公共厕所",
        "type": 0,
        "location": {
            "lat": 33.141666,
            "lng": 116.209732
        },
        "ad_info": {
            "adcode": 341623,
            "province": "安徽省",
            "city": "亳州市",
            "district": "利辛县"
        }
    },
    {
        "id": "10129137825224389175",
        "title": "公共厕所",
        "address": "安徽省亳州市利辛县复兴路与建设南路交叉口正北方向69米左右",
        "tel": "",
        "category": "基础设施:公共设施:公共厕所",
        "type": 0,
        "location": {
            "lat": 33.133622,
            "lng": 116.210326
        },
        "ad_info": {
            "adcode": 341623,
            "province": "安徽省",
            "city": "亳州市",
            "district": "利辛县"
        }
    },
    {
        "id": "14357804043894122164",
        "title": "公共厕所",
        "address": "安徽省亳州市涡阳县北环路与向阳大道交叉口西南方向57米左右",
        "tel": "",
        "category": "基础设施:公共设施:公共厕所",
        "type": 0,
        "location": {
            "lat": 33.513813,
            "lng": 116.215782
        },
        "ad_info": {
            "adcode": 341621,
            "province": "安徽省",
            "city": "亳州市",
            "district": "涡阳县"
        }
    },
    {
        "id": "4768943277463757017",
        "title": "公共厕所",
        "address": "安徽省亳州市蒙城县机耕桥与机耕路交叉口东北方向1617米左右",
        "tel": "",
        "category": "基础设施:公共设施:公共厕所",
        "type": 0,
        "location": {
            "lat": 33.247334,
            "lng": 116.629211
        },
        "ad_info": {
            "adcode": 341622,
            "province": "安徽省",
            "city": "亳州市",
            "district": "蒙城县"
        }
    },
    {
        "id": "17538687194825426067",
        "title": "公共厕所",
        "address": "安徽省亳州市利辛县X034与Y001交叉口西南方向212米左右",
        "tel": "",
        "category": "基础设施:公共设施:公共厕所",
        "type": 0,
        "location": {
            "lat": 33.016722,
            "lng": 116.316892
        },
        "ad_info": {
            "adcode": 341623,
            "province": "安徽省",
            "city": "亳州市",
            "district": "利辛县"
        }
    },
    {
        "id": "7959697897790153524",
        "title": "公共厕所",
        "address": "安徽省亳州市涡阳县S202与步行街交叉口正南方向176米左右",
        "tel": "",
        "category": "基础设施:公共设施:公共厕所",
        "type": 0,
        "location": {
            "lat": 33.586094,
            "lng": 116.313972
        },
        "ad_info": {
            "adcode": 341621,
            "province": "安徽省",
            "city": "亳州市",
            "district": "涡阳县"
        }
    },
    {
        "id": "15684991582854474777",
        "title": "公共厕所",
        "address": "安徽省亳州市利辛县S247与S312交叉口正东方向261米左右",
        "tel": "",
        "category": "基础设施:公共设施:公共厕所",
        "type": 0,
        "location": {
            "lat": 33.175548,
            "lng": 116.074426
        },
        "ad_info": {
            "adcode": 341623,
            "province": "安徽省",
            "city": "亳州市",
            "district": "利辛县"
        }
    },
    {
        "id": "4663856120111178685",
        "title": "公共厕所",
        "address": "安徽省亳州市利辛县光明路与子胥大道交叉口西北方向104米左右",
        "tel": "",
        "category": "基础设施:公共设施:公共厕所",
        "type": 0,
        "location": {
            "lat": 33.165875,
            "lng": 116.220304
        },
        "ad_info": {
            "adcode": 341623,
            "province": "安徽省",
            "city": "亳州市",
            "district": "利辛县"
        }
    },
    {
        "id": "10046885010173076271",
        "title": "公共厕所",
        "address": "安徽省亳州市谯城区魏武大道1348号",
        "tel": "",
        "category": "基础设施:公共设施:公共厕所",
        "type": 0,
        "location": {
            "lat": 33.87185,
            "lng": 115.788277
        },
        "ad_info": {
            "adcode": 341602,
            "province": "安徽省",
            "city": "亳州市",
            "district": "谯城区"
        }
    },
    {
        "id": "1880851843167745659",
        "title": "公共厕所",
        "address": "安徽省亳州市谯城区交通路与亳涡路交叉口西南方向422米左右",
        "tel": "",
        "category": "基础设施:公共设施:公共厕所",
        "type": 0,
        "location": {
            "lat": 33.86029,
            "lng": 115.801565
        },
        "ad_info": {
            "adcode": 341602,
            "province": "安徽省",
            "city": "亳州市",
            "district": "谯城区"
        }
    },
    {
        "id": "12016564119469100783",
        "title": "公共厕所",
        "address": "安徽省亳州市蒙城县水园巷与淝河路交叉口东北方向19米左右",
        "tel": "",
        "category": "基础设施:公共设施:公共厕所",
        "type": 0,
        "location": {
            "lat": 33.267492,
            "lng": 116.5706
        },