[
    {
        "id": "7514576426185730942",
        "title": "公共厕所",
        "address": "湖北省仙桃市新城大道与民权路交叉口正北方向176米左右",
        "tel": "",
        "category": "基础设施:公共设施:公共厕所",
        "type": 0,
        "location": {
            "lat": 30.335067,
            "lng": 113.446352
        },
        "ad_info": {
            "adcode": 429004,
            "province": "湖北省",
            "city": "",
            "district": "仙桃市"
        }
    },
    {
        "id": "17791634036035047265",
        "title": "公共厕所",
        "address": "湖北省仙桃市仙源大道与科技二巷交叉口正南方向104米左右",
        "tel": "",
        "category": "基础设施:公共设施:公共厕所",
        "type": 0,
        "location": {
            "lat": 30.365958,
            "lng": 113.452977
        },
        "ad_info": {
            "adcode": 429004,
            "province": "湖北省",
            "city": "",
            "district": "仙桃市"
        }
    },
    {
        "id": "10057826884655474090",
        "title": "公共厕所",
        "address": "湖北省仙桃市仙下河路与何李路交叉口东北方向51米左右",
        "tel": "",
        "category": "基础设施:公共设施:公共厕所",
        "type": 0,
        "location": {
            "lat": 30.365566,
            "lng": 113.462113
        },
        "ad_info": {
            "adcode": 429004,
            "province": "湖北省",
            "city": "",
            "district": "仙桃市"
        }
    },
    {
        "id": "12095499762301988069",
        "title": "公共厕所",
        "address": "湖北省仙桃市复州大道与爱民路交叉口正南方向162米左右",
        "tel": "",
        "category": "基础设施:公共设施:公共厕所",
        "type": 0,
        "location": {
            "lat": 30.370845,
            "lng": 113.447398
        },
        "ad_info": {
            "adcode": 429004,
            "province": "湖北省",
            "city": "",
            "district": "仙桃市"
        }
    },
    {
        "id": "7514532945966084137",
        "title": "公共厕所",
        "address": "湖北省仙桃市杜柳北一路与游客集散中心巷交叉口西北方向41米左右",
        "tel": "",
        "category": "基础设施:公共设施:公共厕所",
        "type": 0,
        "location": {
            "lat": 30.350169,
            "lng": 113.436433
        },
        "ad_info": {
            "adcode": 429004,
            "province": "湖北省",
            "city": "",
            "district": "仙桃市"
        }
    },
    {
        "id": "8773461439421807927",
        "title": "公共厕所",
        "address": "湖北省仙桃市宏达路明珠豪庭",
        "tel": "",
        "category": "基础设施:公共设施:公共厕所",
        "type": 0,
        "location": {
            "lat": 30.351851,
            "lng": 113.435325
        },
        "ad_info": {
            "adcode": 429004,
            "province": "湖北省",
            "city": "",
            "district": "仙桃市"
        }
    },
    {
        "id": "9682083008557280234",
        "title": "公共厕所",
        "address": "湖北省仙桃市干河路与德政园环路交叉口正西方向68米左右",
        "tel": "",
        "category": "基础设施:公共设施:公共厕所",
        "type": 0,
        "location": {
            "lat": 30.358941,
            "lng": 113.42687
        },
        "ad_info": {
            "adcode": 429004,
            "province": "湖北省",
            "city": "",
            "district": "仙桃市"
        }
    },
    {
        "id": "1669106656802935141",
        "title": "公共厕所",
        "address": "湖北省仙桃市长埫口汽车站内",
        "tel": "",
        "category": "基础设施:公共设施:公共厕所",
        "type": 0,
        "location": {
            "lat": 30.396657,
            "lng": 113.566206
        },
        "ad_info": {
            "adcode": 429004,
            "province": "湖北省",
            "city": "",
            "district": "仙桃市"
        }
    },
    {
        "id": "4847410614475504020",
        "title": "公共厕所",
        "address": "湖北省仙桃市人才大道与前通路交叉口西北方向155米左右",
        "tel": "",
        "category": "基础设施:公共设施:公共厕所",
        "type": 0,
        "location": {
            "lat": 30.351667,
            "lng": 113.444917
        },
        "ad_info": {
            "adcode": 429004,
            "province": "湖北省",
            "city": "",
            "district": "仙桃市"
        }
    },
    {
        "id": "2252594759703290336",
        "title": "公共厕所",
        "address": "湖北省仙桃市仙源大道与沔阳大道南二巷交叉口东南方向59米左右",
        "tel": "",
        "category": "基础设施:公共设施:公共厕所",
        "type": 0,
        "location": {
            "lat": 30.366971,
            "lng": 113.442913
        },
        "ad_info": {
            "adcode": 429004,
            "province": "湖北省",
            "city": "",
            "district": "仙桃市"
        }
    },
    {
        "id": "8803263923318398651",
        "title": "公共厕所",
        "address": "湖北省仙桃市奥鹰大道仙桃职业学院",
        "tel": "",
        "category": "基础设施:公共设施:公共厕所",
        "type": 0,
        "location": {
            "lat": 30.33883,
            "lng": 113.424699
        },
        "ad_info": {
            "adcode": 429004,
            "province": "湖北省",
            "city": "",
            "district": "仙桃市"
        }
    },
    {
        "id": "2083510962548371832",
        "title": "公共厕所",
        "address": "湖北省仙桃市共青路与沿河大道交叉口东南方向36米左右",
        "tel": "",
        "category": "基础设施:公共设施:公共厕所",
        "type": 0,
        "location": {
            "lat": 30.376985,
            "lng": 113.45088
        },
        "ad_info": {
            "adcode": 429004,
            "province": "湖北省",
            "city": "",
            "district": "仙桃市"
        }
    },
    {
        "id": "3147631361018389206",
        "title": "公共厕所",
        "address": "湖北省仙桃市沔街与钱沟南路交叉口正西方向113米左右",
        "tel": "",
        "category": "基础设施:公共设施:公共厕所",
        "type": 0,
        "location": {
            "lat": 30.350354,
            "lng": 113.455578
        },
        "ad_info": {
            "adcode": 429004,
            "province": "湖北省",
            "city": "",
            "district": "仙桃市"
        }
    },
    {
        "id": "9308125625819369429",
        "title": "公共厕所",
        "address": "湖北省仙桃市仙源大道与沔阳大道交叉口东南方向67米左右",
        "tel": "",
        "category": "基础设施:公共设施:公共厕所",
        "type": 0,
        "location": {
            "lat": 30.370983,
            "lng": 113.440202
        },
        "ad_info": {
            "adcode": 429004,
            "province": "湖北省",
            "city": "",
            "district": "仙桃市"
        }
    },
    {
        "id": "18247105252236458247",
        "title": "公共厕所",
        "address": "湖北省仙桃市沔阳大道与钱沟路交叉口正北方向110米左右",
        "tel": "",
        "category": "基础设施:公共设施:公共厕所",
        "type": 0,
        "location": {
            "lat": 30.370076,
            "lng": 113.455347
        },
        "ad_info": {
            "adcode": 429004,
            "province": "湖北省",
            "city": "",
            "district": "仙桃市"
        }
    },
    {
        "id": "9756060591011411911",
        "title": "公共厕所",
        "address": "湖北省仙桃市复州大道与泵站路交叉口西南方向54米左右",
        "tel": "",
        "category": "基础设施:公共设施:公共厕所",
        "type": 0,
        "location": {
            "lat": 30.374296,
            "lng": 113.40493
        },
        "ad_info": {
            "adcode": 429004,
            "province": "湖北省",
            "city": "",
            "district": "仙桃市"
        }
    },
    {
        "id": "11082972047363760083",
        "title": "公共厕所",
        "address": "湖北省仙桃市仙下河路与大洪路交叉口东南方向61米左右",
        "tel": "",
        "category": "基础设施:公共设施:公共厕所",
        "type": 0,
        "location": {
            "lat": 30.367944,
            "lng": 113.439525
        },
        "ad_info": {
            "adcode": 429004,
            "province": "湖北省",
            "city": "",
            "district": "仙桃市"
        }
    },
    {
        "id": "13470661020760780399",
        "title": "公共厕所",
        "address": "湖北省仙桃市小寺垸路与汉江西路交叉口正西方向104米左右",
        "tel": "",
        "category": "基础设施:公共设施:公共厕所",
        "type": 0,
        "location": {
            "lat": 30.383432,
            "lng": 113.432431
        },
        "ad_info": {
            "adcode": 429004,
            "province": "湖北省",
            "city": "",
            "district": "仙桃市"
        }
    },
    {
        "id": "3083362697851353878",
        "title": "公共厕所",
        "address": "湖北省仙桃市流潭南路与黄金大道交叉口正西方向135米左右",
        "tel": "",
        "category": "基础设施:公共设施:公共厕所",
        "type": 0,
        "location": {
            "lat": 30.354549,
            "lng": 113.474475
        },
        "ad_info": {
            "adcode": 429004,
            "province": "湖北省",
            "city": "",
            "district": "仙桃市"
        }
    },
    {
        "id": "11975615142153986988",
        "title": "公共厕所",
        "address": "湖北省仙桃市G240与文化路交叉口正东方向172米左右",
        "tel": "",
        "category": "基础设施:公共设施:公共厕所",
        "type": 0,
        "location": {
            "lat": 30.482055,
            "lng": 113.027548
        },
        "ad_info": {
            "adcode": 429004,
            "province": "湖北省",
            "city": "",
            "district": "仙桃市"
        }
    },
    {
        "id": "11507677121973423237",
        "title": "公共厕所",
        "address": "湖北省仙桃市国土路与汉江路交叉口西南方向24米左右",
        "tel": "",
        "category": "基础设施:公共设施:公共厕所",
        "type": 0,
        "location": {
            "lat": 30.353271,
            "lng": 113.432489
        },
        "ad_info": {
            "adcode": 429004,
            "province": "湖北省",
            "city": "",
            "district": "仙桃市"
        }
    },
    {
        "id": "1429529438421039245",
        "title": "公共厕所",
        "address": "湖北省仙桃市九贺门正街与文化街交叉口东北方向114米左右",
        "tel": "",
        "category": "基础设施:公共设施:公共厕所",
        "type": 0,
        "location": {
            "lat": 30.19486,
            "lng": 113.230668
        },
        "ad_info": {
            "adcode": 429004,
            "province": "湖北省",
            "city": "",
            "district": "仙桃市"
        }
    },
    {
        "id": "18389160706120681909",
        "title": "公共厕所",
        "address": "湖北省仙桃市沪聂线中国石化毛场加油站",
        "tel": "",
        "category": "基础设施:公共设施:公共厕所",
        "type": 0,
        "location": {
            "lat": 30.382835,
            "lng": 113.132295
        },
        "ad_info": {
            "adcode": 429004,
            "province": "湖北省",
            "city": "",
            "district": "仙桃市"
        }
    },
    {
        "id": "5197269441396360577",
        "title": "公共厕所",
        "address": "湖北省仙桃市仙下河路与仙桃文化步行街交叉口西北方向76米左右",
        "tel": "",
        "category": "基础设施:公共设施:公共厕所",
        "type": 0,
        "location": {
            "lat": 30.366178,
            "lng": 113.447368
        },
        "ad_info": {
            "adcode": 429004,
            "province": "湖北省",
            "city": "",
            "district": "仙桃市"
        }
    },
    {
        "id": "4435783329464076262",
        "title": "公共厕所",
        "address": "湖北省仙桃市007乡道与050乡道交叉口北180米",
        "tel": "",
        "category": "基础设施:公共设施:公共厕所",
        "type": 0,
        "location": {
            "lat": 30.24047,
            "lng": 113.691173
        },
        "ad_info": {
            "adcode": 429004,
            "province": "湖北省",
            "city": "",
            "district": "仙桃市"
        }
    },
    {
        "id": "8668641711091733127",
        "title": "公共厕所",
        "address": "湖北省仙桃市011乡道北50米周陈小学附近",
        "tel": "",
        "category": "基础设施:公共设施:公共厕所",
        "type": 0,
        "location": {
            "lat": 30.411502,
            "lng": 113.519924
        },
        "ad_info": {
            "adcode": 429004,
            "province": "湖北省",
            "city": "",
            "district": "仙桃市"
        }
    },
    {
        "id": "3545295401093492534",
        "title": "公共厕所",
        "address": "湖北省仙桃市宏大小区2巷与汉江路交叉口东南方向66米左右",
        "tel": "",
        "category": "基础设施:公共设施:公共厕所",
        "type": 0,
        "location": {
            "lat": 30.362226,
            "lng": 113.433181
        },
        "ad_info": {
            "adcode": 429004,
            "province": "湖北省",
            "city": "",
            "district": "仙桃市"
        }
    },
    {
        "id": "3414153622515720867",
        "title": "公共厕所",
        "address": "湖北省仙桃市毛岳路与汉丰北路交叉口东北方向151米左右",
        "tel": "",
        "category": "基础设施:公共设施:公共厕所",
        "type": 0,
        "location": {
            "lat": 30.493152,
            "lng": 113.042242
        },
        "ad_info": {
            "adcode": 429004,
            "province": "湖北省",
            "city": "",
            "district": "仙桃市"
        }
    },
    {
        "id": "4450258713463171780",
        "title": "公共厕所",
        "address": "湖北省仙桃市复兴街与渔网路交叉口东北方向86米左右",
        "tel": "",
        "category": "基础设施:公共设施:公共厕所",
        "type": 0,
        "location": {
            "lat": 30.374708,
            "lng": 113.209966
        },
        "ad_info": {
            "adcode": 429004,
            "province": "湖北省",
            "city": "",
            "district": "仙桃市"
        }
    },
    {
        "id": "2117613094999796221",
        "title": "公共厕所",
        "address": "湖北省仙桃市民权路与甘棠北路交叉口正东方向18米左右",
        "tel": "",
        "category": "基础设施:公共设施:公共厕所",
        "type": 0,
        "location": {
            "lat": 30.329102,
            "lng": 113.446574
        },
        "ad_info": {
            "adcode": 429004,
            "province": "湖北省",
            "city": "",
            "district": "仙桃市"
        }
    },
    {
        "id": "8508808063151013197",
        "title": "公共厕所",
        "address": "湖北省仙桃市何李路与新村河东街6排交叉口正东方向49米左右",
        "tel": "",
        "category": "基础设施:公共设施:公共厕所",
        "type": 0,
        "location": {
            "lat": 30.359356,
            "lng": 113.462879
        },
        "ad_info": {
            "adcode": 429004,
            "province": "湖北省",
            "city": "",
            "district": "仙桃市"
        }
    },
    {
        "id": "17200277746415323953",
        "title": "公共厕所",
        "address": "湖北省仙桃市复州大道与沔阳大道北一巷交叉口正南方向40米左右",
        "tel": "",
        "category": "基础设施:公共设施:公共厕所",
        "type": 0,
        "location": {
            "lat": 30.372444,
            "lng": 113.4433
        },
        "ad_info": {
            "adcode": 429004,
            "province": "湖北省",
            "city": "",
            "district": "仙桃市"
        }
    },
    {
        "id": "7684235300105997876",
        "title": "公共厕所",
        "address": "湖北省仙桃市人才大道与前通路交叉口正东方向146米左右",
        "tel": "",
        "category": "基础设施:公共设施:公共厕所",
        "type": 0,
        "location": {
            "lat": 30.350876,
            "lng": 113.447778
        },
        "ad_info": {
            "adcode": 429004,
            "province": "湖北省",
            "city": "",
            "district": "仙桃市"
        }
    },
    {
        "id": "15435300345642139665",
        "title": "公共厕所",
        "address": "湖北省仙桃市仙洪路与沔州大道交叉口正南方向311米左右",
        "tel": "",
        "category": "基础设施:公共设施:公共厕所",
        "type": 0,
        "location": {
            "lat": 30.322791,
            "lng": 113.419066
        },
        "ad_info": {
            "adcode": 429004,
            "province": "湖北省",
            "city": "",
            "district": "仙桃市"
        }
    },
    {
        "id": "5788296291574808738",
        "title": "公共厕所",
        "address": "湖北省仙桃市仙桃大道与叶王路交叉口正东方向228米左右",
        "tel": "",
        "category": "基础设施:公共设施:公共厕所",
        "type": 0,
        "location": {
            "lat": 30.360511,
            "lng": 113.484705
        },
        "ad_info": {
            "adcode": 429004,
            "province": "湖北省",
            "city": "",
            "district": "仙桃市"
        }
    },
    {
        "id": "4927888474807073299",
        "title": "公共厕所",
        "address": "湖北省仙桃市二组路与仙洪路交叉口正东方向33米左右",
        "tel": "",
        "category": "基础设施:公共设施:公共厕所",
        "type": 0,
        "location": {
            "lat": 30.327678,
            "lng": 113.42038
        },
        "ad_info": {
            "adcode": 429004,
            "province": "湖北省",
            "city": "",
            "district": "仙桃市"
        }
    },
    {
        "id": "14138273692754952860",
        "title": "公共厕所",
        "address": "湖北省仙桃市仙汉路与彭场大道交叉口东南方向223米左右",
        "tel": "",
        "category": "基础设施:公共设施:公共厕所",
        "type": 0,
        "location": {
            "lat": 30.325453,
            "lng": 113.476646
        },
        "ad_info": {
            "adcode": 429004,
            "province": "湖北省",
            "city": "",
            "district": "仙桃市"
        }
    },
    {
        "id": "14201634279105160798",
        "title": "公共厕所",
        "address": "湖北省仙桃市玉秀街与纺织大道交叉口正西方向72米左右",
        "tel": "",
        "category": "基础设施:公共设施:公共厕所",
        "type": 0,
        "location": {
            "lat": 30.343309,
            "lng": 113.426996
        },
        "ad_info": {
            "adcode": 429004,
            "province": "湖北省",
            "city": "",
            "district": "仙桃市"
        }
    },
    {
        "id": "12281221189104197694",
        "title": "公共厕所",
        "address": "湖北省仙桃市仙桃文化步行街西街与宏达路交叉口正东方向78米左右",
        "tel": "",
        "category": "基础设施:公共设施:公共厕所",
        "type": 0,
        "location": {
            "lat": 30.365145,
            "lng": 113.448131
        },
        "ad_info": {
            "adcode": 429004,
            "province": "湖北省",
            "city": "",
            "district": "仙桃市"
        }
    },
    {
        "id": "9497005085545295751",
        "title": "公共厕所",
        "address": "湖北省仙桃市宏达路与宏达路西一巷交叉口西北方向136米左右",
        "tel": "",
        "category": "基础设施:公共设施:公共厕所",
        "type": 0,
        "location": {
            "lat": 30.362792,
            "lng": 113.442527
        },
        "ad_info": {
            "adcode": 429004,
            "province": "湖北省",
            "city": "",
            "district": "仙桃市"
        }
    },
    {
        "id": "266567040660979163",
        "title": "公共厕所",
        "address": "湖北省仙桃市友谊路与法庭路交叉口正北方向123米左右",
        "tel": "",
        "category": "基础设施:公共设施:公共厕所",
        "type": 0,
        "location": {
            "lat": 30.250704,
            "lng": 113.522126
        },
        "ad_info": {
            "adcode": 429004,
            "province": "湖北省",
            "city": "",
            "district": "仙桃市"
        }
    },
    {
        "id": "4134091122037953709",
        "title": "公共厕所",
        "address": "湖北省仙桃市宏达路中国石化宏达加油站(仙桃大道)",
        "tel": "",
        "category": "基础设施:公共设施:公共厕所",
        "type": 0,
        "location": {
            "lat": 30.360488,
            "lng": 113.441612
        },
        "ad_info": {
            "adcode": 429004,
            "province": "湖北省",
            "city": "",
            "district": "仙桃市"
        }
    },
    {
        "id": "6908226147057274045",
        "title": "公共厕所",
        "address": "湖北省仙桃市新城广场北路与森林公园路交叉口正西方向64米左右",
        "tel": "",
        "category": "基础设施:公共设施:公共厕所",
        "type": 0,
        "location": {
            "lat": 30.346871,
            "lng": 113.45673
        },
        "ad_info": {
            "adcode": 429004,
            "province": "湖北省",
            "city": "",
            "district": "仙桃市"
        }
    },
    {
        "id": "9608405495431173129",
        "title": "公共厕所",
        "address": "湖北省仙桃市丝宝路7号",
        "tel": "",
        "category": "基础设施:公共设施:公共厕所",
        "type": 0,
        "location": {
            "lat": 30.361639,
            "lng": 113.422562
        },
        "ad_info": {
            "adcode": 429004,
            "province": "湖北省",
            "city": "",
            "district": "仙桃市"
        }
    },
    {
        "id": "9063382145271509272",
        "title": "公共厕所",
        "address": "湖北省仙桃市公园路与彭场大道西段交叉口东北方向49米左右",
        "tel": "",
        "category": "基础设施:公共设施:公共厕所",
        "type": 0,
        "location": {
            "lat": 30.264063,
            "lng": 113.505754
        },
        "ad_info": {
            "adcode": 429004,
            "province": "湖北省",
            "city": "",
            "district": "仙桃市"
        }
    },
    {
        "id": "16886338695165248648",
        "title": "公共厕所",
        "address": "湖北省仙桃市复州大道与复州大道北二巷交叉口正北方向177米左右",
        "tel": "",
        "category": "基础设施:公共设施:公共厕所",
        "type": 0,
        "location": {
            "lat": 30.374405,
            "lng": 113.442291
        },
        "ad_info": {
            "adcode": 429004,
            "province": "湖北省",
            "city": "",
            "district": "仙桃市"
        }
    },
    {
        "id": "12929891529844989722",
        "title": "公共厕所",
        "address": "湖北省仙桃市汉沙路与江汉路交叉口正西方向81米左右",
        "tel": "",
        "category": "基础设施:公共设施:公共厕所",
        "type": 0,
        "location": {
            "lat": 30.414265,
            "lng": 113.038025
        },
        "ad_info": {
            "adcode": 429004,
            "province": "湖北省",
            "city": "",
            "district": "仙桃市"
        }
    },
    {
        "id": "11128574943455141058",
        "title": "公共厕所",
        "address": "湖北省仙桃市仙下河路与长虹路交叉口西北方向133米左右",
        "tel": "",
        "category": "基础设施:公共设施:公共厕所",
        "type": 0,
        "location": {
            "lat": 30.366288,
            "lng": 113.456764
        },
        "ad_info": {
            "adcode": 429004,
            "province": "湖北省",
            "city": "",
            "district": "仙桃市"
        }
    },
    {
        "id": "1766741407880631030",
        "title": "公共厕所",
        "address": "湖北省仙桃市仙下河路与大洪路交叉口正南方向29米左右",
        "tel": "",
        "category": "基础设施:公共设施:公共厕所",
        "type": 0,
        "location": {
            "lat": 30.368092,
            "lng": 113.439143
        },
        "ad_info": {
            "adcode": 429004,
            "province": "湖北省",
            "city": "",
            "district": "仙桃市"
        }
    },
    {
        "id": "13843324998432329263",
        "title": "公共厕所",
        "address": "湖北省仙桃市丝宝路与黄金大道交叉口正南方向249米左右",
        "tel": "",
        "category": "基础设施:公共设施:公共厕所",
        "type": 0,
        "location": {
            "lat": 30.352917,
            "lng": 113.422539
        },
        "ad_info": {
            "adcode": 429004,
            "province": "湖北省",
            "city": "",
            "district": "仙桃市"
        }
    },
    {
        "id": "10568784335808370045",
        "title": "公共厕所",
        "address": "湖北省仙桃市中心街北五巷与仙下河路交叉口东北方向27米左右",
        "tel": "",
        "category": "基础设施:公共设施:公共厕所",
        "type": 0,
        "location": {
            "lat": 30.365239,
            "lng": 113.467374
        },
        "ad_info": {
            "adcode": 429004,
            "province": "湖北省",
            "city": "",
            "district": "仙桃市"
        }
    },
    {
        "id": "15163327717316253982",
        "title": "公共厕所",
        "address": "湖北省仙桃市沔街与沔街北路交叉口西南方向84米左右",
        "tel": "",
        "category": "基础设施:公共设施:公共厕所",
        "type": 0,
        "location": {
            "lat": 30.349624,
            "lng": 113.460374
        },
        "ad_info": {
            "adcode": 429004,
            "province": "湖北省",
            "city": "",
            "district": "仙桃市"
        }
    },
    {
        "id": "14276185155348658802",
        "title": "公共厕所",
        "address": "湖北省仙桃市新城大道与钱沟南路交叉口正东方向277米左右",
        "tel": "",
        "category": "基础设施:公共设施:公共厕所",
        "type": 0,
        "location": {
            "lat": 30.333918,
            "lng": 113.464589
        },
        "ad_info": {
            "adcode": 429004,
            "province": "湖北省",
            "city": "",
            "district": "仙桃市"
        }
    },
    {
        "id": "16674114291452551529",
        "title": "公共厕所",
        "address": "湖北省仙桃市沔街与钱沟南路交叉口西南方向138米左右",
        "tel": "",
        "category": "基础设施:公共设施:公共厕所",
        "type": 0,
        "location": {
            "lat": 30.350184,
            "lng": 113.455375
        },
        "ad_info": {
            "adcode": 429004,
            "province": "湖北省",
            "city": "",
            "district": "仙桃市"
        }
    },
    {
        "id": "17396390846362850600",
        "title": "公共厕所",
        "address": "湖北省仙桃市仙桃大道与邻里路交叉口正北方向65米左右",
        "tel": "",
        "category": "基础设施:公共设施:公共厕所",
        "type": 0,
        "location": {
            "lat": 30.361657,
            "lng": 113.472663
        },
        "ad_info": {
            "adcode": 429004,
            "province": "湖北省",
            "city": "",
            "district": "仙桃市"
        }
    },
    {
        "id": "15642874231152162780",
        "title": "公共厕所",
        "address": "湖北省仙桃市仙桃大道与汉江路交叉口正北方向80米左右",
        "tel": "",
        "category": "基础设施:公共设施:公共厕所",
        "type": 0,
        "location": {
            "lat": 30.361535,
            "lng": 113.432596
        },
        "ad_info": {
            "adcode": 429004,
            "province": "湖北省",
            "city": "",
            "district": "仙桃市"
        }
    },
    {
        "id": "3894983487020054738",
        "title": "公共厕所",
        "address": "湖北省仙桃市汉江路与解放西路交叉口东南方向80米左右",
        "tel": "",
        "category": "基础设施:公共设施:公共厕所",
        "type": 0,
        "location": {
            "lat": 30.377571,
            "lng": 113.433552
        },
        "ad_info": {
            "adcode": 429004,
            "province": "湖北省",
            "city": "",
            "district": "仙桃市"
        }
    },
    {
        "id": "18355875957179496362",
        "title": "公共厕所",
        "address": "湖北省仙桃市中心路与排北大道交叉口西南方向36米左右",
        "tel": "",
        "category": "基础设施:公共设施:公共厕所",
        "type": 0,
        "location": {
            "lat": 30.291498,
            "lng": 113.231734
        },
        "ad_info": {
            "adcode": 429004,
            "province": "湖北省",
            "city": "",
            "district": "仙桃市"
        }
    },
    {
        "id": "10248249780762360831",
        "title": "公共厕所",
        "address": "湖北省仙桃市沙嘴路与沙嘴路西5巷交叉口东北方向14米左右",
        "tel": "",
        "category": "基础设施:公共设施:公共厕所",
        "type": 0,
        "location": {
            "lat": 30.357728,
            "lng": 113.450691
        },
        "ad_info": {
            "adcode": 429004,
            "province": "湖北省",
            "city": "",
            "district": "仙桃市"
        }
    },
    {
        "id": "4429757489484207323",
        "title": "公共厕所",
        "address": "湖北省仙桃市三益路与建设东路交叉口东340米",
        "tel": "",
        "category": "基础设施:公共设施:公共厕所",
        "type": 0,
        "location": {
            "lat": 30.373126,
            "lng": 113.315804
        },
        "ad_info": {
            "adcode": 429004,
            "province": "湖北省",
            "city": "",
            "district": "仙桃市"
        }
    },
    {
        "id": "6273399118192049980",
        "title": "公共厕所",
        "address": "湖北省仙桃市府南路与钱沟路交叉口东北方向155米左右",
        "tel": "",
        "category": "基础设施:公共设施:公共厕所",
        "type": 0,
        "location": {
            "lat": 30.362834,
            "lng": 113.456794
        },
        "ad_info": {
            "adcode": 429004,
            "province": "湖北省",
            "city": "",
            "district": "仙桃市"
        }
    },
    {
        "id": "7512369549351610582",
        "title": "公共厕所",
        "address": "湖北省仙桃市干河路与沔街交叉口东南方向33米左右",
        "tel": "",
        "category": "基础设施:公共设施:公共厕所",
        "type": 0,
        "location": {
            "lat": 30.348764,
            "lng": 113.427834
        },
        "ad_info": {
            "adcode": 429004,
            "province": "湖北省",
            "city": "",
            "district": "仙桃市"
        }
    },
    {
        "id": "9647170641204424184",
        "title": "公共厕所",
        "address": "湖北省仙桃市沙嘴四居中路与沙嘴四居北路交叉口正南方向129米左右",
        "tel": "",
        "category": "基础设施:公共设施:公共厕所",
        "type": 0,
        "location": {
            "lat": 30.35817,
            "lng": 113.447294
        },
        "ad_info": {
            "adcode": 429004,
            "province": "湖北省",
            "city": "",
            "district": "仙桃市"
        }
    },
    {
        "id": "17306998884423472552",
        "title": "公共厕所",
        "address": "湖北省仙桃市复州大道与袁市路交叉口正西方向171米左右",
        "tel": "",
        "category": "基础设施:公共设施:公共厕所",
        "type": 0,
        "location": {
            "lat": 30.374034,
            "lng": 113.408606
        },
        "ad_info": {
            "adcode": 429004,
            "province": "湖北省",
            "city": "",
            "district": "仙桃市"
        }
    },
    {
        "id": "2812880777442906245",
        "title": "公共厕所",
        "address": "湖北省仙桃市仙桃大道与袁市路交叉口东北方向369米左右",
        "tel": "",
        "category": "基础设施:公共设施:公共厕所",
        "type": 0,
        "location": {
            "lat": 30.362871,
            "lng": 113.415437
        },
        "ad_info": {
            "adcode": 429004,
            "province": "湖北省",
            "city": "",
            "district": "仙桃市"
        }
    },
    {
        "id": "16297832621717263777",
        "title": "公共厕所",
        "address": "湖北省仙桃市健康路与南环路交叉口正南方向109米左右",
        "tel": "",
        "category": "基础设施:公共设施:公共厕所",
        "type": 0,
        "location": {
            "lat": 30.369704,
            "lng": 113.198522
        },
        "ad_info": {
            "adcode": 429004,
            "province": "湖北省",
            "city": "",
            "district": "仙桃市"
        }
    },
    {
        "id": "16042554455680606265",
        "title": "公共厕所",
        "address": "湖北省仙桃市沔阳大道与沔阳大道北三巷交叉口东北方向57米左右",
        "tel": "",
        "category": "基础设施:公共设施:公共厕所",
        "type": 0,
        "location": {
            "lat": 30.37071,
            "lng": 113.445271
        },
        "ad_info": {
            "adcode": 429004,
            "province": "湖北省",
            "city": "",
            "district": "仙桃市"
        }
    },
    {
        "id": "15140919747393843273",
        "title": "公共厕所",
        "address": "湖北省仙桃市三伏潭镇仙桃西站东",
        "tel": "",
        "category": "基础设施:公共设施:公共厕所",
        "type": 0,
        "location": {
            "lat": 30.424489,
            "lng": 113.141386
        },
        "ad_info": {
            "adcode": 429004,
            "province": "湖北省",
            "city": "",
            "district": "仙桃市"
        }
    },
    {
        "id": "3481061619927750130",
        "title": "公共厕所",
        "address": "湖北省仙桃市仙汉路与新城大道交叉口正南方向104米左右",
        "tel": "",
        "category": "基础设施:公共设施:公共厕所",
        "type": 0,
        "location": {
            "lat": 30.3339,
            "lng": 113.470692
        },
        "ad_info": {
            "adcode": 429004,
            "province": "湖北省",
            "city": "",
            "district": "仙桃市"
        }
    },
    {
        "id": "2920789583152979697",
        "title": "公共厕所",
        "address": "湖北省仙桃市城乡渠街与沔阳大道南六巷交叉口正南方向57米左右",
        "tel": "",
        "category": "基础设施:公共设施:公共厕所",
        "type": 0,
        "location": {
            "lat": 30.367766,
            "lng": 113.453256
        },
        "ad_info": {
            "adcode": 429004,
            "province": "湖北省",
            "city": "",
            "district": "仙桃市"
        }
    },
    {
        "id": "712899406714197244",
        "title": "公共厕所",
        "address": "湖北省仙桃市建设街与建设街南十一巷交叉口正南方向59米左右",
        "tel": "",
        "category": "基础设施:公共设施:公共厕所",
        "type": 0,
        "location": {
            "lat": 30.371699,
            "lng": 113.456663
        },
        "ad_info": {
            "adcode": 429004,
            "province": "湖北省",
            "city": "",
            "district": "仙桃市"
        }
    },
    {
        "id": "15014535935685198827",
        "title": "公共厕所",
        "address": "湖北省仙桃市吟梅源石材右侧5米",
        "tel": "",
        "category": "基础设施:公共设施:公共厕所",
        "type": 0,
        "location": {
            "lat": 30.352539,
            "lng": 113.427786
        },
        "ad_info": {
            "adcode": 429004,
            "province": "湖北省",
            "city": "",
            "district": "仙桃市"
        }
    },
    {
        "id": "18431970565245678262",
        "title": "公共厕所",
        "address": "湖北省仙桃市毛湾街与永兴街交叉口正北方向450米左右",
        "tel": "",
        "category": "基础设施:公共设施:公共厕所",
        "type": 0,
        "location": {
            "lat": 30.42274,
            "lng": 113.033013
        },
        "ad_info": {
            "adcode": 429004,
            "province": "湖北省",
            "city": "",
            "district": "仙桃市"
        }
    },
    {
        "id": "9720393493496353503",
        "title": "公共厕所",
        "address": "湖北省仙桃市Y044与文化路交叉口正西方向518米左右",
        "tel": "",
        "category": "基础设施:公共设施:公共厕所",
        "type": 0,
        "location": {
            "lat": 30.247152,
            "lng": 113.50795
        },
        "ad_info": {
            "adcode": 429004,
            "province": "湖北省",
            "city": "",
            "district": "仙桃市"
        }
    },
    {
        "id": "1172534764394038522",
        "title": "公共厕所",
        "address": "湖北省仙桃市S321与彭场大道东段交叉口东南方向629米左右",
        "tel": "",
        "category": "基础设施:公共设施:公共厕所",
        "type": 0,
        "location": {
            "lat": 30.240875,
            "lng": 113.543325
        },
        "ad_info": {
            "adcode": 429004,
            "province": "湖北省",
            "city": "",
            "district": "仙桃市"
        }
    },
    {
        "id": "3820829735644253226",
        "title": "公共厕所",
        "address": "湖北省仙桃市沔阳大道北五巷与沔阳大道北五巷西一里交叉口正南方向102米左右",
        "tel": "",
        "category": "基础设施:公共设施:公共厕所",
        "type": 0,
        "location": {
            "lat": 30.370411,
            "lng": 113.453092
        },
        "ad_info": {
            "adcode": 429004,
            "province": "湖北省",
            "city": "",
            "district": "仙桃市"
        }
    },
    {
        "id": "16069960940298884408",
        "title": "公共厕所",
        "address": "湖北省仙桃市世纪大道与教育路交叉口东南方向38米左右",
        "tel": "",
        "category": "基础设施:公共设施:公共厕所",
        "type": 0,
        "location": {
            "lat": 30.312639,
            "lng": 113.696239
        },
        "ad_info": {
            "adcode": 429004,
            "province": "湖北省",
            "city": "",
            "district": "仙桃市"
        }
    },
    {
        "id": "17808692728214580823",
        "title": "公共厕所",
        "address": "湖北省仙桃市沔街与锦瑞路交叉口正东方向90米左右",
        "tel": "",
        "category": "基础设施:公共设施:公共厕所",
        "type": 0,
        "location": {
            "lat": 30.349924,
            "lng": 113.442971
        },
        "ad_info": {
            "adcode": 429004,
            "province": "湖北省",
            "city": "",
            "district": "仙桃市"
        }
    },
    {
        "id": "16324968719332349823",
        "title": "公共厕所",
        "address": "湖北省仙桃市宏达路与玉田路交叉口正北方向90米左右",
        "tel": "",
        "category": "基础设施:公共设施:公共厕所",
        "type": 0,
        "location": {
            "lat": 30.348246,
            "lng": 113.431295
        },
        "ad_info": {
            "adcode": 429004,
            "province": "湖北省",
            "city": "",
            "district": "仙桃市"
        }
    },
    {
        "id": "780626857705621292",
        "title": "公共厕所",
        "address": "湖北省仙桃市古河二路与郭河大道交叉口西北方向91米左右",
        "tel": "",
        "category": "基础设施:公共设施:公共厕所",
        "type": 0,
        "location": {
            "lat": 30.239492,
            "lng": 113.293035
        },
        "ad_info": {
            "adcode": 429004,
            "province": "湖北省",
            "city": "",
            "district": "仙桃市"
        }
    },
    {
        "id": "10560181013301452051",
        "title": "公共厕所",
        "address": "湖北省仙桃市仙源大道与沔阳大道南五巷交叉口西南方向61米左右",
        "tel": "",
        "category": "基础设施:公共设施:公共厕所",
        "type": 0,
        "location": {
            "lat": 30.366616,
            "lng": 113.450953
        },
        "ad_info": {
            "adcode": 429004,
            "province": "湖北省",
            "city": "",
            "district": "仙桃市"
        }
    },
    {
        "id": "12294589892100002805",
        "title": "公共厕所",
        "address": "湖北省仙桃市创新路与沿江大道交叉口西南方向79米左右",
        "tel": "",
        "category": "基础设施:公共设施:公共厕所",
        "type": 0,
        "location": {
            "lat": 30.389525,
            "lng": 113.435584
        },
        "ad_info": {
            "adcode": 429004,
            "province": "湖北省",
            "city": "",
            "district": "仙桃市"
        }
    },
    {
        "id": "13106401440105312654",
        "title": "公共厕所",
        "address": "湖北省仙桃市G240与大有大道交叉口东北方向126米左右",
        "tel": "",
        "category": "基础设施:公共设施:公共厕所",
        "type": 0,
        "location": {
            "lat": 30.487451,
            "lng": 113.031658
        },
        "ad_info": {
            "adcode": 429004,
            "province": "湖北省",
            "city": "",
            "district": "仙桃市"
        }
    },
    {
        "id": "12797487218514358269",
        "title": "公共厕所",
        "address": "湖北省仙桃市敦厚大道与长安路交叉口东南方向74米左右",
        "tel": "",
        "category": "基础设施:公共设施:公共厕所",
        "type": 0,
        "location": {
            "lat": 30.39554,
            "lng": 113.571038
        },
        "ad_info": {
            "adcode": 429004,
            "province": "湖北省",
            "city": "",
            "district": "仙桃市"
        }
    },
    {
        "id": "1770823847654873832",
        "title": "公共厕所",
        "address": "湖北省仙桃市朝阳大道与民权路交叉口正北方向96米左右",
        "tel": "",
        "category": "基础设施:公共设施:公共厕所",
        "type": 0,
        "location": {
            "lat": 30.341703,
            "lng": 113.44599
        },
        "ad_info": {
            "adcode": 429004,
            "province": "湖北省",
            "city": "",
            "district": "仙桃市"
        }
    },
    {
        "id": "13030972868050011785",
        "title": "公共厕所",
        "address": "湖北省仙桃市汪洲河东路与笆篓湾西街交叉口正东方向18米左右",
        "tel": "",
        "category": "基础设施:公共设施:公共厕所",
        "type": 0,
        "location": {
            "lat": 30.35972,
            "lng": 113.450703
        },
        "ad_info": {
            "adcode": 429004,
            "province": "湖北省",
            "city": "",
            "district": "仙桃市"
        }
    },
    {
        "id": "6092020222058338615",
        "title": "公共厕所",
        "address": "湖北省仙桃市仙源大道80号",
        "tel": "",
        "category": "基础设施:公共设施:公共厕所",
        "type": 0,
        "location": {
            "lat": 30.366012,
            "lng": 113.471694
        },
        "ad_info": {
            "adcode": 429004,
            "province": "湖北省",
            "city": "",
            "district": "仙桃市"
        }
    },
    {
        "id": "10971607514654023159",
        "title": "公共厕所",
        "address": "湖北省仙桃市仙洪路与彭张公路交叉口正东方向65米左右",
        "tel": "",
        "category": "基础设施:公共设施:公共厕所",
        "type": 0,
        "location": {
            "lat": 30.261298,
            "lng": 113.391964
        },
        "ad_info": {
            "adcode": 429004,
            "province": "湖北省",
            "city": "",
            "district": "仙桃市"
        }
    },
    {
        "id": "9459804661353471581",
        "title": "公共厕所",
        "address": "湖北省仙桃市S214与S352交叉口西北方向864米左右",
        "tel": "",
        "category": "基础设施:公共设施:公共厕所",
        "type": 0,
        "location": {
            "lat": 30.198917,
            "lng": 113.379047
        },
        "ad_info": {
            "adcode": 429004,
            "province": "湖北省",
            "city": "",
            "district": "仙桃市"
        }
    },
    {
        "id": "16434561536539360481",
        "title": "公共厕所",
        "address": "湖北省仙桃市凤凰河路与复州大道交叉口正北方向213米左右",
        "tel": "",
        "category": "基础设施:公共设施:公共厕所",
        "type": 0,
        "location": {
            "lat": 30.374845,
            "lng": 113.438994
        },
        "ad_info": {
            "adcode": 429004,
            "province": "湖北省",
            "city": "",
            "district": "仙桃市"
        }
    },
    {
        "id": "3684297234684897295",
        "title": "公共厕所",
        "address": "湖北省仙桃市汉沙大道88号",
        "tel": "",
        "category": "基础设施:公共设施:公共厕所",
        "type": 0,
        "location": {
            "lat": 30.371646,
            "lng": 113.195693
        },
        "ad_info": {
            "adcode": 429004,
            "province": "湖北省",
            "city": "",
            "district": "仙桃市"
        }
    },
    {
        "id": "11600962615295063201",
        "title": "公共厕所",
        "address": "湖北省仙桃市杨林尾镇金垸村卫生室东南侧160米",
        "tel": "",
        "category": "基础设施:公共设施:公共厕所",
        "type": 0,
        "location": {
            "lat": 30.223305,
            "lng": 113.481283
        },
        "ad_info": {
            "adcode": 429004,
            "province": "湖北省",
            "city": "",
            "district": "仙桃市"
        }
    },
    {
        "id": "13373631825939215908",
        "title": "公共厕所",
        "address": "湖北省仙桃市桃花岭大道与流潭南路交叉口正北方向55米左右",
        "tel": "",
        "category": "基础设施:公共设施:公共厕所",
        "type": 0,
        "location": {
            "lat": 30.347528,
            "lng": 113.475849
        },
        "ad_info": {
            "adcode": 429004,
            "province": "湖北省",
            "city": "",
            "district": "仙桃市"
        }
    },
    {
        "id": "7919813877562993108",
        "title": "公共厕所",
        "address": "湖北省仙桃市S215与Y070交叉口东南方向1594米左右",
        "tel": "",
        "category": "基础设施:公共设施:公共厕所",
        "type": 0,
        "location": {
            "lat": 30.209194,
            "lng": 113.281568
        },
        "ad_info": {
            "adcode": 429004,
            "province": "湖北省",
            "city": "",
            "district": "仙桃市"
        }
    },
    {
        "id": "16362404955104373563",
        "title": "公共厕所",
        "address": "湖北省仙桃市S215与毛通线交叉口正西方向1001米左右",
        "tel": "",
        "category": "基础设施:公共设施:公共厕所",
        "type": 0,
        "location": {
            "lat": 30.182908,
            "lng": 113.130677
        },
        "ad_info": {
            "adcode": 429004,
            "province": "湖北省",
            "city": "",
            "district": "仙桃市"
        }
    },
    {
        "id": "3327554785241290700",
        "title": "公共厕所",
        "address": "湖北省仙桃市胡家台抗日英雄纪念碑东侧",
        "tel": "",
        "category": "基础设施:公共设施:公共厕所",
        "type": 0,
        "location": {
            "lat": 30.259728,
            "lng": 113.649845
        },
        "ad_info": {
            "adcode": 429004,
            "province": "湖北省",
            "city": "",
            "district": "仙桃市"
        }
    },
    {
        "id": "1720882546708326476",
        "title": "公共厕所",
        "address": "湖北省仙桃市G318与南环路交叉口正西方向271米左右",
        "tel": "",
        "category": "基础设施:公共设施:公共厕所",
        "type": 0,
        "location": {
            "lat": 30.373301,
            "lng": 113.225633
        },
        "ad_info": {
            "adcode": 429004,
            "province": "湖北省",
            "city": "",
            "district": "仙桃市"
        }
    },
    {
        "id": "5571196889968984303",
        "title": "公共厕所",
        "address": "湖北省仙桃市东郊路与郭河大道交叉口东南方向39米左右",
        "tel": "",
        "category": "基础设施:公共设施:公共厕所",
        "type": 0,
        "location": {
            "lat": 30.243443,
            "lng": 113.304109
        },
        "ad_info": {
            "adcode": 429004,
            "province": "湖北省",
            "city": "",
            "district": "仙桃市"
        }
    },
    {
        "id": "11611197898608009873",
        "title": "公共厕所",
        "address": "湖北省仙桃市干河北路与干河路交叉口正北方向64米左右",
        "tel": "",
        "category": "基础设施:公共设施:公共厕所",
        "type": 0,
        "location": {
            "lat": 30.391229,
            "lng": 113.429491
        },
        "ad_info": {
            "adcode": 429004,
            "province": "湖北省",
            "city": "",
            "district": "仙桃市"
        }
    },
    {
        "id": "2053255943282508197",
        "title": "公共厕所",
        "address": "湖北省仙桃市仙西路92号",
        "tel": "",
        "category": "基础设施:公共设施:公共厕所",
        "type": 0,
        "location": {
            "lat": 30.353856,
            "lng": 113.505751
        },
        "ad_info": {
            "adcode": 429004,
            "province": "湖北省",
            "city": "",
            "district": "仙桃市"
        }
    },
    {
        "id": "8204922509972521032",
        "title": "公共厕所",
        "address": "湖北省仙桃市G318与Y016交叉口正东方向400米左右",
        "tel": "",
        "category": "基础设施:公共设施:公共厕所",
        "type": 0,
        "location": {
            "lat": 30.375171,
            "lng": 113.658735
        },
        "ad_info": {
            "adcode": 429004,
            "province": "湖北省",
            "city": "",
            "district": "仙桃市"
        }
    },
    {
        "id": "14984377941255860574",
        "title": "公共厕所",
        "address": "湖北省仙桃市G318与周三南路交叉口正东方向915米左右",
        "tel": "",
        "category": "基础设施:公共设施:公共厕所",
        "type": 0,
        "location": {
            "lat": 30.383973,
            "lng": 113.705383
        },
        "ad_info": {
            "adcode": 429004,
            "province": "湖北省",
            "city": "",
            "district": "仙桃市"
        }
    },
    {
        "id": "7498657716013863481",
        "title": "公共厕所",
        "address": "湖北省仙桃市五湖大道与徐家湖路交叉口正南方向233米左右",
        "tel": "",
        "category": "基础设施:公共设施:公共厕所",
        "type": 0,
        "location": {
            "lat": 30.19809,
            "lng": 113.789835
        },
        "ad_info": {
            "adcode": 429004,
            "province": "湖北省",
            "city": "",
            "district": "仙桃市"
        }
    },
    {
        "id": "9737620001865594372",
        "title": "公共厕所",
        "address": "湖北省仙桃市214省道与060乡道交叉口东南200米",
        "tel": "",
        "category": "基础设施:公共设施:公共厕所",
        "type": 0,
        "location": {
            "lat": 30.204641,
            "lng": 113.37989
        },
        "ad_info": {
            "adcode": 429004,
            "province": "湖北省",
            "city": "",
            "district": "仙桃市"
        }
    },
    {
        "id": "9196292429724748860",
        "title": "公共厕所",
        "address": "湖北省仙桃市中南路与排湖大道交叉口正北方向20米左右",
        "tel": "",
        "category": "基础设施:公共设施:公共厕所",
        "type": 0,
        "location": {
            "lat": 30.288988,
            "lng": 113.224436
        },
        "ad_info": {
            "adcode": 429004,
            "province": "湖北省",
            "city": "",
            "district": "仙桃市"
        }
    },
    {
        "id": "1211039369143220048",
        "title": "公共厕所",
        "address": "湖北省仙桃市大莲池风景区西北侧",
        "tel": "",
        "category": "基础设施:公共设施:公共厕所",
        "type": 0,
        "location": {
            "lat": 30.188714,
            "lng": 113.242815
        },
        "ad_info": {
            "adcode": 429004,
            "province": "湖北省",
            "city": "",
            "district": "仙桃市"
        }
    },
    {
        "id": "11318151912647073818",
        "title": "公共厕所",
        "address": "湖北省仙桃市流潭南路与黄金大道交叉口正西方向136米左右",
        "tel": "",
        "category": "基础设施:公共设施:公共厕所",
        "type": 0,
        "location": {
            "lat": 30.354917,
            "lng": 113.474371
        },
        "ad_info": {
            "adcode": 429004,
            "province": "湖北省",
            "city": "",
            "district": "仙桃市"
        }
    },
    {
        "id": "17534763398841658620",
        "title": "G50仙桃服务区公共厕所",
        "address": "湖北省仙桃市G50沪渝高速与G50仙桃服务区交叉口西北320米",
        "tel": "",
        "category": "基础设施:公共设施:公共厕所",
        "type": 0,
        "location": {
            "lat": 30.341327,
            "lng": 113.527622
        },
        "ad_info": {
            "adcode": 429004,
            "province": "湖北省",
            "city": "",
            "district": "仙桃市"
        }
    },
    {
        "id": "16072044739847468610",
        "title": "公共厕所",
        "address": "湖北省仙桃市文化街与经济路交叉口东北方向133米左右",
        "tel": "",
        "category": "基础设施:公共设施:公共厕所",
        "type": 0,
        "location": {
            "lat": 30.374843,
            "lng": 113.200761
        },
        "ad_info": {
            "adcode": 429004,
            "province": "湖北省",
            "city": "",
            "district": "仙桃市"
        }
    },
    {
        "id": "2890995332363277177",
        "title": "无障碍公共厕所",
        "address": "湖北省仙桃市永泰路与沔州大道交叉口正北方向81米左右",
        "tel": "",
        "category": "基础设施:公共设施:公共厕所",
        "type": 0,
        "location": {
            "lat": 30.327232,
            "lng": 113.457608
        },
        "ad_info": {
            "adcode": 429004,
            "province": "湖北省",
            "city": "",
            "district": "仙桃市"
        }
    },
    {
        "id": "11130286540078110295",
        "title": "交通厕所",
        "address": "湖北省仙桃市毛许路与汉沙路交叉口正东方向66米左右",
        "tel": "",
        "category": "基础设施:公共设施:公共厕所",
        "type": 0,
        "location": {
            "lat": 30.413631,
            "lng": 113.040275
        },
        "ad_info": {
            "adcode": 429004,
            "province": "湖北省",
            "city": "",
            "district": "仙桃市"
        }
    },
    {
        "id": "6828945352562510731",
        "title": "G50仙桃服务区公共厕所",
        "address": "湖北省仙桃市G50仙桃服务区南30米",
        "tel": "",
        "category": "基础设施:公共设施:公共厕所",
        "type": 0,
        "location": {
            "lat": 30.338615,
            "lng": 113.526116
        },
        "ad_info": {
            "adcode": 429004,
            "province": "湖北省",
            "city": "",
            "district": "仙桃市"
        }
    },
    {
        "id": "7289847254124066983",
        "title": "旅游厕所",
        "address": "湖北省仙桃市排湖大道106号",
        "tel": "",
        "category": "基础设施:公共设施:公共厕所",
        "type": 0,
        "location": {
            "lat": 30.272728,
            "lng": 113.24178
        },
        "ad_info": {
            "adcode": 429004,
            "province": "湖北省",
            "city": "",
            "district": "仙桃市"
        }
    },
    {
        "id": "12125363679206696474",
        "title": "无障碍公共厕所",
        "address": "湖北省仙桃市北仁路与复州大道交叉口正南方向60米左右",
        "tel": "",
        "category": "基础设施:公共设施:公共厕所",
        "type": 0,
        "location": {
            "lat": 30.372459,
            "lng": 113.436732
        },
        "ad_info": {
            "adcode": 429004,
            "province": "湖北省",
            "city": "",
            "district": "仙桃市"
        }
    },
    {
        "id": "9313973813854724705",
        "title": "G0421仙桃服务区公共厕所",
        "address": "湖北省仙桃市剅河互通与许广高速交叉口正南方向1778米左右",
        "tel": "",
        "category": "基础设施:公共设施:公共厕所",
        "type": 0,
        "location": {
            "lat": 30.308564,
            "lng": 113.067998
        },
        "ad_info": {
            "adcode": 429004,
            "province": "湖北省",
            "city": "",
            "district": "仙桃市"
        }
    },
    {
        "id": "10323033511239986607",
        "title": "G0421仙桃服务区公共厕所",
        "address": "湖北省仙桃市豆河镇随岳高速公路仙桃服务区",
        "tel": "",
        "category": "基础设施:公共设施:公共厕所",
        "type": 0,
        "location": {
            "lat": 30.310499,
            "lng": 113.065081
        },
        "ad_info": {
            "adcode": 429004,
            "province": "湖北省",
            "city": "",
            "district": "仙桃市"
        }
    },
    {
        "id": "12704465405797843982",
        "title": "通海口中心卫生院男洗手间",
        "address": "湖北省仙桃市通海口中心卫生院2层",
        "tel": "",
        "category": "基础设施:公共设施:公共厕所",
        "type": 0,
        "location": {
            "lat": 30.195251,
            "lng": 113.152475
        },
        "ad_info": {
            "adcode": 429004,
            "province": "湖北省",
            "city": "",
            "district": "仙桃市"
        }
    },
    {
        "id": "1899735815853110336",
        "title": "G50仙桃服务区第二公共厕所",
        "address": "湖北省仙桃市G50沪渝高速与G50仙桃服务区交叉口西北380米",
        "tel": "",
        "category": "基础设施:公共设施:公共厕所",
        "type": 0,
        "location": {
            "lat": 30.340901,
            "lng": 113.526519
        },
        "ad_info": {
            "adcode": 429004,
            "province": "湖北省",
            "city": "",
            "district": "仙桃市"
        }
    },
    {
        "id": "5413017627722965641",
        "title": "仙桃南服务区公共厕所",
        "address": "湖北省仙桃市S43孝洪高速与仙桃南服务区交叉口西北440米",
        "tel": "",
        "category": "基础设施:公共设施:公共厕所",
        "type": 0,
        "location": {
            "lat": 30.240887,
            "lng": 113.664202
        },
        "ad_info": {
            "adcode": 429004,
            "province": "湖北省",
            "city": "",
            "district": "仙桃市"
        }
    },
    {
        "id": "5739742575485967757",
        "title": "仙桃南服务区公共厕所",
        "address": "湖北省仙桃市孝洪高速仙桃南服务区",
        "tel": "",
        "category": "基础设施:公共设施:公共厕所",
        "type": 0,
        "location": {
            "lat": 30.241646,
            "lng": 113.665633
        },
        "ad_info": {
            "adcode": 429004,
            "province": "湖北省",
            "city": "",
            "district": "仙桃市"
        }
    },
    {
        "id": "17462735607559809262",
        "title": "公共厕所",
        "address": "湖北省仙桃市毛通线中国石化仙桃陈场加油站",
        "tel": "",
        "category": "基础设施:公共设施:公共厕所",
        "type": 0,
        "location": {
            "lat": 30.230697,
            "lng": 113.092115
        },
        "ad_info": {
            "adcode": 429004,
            "province": "湖北省",
            "city": "",
            "district": "仙桃市"
        }
    },
    {
        "id": "9228343971797280511",
        "title": "公共厕所",
        "address": "湖北省仙桃市肖邦汽车救援中心旁",
        "tel": "",
        "category": "基础设施:公共设施:公共厕所",
        "type": 0,
        "location": {
            "lat": 30.355537,
            "lng": 113.434019
        },
        "ad_info": {
            "adcode": 429004,
            "province": "湖北省",
            "city": "",
            "district": "仙桃市"
        }
    },
    {
        "id": "1898192014704783462",
        "title": "公共厕所",
        "address": "湖北省仙桃市仙桃大道与汉江路交叉口正东方向197米左右",
        "tel": "",
        "category": "基础设施:公共设施:公共厕所",
        "type": 0,
        "location": {
            "lat": 30.360588,
            "lng": 113.434781
        },
        "ad_info": {
            "adcode": 429004,
            "province": "湖北省",
            "city": "",
            "district": "仙桃市"
        }
    },
    {
        "id": "2605304718644881262",
        "title": "无障碍公共厕所",
        "address": "湖北省仙桃市友谊北村一巷与友谊路交叉口正北方向52米左右",
        "tel": "",
        "category": "基础设施:公共设施:公共厕所",
        "type": 0,
        "location": {
            "lat": 30.250857,
            "lng": 113.520724
        },
        "ad_info": {
            "adcode": 429004,
            "province": "湖北省",
            "city": "",
            "district": "仙桃市"
        }
    },
    {
        "id": "5605282540399197814",
        "title": "公共厕所",
        "address": "湖北省仙桃市仙洪路与彭张公路交叉口东北方向155米左右",
        "tel": "",
        "category": "基础设施:公共设施:公共厕所",
        "type": 0,
        "location": {
            "lat": 30.26277,
            "lng": 113.391948
        },
        "ad_info": {
            "adcode": 429004,
            "province": "湖北省",
            "city": "",
            "district": "仙桃市"
        }
    },
    {
        "id": "1598191714591271749",
        "title": "集镇公共厕所",
        "address": "湖北省仙桃市大有大道与教育南路交叉口东北方向53米左右",
        "tel": "",
        "category": "基础设施:公共设施:公共厕所",
        "type": 0,
        "location": {
            "lat": 30.487591,
            "lng": 113.037065
        },
        "ad_info": {
            "adcode": 429004,
            "province": "湖北省",
            "city": "",
            "district": "仙桃市"
        }
    },
    {
        "id": "2413452805510537499",
        "title": "公共厕所",
        "address": "湖北省仙桃市宏达路与纺织大道交叉口正东方向153米左右",
        "tel": "",
        "category": "基础设施:公共设施:公共厕所",
        "type": 0,
        "location": {
            "lat": 30.344376,
            "lng": 113.42969
        },
        "ad_info": {
            "adcode": 429004,
            "province": "湖北省",
            "city": "",
            "district": "仙桃市"
        }
    },
    {
        "id": "228134450995750470",
        "title": "公共厕所",
        "address": "湖北省仙桃市S215与S455交叉口正东方向588米左右",
        "tel": "",
        "category": "基础设施:公共设施:公共厕所",
        "type": 0,
        "location": {
            "lat": 30.246597,
            "lng": 113.321427
        },
        "ad_info": {
            "adcode": 429004,
            "province": "湖北省",
            "city": "",
            "district": "仙桃市"
        }
    },
    {
        "id": "12015016370012729984",
        "title": "公共厕所",
        "address": "湖北省仙桃市汉沙东路175号",
        "tel": "",
        "category": "基础设施:公共设施:公共厕所",
        "type": 0,
        "location": {
            "lat": 30.374007,
            "lng": 113.321322
        },
        "ad_info": {
            "adcode": 429004,
            "province": "湖北省",
            "city": "",
            "district": "仙桃市"
        }
    },
    {
        "id": "8405566346174143538",
        "title": "公共厕所",
        "address": "湖北省仙桃市城乡渠路与沔阳大道南三巷交叉口东北方向33米左右",
        "tel": "",
        "category": "基础设施:公共设施:公共厕所",
        "type": 0,
        "location": {
            "lat": 30.369085,
            "lng": 113.444633
        },
        "ad_info": {
            "adcode": 429004,
            "province": "湖北省",
            "city": "",
            "district": "仙桃市"
        }
    },
    {
        "id": "8944772762453560625",
        "title": "公共厕所",
        "address": "湖北省仙桃市S215与交通路交叉口正东方向134米左右",
        "tel": "",
        "category": "基础设施:公共设施:公共厕所",
        "type": 0,
        "location": {
            "lat": 30.201179,
            "lng": 113.244798
        },
        "ad_info": {
            "adcode": 429004,
            "province": "湖北省",
            "city": "",
            "district": "仙桃市"
        }
    },
    {
        "id": "6234128220626035544",
        "title": "公共厕所",
        "address": "湖北省仙桃市沙嘴路与黄金大道交叉口正北方向79米左右",
        "tel": "",
        "category": "基础设施:公共设施:公共厕所",
        "type": 0,
        "location": {
            "lat": 30.355758,
            "lng": 113.451586
        },
        "ad_info": {
            "adcode": 429004,
            "province": "湖北省",
            "city": "",
            "district": "仙桃市"
        }
    },
    {
        "id": "15032332869756099217",
        "title": "公共厕所",
        "address": "湖北省仙桃市沔街与玉沙街交叉口东北方向71米左右",
        "tel": "",
        "category": "基础设施:公共设施:公共厕所",
        "type": 0,
        "location": {
            "lat": 30.34972,
            "lng": 113.434065
        },
        "ad_info": {
            "adcode": 429004,
            "province": "湖北省",
            "city": "",
            "district": "仙桃市"
        }
    },
    {
        "id": "11259358720238603429",
        "title": "公共厕所",
        "address": "湖北省仙桃市商业路与纺织路交叉口东北方向48米左右",
        "tel": "",
        "category": "基础设施:公共设施:公共厕所",
        "type": 0,
        "location": {
            "lat": 30.334442,
            "lng": 113.413559
        },
        "ad_info": {
            "adcode": 429004,
            "province": "湖北省",
            "city": "",
            "district": "仙桃市"
        }
    },
    {
        "id": "3300526746114582873",
        "title": "公共厕所",
        "address": "湖北省仙桃市G318与毛通线交叉口正西方向180米左右",
        "tel": "",
        "category": "基础设施:公共设施:公共厕所",
        "type": 0,
        "location": {
            "lat": 30.383482,
            "lng": 113.129539
        },
        "ad_info": {
            "adcode": 429004,
            "province": "湖北省",
            "city": "",
            "district": "仙桃市"
        }
    },
    {
        "id": "12917138355597775174",
        "title": "公共厕所",
        "address": "湖北省仙桃市仙洪路与沔州大道交叉口西南方向423米左右",
        "tel": "",
        "category": "基础设施:公共设施:公共厕所",
        "type": 0,
        "location": {
            "lat": 30.322329,
            "lng": 113.41758
        },
        "ad_info": {
            "adcode": 429004,
            "province": "湖北省",
            "city": "",
            "district": "仙桃市"
        }
    },
    {
        "id": "15597947952494431374",
        "title": "公共厕所",
        "address": "湖北省仙桃市仙桃大道东段与流潭南路交叉口西南50米",
        "tel": "",
        "category": "基础设施:公共设施:公共厕所",
        "type": 0,
        "location": {
            "lat": 30.360852,
            "lng": 113.474707
        },
        "ad_info": {
            "adcode": 429004,
            "province": "湖北省",
            "city": "",
            "district": "仙桃市"
        }
    },
    {
        "id": "16039923380180848584",
        "title": "公共厕所",
        "address": "湖北省仙桃市大河口一巷与晓落浣小区二巷交叉口正北方向265米左右",
        "tel": "",
        "category": "基础设施:公共设施:公共厕所",
        "type": 0,
        "location": {
            "lat": 30.381566,
            "lng": 113.414921
        },
        "ad_info": {
            "adcode": 429004,
            "province": "湖北省",
            "city": "",
            "district": "仙桃市"
        }
    },
    {
        "id": "10421287674631555378",
        "title": "交通厕所",
        "address": "湖北省仙桃市G318与敦厚大道交叉口正东方向326米左右",
        "tel": "",
        "category": "基础设施:公共设施:公共厕所",
        "type": 0,
        "location": {
            "lat": 30.393619,
            "lng": 113.578024
        },
        "ad_info": {
            "adcode": 429004,
            "province": "湖北省",
            "city": "",
            "district": "仙桃市"
        }
    },
    {
        "id": "12504864279729680840",
        "title": "公共厕所",
        "address": "湖北省仙桃市006县道东100米",
        "tel": "",
        "category": "基础设施:公共设施:公共厕所",
        "type": 0,
        "location": {
            "lat": 30.312412,
            "lng": 113.313632
        },
        "ad_info": {
            "adcode": 429004,
            "province": "湖北省",
            "city": "",
            "district": "仙桃市"
        }
    },
    {
        "id": "17723951949558025452",
        "title": "公共厕所",
        "address": "湖北省仙桃市高家桥附近",
        "tel": "",
        "category": "基础设施:公共设施:公共厕所",
        "type": 0,
        "location": {
            "lat": 30.174931,
            "lng": 113.305761
        },
        "ad_info": {
            "adcode": 429004,
            "province": "湖北省",
            "city": "",
            "district": "仙桃市"
        }
    },
    {
        "id": "15547420986945467112",
        "title": "公共厕所",
        "address": "湖北省仙桃市得月寺小区六巷与桂花台路交叉口西北方向35米左右",
        "tel": "",
        "category": "基础设施:公共设施:公共厕所",
        "type": 0,
        "location": {
            "lat": 30.377899,
            "lng": 113.417892
        },
        "ad_info": {
            "adcode": 429004,
            "province": "湖北省",
            "city": "",
            "district": "仙桃市"
        }
    },
    {
        "id": "1710274251746542381",
        "title": "公共厕所",
        "address": "湖北省仙桃市仙洪路与纺织路交叉口西南方向91米左右",
        "tel": "",
        "category": "基础设施:公共设施:公共厕所",
        "type": 0,
        "location": {
            "lat": 30.32902,
            "lng": 113.419372
        },
        "ad_info": {
            "adcode": 429004,
            "province": "湖北省",
            "city": "",
            "district": "仙桃市"
        }
    },
    {
        "id": "2359316289161868459",
        "title": "公共厕所",
        "address": "湖北省仙桃市仙下河路与流潭南路交叉口正东方向183米左右",
        "tel": "",
        "category": "基础设施:公共设施:公共厕所",
        "type": 0,
        "location": {
            "lat": 30.36539,
            "lng": 113.475256
        },
        "ad_info": {
            "adcode": 429004,
            "province": "湖北省",
            "city": "",
            "district": "仙桃市"
        }
    },
    {
        "id": "7428861930655447094",
        "title": "许广高速仙桃服务区公共厕所",
        "address": "湖北省仙桃市剅河互通与许广高速交叉口正南方向1793米",
        "tel": "",
        "category": "基础设施:公共设施:公共厕所",
        "type": 0,
        "location": {
            "lat": 30.308448,
            "lng": 113.067789
        },
        "ad_info": {
            "adcode": 429004,
            "province": "湖北省",
            "city": "",
            "district": "仙桃市"
        }
    },
    {
        "id": "16759649078840128732",
        "title": "公共厕所",
        "address": "湖北省仙桃市油厂路与解放大道交叉口东北方向42米左右",
        "tel": "",
        "category": "基础设施:公共设施:公共厕所",
        "type": 0,
        "location": {
            "lat": 30.373666,
            "lng": 113.4646
        },
        "ad_info": {
            "adcode": 429004,
            "province": "湖北省",
            "city": "",
            "district": "仙桃市"
        }
    },
    {
        "id": "15833031282035658514",
        "title": "公共厕所",
        "address": "湖北省仙桃市仙下河路与长虹路交叉口正西方向135米左右",
        "tel": "",
        "category": "基础设施:公共设施:公共厕所",
        "type": 0,
        "location": {
            "lat": 30.365883,
            "lng": 113.456504
        },
        "ad_info": {
            "adcode": 429004,
            "province": "湖北省",
            "city": "",
            "district": "仙桃市"
        }
    },
    {
        "id": "14612940758852133027",
        "title": "沔阳公园-公共厕所",
        "address": "湖北省仙桃市朝阳大道与钱沟南路交叉口西南方向228米左右",
        "tel": "",
        "category": "基础设施:公共设施:公共厕所",
        "type": 0,
        "location": {
            "lat": 30.339783,
            "lng": 113.457174
        },
        "ad_info": {
            "adcode": 429004,
            "province": "湖北省",
            "city": "",
            "district": "仙桃市"
        }
    },
    {
        "id": "17855103206886222630",
        "title": "公共厕所",
        "address": "湖北省仙桃市S215与刘湾路交叉口正南方向32米左右",
        "tel": "",
        "category": "基础设施:公共设施:公共厕所",
        "type": 0,
        "location": {
            "lat": 30.183938,
            "lng": 113.143755
        },
        "ad_info": {
            "adcode": 429004,
            "province": "湖北省",
            "city": "",
            "district": "仙桃市"
        }
    },
    {
        "id": "18416581331296272144",
        "title": "公共厕所",
        "address": "湖北省仙桃市三号路西六巷与叶王路交叉口东南方向96米左右",
        "tel": "",
        "category": "基础设施:公共设施:公共厕所",
        "type": 0,
        "location": {
            "lat": 30.374175,
            "lng": 113.481632
        },
        "ad_info": {
            "adcode": 429004,
            "province": "湖北省",
            "city": "",
            "district": "仙桃市"
        }
    },
    {
        "id": "14231039965591425245",
        "title": "公共厕所",
        "address": "湖北省仙桃市何李路与四清河道交叉口正东方向24米左右",
        "tel": "",
        "category": "基础设施:公共设施:公共厕所",
        "type": 0,
        "location": {
            "lat": 30.371765,
            "lng": 113.462441
        },
        "ad_info": {
            "adcode": 429004,
            "province": "湖北省",
            "city": "",
            "district": "仙桃市"
        }
    },
    {
        "id": "1464252495855968156",
        "title": "公共厕所",
        "address": "湖北省仙桃市复州大道与复州大道北一巷交叉口正北方向110米左右",
        "tel": "",
        "category": "基础设施:公共设施:公共厕所",
        "type": 0,
        "location": {
            "lat": 30.373834,
            "lng": 113.441564
        },
        "ad_info": {
            "adcode": 429004,
            "province": "湖北省",
            "city": "",
            "district": "仙桃市"
        }
    },
    {
        "id": "15467377628545335480",
        "title": "公共厕所",
        "address": "湖北省仙桃市中心街与前通路交叉口东南方向109米左右",
        "tel": "",
        "category": "基础设施:公共设施:公共厕所",
        "type": 0,
        "location": {
            "lat": 30.346319,
            "lng": 113.448187
        },
        "ad_info": {
            "adcode": 429004,
            "province": "湖北省",
            "city": "",
            "district": "仙桃市"
        }
    },
    {
        "id": "5083528064306396421",
        "title": "公共厕所",
        "address": "湖北省仙桃市新张路与沔洪北路交叉口东北方向1105米左右",
        "tel": "",
        "category": "基础设施:公共设施:公共厕所",
        "type": 0,
        "location": {
            "lat": 30.303609,
            "lng": 113.420574
        },
        "ad_info": {
            "adcode": 429004,
            "province": "湖北省",
            "city": "",
            "district": "仙桃市"
        }
    },
    {
        "id": "14430756951269575760",
        "title": "公共厕所",
        "address": "湖北省仙桃市沔街与沔街北路交叉口西南方向199米左右",
        "tel": "",
        "category": "基础设施:公共设施:公共厕所",
        "type": 0,
        "location": {
            "lat": 30.34882,
            "lng": 113.459569
        },
        "ad_info": {
            "adcode": 429004,
            "province": "湖北省",
            "city": "",
            "district": "仙桃市"
        }
    },
    {
        "id": "10779535753065369007",
        "title": "公共厕所",
        "address": "湖北省仙桃市丝宝路与得月寺小区六巷交叉口正南方向117米左右",
        "tel": "",
        "category": "基础设施:公共设施:公共厕所",
        "type": 0,
        "location": {
            "lat": 30.376645,
            "lng": 113.422676
        },
        "ad_info": {
            "adcode": 429004,
            "province": "湖北省",
            "city": "",
            "district": "仙桃市"
        }
    },
    {
        "id": "8385394207760461332",
        "title": "公共厕所",
        "address": "湖北省仙桃市站北大道与规划支路交叉口正南方向220米左右",
        "tel": "",
        "category": "基础设施:公共设施:公共厕所",
        "type": 0,
        "location": {
            "lat": 30.322017,
            "lng": 113.506791
        },
        "ad_info": {
            "adcode": 429004,
            "province": "湖北省",
            "city": "",
            "district": "仙桃市"
        }
    },
    {
        "id": "1719859037024430878",
        "title": "公共厕所",
        "address": "湖北省仙桃市环西路与胜利正街交叉口正南方向482米左右",
        "tel": "",
        "category": "基础设施:公共设施:公共厕所",
        "type": 0,
        "location": {
            "lat": 30.250361,
            "lng": 113.507691
        },
        "ad_info": {
            "adcode": 429004,
            "province": "湖北省",
            "city": "",
            "district": "仙桃市"
        }
    },
    {
        "id": "5699328434735800014",
        "title": "公共厕所",
        "address": "湖北省仙桃市宏程大道与毛嘴大道交叉口正北方向197米左右",
        "tel": "",
        "category": "基础设施:公共设施:公共厕所",
        "type": 0,
        "location": {
            "lat": 30.401413,
            "lng": 113.033782
        },
        "ad_info": {
            "adcode": 429004,
            "province": "湖北省",
            "city": "",
            "district": "仙桃市"
        }
    },
    {
        "id": "16279694909927662454",
        "title": "公共厕所",
        "address": "湖北省仙桃市解放大道与解放大道中段交叉口正西方向58米左右",
        "tel": "",
        "category": "基础设施:公共设施:公共厕所",
        "type": 0,
        "location": {
            "lat": 30.374036,
            "lng": 113.455896
        },
        "ad_info": {
            "adcode": 429004,
            "province": "湖北省",
            "city": "",
            "district": "仙桃市"
        }
    },
    {
        "id": "11637784066973967209",
        "title": "公共厕所",
        "address": "湖北省仙桃市站南大道与站西大道交叉口正北方向320米左右",
        "tel": "",
        "category": "基础设施:公共设施:公共厕所",
        "type": 0,
        "location": {
            "lat": 30.320228,
            "lng": 113.505858
        },
        "ad_info": {
            "adcode": 429004,
            "province": "湖北省",
            "city": "",
            "district": "仙桃市"
        }
    },
    {
        "id": "16759655497354150818",
        "title": "公共厕所",
        "address": "湖北省仙桃市烟草巷与黄金大道交叉口东北方向30米左右",
        "tel": "",
        "category": "基础设施:公共设施:公共厕所",
        "type": 0,
        "location": {
            "lat": 30.355514,
            "lng": 113.44402
        },
        "ad_info": {
            "adcode": 429004,
            "province": "湖北省",
            "city": "",
            "district": "仙桃市"
        }
    },
    {
        "id": "1086222301258829048",
        "title": "公共厕所",
        "address": "湖北省仙桃市小寺垸路(李小双运动城)",
        "tel": "",
        "category": "基础设施:公共设施:公共厕所",
        "type": 0,
        "location": {
            "lat": 30.385791,
            "lng": 113.417521
        },
        "ad_info": {
            "adcode": 429004,
            "province": "湖北省",
            "city": "",
            "district": "仙桃市"
        }
    },
    {
        "id": "869615567661962255",
        "title": "公共厕所",
        "address": "湖北省仙桃市仙桃大道与钱沟路交叉口西北方向52米左右",
        "tel": "",
        "category": "基础设施:公共设施:公共厕所",
        "type": 0,
        "location": {
            "lat": 30.361167,
            "lng": 113.455021
        },
        "ad_info": {
            "adcode": 429004,
            "province": "湖北省",
            "city": "",
            "district": "仙桃市"
        }
    },
    {
        "id": "11697455786429539290",
        "title": "公共厕所",
        "address": "湖北省仙桃市仙洪路与沔州大道交叉口西南方向497米左右",
        "tel": "",
        "category": "基础设施:公共设施:公共厕所",
        "type": 0,
        "location": {
            "lat": 30.321509,
            "lng": 113.41765
        },
        "ad_info": {
            "adcode": 429004,
            "province": "湖北省",
            "city": "",
            "district": "仙桃市"
        }
    }
]