[
    {
        "id": "13930937226166124853",
        "title": "公共卫生间",
        "address": "黑龙江省伊春市伊美区新华街与青龙路交叉口正北方向18米左右",
        "tel": "",
        "category": "基础设施:公共设施:公共厕所",
        "type": 0,
        "location": {
            "lat": 47.724578,
            "lng": 128.904314
        },
        "ad_info": {
            "adcode": 230717,
            "province": "黑龙江省",
            "city": "伊春市",
            "district": "伊美区"
        }
    },
    {
        "id": "10056170286683970132",
        "title": "公共厕所",
        "address": "黑龙江省伊春市伊美区建林街与永庆路交叉口东北方向87米左右",
        "tel": "",
        "category": "基础设施:公共设施:公共厕所",
        "type": 0,
        "location": {
            "lat": 47.728965,
            "lng": 128.89322
        },
        "ad_info": {
            "adcode": 230717,
            "province": "黑龙江省",
            "city": "伊春市",
            "district": "伊美区"
        }
    },
    {
        "id": "17311690691345479851",
        "title": "公共卫生间",
        "address": "黑龙江省伊春市铁力市城南街与林医路交叉口东北方向50米",
        "tel": "",
        "category": "基础设施:公共设施:公共厕所",
        "type": 0,
        "location": {
            "lat": 46.981152,
            "lng": 128.047124
        },
        "ad_info": {
            "adcode": 230781,
            "province": "黑龙江省",
            "city": "伊春市",
            "district": "铁力市"
        }
    },
    {
        "id": "1780243870210252223",
        "title": "公共卫生间",
        "address": "黑龙江省伊春市铁力市中心路与文化街交叉口正东方向75米左右",
        "tel": "",
        "category": "基础设施:公共设施:公共厕所",
        "type": 0,
        "location": {
            "lat": 46.984785,
            "lng": 128.027096
        },
        "ad_info": {
            "adcode": 230781,
            "province": "黑龙江省",
            "city": "伊春市",
            "district": "铁力市"
        }
    },
    {
        "id": "6868845529735446125",
        "title": "公共厕所",
        "address": "黑龙江省伊春市伊美区朝阳街与朝阳路南二胡同交叉口正南方向43米左右",
        "tel": "",
        "category": "基础设施:公共设施:公共厕所",
        "type": 0,
        "location": {
            "lat": 47.735583,
            "lng": 128.897618
        },
        "ad_info": {
            "adcode": 230717,
            "province": "黑龙江省",
            "city": "伊春市",
            "district": "伊美区"
        }
    },
    {
        "id": "11982160389853154586",
        "title": "公共厕所",
        "address": "黑龙江省伊春市铁力市宇祥大街与松柏街交叉口正东方向104米左右",
        "tel": "",
        "category": "基础设施:公共设施:公共厕所",
        "type": 0,
        "location": {
            "lat": 46.98436,
            "lng": 128.073121
        },
        "ad_info": {
            "adcode": 230781,
            "province": "黑龙江省",
            "city": "伊春市",
            "district": "铁力市"
        }
    },
    {
        "id": "11966347589662756081",
        "title": "公共厕所",
        "address": "黑龙江省伊春市铁力市文化街与西一路交叉口西南方向87米左右",
        "tel": "",
        "category": "基础设施:公共设施:公共厕所",
        "type": 0,
        "location": {
            "lat": 46.983804,
            "lng": 128.023465
        },
        "ad_info": {
            "adcode": 230781,
            "province": "黑龙江省",
            "city": "伊春市",
            "district": "铁力市"
        }
    },
    {
        "id": "14302690343242447524",
        "title": "公共厕所",
        "address": "黑龙江省伊春市铁力市东林街与化禧路交叉口西南方向202米左右",
        "tel": "",
        "category": "基础设施:公共设施:公共厕所",
        "type": 0,
        "location": {
            "lat": 46.9987,
            "lng": 128.054466
        },
        "ad_info": {
            "adcode": 230781,
            "province": "黑龙江省",
            "city": "伊春市",
            "district": "铁力市"
        }
    },
    {
        "id": "15699422234831005781",
        "title": "公共卫生间",
        "address": "黑龙江省伊春市乌翠区文化路与翠兴西街交叉口东南方向209米左右",
        "tel": "",
        "category": "基础设施:公共设施:公共厕所",
        "type": 0,
        "location": {
            "lat": 47.724162,
            "lng": 128.670724
        },
        "ad_info": {
            "adcode": 230718,
            "province": "黑龙江省",
            "city": "伊春市",
            "district": "乌翠区"
        }
    },
    {
        "id": "3379642714174279634",
        "title": "公共厕所",
        "address": "黑龙江省伊春市铁力市正阳大街龙悦新城东南方向70米",
        "tel": "",
        "category": "基础设施:公共设施:公共厕所",
        "type": 0,
        "location": {
            "lat": 46.982515,
            "lng": 128.038975
        },
        "ad_info": {
            "adcode": 230781,
            "province": "黑龙江省",
            "city": "伊春市",
            "district": "铁力市"
        }
    },
    {
        "id": "520648608988028286",
        "title": "公共厕所",
        "address": "黑龙江省伊春市铁力市农场路与新华路交叉口东南方向52米左右",
        "tel": "",
        "category": "基础设施:公共设施:公共厕所",
        "type": 0,
        "location": {
            "lat": 46.982065,
            "lng": 128.048991
        },
        "ad_info": {
            "adcode": 230781,
            "province": "黑龙江省",
            "city": "伊春市",
            "district": "铁力市"
        }
    },
    {
        "id": "7155526978063523017",
        "title": "公共厕所",
        "address": "黑龙江省伊春市铁力市一条街与健康路交叉口正西方向204米左右",
        "tel": "",
        "category": "基础设施:公共设施:公共厕所",
        "type": 0,
        "location": {
            "lat": 46.964113,
            "lng": 127.765011
        },
        "ad_info": {
            "adcode": 230781,
            "province": "黑龙江省",
            "city": "伊春市",
            "district": "铁力市"
        }
    },
    {
        "id": "18196428745536312332",
        "title": "公共厕所",
        "address": "黑龙江省伊春市铁力市中心路与红领巾街交叉口正东方向159米左右",
        "tel": "",
        "category": "基础设施:公共设施:公共厕所",
        "type": 0,
        "location": {
            "lat": 46.980485,
            "lng": 128.029241
        },
        "ad_info": {
            "adcode": 230781,
            "province": "黑龙江省",
            "city": "伊春市",
            "district": "铁力市"
        }
    },
    {
        "id": "12696438299464783268",
        "title": "公共厕所",
        "address": "黑龙江省伊春市铁力市育林小区东侧180米",
        "tel": "",
        "category": "基础设施:公共设施:公共厕所",
        "type": 0,
        "location": {
            "lat": 46.96314,
            "lng": 127.76137
        },
        "ad_info": {
            "adcode": 230781,
            "province": "黑龙江省",
            "city": "伊春市",
            "district": "铁力市"
        }
    },
    {
        "id": "5937634448032418878",
        "title": "公共厕所",
        "address": "黑龙江省伊春市铁力市铁力四中(铁力市第一中学南)",
        "tel": "",
        "category": "基础设施:公共设施:公共厕所",
        "type": 0,
        "location": {
            "lat": 46.984212,
            "lng": 128.012704
        },
        "ad_info": {
            "adcode": 230781,
            "province": "黑龙江省",
            "city": "伊春市",
            "district": "铁力市"
        }
    },
    {
        "id": "395872793967212398",
        "title": "公共厕所",
        "address": "黑龙江省伊春市金林区公园街与金水路交叉口正北方向107米左右",
        "tel": "",
        "category": "基础设施:公共设施:公共厕所",
        "type": 0,
        "location": {
            "lat": 47.408249,
            "lng": 129.431964
        },
        "ad_info": {
            "adcode": 230751,
            "province": "黑龙江省",
            "city": "伊春市",
            "district": "金林区"
        }
    },
    {
        "id": "9774886014709924469",
        "title": "公共厕所",
        "address": "黑龙江省伊春市铁力市东四路与保健街交叉口正西方向37米左右",
        "tel": "",
        "category": "基础设施:公共设施:公共厕所",
        "type": 0,
        "location": {
            "lat": 46.988495,
            "lng": 128.032313
        },
        "ad_info": {
            "adcode": 230781,
            "province": "黑龙江省",
            "city": "伊春市",
            "district": "铁力市"
        }
    },
    {
        "id": "3640220900256844263",
        "title": "公共厕所",
        "address": "黑龙江省伊春市伊美区兴安路与扶兴路交叉口东南方向729米左右",
        "tel": "",
        "category": "基础设施:公共设施:公共厕所",
        "type": 0,
        "location": {
            "lat": 47.707832,
            "lng": 128.896734
        },
        "ad_info": {
            "adcode": 230717,
            "province": "黑龙江省",
            "city": "伊春市",
            "district": "伊美区"
        }
    },
    {
        "id": "1755859834379205365",
        "title": "公共厕所",
        "address": "黑龙江省伊春市汤旺县国防路与沿河路交叉口东北方向181米左右",
        "tel": "",
        "category": "基础设施:公共设施:公共厕所",
        "type": 0,
        "location": {
            "lat": 48.452385,
            "lng": 129.56711
        },
        "ad_info": {
            "adcode": 230723,
            "province": "黑龙江省",
            "city": "伊春市",
            "district": "汤旺县"
        }
    },
    {
        "id": "14838827538289802842",
        "title": "公共厕所",
        "address": "黑龙江省伊春市伊美区新兴西大街与新园路交叉口东南方向54米左右",
        "tel": "",
        "category": "基础设施:公共设施:公共厕所",
        "type": 0,
        "location": {
            "lat": 47.719626,
            "lng": 128.876957
        },
        "ad_info": {
            "adcode": 230717,
            "province": "黑龙江省",
            "city": "伊春市",
            "district": "伊美区"
        }
    },
    {
        "id": "4099396778801392133",
        "title": "公共厕所",
        "address": "黑龙江省伊春市伊美区红升街道春榆路南郡小区(B2区)",
        "tel": "",
        "category": "基础设施:公共设施:公共厕所",
        "type": 0,
        "location": {
            "lat": 47.720033,
            "lng": 128.895751
        },
        "ad_info": {
            "adcode": 230717,
            "province": "黑龙江省",
            "city": "伊春市",
            "district": "伊美区"
        }
    },
    {
        "id": "17658287946186333734",
        "title": "公共厕所",
        "address": "黑龙江省伊春市嘉荫县满洲龙路210号",
        "tel": "",
        "category": "基础设施:公共设施:公共厕所",
        "type": 0,
        "location": {
            "lat": 48.888484,
            "lng": 130.393827
        },
        "ad_info": {
            "adcode": 230722,
            "province": "黑龙江省",
            "city": "伊春市",
            "district": "嘉荫县"
        }
    },
    {
        "id": "16639838921509198037",
        "title": "公共厕所",
        "address": "黑龙江省伊春市汤旺县林海路与金街交叉口正南方向121米左右",
        "tel": "",
        "category": "基础设施:公共设施:公共厕所",
        "type": 0,
        "location": {
            "lat": 48.451623,
            "lng": 129.574703
        },
        "ad_info": {
            "adcode": 230723,
            "province": "黑龙江省",
            "city": "伊春市",
            "district": "汤旺县"
        }
    },
    {
        "id": "17276178569279636765",
        "title": "公共厕所",
        "address": "黑龙江省伊春市嘉荫县尚志街",
        "tel": "",
        "category": "基础设施:公共设施:公共厕所",
        "type": 0,
        "location": {
            "lat": 48.889697,
            "lng": 130.391661
        },
        "ad_info": {
            "adcode": 230722,
            "province": "黑龙江省",
            "city": "伊春市",
            "district": "嘉荫县"
        }
    },
    {
        "id": "12536780565660148260",
        "title": "公共厕所",
        "address": "黑龙江省伊春市嘉荫县新城街",
        "tel": "",
        "category": "基础设施:公共设施:公共厕所",
        "type": 0,
        "location": {
            "lat": 48.889973,
            "lng": 130.387387
        },
        "ad_info": {
            "adcode": 230722,
            "province": "黑龙江省",
            "city": "伊春市",
            "district": "嘉荫县"
        }
    },
    {
        "id": "17792164029797398688",
        "title": "公共厕所",
        "address": "黑龙江省伊春市嘉荫县G331与神州龙路交叉口正东方向228米左右",
        "tel": "",
        "category": "基础设施:公共设施:公共厕所",
        "type": 0,
        "location": {
            "lat": 48.880247,
            "lng": 130.412836
        },
        "ad_info": {
            "adcode": 230722,
            "province": "黑龙江省",
            "city": "伊春市",
            "district": "嘉荫县"
        }
    },
    {
        "id": "10067662093708667766",
        "title": "公共厕所",
        "address": "黑龙江省伊春市友好区和平胡同与和平路交叉口东北方向118米左右",
        "tel": "",
        "category": "基础设施:公共设施:公共厕所",
        "type": 0,
        "location": {
            "lat": 47.838062,
            "lng": 128.841565
        },
        "ad_info": {
            "adcode": 230719,
            "province": "黑龙江省",
            "city": "伊春市",
            "district": "友好区"
        }
    },
    {
        "id": "14168004535950302543",
        "title": "公共厕所",
        "address": "黑龙江省伊春市友好区双子河大街与顺达路交叉口正西方向208米左右",
        "tel": "",
        "category": "基础设施:公共设施:公共厕所",
        "type": 0,
        "location": {
            "lat": 47.842473,
            "lng": 128.822868
        },
        "ad_info": {
            "adcode": 230719,
            "province": "黑龙江省",
            "city": "伊春市",
            "district": "友好区"
        }
    },
    {
        "id": "14461378580818449340",
        "title": "公共卫生间",
        "address": "黑龙江省伊春市丰林县新青国家湿地公园",
        "tel": "",
        "category": "基础设施:公共设施:公共厕所",
        "type": 0,
        "location": {
            "lat": 48.319905,
            "lng": 129.582433
        },
        "ad_info": {
            "adcode": 230724,
            "province": "黑龙江省",
            "city": "伊春市",
            "district": "丰林县"
        }
    },
    {
        "id": "15580471119916975206",
        "title": "公共厕所",
        "address": "黑龙江省伊春市嘉荫县建设街与通江路交叉口正北方向24米左右",
        "tel": "",
        "category": "基础设施:公共设施:公共厕所",
        "type": 0,
        "location": {
            "lat": 48.889027,
            "lng": 130.399649
        },
        "ad_info": {
            "adcode": 230722,
            "province": "黑龙江省",
            "city": "伊春市",
            "district": "嘉荫县"
        }
    },
    {
        "id": "3828790577126788537",
        "title": "公共厕所",
        "address": "黑龙江省伊春市伊美区双医路与繁荣街交叉口正北方向41米左右",
        "tel": "",
        "category": "基础设施:公共设施:公共厕所",
        "type": 0,
        "location": {
            "lat": 47.72414,
            "lng": 128.901626
        },
        "ad_info": {
            "adcode": 230717,
            "province": "黑龙江省",
            "city": "伊春市",
            "district": "伊美区"
        }
    },
    {
        "id": "5875337139123789650",
        "title": "公共厕所",
        "address": "黑龙江省伊春市金林区兴安街与鹤嫩公路交叉口正北方向1251米左右",
        "tel": "",
        "category": "基础设施:公共设施:公共厕所",
        "type": 0,
        "location": {
            "lat": 47.433544,
            "lng": 129.448438
        },
        "ad_info": {
            "adcode": 230751,
            "province": "黑龙江省",
            "city": "伊春市",
            "district": "金林区"
        }
    },
    {
        "id": "6848036893298993326",
        "title": "公共厕所",
        "address": "黑龙江省伊春市伊美区兴安路与扶兴路交叉口东南方向667米左右",
        "tel": "",
        "category": "基础设施:公共设施:公共厕所",
        "type": 0,
        "location": {
            "lat": 47.708323,
            "lng": 128.896315
        },
        "ad_info": {
            "adcode": 230717,
            "province": "黑龙江省",
            "city": "伊春市",
            "district": "伊美区"
        }
    },
    {
        "id": "13448956184102102853",
        "title": "公共厕所",
        "address": "黑龙江省伊春市南岔县北纬路与通山路交叉口正东方向97米左右",
        "tel": "",
        "category": "基础设施:公共设施:公共厕所",
        "type": 0,
        "location": {
            "lat": 47.137291,
            "lng": 129.285886
        },
        "ad_info": {
            "adcode": 230726,
            "province": "黑龙江省",
            "city": "伊春市",
            "district": "南岔县"
        }
    },
    {
        "id": "8378915335868946014",
        "title": "公共厕所",
        "address": "黑龙江省伊春市铁力市团结路与正阳大街交叉口正东方向48米左右",
        "tel": "",
        "category": "基础设施:公共设施:公共厕所",
        "type": 0,
        "location": {
            "lat": 46.987111,
            "lng": 128.058345
        },
        "ad_info": {
            "adcode": 230781,
            "province": "黑龙江省",
            "city": "伊春市",
            "district": "铁力市"
        }
    },
    {
        "id": "245948340636029443",
        "title": "公共厕所",
        "address": "黑龙江省伊春市大箐山县朗园公路与英沙公路交叉口西南方向817米左右",
        "tel": "",
        "category": "基础设施:公共设施:公共厕所",
        "type": 0,
        "location": {
            "lat": 46.827276,
            "lng": 128.79074
        },
        "ad_info": {
            "adcode": 230725,
            "province": "黑龙江省",
            "city": "伊春市",
            "district": "大箐山县"
        }
    },
    {
        "id": "3375598809383620966",
        "title": "公共厕所",
        "address": "黑龙江省伊春市乌翠区G222与鹤嫩公路交叉口正西方向1430米",
        "tel": "",
        "category": "基础设施:公共设施:公共厕所",
        "type": 0,
        "location": {
            "lat": 47.705953,
            "lng": 128.955855
        },
        "ad_info": {
            "adcode": 230718,
            "province": "黑龙江省",
            "city": "伊春市",
            "district": "乌翠区"
        }
    },
    {
        "id": "9382854935375274789",
        "title": "公共厕所",
        "address": "黑龙江省伊春市嘉荫县恐龙大道西3号",
        "tel": "",
        "category": "基础设施:公共设施:公共厕所",
        "type": 0,
        "location": {
            "lat": 48.887409,
            "lng": 130.403114
        },
        "ad_info": {
            "adcode": 230722,
            "province": "黑龙江省",
            "city": "伊春市",
            "district": "嘉荫县"
        }
    },
    {
        "id": "16484119524525900527",
        "title": "公共厕所",
        "address": "黑龙江省伊春市嘉荫县神州龙路280号",
        "tel": "",
        "category": "基础设施:公共设施:公共厕所",
        "type": 0,
        "location": {
            "lat": 48.884109,
            "lng": 130.406881
        },
        "ad_info": {
            "adcode": 230722,
            "province": "黑龙江省",
            "city": "伊春市",
            "district": "嘉荫县"
        }
    },
    {
        "id": "467870776872713058",
        "title": "公共厕所",
        "address": "黑龙江省伊春市丰林县丰林县公园大门外100米处",
        "tel": "",
        "category": "基础设施:公共设施:公共厕所",
        "type": 0,
        "location": {
            "lat": 48.236986,
            "lng": 129.206619
        },
        "ad_info": {
            "adcode": 230724,
            "province": "黑龙江省",
            "city": "伊春市",
            "district": "丰林县"
        }
    },
    {
        "id": "13321748830879749539",
        "title": "公共厕所",
        "address": "黑龙江省伊春市伊美区幸福街与春榆路交叉口东南方向38米左右",
        "tel": "",
        "category": "基础设施:公共设施:公共厕所",
        "type": 0,
        "location": {
            "lat": 47.720311,
            "lng": 128.895706
        },
        "ad_info": {
            "adcode": 230717,
            "province": "黑龙江省",
            "city": "伊春市",
            "district": "伊美区"
        }
    },
    {
        "id": "3054350356539909381",
        "title": "公共厕所",
        "address": "黑龙江省伊春市伊美区东升镇",
        "tel": "",
        "category": "基础设施:公共设施:公共厕所",
        "type": 0,
        "location": {
            "lat": 47.559284,
            "lng": 129.015971
        },
        "ad_info": {
            "adcode": 230717,
            "province": "黑龙江省",
            "city": "伊春市",
            "district": "伊美区"
        }
    },
    {
        "id": "12685459640710822870",
        "title": "公共厕所",
        "address": "黑龙江省伊春市伊美区繁荣胡同与青山东大街交叉口东南方向321米左右",
        "tel": "",
        "category": "基础设施:公共设施:公共厕所",
        "type": 0,
        "location": {
            "lat": 47.72378,
            "lng": 128.912023
        },
        "ad_info": {
            "adcode": 230717,
            "province": "黑龙江省",
            "city": "伊春市",
            "district": "伊美区"
        }
    },
    {
        "id": "12996909362058920866",
        "title": "公共厕所",
        "address": "黑龙江省伊春市铁力市S207",
        "tel": "",
        "category": "基础设施:公共设施:公共厕所",
        "type": 0,
        "location": {
            "lat": 47.036053,
            "lng": 128.105885
        },
        "ad_info": {
            "adcode": 230781,
            "province": "黑龙江省",
            "city": "伊春市",
            "district": "铁力市"
        }
    },
    {
        "id": "16266311356766074120",
        "title": "公共厕所",
        "address": "黑龙江省伊春市铁力市中国石油西河加油站(222国道)东侧50米",
        "tel": "",
        "category": "基础设施:公共设施:公共厕所",
        "type": 0,
        "location": {
            "lat": 46.978127,
            "lng": 128.002411
        },
        "ad_info": {
            "adcode": 230781,
            "province": "黑龙江省",
            "city": "伊春市",
            "district": "铁力市"
        }
    },
    {
        "id": "2200422470409775896",
        "title": "公共厕所",
        "address": "黑龙江省伊春市铁力市人和路与桃山街交叉口正北方向81米左右",
        "tel": "",
        "category": "基础设施:公共设施:公共厕所",
        "type": 0,
        "location": {
            "lat": 46.924298,
            "lng": 128.171657
        },
        "ad_info": {
            "adcode": 230781,
            "province": "黑龙江省",
            "city": "伊春市",
            "district": "铁力市"
        }
    },
    {
        "id": "15094235381794746267",
        "title": "公共厕所",
        "address": "黑龙江省伊春市金林区花园街与金水路交叉口正西方向277米左右",
        "tel": "",
        "category": "基础设施:公共设施:公共厕所",
        "type": 0,
        "location": {
            "lat": 47.412382,
            "lng": 129.42728
        },
        "ad_info": {
            "adcode": 230751,
            "province": "黑龙江省",
            "city": "伊春市",
            "district": "金林区"
        }
    },
    {
        "id": "9237670623677434506",
        "title": "公共厕所",
        "address": "黑龙江省伊春市铁力市团结路与建设东大街交叉口东南方向155米左右",
        "tel": "",
        "category": "基础设施:公共设施:公共厕所",
        "type": 0,
        "location": {
            "lat": 46.989262,
            "lng": 128.058604
        },
        "ad_info": {
            "adcode": 230781,
            "province": "黑龙江省",
            "city": "伊春市",
            "district": "铁力市"
        }
    },
    {
        "id": "5786179330151284011",
        "title": "公共厕所",
        "address": "黑龙江省伊春市铁力市东八路与建设西大街交叉口正南方向104米左右",
        "tel": "",
        "category": "基础设施:公共设施:公共厕所",
        "type": 0,
        "location": {
            "lat": 46.987767,
            "lng": 128.045556
        },
        "ad_info": {
            "adcode": 230781,
            "province": "黑龙江省",
            "city": "伊春市",
            "district": "铁力市"
        }
    },
    {
        "id": "13623688467604053351",
        "title": "公共厕所",
        "address": "黑龙江省伊春市乌翠区工农路与林企路交叉口正南方向49米左右",
        "tel": "",
        "category": "基础设施:公共设施:公共厕所",
        "type": 0,
        "location": {
            "lat": 47.728255,
            "lng": 128.798992
        },
        "ad_info": {
            "adcode": 230718,
            "province": "黑龙江省",
            "city": "伊春市",
            "district": "乌翠区"
        }
    },
    {
        "id": "13492861622241365007",
        "title": "公共厕所",
        "address": "黑龙江省伊春市嘉荫县市场路与新城街交叉口正北方向90米左右",
        "tel": "",
        "category": "基础设施:公共设施:公共厕所",
        "type": 0,
        "location": {
            "lat": 48.893397,
            "lng": 130.40109
        },
        "ad_info": {
            "adcode": 230722,
            "province": "黑龙江省",
            "city": "伊春市",
            "district": "嘉荫县"
        }
    },
    {
        "id": "15040314047061396164",
        "title": "公共厕所",
        "address": "黑龙江省伊春市金林区花园街与金水路交叉口西南方向307米左右",
        "tel": "",
        "category": "基础设施:公共设施:公共厕所",
        "type": 0,
        "location": {
            "lat": 47.411769,
            "lng": 129.42731
        },
        "ad_info": {
            "adcode": 230751,
            "province": "黑龙江省",
            "city": "伊春市",
            "district": "金林区"
        }
    },
    {
        "id": "12669129081400747892",
        "title": "公共厕所",
        "address": "黑龙江省伊春市伊美区新华街与青龙路交叉口正南方向141米左右",
        "tel": "",
        "category": "基础设施:公共设施:公共厕所",
        "type": 0,
        "location": {
            "lat": 47.723185,
            "lng": 128.903838
        },
        "ad_info": {
            "adcode": 230717,
            "province": "黑龙江省",
            "city": "伊春市",
            "district": "伊美区"
        }
    },
    {
        "id": "6126242070511979315",
        "title": "公共厕所",
        "address": "黑龙江省伊春市友好区东升路与友好大街交叉口西北方向163米左右",
        "tel": "",
        "category": "基础设施:公共设施:公共厕所",
        "type": 0,
        "location": {
            "lat": 47.854992,
            "lng": 128.839973
        },
        "ad_info": {
            "adcode": 230719,
            "province": "黑龙江省",
            "city": "伊春市",
            "district": "友好区"
        }
    },
    {
        "id": "13823575035823198413",
        "title": "公共厕所",
        "address": "黑龙江省伊春市大箐山县畅园东路与翠花大街交叉口西北方向124米左右",
        "tel": "",
        "category": "基础设施:公共设施:公共厕所",
        "type": 0,
        "location": {
            "lat": 46.950653,
            "lng": 128.872681
        },
        "ad_info": {
            "adcode": 230725,
            "province": "黑龙江省",
            "city": "伊春市",
            "district": "大箐山县"
        }
    },
    {
        "id": "15412746614976242726",
        "title": "公共厕所",
        "address": "黑龙江省伊春市铁力市东四路与文化街交叉口西北方向32米左右",
        "tel": "",
        "category": "基础设施:公共设施:公共厕所",
        "type": 0,
        "location": {
            "lat": 46.98577,
            "lng": 128.033397
        },
        "ad_info": {
            "adcode": 230781,
            "province": "黑龙江省",
            "city": "伊春市",
            "district": "铁力市"
        }
    },
    {
        "id": "5879783415860154078",
        "title": "公共厕所",
        "address": "黑龙江省伊春市金林区花园街与轱马路交叉口正北方向64米左右",
        "tel": "",
        "category": "基础设施:公共设施:公共厕所",
        "type": 0,
        "location": {
            "lat": 47.415819,
            "lng": 129.440171
        },
        "ad_info": {
            "adcode": 230751,
            "province": "黑龙江省",
            "city": "伊春市",
            "district": "金林区"
        }
    },
    {
        "id": "5804587941432768410",
        "title": "公共厕所",
        "address": "黑龙江省伊春市伊美区新兴东大街与青山东大街交叉口正北方向323米左右",
        "tel": "",
        "category": "基础设施:公共设施:公共厕所",
        "type": 0,
        "location": {
            "lat": 47.73263,
            "lng": 128.92403
        },
        "ad_info": {
            "adcode": 230717,
            "province": "黑龙江省",
            "city": "伊春市",
            "district": "伊美区"
        }
    },
    {
        "id": "11624889698710752153",
        "title": "公共厕所",
        "address": "黑龙江省伊春市南岔县月牙湖路与通山路交叉口正西方向171米左右",
        "tel": "",
        "category": "基础设施:公共设施:公共厕所",
        "type": 0,
        "location": {
            "lat": 47.139525,
            "lng": 129.283728
        },
        "ad_info": {
            "adcode": 230726,
            "province": "黑龙江省",
            "city": "伊春市",
            "district": "南岔县"
        }
    },
    {
        "id": "7399677905180267444",
        "title": "公共厕所",
        "address": "黑龙江省伊春市乌翠区望园路与林都大街交叉口正西方向240米左右",
        "tel": "",
        "category": "基础设施:公共设施:公共厕所",
        "type": 0,
        "location": {
            "lat": 47.727076,
            "lng": 128.788685
        },
        "ad_info": {
            "adcode": 230718,
            "province": "黑龙江省",
            "city": "伊春市",
            "district": "乌翠区"
        }
    },
    {
        "id": "9324074126773663368",
        "title": "公共厕所",
        "address": "黑龙江省伊春市伊美区新城街与环卫路交叉口正南方向58米左右",
        "tel": "",
        "category": "基础设施:公共设施:公共厕所",
        "type": 0,
        "location": {
            "lat": 47.720719,
            "lng": 128.885597
        },
        "ad_info": {
            "adcode": 230717,
            "province": "黑龙江省",
            "city": "伊春市",
            "district": "伊美区"
        }
    },
    {
        "id": "1025840868258095606",
        "title": "公共厕所",
        "address": "黑龙江省伊春市伊美区前卫路亲水家园",
        "tel": "",
        "category": "基础设施:公共设施:公共厕所",
        "type": 0,
        "location": {
            "lat": 47.723834,
            "lng": 128.878012
        },
        "ad_info": {
            "adcode": 230717,
            "province": "黑龙江省",
            "city": "伊春市",
            "district": "伊美区"
        }
    },
    {
        "id": "126574698103280818",
        "title": "公共厕所",
        "address": "黑龙江省伊春市金林区奋斗北路与迎宾路交叉口西南方向152米左右",
        "tel": "",
        "category": "基础设施:公共设施:公共厕所",
        "type": 0,
        "location": {
            "lat": 47.421681,
            "lng": 129.431148
        },
        "ad_info": {
            "adcode": 230751,
            "province": "黑龙江省",
            "city": "伊春市",
            "district": "金林区"
        }
    },
    {
        "id": "8098596642370717272",
        "title": "公共厕所",
        "address": "黑龙江省伊春市伊美区新兴东大街与育林路交叉口正东方向97米左右",
        "tel": "",
        "category": "基础设施:公共设施:公共厕所",
        "type": 0,
        "location": {
            "lat": 47.732703,
            "lng": 128.919727
        },
        "ad_info": {
            "adcode": 230717,
            "province": "黑龙江省",
            "city": "伊春市",
            "district": "伊美区"
        }
    },
    {
        "id": "18050051090474332623",
        "title": "公共厕所",
        "address": "黑龙江省伊春市铁力市建设西大街598号",
        "tel": "",
        "category": "基础设施:公共设施:公共厕所",
        "type": 0,
        "location": {
            "lat": 46.987878,
            "lng": 128.037708
        },
        "ad_info": {
            "adcode": 230781,
            "province": "黑龙江省",
            "city": "伊春市",
            "district": "铁力市"
        }
    },
    {
        "id": "17532822971118577298",
        "title": "公共厕所",
        "address": "黑龙江省伊春市友好区振兴大街与新立路交叉口东南方向62米左右",
        "tel": "",
        "category": "基础设施:公共设施:公共厕所",
        "type": 0,
        "location": {
            "lat": 47.851535,
            "lng": 128.841217
        },
        "ad_info": {
            "adcode": 230719,
            "province": "黑龙江省",
            "city": "伊春市",
            "district": "友好区"
        }
    },
    {
        "id": "12959440662739558444",
        "title": "公共厕所",
        "address": "黑龙江省伊春市铁力市中心路与文化街交叉口正东方向62米左右",
        "tel": "",
        "category": "基础设施:公共设施:公共厕所",
        "type": 0,
        "location": {
            "lat": 46.984558,
            "lng": 128.026977
        },
        "ad_info": {
            "adcode": 230781,
            "province": "黑龙江省",
            "city": "伊春市",
            "district": "铁力市"
        }
    },
    {
        "id": "730222199938000114",
        "title": "公共厕所",
        "address": "黑龙江省伊春市南岔县中纬大街与环城路交叉口东南方向892米左右",
        "tel": "",
        "category": "基础设施:公共设施:公共厕所",
        "type": 0,
        "location": {
            "lat": 47.129165,
            "lng": 129.313979
        },
        "ad_info": {
            "adcode": 230726,
            "province": "黑龙江省",
            "city": "伊春市",
            "district": "南岔县"
        }
    },
    {
        "id": "7751701575585423349",
        "title": "公共厕所",
        "address": "黑龙江省伊春市伊美区和平街与通山路交叉口正西方向274米左右",
        "tel": "",
        "category": "基础设施:公共设施:公共厕所",
        "type": 0,
        "location": {
            "lat": 47.731198,
            "lng": 128.892838
        },
        "ad_info": {
            "adcode": 230717,
            "province": "黑龙江省",
            "city": "伊春市",
            "district": "伊美区"
        }
    },
    {
        "id": "5111603496436340432",
        "title": "公共厕所",
        "address": "黑龙江省伊春市汤旺县林海路与金街交叉口正西方向161米左右",
        "tel": "",
        "category": "基础设施:公共设施:公共厕所",
        "type": 0,
        "location": {
            "lat": 48.453139,
            "lng": 129.572454
        },
        "ad_info": {
            "adcode": 230723,
            "province": "黑龙江省",
            "city": "伊春市",
            "district": "汤旺县"
        }
    },
    {
        "id": "242451068986021542",
        "title": "公共厕所",
        "address": "黑龙江省伊春市嘉荫县神州龙路196号",
        "tel": "",
        "category": "基础设施:公共设施:公共厕所",
        "type": 0,
        "location": {
            "lat": 48.890767,
            "lng": 130.402634
        },
        "ad_info": {
            "adcode": 230722,
            "province": "黑龙江省",
            "city": "伊春市",
            "district": "嘉荫县"
        }
    },
    {
        "id": "16386905197529973798",
        "title": "公共厕所",
        "address": "黑龙江省伊春市铁力市G222与铁年路交叉口正东方向430米左右",
        "tel": "",
        "category": "基础设施:公共设施:公共厕所",
        "type": 0,
        "location": {
            "lat": 46.921888,
            "lng": 128.346614
        },
        "ad_info": {
            "adcode": 230781,
            "province": "黑龙江省",
            "city": "伊春市",
            "district": "铁力市"
        }
    },
    {
        "id": "16400297829280929121",
        "title": "公共厕所",
        "address": "黑龙江省伊春市汤旺县友谊路与环城路交叉口西北方向969米左右",
        "tel": "",
        "category": "基础设施:公共设施:公共厕所",
        "type": 0,
        "location": {
            "lat": 48.613537,
            "lng": 129.419744
        },
        "ad_info": {
            "adcode": 230723,
            "province": "黑龙江省",
            "city": "伊春市",
            "district": "汤旺县"
        }
    },
    {
        "id": "16653083184709602550",
        "title": "公共厕所",
        "address": "黑龙江省伊春市大箐山县朗乡林业局朗依公路翠花集团",
        "tel": "",
        "category": "基础设施:公共设施:公共厕所",
        "type": 0,
        "location": {
            "lat": 46.928457,
            "lng": 128.88836
        },
        "ad_info": {
            "adcode": 230725,
            "province": "黑龙江省",
            "city": "伊春市",
            "district": "大箐山县"
        }
    },
    {
        "id": "17403421695587036801",
        "title": "公共厕所",
        "address": "黑龙江省伊春市汤旺县二青河林场附近",
        "tel": "",
        "category": "基础设施:公共设施:公共厕所",
        "type": 0,
        "location": {
            "lat": 48.513257,
            "lng": 129.723707
        },
        "ad_info": {
            "adcode": 230723,
            "province": "黑龙江省",
            "city": "伊春市",
            "district": "汤旺县"
        }
    },
    {
        "id": "17273805602675884953",
        "title": "公共厕所",
        "address": "黑龙江省伊春市铁力市建设东大街与林企路交叉口西南方向21米左右",
        "tel": "",
        "category": "基础设施:公共设施:公共厕所",
        "type": 0,
        "location": {
            "lat": 46.989513,
            "lng": 128.073771
        },
        "ad_info": {
            "adcode": 230781,
            "province": "黑龙江省",
            "city": "伊春市",
            "district": "铁力市"
        }
    },
    {
        "id": "5986924161642328842",
        "title": "公共厕所",
        "address": "黑龙江省伊春市嘉荫县神州龙路183号",
        "tel": "",
        "category": "基础设施:公共设施:公共厕所",
        "type": 0,
        "location": {
            "lat": 48.890069,
            "lng": 130.408572
        },
        "ad_info": {
            "adcode": 230722,
            "province": "黑龙江省",
            "city": "伊春市",
            "district": "嘉荫县"
        }
    },
    {
        "id": "2106384212420944806",
        "title": "公共厕所",
        "address": "黑龙江省伊春市南岔县双连路与桃南公路交叉口正西方向1270米左右",
        "tel": "",
        "category": "基础设施:公共设施:公共厕所",
        "type": 0,
        "location": {
            "lat": 47.140182,
            "lng": 129.25367
        },
        "ad_info": {
            "adcode": 230726,
            "province": "黑龙江省",
            "city": "伊春市",
            "district": "南岔县"
        }
    },
    {
        "id": "6841988883607036281",
        "title": "公共厕所",
        "address": "黑龙江省伊春市汤旺县东风大街与群慧路交叉口正南方向162米左右",
        "tel": "",
        "category": "基础设施:公共设施:公共厕所",
        "type": 0,
        "location": {
            "lat": 48.452949,
            "lng": 129.570543
        },
        "ad_info": {
            "adcode": 230723,
            "province": "黑龙江省",
            "city": "伊春市",
            "district": "汤旺县"
        }
    },
    {
        "id": "9983609437595792879",
        "title": "公共厕所",
        "address": "黑龙江省伊春市丰林县民生路与龙建路交叉口西北方向300米左右",
        "tel": "",
        "category": "基础设施:公共设施:公共厕所",
        "type": 0,
        "location": {
            "lat": 48.277634,
            "lng": 129.531261
        },
        "ad_info": {
            "adcode": 230724,
            "province": "黑龙江省",
            "city": "伊春市",
            "district": "丰林县"
        }
    },
    {
        "id": "11706616432069789721",
        "title": "公共厕所",
        "address": "黑龙江省伊春市乌翠区望园路与通府路交叉口正北方向708米左右",
        "tel": "",
        "category": "基础设施:公共设施:公共厕所",
        "type": 0,
        "location": {
            "lat": 47.735744,
            "lng": 128.789301
        },
        "ad_info": {
            "adcode": 230718,
            "province": "黑龙江省",
            "city": "伊春市",
            "district": "乌翠区"
        }
    },
    {
        "id": "15864319306519473470",
        "title": "公共厕所",
        "address": "黑龙江省伊春市南岔县浩良河路与镇前路交叉口东南方向149米左右",
        "tel": "",
        "category": "基础设施:公共设施:公共厕所",
        "type": 0,
        "location": {
            "lat": 46.728645,
            "lng": 129.639086
        },
        "ad_info": {
            "adcode": 230726,
            "province": "黑龙江省",
            "city": "伊春市",
            "district": "南岔县"
        }
    },
    {
        "id": "17223569018263759166",
        "title": "公共厕所",
        "address": "黑龙江省伊春市丰林县五营镇公园路",
        "tel": "",
        "category": "基础设施:公共设施:公共厕所",
        "type": 0,
        "location": {
            "lat": 48.207913,
            "lng": 129.21435
        },
        "ad_info": {
            "adcode": 230724,
            "province": "黑龙江省",
            "city": "伊春市",
            "district": "丰林县"
        }
    },
    {
        "id": "14146210978465313110",
        "title": "公共厕所",
        "address": "黑龙江省伊春市汤旺县东风大街与群慧路交叉口正北方向99米左右",
        "tel": "",
        "category": "基础设施:公共设施:公共厕所",
        "type": 0,
        "location": {
            "lat": 48.455188,
            "lng": 129.570042
        },
        "ad_info": {
            "adcode": 230723,
            "province": "黑龙江省",
            "city": "伊春市",
            "district": "汤旺县"
        }
    },
    {
        "id": "10299315559079515667",
        "title": "公共厕所",
        "address": "黑龙江省伊春市嘉荫县恐龙大道西24号",
        "tel": "",
        "category": "基础设施:公共设施:公共厕所",
        "type": 0,
        "location": {
            "lat": 48.886669,
            "lng": 130.390091
        },
        "ad_info": {
            "adcode": 230722,
            "province": "黑龙江省",
            "city": "伊春市",
            "district": "嘉荫县"
        }
    },
    {
        "id": "17022056570673228732",
        "title": "公共厕所",
        "address": "黑龙江省伊春市伊美区引水路与美林大街交叉口正东方向248米左右",
        "tel": "",
        "category": "基础设施:公共设施:公共厕所",
        "type": 0,
        "location": {
            "lat": 47.635313,
            "lng": 129.143962
        },
        "ad_info": {
            "adcode": 230717,
            "province": "黑龙江省",
            "city": "伊春市",
            "district": "伊美区"
        }
    },
    {
        "id": "2172286569376389321",
        "title": "公共厕所",
        "address": "黑龙江省伊春市友好区双子河大街与顺达路交叉口西北方向218米左右",
        "tel": "",
        "category": "基础设施:公共设施:公共厕所",
        "type": 0,
        "location": {
            "lat": 47.844477,
            "lng": 128.823616
        },
        "ad_info": {
            "adcode": 230719,
            "province": "黑龙江省",
            "city": "伊春市",
            "district": "友好区"
        }
    },
    {
        "id": "8526398657330739966",
        "title": "公共厕所",
        "address": "黑龙江省伊春市友好区G222与伊嘉公路交叉口东北方向484米左右",
        "tel": "",
        "category": "基础设施:公共设施:公共厕所",
        "type": 0,
        "location": {
            "lat": 47.88178,
            "lng": 128.908721
        },
        "ad_info": {
            "adcode": 230719,
            "province": "黑龙江省",
            "city": "伊春市",
            "district": "友好区"
        }
    },
    {
        "id": "16178331457575882308",
        "title": "公共厕所",
        "address": "黑龙江省伊春市南岔县北纬路与双连路交叉口西北方向1814米左右",
        "tel": "",
        "category": "基础设施:公共设施:公共厕所",
        "type": 0,
        "location": {
            "lat": 47.149035,
            "lng": 129.250491
        },
        "ad_info": {
            "adcode": 230726,
            "province": "黑龙江省",
            "city": "伊春市",
            "district": "南岔县"
        }
    },
    {
        "id": "3756908198625396610",
        "title": "公共厕所",
        "address": "黑龙江省伊春市南岔县中纬大街与环城路交叉口正东方向1072米左右",
        "tel": "",
        "category": "基础设施:公共设施:公共厕所",
        "type": 0,
        "location": {
            "lat": 47.130204,
            "lng": 129.317048
        },
        "ad_info": {
            "adcode": 230726,
            "province": "黑龙江省",
            "city": "伊春市",
            "district": "南岔县"
        }
    },
    {
        "id": "2341370337475761120",
        "title": "公共厕所",
        "address": "黑龙江省伊春市汤旺县汤旺河林海奇石风景区附近",
        "tel": "",
        "category": "基础设施:公共设施:公共厕所",
        "type": 0,
        "location": {
            "lat": 48.459271,
            "lng": 129.452001
        },
        "ad_info": {
            "adcode": 230723,
            "province": "黑龙江省",
            "city": "伊春市",
            "district": "汤旺县"
        }
    },
    {
        "id": "11617890500234511800",
        "title": "公共厕所",
        "address": "黑龙江省伊春市丰林县光明大街与复兴路交叉口西北方向159米左右",
        "tel": "",
        "category": "基础设施:公共设施:公共厕所",
        "type": 0,
        "location": {
            "lat": 48.292137,
            "lng": 129.532641
        },
        "ad_info": {
            "adcode": 230724,
            "province": "黑龙江省",
            "city": "伊春市",
            "district": "丰林县"
        }
    },
    {
        "id": "16025306630166779687",
        "title": "公共厕所",
        "address": "黑龙江省伊春市大箐山县带浩公路西50米",
        "tel": "",
        "category": "基础设施:公共设施:公共厕所",
        "type": 0,
        "location": {
            "lat": 46.95497,
            "lng": 129.172683
        },
        "ad_info": {
            "adcode": 230725,
            "province": "黑龙江省",
            "city": "伊春市",
            "district": "大箐山县"
        }
    },
    {
        "id": "15703304773144282491",
        "title": "公共厕所",
        "address": "黑龙江省伊春市南岔县中纬大街与环城路交叉口正东方向757米左右",
        "tel": "",
        "category": "基础设施:公共设施:公共厕所",
        "type": 0,
        "location": {
            "lat": 47.133627,
            "lng": 129.313234
        },
        "ad_info": {
            "adcode": 230726,
            "province": "黑龙江省",
            "city": "伊春市",
            "district": "南岔县"
        }
    },
    {
        "id": "6813151015787222678",
        "title": "公共厕所",
        "address": "黑龙江省伊春市友好区新生路与顺达路交叉口正南方向43米左右",
        "tel": "",
        "category": "基础设施:公共设施:公共厕所",
        "type": 0,
        "location": {
            "lat": 47.865945,
            "lng": 128.82507
        },
        "ad_info": {
            "adcode": 230719,
            "province": "黑龙江省",
            "city": "伊春市",
            "district": "友好区"
        }
    },
    {
        "id": "10038141845137053351",
        "title": "公共厕所",
        "address": "黑龙江省伊春市丰林县中兴路与长风街交叉口正东方向80米左右",
        "tel": "",
        "category": "基础设施:公共设施:公共厕所",
        "type": 0,
        "location": {
            "lat": 48.287182,
            "lng": 129.530573
        },
        "ad_info": {
            "adcode": 230724,
            "province": "黑龙江省",
            "city": "伊春市",
            "district": "丰林县"
        }
    },
    {
        "id": "9260595228406610362",
        "title": "公共厕所",
        "address": "黑龙江省伊春市金林区迎宾路金山屯站",
        "tel": "",
        "category": "基础设施:公共设施:公共厕所",
        "type": 0,
        "location": {
            "lat": 47.423121,
            "lng": 129.423158
        },
        "ad_info": {
            "adcode": 230751,
            "province": "黑龙江省",
            "city": "伊春市",
            "district": "金林区"
        }
    },
    {
        "id": "7359048738267709228",
        "title": "公共厕所",
        "address": "黑龙江省伊春市友好区友好大街与站前路交叉口西北方向402米左右",
        "tel": "",
        "category": "基础设施:公共设施:公共厕所",
        "type": 0,
        "location": {
            "lat": 47.858669,
            "lng": 128.842331
        },
        "ad_info": {
            "adcode": 230719,
            "province": "黑龙江省",
            "city": "伊春市",
            "district": "友好区"
        }
    },
    {
        "id": "10941860956630201782",
        "title": "公共厕所",
        "address": "黑龙江省伊春市伊美区利民大街与美林大街交叉口西南方向160米左右",
        "tel": "",
        "category": "基础设施:公共设施:公共厕所",
        "type": 0,
        "location": {
            "lat": 47.634841,
            "lng": 129.147475
        },
        "ad_info": {
            "adcode": 230717,
            "province": "黑龙江省",
            "city": "伊春市",
            "district": "伊美区"
        }
    },
    {
        "id": "629341173667685135",
        "title": "公共厕所",
        "address": "黑龙江省伊春市伊美区利民大街与鸿京桦路交叉口正北方向24米左右",
        "tel": "",
        "category": "基础设施:公共设施:公共厕所",
        "type": 0,
        "location": {
            "lat": 47.633253,
            "lng": 129.156263
        },
        "ad_info": {
            "adcode": 230717,
            "province": "黑龙江省",
            "city": "伊春市",
            "district": "伊美区"
        }
    },
    {
        "id": "5357130238032246998",
        "title": "公共厕所",
        "address": "黑龙江省伊春市南岔县世纪嘉园B区西南侧230米",
        "tel": "",
        "category": "基础设施:公共设施:公共厕所",
        "type": 0,
        "location": {
            "lat": 47.130424,
            "lng": 129.287843
        },
        "ad_info": {
            "adcode": 230726,
            "province": "黑龙江省",
            "city": "伊春市",
            "district": "南岔县"
        }
    },
    {
        "id": "13250226471626831190",
        "title": "公共厕所",
        "address": "黑龙江省伊春市丰林县光明大街与龙建路交叉口西北方向269米左右",
        "tel": "",
        "category": "基础设施:公共设施:公共厕所",
        "type": 0,
        "location": {
            "lat": 48.287405,
            "lng": 129.520256
        },
        "ad_info": {
            "adcode": 230724,
            "province": "黑龙江省",
            "city": "伊春市",
            "district": "丰林县"
        }
    },
    {
        "id": "16967932070175974284",
        "title": "公共厕所",
        "address": "黑龙江省伊春市丰林县东兴路与光明大街交叉口东南方向32米左右",
        "tel": "",
        "category": "基础设施:公共设施:公共厕所",
        "type": 0,
        "location": {
            "lat": 48.294975,
            "lng": 129.542919
        },
        "ad_info": {
            "adcode": 230724,
            "province": "黑龙江省",
            "city": "伊春市",
            "district": "丰林县"
        }
    },
    {
        "id": "1921151693759072526",
        "title": "公共厕所",
        "address": "黑龙江省伊春市友好区永安路与顺达路交叉口东南方向423米左右",
        "tel": "",
        "category": "基础设施:公共设施:公共厕所",
        "type": 0,
        "location": {
            "lat": 47.864651,
            "lng": 128.831386
        },
        "ad_info": {
            "adcode": 230719,
            "province": "黑龙江省",
            "city": "伊春市",
            "district": "友好区"
        }
    },
    {
        "id": "4231938403198612034",
        "title": "公共厕所",
        "address": "黑龙江省伊春市丰林县基荣街与复兴路交叉口正南方向40米左右",
        "tel": "",
        "category": "基础设施:公共设施:公共厕所",
        "type": 0,
        "location": {
            "lat": 48.283903,
            "lng": 129.541575
        },
        "ad_info": {
            "adcode": 230724,
            "province": "黑龙江省",
            "city": "伊春市",
            "district": "丰林县"
        }
    },
    {
        "id": "2046826490678156954",
        "title": "公共厕所",
        "address": "黑龙江省伊春市汤旺县南五街与国防路交叉口东北方向51米左右",
        "tel": "",
        "category": "基础设施:公共设施:公共厕所",
        "type": 0,
        "location": {
            "lat": 48.445234,
            "lng": 129.572714
        },
        "ad_info": {
            "adcode": 230723,
            "province": "黑龙江省",
            "city": "伊春市",
            "district": "汤旺县"
        }
    },
    {
        "id": "17907077096472586295",
        "title": "公共厕所",
        "address": "黑龙江省伊春市铁力市西三路24号",
        "tel": "",
        "category": "基础设施:公共设施:公共厕所",
        "type": 0,
        "location": {
            "lat": 46.985592,
            "lng": 128.017018
        },
        "ad_info": {
            "adcode": 230781,
            "province": "黑龙江省",
            "city": "伊春市",
            "district": "铁力市"
        }
    },
    {
        "id": "6866793679069126845",
        "title": "公共厕所",
        "address": "黑龙江省伊春市大箐山县畅园西路与翠花大街交叉口东南方向299米左右",
        "tel": "",
        "category": "基础设施:公共设施:公共厕所",
        "type": 0,
        "location": {
            "lat": 46.946735,
            "lng": 128.873673
        },
        "ad_info": {
            "adcode": 230725,
            "province": "黑龙江省",
            "city": "伊春市",
            "district": "大箐山县"
        }
    },
    {
        "id": "9108417525591091078",
        "title": "服务区公共厕所",
        "address": "黑龙江省伊春市乌翠区服务区与G1111鹤哈高速交叉口北50米",
        "tel": "",
        "category": "基础设施:公共设施:公共厕所",
        "type": 0,
        "location": {
            "lat": 47.705103,
            "lng": 128.819719
        },
        "ad_info": {
            "adcode": 230718,
            "province": "黑龙江省",
            "city": "伊春市",
            "district": "乌翠区"
        }
    },
    {
        "id": "18132941762551337764",
        "title": "公共厕所",
        "address": "黑龙江省伊春市友好区东升路与振兴大街交叉口正东方向116米左右",
        "tel": "",
        "category": "基础设施:公共设施:公共厕所",
        "type": 0,
        "location": {
            "lat": 47.852723,
            "lng": 128.844098
        },
        "ad_info": {
            "adcode": 230719,
            "province": "黑龙江省",
            "city": "伊春市",
            "district": "友好区"
        }
    },
    {
        "id": "2896709795691402214",
        "title": "公共厕所",
        "address": "黑龙江省伊春市伊美区育林路伊春区第二中学",
        "tel": "",
        "category": "基础设施:公共设施:公共厕所",
        "type": 0,
        "location": {
            "lat": 47.735836,
            "lng": 128.917391
        },
        "ad_info": {
            "adcode": 230717,
            "province": "黑龙江省",
            "city": "伊春市",
            "district": "伊美区"
        }
    },
    {
        "id": "134625488220770606",
        "title": "公共厕所",
        "address": "黑龙江省伊春市大箐山县子良路与迎宾路交叉口正北方向111米左右",
        "tel": "",
        "category": "基础设施:公共设施:公共厕所",
        "type": 0,
        "location": {
            "lat": 47.02938,
            "lng": 129.018181
        },
        "ad_info": {
            "adcode": 230725,
            "province": "黑龙江省",
            "city": "伊春市",
            "district": "大箐山县"
        }
    },
    {
        "id": "15213312166146272078",
        "title": "公共厕所",
        "address": "黑龙江省伊春市铁力市一条街与健康路交叉口西北方向314米左右",
        "tel": "",
        "category": "基础设施:公共设施:公共厕所",
        "type": 0,
        "location": {
            "lat": 46.966568,
            "lng": 127.764556
        },
        "ad_info": {
            "adcode": 230781,
            "province": "黑龙江省",
            "city": "伊春市",
            "district": "铁力市"
        }
    },
    {
        "id": "6182121919449237929",
        "title": "公共厕所",
        "address": "黑龙江省伊春市伊美区永安街与永庆路交叉口正西方向111米左右",
        "tel": "",
        "category": "基础设施:公共设施:公共厕所",
        "type": 0,
        "location": {
            "lat": 47.726812,
            "lng": 128.891091
        },
        "ad_info": {
            "adcode": 230717,
            "province": "黑龙江省",
            "city": "伊春市",
            "district": "伊美区"
        }
    },
    {
        "id": "10904602046325181390",
        "title": "公共厕所",
        "address": "黑龙江省伊春市铁力市中心路与保健街交叉口正东方向68米左右",
        "tel": "",
        "category": "基础设施:公共设施:公共厕所",
        "type": 0,
        "location": {
            "lat": 46.987303,
            "lng": 128.026321
        },
        "ad_info": {
            "adcode": 230781,
            "province": "黑龙江省",
            "city": "伊春市",
            "district": "铁力市"
        }
    },
    {
        "id": "17021541603073839515",
        "title": "公共厕所",
        "address": "黑龙江省伊春市大箐山县育林东街与运材路交叉口正北方向33米左右",
        "tel": "",
        "category": "基础设施:公共设施:公共厕所",
        "type": 0,
        "location": {
            "lat": 47.027033,
            "lng": 129.028536
        },
        "ad_info": {
            "adcode": 230725,
            "province": "黑龙江省",
            "city": "伊春市",
            "district": "大箐山县"
        }
    },
    {
        "id": "10843543424916780895",
        "title": "公共厕所",
        "address": "黑龙江省伊春市铁力市东二路与保健街交叉口东南方向26米左右",
        "tel": "",
        "category": "基础设施:公共设施:公共厕所",
        "type": 0,
        "location": {
            "lat": 46.987765,
            "lng": 128.0294
        },
        "ad_info": {
            "adcode": 230781,
            "province": "黑龙江省",
            "city": "伊春市",
            "district": "铁力市"
        }
    },
    {
        "id": "9601951352804844603",
        "title": "昆仑气服务区公共厕所",
        "address": "黑龙江省伊春市乌翠区S12前嫩高速南100米",
        "tel": "",
        "category": "基础设施:公共设施:公共厕所",
        "type": 0,
        "location": {
            "lat": 47.557956,
            "lng": 128.319581
        },
        "ad_info": {
            "adcode": 230718,
            "province": "黑龙江省",
            "city": "伊春市",
            "district": "乌翠区"
        }
    },
    {
        "id": "5183794388270397402",
        "title": "昆仑气服务区公共厕所",
        "address": "黑龙江省伊春市乌翠区S12前嫩高速北150米",
        "tel": "",
        "category": "基础设施:公共设施:公共厕所",
        "type": 0,
        "location": {
            "lat": 47.559871,
            "lng": 128.320397
        },
        "ad_info": {
            "adcode": 230718,
            "province": "黑龙江省",
            "city": "伊春市",
            "district": "乌翠区"
        }
    },
    {
        "id": "3476375067629213432",
        "title": "公共厕所",
        "address": "黑龙江省伊春市嘉荫县鸭嘴龙街93号",
        "tel": "",
        "category": "基础设施:公共设施:公共厕所",
        "type": 0,
        "location": {
            "lat": 48.896394,
            "lng": 130.400209
        },
        "ad_info": {
            "adcode": 230722,
            "province": "黑龙江省",
            "city": "伊春市",
            "district": "嘉荫县"
        }
    },
    {
        "id": "1797529654589158342",
        "title": "公共厕所",
        "address": "黑龙江省伊春市伊美区职高三公寓南侧220米",
        "tel": "",
        "category": "基础设施:公共设施:公共厕所",
        "type": 0,
        "location": {
            "lat": 47.713652,
            "lng": 128.869956
        },
        "ad_info": {
            "adcode": 230717,
            "province": "黑龙江省",
            "city": "伊春市",
            "district": "伊美区"
        }
    },
    {
        "id": "6543162531578407212",
        "title": "公共厕所",
        "address": "黑龙江省伊春市丰林县五营林业局中心苗圃北侧160米",
        "tel": "",
        "category": "基础设施:公共设施:公共厕所",
        "type": 0,
        "location": {
            "lat": 48.101261,
            "lng": 129.247712
        },
        "ad_info": {
            "adcode": 230724,
            "province": "黑龙江省",
            "city": "伊春市",
            "district": "丰林县"
        }
    },
    {
        "id": "8911749935358403202",
        "title": "公共厕所",
        "address": "黑龙江省伊春市伊美区幸福里小区东北侧260米",
        "tel": "",
        "category": "基础设施:公共设施:公共厕所",
        "type": 0,
        "location": {
            "lat": 47.713287,
            "lng": 128.872009
        },
        "ad_info": {
            "adcode": 230717,
            "province": "黑龙江省",
            "city": "伊春市",
            "district": "伊美区"
        }
    },
    {
        "id": "3468107981444831772",
        "title": "公共厕所",
        "address": "黑龙江省伊春市铁力市中心路与五一大街交叉口西南方向67米左右",
        "tel": "",
        "category": "基础设施:公共设施:公共厕所",
        "type": 0,
        "location": {
            "lat": 46.988551,
            "lng": 128.02427
        },
        "ad_info": {
            "adcode": 230781,
            "province": "黑龙江省",
            "city": "伊春市",
            "district": "铁力市"
        }
    },
    {
        "id": "12988761896469588350",
        "title": "公共厕所",
        "address": "黑龙江省伊春市伊美区伊东路与002乡道交叉口东80米",
        "tel": "",
        "category": "基础设施:公共设施:公共厕所",
        "type": 0,
        "location": {
            "lat": 47.756223,
            "lng": 128.939195
        },
        "ad_info": {
            "adcode": 230717,
            "province": "黑龙江省",
            "city": "伊春市",
            "district": "伊美区"
        }
    },
    {
        "id": "17214883474169322558",
        "title": "公共厕所",
        "address": "黑龙江省伊春市铁力市农场路与正阳大街交叉口西北方向27米左右",
        "tel": "",
        "category": "基础设施:公共设施:公共厕所",
        "type": 0,
        "location": {
            "lat": 46.986518,
            "lng": 128.048477
        },
        "ad_info": {
            "adcode": 230781,
            "province": "黑龙江省",
            "city": "伊春市",
            "district": "铁力市"
        }
    },
    {
        "id": "9134114446048327148",
        "title": "公共厕所",
        "address": "黑龙江省伊春市丰林县中兴路与安泰街交叉口东南方向127米左右",
        "tel": "",
        "category": "基础设施:公共设施:公共厕所",
        "type": 0,
        "location": {
            "lat": 48.289653,
            "lng": 129.526617
        },
        "ad_info": {
            "adcode": 230724,
            "province": "黑龙江省",
            "city": "伊春市",
            "district": "丰林县"
        }
    },
    {
        "id": "9312475901765082710",
        "title": "环保公共厕所",
        "address": "黑龙江省伊春市伊美区繁荣街与迎宾路交叉口正南方向20米左右",
        "tel": "",
        "category": "基础设施:公共设施:公共厕所",
        "type": 0,
        "location": {
            "lat": 47.729118,
            "lng": 128.912958
        },
        "ad_info": {
            "adcode": 230717,
            "province": "黑龙江省",
            "city": "伊春市",
            "district": "伊美区"
        }
    },
    {
        "id": "7913603679102235184",
        "title": "公共厕所",
        "address": "黑龙江省伊春市丰林县复兴路与安泰街交叉口正北方向97米左右",
        "tel": "",
        "category": "基础设施:公共设施:公共厕所",
        "type": 0,
        "location": {
            "lat": 48.294314,
            "lng": 129.531629
        },
        "ad_info": {
            "adcode": 230724,
            "province": "黑龙江省",
            "city": "伊春市",
            "district": "丰林县"
        }
    },
    {
        "id": "1096431669554593303",
        "title": "公共厕所",
        "address": "黑龙江省伊春市南岔县理发刮脸东侧210米",
        "tel": "",
        "category": "基础设施:公共设施:公共厕所",
        "type": 0,
        "location": {
            "lat": 46.727298,
            "lng": 129.64487
        },
        "ad_info": {
            "adcode": 230726,
            "province": "黑龙江省",
            "city": "伊春市",
            "district": "南岔县"
        }
    },
    {
        "id": "15016119691482709460",
        "title": "公共厕所",
        "address": "黑龙江省伊春市丰林县光明大街与兴安路交叉口正北方向61米左右",
        "tel": "",
        "category": "基础设施:公共设施:公共厕所",
        "type": 0,
        "location": {
            "lat": 48.290744,
            "lng": 129.53208
        },
        "ad_info": {
            "adcode": 230724,
            "province": "黑龙江省",
            "city": "伊春市",
            "district": "丰林县"
        }
    },
    {
        "id": "7936802055452446899",
        "title": "洗手间",
        "address": "黑龙江省伊春市伊美区云杉路与兴安街交叉口东南方向362米左右",
        "tel": "",
        "category": "基础设施:公共设施:公共厕所",
        "type": 0,
        "location": {
            "lat": 47.720165,
            "lng": 128.855538
        },
        "ad_info": {
            "adcode": 230717,
            "province": "黑龙江省",
            "city": "伊春市",
            "district": "伊美区"
        }
    },
    {
        "id": "12612341807102074609",
        "title": "公共厕所",
        "address": "黑龙江省伊春市嘉荫县恐龙大道与神州龙路交叉口西南方向171米左右",
        "tel": "",
        "category": "基础设施:公共设施:公共厕所",
        "type": 0,
        "location": {
            "lat": 48.887763,
            "lng": 130.402913
        },
        "ad_info": {
            "adcode": 230722,
            "province": "黑龙江省",
            "city": "伊春市",
            "district": "嘉荫县"
        }
    },
    {
        "id": "5594492133468544275",
        "title": "公共厕所",
        "address": "黑龙江省伊春市大箐山县育林东街与运材路交叉口西南方向171米左右",
        "tel": "",
        "category": "基础设施:公共设施:公共厕所",
        "type": 0,
        "location": {
            "lat": 47.025454,
            "lng": 129.027204
        },
        "ad_info": {
            "adcode": 230725,
            "province": "黑龙江省",
            "city": "伊春市",
            "district": "大箐山县"
        }
    },
    {
        "id": "8954534614409716161",
        "title": "公共厕所",
        "address": "黑龙江省伊春市伊美区兴安路与扶兴路交叉口东南方向103米左右",
        "tel": "",
        "category": "基础设施:公共设施:公共厕所",
        "type": 0,
        "location": {
            "lat": 47.712979,
            "lng": 128.89327
        },
        "ad_info": {
            "adcode": 230717,
            "province": "黑龙江省",
            "city": "伊春市",
            "district": "伊美区"
        }
    },
    {
        "id": "13608364464971627222",
        "title": "伊春服务区公共厕所",
        "address": "黑龙江省伊春市乌翠区S207与哈伊公路交叉口东北方向872米左右",
        "tel": "",
        "category": "基础设施:公共设施:公共厕所",
        "type": 0,
        "location": {
            "lat": 47.629035,
            "lng": 128.541437
        },
        "ad_info": {
            "adcode": 230718,
            "province": "黑龙江省",
            "city": "伊春市",
            "district": "乌翠区"
        }
    },
    {
        "id": "5290343749709823264",
        "title": "公共厕所",
        "address": "黑龙江省伊春市伊美区兴胜路与昊源路交叉口正北方向148米左右",
        "tel": "",
        "category": "基础设施:公共设施:公共厕所",
        "type": 0,
        "location": {
            "lat": 47.62962,
            "lng": 129.124652
        },
        "ad_info": {
            "adcode": 230717,
            "province": "黑龙江省",
            "city": "伊春市",
            "district": "伊美区"
        }
    },
    {
        "id": "11066826435198951680",
        "title": "公共厕所",
        "address": "黑龙江省伊春市伊美区红星路与美林大街交叉口西北方向265米左右",
        "tel": "",
        "category": "基础设施:公共设施:公共厕所",
        "type": 0,
        "location": {
            "lat": 47.636721,
            "lng": 129.126093
        },
        "ad_info": {
            "adcode": 230717,
            "province": "黑龙江省",
            "city": "伊春市",
            "district": "伊美区"
        }
    },
    {
        "id": "2569505476867957239",
        "title": "公共厕所",
        "address": "黑龙江省伊春市嘉荫县满洲龙路18号",
        "tel": "",
        "category": "基础设施:公共设施:公共厕所",
        "type": 0,
        "location": {
            "lat": 48.895105,
            "lng": 130.393903
        },
        "ad_info": {
            "adcode": 230722,
            "province": "黑龙江省",
            "city": "伊春市",
            "district": "嘉荫县"
        }
    },
    {
        "id": "2807874047396483072",
        "title": "公共厕所",
        "address": "黑龙江省伊春市汤旺县南二街与群慧路交叉口东北方向31米左右",
        "tel": "",
        "category": "基础设施:公共设施:公共厕所",
        "type": 0,
        "location": {
            "lat": 48.451088,
            "lng": 129.571063
        },
        "ad_info": {
            "adcode": 230723,
            "province": "黑龙江省",
            "city": "伊春市",
            "district": "汤旺县"
        }
    },
    {
        "id": "3690028919134163814",
        "title": "公共厕所",
        "address": "黑龙江省伊春市铁力市中心路与红领巾街交叉口正东方向132米左右",
        "tel": "",
        "category": "基础设施:公共设施:公共厕所",
        "type": 0,
        "location": {
            "lat": 46.9804,
            "lng": 128.028887
        },
        "ad_info": {
            "adcode": 230781,
            "province": "黑龙江省",
            "city": "伊春市",
            "district": "铁力市"
        }
    },
    {
        "id": "9150716782615862938",
        "title": "公共厕所",
        "address": "黑龙江省伊春市汤旺县东风大街与建设路交叉口正南方向304米左右",
        "tel": "",
        "category": "基础设施:公共设施:公共厕所",
        "type": 0,
        "location": {
            "lat": 48.452922,
            "lng": 129.581473
        },
        "ad_info": {
            "adcode": 230723,
            "province": "黑龙江省",
            "city": "伊春市",
            "district": "汤旺县"
        }
    },
    {
        "id": "10493855358390314594",
        "title": "公共厕所",
        "address": "黑龙江省伊春市南岔县浩良河路与镇前路交叉口正南方向482米左右",
        "tel": "",
        "category": "基础设施:公共设施:公共厕所",
        "type": 0,
        "location": {
            "lat": 46.725299,
            "lng": 129.63583
        },
        "ad_info": {
            "adcode": 230726,
            "province": "黑龙江省",
            "city": "伊春市",
            "district": "南岔县"
        }
    },
    {
        "id": "6049549757149200691",
        "title": "公共厕所",
        "address": "黑龙江省伊春市嘉荫县G222青山加油站",
        "tel": "",
        "category": "基础设施:公共设施:公共厕所",
        "type": 0,
        "location": {
            "lat": 48.751715,
            "lng": 130.005728
        },
        "ad_info": {
            "adcode": 230722,
            "province": "黑龙江省",
            "city": "伊春市",
            "district": "嘉荫县"
        }
    },
    {
        "id": "15430782151937451006",
        "title": "公共厕所",
        "address": "黑龙江省伊春市丰林县亦乐路与安泰街交叉口东北方向84米左右",
        "tel": "",
        "category": "基础设施:公共设施:公共厕所",
        "type": 0,
        "location": {
            "lat": 48.291863,
            "lng": 129.5275
        },
        "ad_info": {
            "adcode": 230724,
            "province": "黑龙江省",
            "city": "伊春市",
            "district": "丰林县"
        }
    },
    {
        "id": "1774202147631356697",
        "title": "公共厕所",
        "address": "黑龙江省伊春市铁力市Y024与向阳路交叉口西北方向145米左右",
        "tel": "",
        "category": "基础设施:公共设施:公共厕所",
        "type": 0,
        "location": {
            "lat": 46.977148,
            "lng": 128.043323
        },
        "ad_info": {
            "adcode": 230781,
            "province": "黑龙江省",
            "city": "伊春市",
            "district": "铁力市"
        }
    },
    {
        "id": "4973444119581386682",
        "title": "公共厕所",
        "address": "黑龙江省伊春市伊美区东河路与通街大街交叉口正南方向124米左右",
        "tel": "",
        "category": "基础设施:公共设施:公共厕所",
        "type": 0,
        "location": {
            "lat": 47.717569,
            "lng": 128.884646
        },
        "ad_info": {
            "adcode": 230717,
            "province": "黑龙江省",
            "city": "伊春市",
            "district": "伊美区"
        }
    },
    {
        "id": "2212756208651098135",
        "title": "公共厕所",
        "address": "黑龙江省伊春市嘉荫县204省道西50米",
        "tel": "",
        "category": "基础设施:公共设施:公共厕所",
        "type": 0,
        "location": {
            "lat": 48.607295,
            "lng": 129.908201
        },
        "ad_info": {
            "adcode": 230722,
            "province": "黑龙江省",
            "city": "伊春市",
            "district": "嘉荫县"
        }
    },
    {
        "id": "11804730480736010343",
        "title": "无障碍公共厕所",
        "address": "黑龙江省伊春市伊美区新欣街与花园路交叉口东南方向119米左右",
        "tel": "",
        "category": "基础设施:公共设施:公共厕所",
        "type": 0,
        "location": {
            "lat": 47.714186,
            "lng": 128.880174
        },
        "ad_info": {
            "adcode": 230717,
            "province": "黑龙江省",
            "city": "伊春市",
            "district": "伊美区"
        }
    },
    {
        "id": "14872960139690229647",
        "title": "公共厕所",
        "address": "黑龙江省伊春市友好区永安路嘉航小区",
        "tel": "",
        "category": "基础设施:公共设施:公共厕所",
        "type": 0,
        "location": {
            "lat": 47.849515,
            "lng": 128.836829
        },
        "ad_info": {
            "adcode": 230719,
            "province": "黑龙江省",
            "city": "伊春市",
            "district": "友好区"
        }
    },
    {
        "id": "16423558191962659076",
        "title": "公共厕所",
        "address": "黑龙江省伊春市金林区兴林路与通河街交叉口西北方向360米左右",
        "tel": "",
        "category": "基础设施:公共设施:公共厕所",
        "type": 0,
        "location": {
            "lat": 47.485549,
            "lng": 129.307277
        },
        "ad_info": {
            "adcode": 230751,
            "province": "黑龙江省",
            "city": "伊春市",
            "district": "金林区"
        }
    },
    {
        "id": "5136399751859549164",
        "title": "公共厕所",
        "address": "黑龙江省伊春市丰林县中心大街与共建路交叉口东南方向59米左右",
        "tel": "",
        "category": "基础设施:公共设施:公共厕所",
        "type": 0,
        "location": {
            "lat": 48.238036,
            "lng": 129.382547
        },
        "ad_info": {
            "adcode": 230724,
            "province": "黑龙江省",
            "city": "伊春市",
            "district": "丰林县"
        }
    },
    {
        "id": "3809880123147516306",
        "title": "公共厕所",
        "address": "黑龙江省伊春市乌翠区乌带公路与乌带路交叉口正南方向186米左右",
        "tel": "",
        "category": "基础设施:公共设施:公共厕所",
        "type": 0,
        "location": {
            "lat": 47.720109,
            "lng": 128.80079
        },
        "ad_info": {
            "adcode": 230718,
            "province": "黑龙江省",
            "city": "伊春市",
            "district": "乌翠区"
        }
    },
    {
        "id": "16300119286698798914",
        "title": "公共厕所",
        "address": "黑龙江省伊春市铁力市恒大国际影城3层",
        "tel": "",
        "category": "基础设施:公共设施:公共厕所",
        "type": 0,
        "location": {
            "lat": 46.983348,
            "lng": 128.038802
        },
        "ad_info": {
            "adcode": 230781,
            "province": "黑龙江省",
            "city": "伊春市",
            "district": "铁力市"
        }
    },
    {
        "id": "5956574959271848115",
        "title": "伊春服务区公共厕所",
        "address": "黑龙江省伊春市乌翠区G1111鹤哈高速与伊春服务区交叉口西南380米",
        "tel": "",
        "category": "基础设施:公共设施:公共厕所",
        "type": 0,
        "location": {
            "lat": 47.626934,
            "lng": 128.543322
        },
        "ad_info": {
            "adcode": 230718,
            "province": "黑龙江省",
            "city": "伊春市",
            "district": "乌翠区"
        }
    }
]