[
    {
        "id": "7532287668850521375",
        "title": "公共厕所",
        "address": "新疆维吾尔自治区伊犁哈萨克自治州奎屯市库尔勒东路与石河子街交叉口正北方向84米左右",
        "tel": "",
        "category": "基础设施:公共设施:公共厕所",
        "type": 0,
        "location": {
            "lat": 44.419725,
            "lng": 84.912314
        },
        "ad_info": {
            "adcode": 654003,
            "province": "新疆维吾尔自治区",
            "city": "伊犁哈萨克自治州",
            "district": "奎屯市"
        }
    },
    {
        "id": "12948150464121994501",
        "title": "公共厕所",
        "address": "新疆维吾尔自治区伊犁哈萨克自治州奎屯市沙湾街与高朋街交叉口正东方向36米左右",
        "tel": "",
        "category": "基础设施:公共设施:公共厕所",
        "type": 0,
        "location": {
            "lat": 44.438819,
            "lng": 84.910746
        },
        "ad_info": {
            "adcode": 654003,
            "province": "新疆维吾尔自治区",
            "city": "伊犁哈萨克自治州",
            "district": "奎屯市"
        }
    },
    {
        "id": "3795700123627497795",
        "title": "公共厕所",
        "address": "新疆维吾尔自治区伊犁哈萨克自治州伊宁市广东路与深圳南路交叉口东北方向142米左右",
        "tel": "",
        "category": "基础设施:公共设施:公共厕所",
        "type": 0,
        "location": {
            "lat": 43.925529,
            "lng": 81.250282
        },
        "ad_info": {
            "adcode": 654002,
            "province": "新疆维吾尔自治区",
            "city": "伊犁哈萨克自治州",
            "district": "伊宁市"
        }
    },
    {
        "id": "17991840426732373406",
        "title": "公共厕所",
        "address": "新疆维吾尔自治区伊犁哈萨克自治州奎屯市北京西路与裕民街交叉口正西方向53米左右",
        "tel": "",
        "category": "基础设施:公共设施:公共厕所",
        "type": 0,
        "location": {
            "lat": 44.428045,
            "lng": 84.852344
        },
        "ad_info": {
            "adcode": 654003,
            "province": "新疆维吾尔自治区",
            "city": "伊犁哈萨克自治州",
            "district": "奎屯市"
        }
    },
    {
        "id": "12304174785806086255",
        "title": "公共厕所",
        "address": "新疆维吾尔自治区伊犁哈萨克自治州霍尔果斯市亚欧路与滨河路一巷交叉口西北方向50米左右",
        "tel": "",
        "category": "基础设施:公共设施:公共厕所",
        "type": 0,
        "location": {
            "lat": 44.202013,
            "lng": 80.419877
        },
        "ad_info": {
            "adcode": 654004,
            "province": "新疆维吾尔自治区",
            "city": "伊犁哈萨克自治州",
            "district": "霍尔果斯市"
        }
    },
    {
        "id": "8672610376185902845",
        "title": "公共厕所",
        "address": "新疆维吾尔自治区伊犁哈萨克自治州奎屯市团结南街与铁二路交叉口东南方向55米左右",
        "tel": "",
        "category": "基础设施:公共设施:公共厕所",
        "type": 0,
        "location": {
            "lat": 44.404964,
            "lng": 84.901222
        },
        "ad_info": {
            "adcode": 654003,
            "province": "新疆维吾尔自治区",
            "city": "伊犁哈萨克自治州",
            "district": "奎屯市"
        }
    },
    {
        "id": "14701997853813048113",
        "title": "公共厕所",
        "address": "新疆维吾尔自治区伊犁哈萨克自治州奎屯市北京东路与团结东街交叉口正北方向81米左右",
        "tel": "",
        "category": "基础设施:公共设施:公共厕所",
        "type": 0,
        "location": {
            "lat": 44.42564,
            "lng": 84.904797
        },
        "ad_info": {
            "adcode": 654003,
            "province": "新疆维吾尔自治区",
            "city": "伊犁哈萨克自治州",
            "district": "奎屯市"
        }
    },
    {
        "id": "12516973773680277443",
        "title": "公共厕所",
        "address": "新疆维吾尔自治区伊犁哈萨克自治州奎屯市奇台东路与沙湾街交叉口西南方向50米左右",
        "tel": "",
        "category": "基础设施:公共设施:公共厕所",
        "type": 0,
        "location": {
            "lat": 44.430921,
            "lng": 84.90934
        },
        "ad_info": {
            "adcode": 654003,
            "province": "新疆维吾尔自治区",
            "city": "伊犁哈萨克自治州",
            "district": "奎屯市"
        }
    },
    {
        "id": "74912340985569209",
        "title": "公共厕所",
        "address": "新疆维吾尔自治区伊犁哈萨克自治州奎屯市乌苏街与乌鲁木齐西路交叉口正北方向234米左右",
        "tel": "",
        "category": "基础设施:公共设施:公共厕所",
        "type": 0,
        "location": {
            "lat": 44.431902,
            "lng": 84.899096
        },
        "ad_info": {
            "adcode": 654003,
            "province": "新疆维吾尔自治区",
            "city": "伊犁哈萨克自治州",
            "district": "奎屯市"
        }
    },
    {
        "id": "8901034928734975318",
        "title": "公共卫生间",
        "address": "新疆维吾尔自治区伊犁哈萨克自治州伊宁市新华东路4号",
        "tel": "",
        "category": "基础设施:公共设施:公共厕所",
        "type": 0,
        "location": {
            "lat": 43.912777,
            "lng": 81.324996
        },
        "ad_info": {
            "adcode": 654002,
            "province": "新疆维吾尔自治区",
            "city": "伊犁哈萨克自治州",
            "district": "伊宁市"
        }
    },
    {
        "id": "7225678416965644712",
        "title": "公共厕所",
        "address": "新疆维吾尔自治区伊犁哈萨克自治州伊宁市西环路与解放西路交叉口正西方向128米左右",
        "tel": "",
        "category": "基础设施:公共设施:公共厕所",
        "type": 0,
        "location": {
            "lat": 43.941633,
            "lng": 81.291438
        },
        "ad_info": {
            "adcode": 654002,
            "province": "新疆维吾尔自治区",
            "city": "伊犁哈萨克自治州",
            "district": "伊宁市"
        }
    },
    {
        "id": "11849761843926416199",
        "title": "公共厕所",
        "address": "新疆维吾尔自治区伊犁哈萨克自治州伊宁市伊犁河路与怡安巷交叉口正北方向61米左右",
        "tel": "",
        "category": "基础设施:公共设施:公共厕所",
        "type": 0,
        "location": {
            "lat": 43.915424,
            "lng": 81.313951
        },
        "ad_info": {
            "adcode": 654002,
            "province": "新疆维吾尔自治区",
            "city": "伊犁哈萨克自治州",
            "district": "伊宁市"
        }
    },
    {
        "id": "17364701426897009669",
        "title": "公共厕所",
        "address": "新疆维吾尔自治区伊犁哈萨克自治州奎屯市准噶尔路与江苏大道交叉口正东方向101米左右",
        "tel": "",
        "category": "基础设施:公共设施:公共厕所",
        "type": 0,
        "location": {
            "lat": 44.441252,
            "lng": 84.85745
        },
        "ad_info": {
            "adcode": 654003,
            "province": "新疆维吾尔自治区",
            "city": "伊犁哈萨克自治州",
            "district": "奎屯市"
        }
    },
    {
        "id": "5827384859090969499",
        "title": "公共厕所",
        "address": "新疆维吾尔自治区伊犁哈萨克自治州霍城县新荣西路与海里亚街北二巷交叉口东南方向42米左右",
        "tel": "",
        "category": "基础设施:公共设施:公共厕所",
        "type": 0,
        "location": {
            "lat": 44.052489,
            "lng": 80.870278
        },
        "ad_info": {
            "adcode": 654023,
            "province": "新疆维吾尔自治区",
            "city": "伊犁哈萨克自治州",
            "district": "霍城县"
        }
    },
    {
        "id": "7733395809340417618",
        "title": "公共厕所",
        "address": "新疆维吾尔自治区伊犁哈萨克自治州伊宁市红旗街与解放南路交叉口正东方向48米左右",
        "tel": "",
        "category": "基础设施:公共设施:公共厕所",
        "type": 0,
        "location": {
            "lat": 43.909684,
            "lng": 81.324606
        },
        "ad_info": {
            "adcode": 654002,
            "province": "新疆维吾尔自治区",
            "city": "伊犁哈萨克自治州",
            "district": "伊宁市"
        }
    },
    {
        "id": "5590325363405206882",
        "title": "公共厕所",
        "address": "新疆维吾尔自治区伊犁哈萨克自治州奎屯市乌苏街与北京西路交叉口正西方向74米左右",
        "tel": "",
        "category": "基础设施:公共设施:公共厕所",
        "type": 0,
        "location": {
            "lat": 44.425724,
            "lng": 84.894535
        },
        "ad_info": {
            "adcode": 654003,
            "province": "新疆维吾尔自治区",
            "city": "伊犁哈萨克自治州",
            "district": "奎屯市"
        }
    },
    {
        "id": "1582942795858908907",
        "title": "公共厕所",
        "address": "新疆维吾尔自治区伊犁哈萨克自治州伊宁市新华东路与胜利南路交叉口正南方向105米左右",
        "tel": "",
        "category": "基础设施:公共设施:公共厕所",
        "type": 0,
        "location": {
            "lat": 43.911885,
            "lng": 81.332827
        },
        "ad_info": {
            "adcode": 654002,
            "province": "新疆维吾尔自治区",
            "city": "伊犁哈萨克自治州",
            "district": "伊宁市"
        }
    },
    {
        "id": "783241187911209799",
        "title": "公共厕所",
        "address": "新疆维吾尔自治区伊犁哈萨克自治州奎屯市北京东路与团结东街交叉口正北方向132米左右",
        "tel": "",
        "category": "基础设施:公共设施:公共厕所",
        "type": 0,
        "location": {
            "lat": 44.426109,
            "lng": 84.904799
        },
        "ad_info": {
            "adcode": 654003,
            "province": "新疆维吾尔自治区",
            "city": "伊犁哈萨克自治州",
            "district": "奎屯市"
        }
    },
    {
        "id": "1126208855640326525",
        "title": "公共厕所",
        "address": "新疆维吾尔自治区伊犁哈萨克自治州奎屯市北京西路与团结西街交叉口正北方向115米左右",
        "tel": "",
        "category": "基础设施:公共设施:公共厕所",
        "type": 0,
        "location": {
            "lat": 44.426249,
            "lng": 84.90154
        },
        "ad_info": {
            "adcode": 654003,
            "province": "新疆维吾尔自治区",
            "city": "伊犁哈萨克自治州",
            "district": "奎屯市"
        }
    },
    {
        "id": "11508608528215431907",
        "title": "公共厕所",
        "address": "新疆维吾尔自治区伊犁哈萨克自治州奎屯市乌鲁木齐东路伊犁汇泉丽都酒店",
        "tel": "",
        "category": "基础设施:公共设施:公共厕所",
        "type": 0,
        "location": {
            "lat": 44.429662,
            "lng": 84.908151
        },
        "ad_info": {
            "adcode": 654003,
            "province": "新疆维吾尔自治区",
            "city": "伊犁哈萨克自治州",
            "district": "奎屯市"
        }
    },
    {
        "id": "1531723218022113227",
        "title": "公共厕所",
        "address": "新疆维吾尔自治区伊犁哈萨克自治州伊宁市斯大林西路与飞机场路交叉口西南方向30米左右",
        "tel": "",
        "category": "基础设施:公共设施:公共厕所",
        "type": 0,
        "location": {
            "lat": 43.917517,
            "lng": 81.317166
        },
        "ad_info": {
            "adcode": 654002,
            "province": "新疆维吾尔自治区",
            "city": "伊犁哈萨克自治州",
            "district": "伊宁市"
        }
    },
    {
        "id": "16870406983289684581",
        "title": "公共厕所",
        "address": "新疆维吾尔自治区伊犁哈萨克自治州奎屯市塔城街与库尔勒西路交叉口正北方向85米左右",
        "tel": "",
        "category": "基础设施:公共设施:公共厕所",
        "type": 0,
        "location": {
            "lat": 44.42123,
            "lng": 84.887216
        },
        "ad_info": {
            "adcode": 654003,
            "province": "新疆维吾尔自治区",
            "city": "伊犁哈萨克自治州",
            "district": "奎屯市"
        }
    },
    {
        "id": "13340980779881905455",
        "title": "公共厕所",
        "address": "新疆维吾尔自治区伊犁哈萨克自治州霍尔果斯市欧亚新天地西侧50米",
        "tel": "",
        "category": "基础设施:公共设施:公共厕所",
        "type": 0,
        "location": {
            "lat": 44.206277,
            "lng": 80.413283
        },
        "ad_info": {
            "adcode": 654004,
            "province": "新疆维吾尔自治区",
            "city": "伊犁哈萨克自治州",
            "district": "霍尔果斯市"
        }
    },
    {
        "id": "18030104846401582832",
        "title": "公共厕所",
        "address": "新疆维吾尔自治区伊犁哈萨克自治州伊宁市前进街与新华东路交叉口西南方向79米左右",
        "tel": "",
        "category": "基础设施:公共设施:公共厕所",
        "type": 0,
        "location": {
            "lat": 43.911555,
            "lng": 81.334743
        },
        "ad_info": {
            "adcode": 654002,
            "province": "新疆维吾尔自治区",
            "city": "伊犁哈萨克自治州",
            "district": "伊宁市"
        }
    },
    {
        "id": "121276200294949362",
        "title": "公共厕所",
        "address": "新疆维吾尔自治区伊犁哈萨克自治州伊宁市宁远路与天山路一巷交叉口东420米",
        "tel": "",
        "category": "基础设施:公共设施:公共厕所",
        "type": 0,
        "location": {
            "lat": 43.9386,
            "lng": 81.33719
        },
        "ad_info": {
            "adcode": 654002,
            "province": "新疆维吾尔自治区",
            "city": "伊犁哈萨克自治州",
            "district": "伊宁市"
        }
    },
    {
        "id": "7705963781180473931",
        "title": "公共厕所",
        "address": "新疆维吾尔自治区伊犁哈萨克自治州伊宁市建材路与新疆路交叉口东北方向232米左右",
        "tel": "",
        "category": "基础设施:公共设施:公共厕所",
        "type": 0,
        "location": {
            "lat": 43.967336,
            "lng": 81.276225
        },
        "ad_info": {
            "adcode": 654002,
            "province": "新疆维吾尔自治区",
            "city": "伊犁哈萨克自治州",
            "district": "伊宁市"
        }
    },
    {
        "id": "11730451567951687821",
        "title": "公共厕所",
        "address": "新疆维吾尔自治区伊犁哈萨克自治州伊宁市十户街与西环路一巷交叉口西北方向18米左右",
        "tel": "",
        "category": "基础设施:公共设施:公共厕所",
        "type": 0,
        "location": {
            "lat": 43.93829,
            "lng": 81.296077
        },
        "ad_info": {
            "adcode": 654002,
            "province": "新疆维吾尔自治区",
            "city": "伊犁哈萨克自治州",
            "district": "伊宁市"
        }
    },
    {
        "id": "10046431536281339968",
        "title": "公共厕所",
        "address": "新疆维吾尔自治区伊犁哈萨克自治州霍尔果斯市G219与北郊路交叉口正东方向842米左右",
        "tel": "",
        "category": "基础设施:公共设施:公共厕所",
        "type": 0,
        "location": {
            "lat": 44.195974,
            "lng": 80.470699
        },
        "ad_info": {
            "adcode": 654004,
            "province": "新疆维吾尔自治区",
            "city": "伊犁哈萨克自治州",
            "district": "霍尔果斯市"
        }
    },
    {
        "id": "3190453242424761531",
        "title": "公共厕所",
        "address": "新疆维吾尔自治区伊犁哈萨克自治州奎屯市团结东街46号",
        "tel": "",
        "category": "基础设施:公共设施:公共厕所",
        "type": 0,
        "location": {
            "lat": 44.431998,
            "lng": 84.905601
        },
        "ad_info": {
            "adcode": 654003,
            "province": "新疆维吾尔自治区",
            "city": "伊犁哈萨克自治州",
            "district": "奎屯市"
        }
    },
    {
        "id": "13382254198281000561",
        "title": "公共厕所",
        "address": "新疆维吾尔自治区伊犁哈萨克自治州奎屯市喀什西路与塔城街交叉口正东方向183米左右",
        "tel": "",
        "category": "基础设施:公共设施:公共厕所",
        "type": 0,
        "location": {
            "lat": 44.412426,
            "lng": 84.888843
        },
        "ad_info": {
            "adcode": 654003,
            "province": "新疆维吾尔自治区",
            "city": "伊犁哈萨克自治州",
            "district": "奎屯市"
        }
    },
    {
        "id": "3115646824650072976",
        "title": "公共厕所",
        "address": "新疆维吾尔自治区伊犁哈萨克自治州奎屯市喀什东路33号",
        "tel": "",
        "category": "基础设施:公共设施:公共厕所",
        "type": 0,
        "location": {
            "lat": 44.411295,
            "lng": 84.915922
        },
        "ad_info": {
            "adcode": 654003,
            "province": "新疆维吾尔自治区",
            "city": "伊犁哈萨克自治州",
            "district": "奎屯市"
        }
    },
    {
        "id": "3755798773641045969",
        "title": "公共厕所",
        "address": "新疆维吾尔自治区伊犁哈萨克自治州伊宁市Y013(上海南路)",
        "tel": "",
        "category": "基础设施:公共设施:公共厕所",
        "type": 0,
        "location": {
            "lat": 43.926619,
            "lng": 81.259731
        },
        "ad_info": {
            "adcode": 654002,
            "province": "新疆维吾尔自治区",
            "city": "伊犁哈萨克自治州",
            "district": "伊宁市"
        }
    },
    {
        "id": "4648529947173193176",
        "title": "公共厕所",
        "address": "新疆维吾尔自治区伊犁哈萨克自治州奎屯市乌鲁木齐西路与博乐街交叉口西南方向70米左右",
        "tel": "",
        "category": "基础设施:公共设施:公共厕所",
        "type": 0,
        "location": {
            "lat": 44.429692,
            "lng": 84.892824
        },
        "ad_info": {
            "adcode": 654003,
            "province": "新疆维吾尔自治区",
            "city": "伊犁哈萨克自治州",
            "district": "奎屯市"
        }
    },
    {
        "id": "10067700981530246265",
        "title": "公共厕所",
        "address": "新疆维吾尔自治区伊犁哈萨克自治州奎屯市博乐街与库尔勒西路交叉口正北方向199米左右",
        "tel": "",
        "category": "基础设施:公共设施:公共厕所",
        "type": 0,
        "location": {
            "lat": 44.421958,
            "lng": 84.892366
        },
        "ad_info": {
            "adcode": 654003,
            "province": "新疆维吾尔自治区",
            "city": "伊犁哈萨克自治州",
            "district": "奎屯市"
        }
    },
    {
        "id": "3033588558848235952",
        "title": "公共厕所",
        "address": "新疆维吾尔自治区伊犁哈萨克自治州伊宁市红旗街与解放南路交叉口西北方向40米左右",
        "tel": "",
        "category": "基础设施:公共设施:公共厕所",
        "type": 0,
        "location": {
            "lat": 43.90993,
            "lng": 81.323566
        },
        "ad_info": {
            "adcode": 654002,
            "province": "新疆维吾尔自治区",
            "city": "伊犁哈萨克自治州",
            "district": "伊宁市"
        }
    },
    {
        "id": "15682332935348826102",
        "title": "公共厕所",
        "address": "新疆维吾尔自治区伊犁哈萨克自治州伊宁市军垦路与十户南街交叉口东北方向45米左右",
        "tel": "",
        "category": "基础设施:公共设施:公共厕所",
        "type": 0,
        "location": {
            "lat": 43.927308,
            "lng": 81.288593
        },
        "ad_info": {
            "adcode": 654002,
            "province": "新疆维吾尔自治区",
            "city": "伊犁哈萨克自治州",
            "district": "伊宁市"
        }
    },
    {
        "id": "6818937642948060604",
        "title": "公共厕所",
        "address": "新疆维吾尔自治区伊犁哈萨克自治州霍城县朝阳南路与海力亚街交叉口西南方向28米左右",
        "tel": "",
        "category": "基础设施:公共设施:公共厕所",
        "type": 0,
        "location": {
            "lat": 44.048398,
            "lng": 80.872744
        },
        "ad_info": {
            "adcode": 654023,
            "province": "新疆维吾尔自治区",
            "city": "伊犁哈萨克自治州",
            "district": "霍城县"
        }
    },
    {
        "id": "9777296881126320121",
        "title": "公共厕所",
        "address": "新疆维吾尔自治区伊犁哈萨克自治州伊宁县叶坎买里路与吉里于孜大街交叉口东北方向118米左右",
        "tel": "",
        "category": "基础设施:公共设施:公共厕所",
        "type": 0,
        "location": {
            "lat": 43.978024,
            "lng": 81.526937
        },
        "ad_info": {
            "adcode": 654021,
            "province": "新疆维吾尔自治区",
            "city": "伊犁哈萨克自治州",
            "district": "伊宁县"
        }
    },
    {
        "id": "17035922487099123433",
        "title": "公共厕所",
        "address": "新疆维吾尔自治区伊犁哈萨克自治州伊宁市北京北路与四川路交叉口东南方向243米左右",
        "tel": "",
        "category": "基础设施:公共设施:公共厕所",
        "type": 0,
        "location": {
            "lat": 43.931402,
            "lng": 81.278641
        },
        "ad_info": {
            "adcode": 654002,
            "province": "新疆维吾尔自治区",
            "city": "伊犁哈萨克自治州",
            "district": "伊宁市"
        }
    },
    {
        "id": "12739910950834444179",
        "title": "公共厕所",
        "address": "新疆维吾尔自治区伊犁哈萨克自治州伊宁市解放西路与解放西路六巷交叉口东北方向36米左右",
        "tel": "",
        "category": "基础设施:公共设施:公共厕所",
        "type": 0,
        "location": {
            "lat": 43.925294,
            "lng": 81.312623
        },
        "ad_info": {
            "adcode": 654002,
            "province": "新疆维吾尔自治区",
            "city": "伊犁哈萨克自治州",
            "district": "伊宁市"
        }
    },
    {
        "id": "9675554940313328523",
        "title": "公共厕所",
        "address": "新疆维吾尔自治区伊犁哈萨克自治州奎屯市北京西路与塔城街交叉口正东方向109米左右",
        "tel": "",
        "category": "基础设施:公共设施:公共厕所",
        "type": 0,
        "location": {
            "lat": 44.425711,
            "lng": 84.889432
        },
        "ad_info": {
            "adcode": 654003,
            "province": "新疆维吾尔自治区",
            "city": "伊犁哈萨克自治州",
            "district": "奎屯市"
        }
    },
    {
        "id": "17371821559554553947",
        "title": "公共厕所",
        "address": "新疆维吾尔自治区伊犁哈萨克自治州伊宁市友谊路与斯大林西路六巷交叉口正南方向117米左右",
        "tel": "",
        "category": "基础设施:公共设施:公共厕所",
        "type": 0,
        "location": {
            "lat": 43.920078,
            "lng": 81.308445
        },
        "ad_info": {
            "adcode": 654002,
            "province": "新疆维吾尔自治区",
            "city": "伊犁哈萨克自治州",
            "district": "伊宁市"
        }
    },
    {
        "id": "17926783534221497657",
        "title": "公共厕所",
        "address": "新疆维吾尔自治区伊犁哈萨克自治州伊宁市斯大林西路一巷与斯大林西路二巷交叉口东北方向38米左右",
        "tel": "",
        "category": "基础设施:公共设施:公共厕所",
        "type": 0,
        "location": {
            "lat": 43.9217,
            "lng": 81.315372
        },
        "ad_info": {
            "adcode": 654002,
            "province": "新疆维吾尔自治区",
            "city": "伊犁哈萨克自治州",
            "district": "伊宁市"
        }
    },
    {
        "id": "12755141369023926014",
        "title": "公共厕所",
        "address": "新疆维吾尔自治区伊犁哈萨克自治州伊宁市解放西路与解放西路十三巷交叉口东北方向26米左右",
        "tel": "",
        "category": "基础设施:公共设施:公共厕所",
        "type": 0,
        "location": {
            "lat": 43.935576,
            "lng": 81.301303
        },
        "ad_info": {
            "adcode": 654002,
            "province": "新疆维吾尔自治区",
            "city": "伊犁哈萨克自治州",
            "district": "伊宁市"
        }
    },
    {
        "id": "13615433293497188066",
        "title": "公共厕所",
        "address": "新疆维吾尔自治区伊犁哈萨克自治州伊宁市北京北路与解放西路交叉口正南方向201米左右",
        "tel": "",
        "category": "基础设施:公共设施:公共厕所",
        "type": 0,
        "location": {
            "lat": 43.942322,
            "lng": 81.288678
        },
        "ad_info": {
            "adcode": 654002,
            "province": "新疆维吾尔自治区",
            "city": "伊犁哈萨克自治州",
            "district": "伊宁市"
        }
    },
    {
        "id": "3015641423278748578",
        "title": "公共厕所",
        "address": "新疆维吾尔自治区伊犁哈萨克自治州昭苏县乌孙路与解放街交叉口正北方向140米左右",
        "tel": "",
        "category": "基础设施:公共设施:公共厕所",
        "type": 0,
        "location": {
            "lat": 43.158342,
            "lng": 81.12886
        },
        "ad_info": {
            "adcode": 654026,
            "province": "新疆维吾尔自治区",
            "city": "伊犁哈萨克自治州",
            "district": "昭苏县"
        }
    },
    {
        "id": "8879199609391153477",
        "title": "公共厕所",
        "address": "新疆维吾尔自治区伊犁哈萨克自治州伊宁市解放西路与飞机场路交叉口东北方向72米左右",
        "tel": "",
        "category": "基础设施:公共设施:公共厕所",
        "type": 0,
        "location": {
            "lat": 43.922203,
            "lng": 81.321592
        },
        "ad_info": {
            "adcode": 654002,
            "province": "新疆维吾尔自治区",
            "city": "伊犁哈萨克自治州",
            "district": "伊宁市"
        }
    },
    {
        "id": "5008302463874534584",
        "title": "公共厕所",
        "address": "新疆维吾尔自治区伊犁哈萨克自治州伊宁市北京北路与安徽路交叉口西北方向133米左右",
        "tel": "",
        "category": "基础设施:公共设施:公共厕所",
        "type": 0,
        "location": {
            "lat": 43.936397,
            "lng": 81.27819
        },
        "ad_info": {
            "adcode": 654002,
            "province": "新疆维吾尔自治区",
            "city": "伊犁哈萨克自治州",
            "district": "伊宁市"
        }
    },
    {
        "id": "13002501796413640041",
        "title": "公共厕所",
        "address": "新疆维吾尔自治区伊犁哈萨克自治州昭苏县天山路与解放街交叉口东北方向227米左右",
        "tel": "",
        "category": "基础设施:公共设施:公共厕所",
        "type": 0,
        "location": {
            "lat": 43.159032,
            "lng": 81.124209
        },
        "ad_info": {
            "adcode": 654026,
            "province": "新疆维吾尔自治区",
            "city": "伊犁哈萨克自治州",
            "district": "昭苏县"
        }
    },
    {
        "id": "10216015694915406032",
        "title": "公共厕所",
        "address": "新疆维吾尔自治区伊犁哈萨克自治州伊宁市新华西路与青年街交叉口东南方向59米左右",
        "tel": "",
        "category": "基础设施:公共设施:公共厕所",
        "type": 0,
        "location": {
            "lat": 43.912287,
            "lng": 81.31952
        },
        "ad_info": {
            "adcode": 654002,
            "province": "新疆维吾尔自治区",
            "city": "伊犁哈萨克自治州",
            "district": "伊宁市"
        }
    },
    {
        "id": "10987919769594835595",
        "title": "公共厕所",
        "address": "新疆维吾尔自治区伊犁哈萨克自治州奎屯市乌鲁木齐东路与昌吉街交叉口西北方向23米左右",
        "tel": "",
        "category": "基础设施:公共设施:公共厕所",
        "type": 0,
        "location": {
            "lat": 44.427549,
            "lng": 84.938458
        },
        "ad_info": {
            "adcode": 654003,
            "province": "新疆维吾尔自治区",
            "city": "伊犁哈萨克自治州",
            "district": "奎屯市"
        }
    },
    {
        "id": "17168615479914840837",
        "title": "公共厕所",
        "address": "新疆维吾尔自治区伊犁哈萨克自治州奎屯市乌鲁木齐西路红旗商场",
        "tel": "",
        "category": "基础设施:公共设施:公共厕所",
        "type": 0,
        "location": {
            "lat": 44.429273,
            "lng": 84.903074
        },
        "ad_info": {
            "adcode": 654003,
            "province": "新疆维吾尔自治区",
            "city": "伊犁哈萨克自治州",
            "district": "奎屯市"
        }
    },
    {
        "id": "5684160614578844507",
        "title": "公共厕所",
        "address": "新疆维吾尔自治区伊犁哈萨克自治州伊宁市利群路伊宁市第二十三小学",
        "tel": "",
        "category": "基础设施:公共设施:公共厕所",
        "type": 0,
        "location": {
            "lat": 43.931042,
            "lng": 81.297029
        },
        "ad_info": {
            "adcode": 654002,
            "province": "新疆维吾尔自治区",
            "city": "伊犁哈萨克自治州",
            "district": "伊宁市"
        }
    },
    {
        "id": "2740773431929277236",
        "title": "公共厕所",
        "address": "新疆维吾尔自治区伊犁哈萨克自治州伊宁市宁远路与西环北路交叉口正东方向94米左右",
        "tel": "",
        "category": "基础设施:公共设施:公共厕所",
        "type": 0,
        "location": {
            "lat": 43.947414,
            "lng": 81.2958
        },
        "ad_info": {
            "adcode": 654002,
            "province": "新疆维吾尔自治区",
            "city": "伊犁哈萨克自治州",
            "district": "伊宁市"
        }
    },
    {
        "id": "91056574264089315",
        "title": "公共厕所",
        "address": "新疆维吾尔自治区伊犁哈萨克自治州伊宁市解放西路七巷与解放西路后七巷交叉口西北方向117米左右",
        "tel": "",
        "category": "基础设施:公共设施:公共厕所",
        "type": 0,
        "location": {
            "lat": 43.928473,
            "lng": 81.311528
        },
        "ad_info": {
            "adcode": 654002,
            "province": "新疆维吾尔自治区",
            "city": "伊犁哈萨克自治州",
            "district": "伊宁市"
        }
    },
    {
        "id": "5563143590618748675",
        "title": "公共厕所",
        "address": "新疆维吾尔自治区伊犁哈萨克自治州尼勒克县S315与风情路交叉口正西方向543米左右",
        "tel": "",
        "category": "基础设施:公共设施:公共厕所",
        "type": 0,
        "location": {
            "lat": 43.730489,
            "lng": 83.462795
        },
        "ad_info": {
            "adcode": 654028,
            "province": "新疆维吾尔自治区",
            "city": "伊犁哈萨克自治州",
            "district": "尼勒克县"
        }
    },
    {
        "id": "2487182652695556197",
        "title": "公共厕所",
        "address": "新疆维吾尔自治区伊犁哈萨克自治州伊宁市福州路与解放西路交叉口西南方向101米左右",
        "tel": "",
        "category": "基础设施:公共设施:公共厕所",
        "type": 0,
        "location": {
            "lat": 43.944994,
            "lng": 81.284099
        },
        "ad_info": {
            "adcode": 654002,
            "province": "新疆维吾尔自治区",
            "city": "伊犁哈萨克自治州",
            "district": "伊宁市"
        }
    },
    {
        "id": "6254134837221291827",
        "title": "公共厕所",
        "address": "新疆维吾尔自治区伊犁哈萨克自治州伊宁市阿合买提江路与阿合买提江路四巷交叉口东北方向82米左右",
        "tel": "",
        "category": "基础设施:公共设施:公共厕所",
        "type": 0,
        "location": {
            "lat": 43.923046,
            "lng": 81.307738
        },
        "ad_info": {
            "adcode": 654002,
            "province": "新疆维吾尔自治区",
            "city": "伊犁哈萨克自治州",
            "district": "伊宁市"
        }
    },
    {
        "id": "3421698975747565085",
        "title": "公共厕所",
        "address": "新疆维吾尔自治区伊犁哈萨克自治州伊宁市天马路与解放西路交叉口东北方向76米左右",
        "tel": "",
        "category": "基础设施:公共设施:公共厕所",
        "type": 0,
        "location": {
            "lat": 43.937965,
            "lng": 81.298505
        },
        "ad_info": {
            "adcode": 654002,
            "province": "新疆维吾尔自治区",
            "city": "伊犁哈萨克自治州",
            "district": "伊宁市"
        }
    },
    {
        "id": "11598981529559857262",
        "title": "公共厕所",
        "address": "新疆维吾尔自治区伊犁哈萨克自治州伊宁市公园街与军垦路交叉口正北方向26米左右",
        "tel": "",
        "category": "基础设施:公共设施:公共厕所",
        "type": 0,
        "location": {
            "lat": 43.927606,
            "lng": 81.302222
        },
        "ad_info": {
            "adcode": 654002,
            "province": "新疆维吾尔自治区",
            "city": "伊犁哈萨克自治州",
            "district": "伊宁市"
        }
    },
    {
        "id": "15586988291518810119",
        "title": "公共厕所",
        "address": "新疆维吾尔自治区伊犁哈萨克自治州伊宁市S314中国石油加油站(伊潘公路)",
        "tel": "",
        "category": "基础设施:公共设施:公共厕所",
        "type": 0,
        "location": {
            "lat": 43.937205,
            "lng": 81.344125
        },
        "ad_info": {
            "adcode": 654002,
            "province": "新疆维吾尔自治区",
            "city": "伊犁哈萨克自治州",
            "district": "伊宁市"
        }
    },
    {
        "id": "14434481230211346446",
        "title": "公共厕所",
        "address": "新疆维吾尔自治区伊犁哈萨克自治州伊宁市江苏路与解放西路一巷交叉口正西方向69米左右",
        "tel": "",
        "category": "基础设施:公共设施:公共厕所",
        "type": 0,
        "location": {
            "lat": 43.929626,
            "lng": 81.318789
        },
        "ad_info": {
            "adcode": 654002,
            "province": "新疆维吾尔自治区",
            "city": "伊犁哈萨克自治州",
            "district": "伊宁市"
        }
    },
    {
        "id": "9856692980362443701",
        "title": "公共厕所",
        "address": "新疆维吾尔自治区伊犁哈萨克自治州伊宁市飞机场路与飞机场路五巷交叉口正西方向31米左右",
        "tel": "",
        "category": "基础设施:公共设施:公共厕所",
        "type": 0,
        "location": {
            "lat": 43.937856,
            "lng": 81.323875
        },
        "ad_info": {
            "adcode": 654002,
            "province": "新疆维吾尔自治区",
            "city": "伊犁哈萨克自治州",
            "district": "伊宁市"
        }
    },
    {
        "id": "15290245836360747470",
        "title": "公共厕所",
        "address": "新疆维吾尔自治区伊犁哈萨克自治州伊宁市利群路十三巷与十户南街六巷交叉口正南方向138米左右",
        "tel": "",
        "category": "基础设施:公共设施:公共厕所",
        "type": 0,
        "location": {
            "lat": 43.926637,
            "lng": 81.290081
        },
        "ad_info": {
            "adcode": 654002,
            "province": "新疆维吾尔自治区",
            "city": "伊犁哈萨克自治州",
            "district": "伊宁市"
        }
    },
    {
        "id": "8444359464986284206",
        "title": "公共厕所",
        "address": "新疆维吾尔自治区伊犁哈萨克自治州尼勒克县S315与则库路交叉口正东方向54米左右",
        "tel": "",
        "category": "基础设施:公共设施:公共厕所",
        "type": 0,
        "location": {
            "lat": 43.766391,
            "lng": 83.258694
        },
        "ad_info": {
            "adcode": 654028,
            "province": "新疆维吾尔自治区",
            "city": "伊犁哈萨克自治州",
            "district": "尼勒克县"
        }
    },
    {
        "id": "5793715330161920444",
        "title": "公共厕所",
        "address": "新疆维吾尔自治区伊犁哈萨克自治州霍城县北京西路聚星大厦",
        "tel": "",
        "category": "基础设施:公共设施:公共厕所",
        "type": 0,
        "location": {
            "lat": 44.190069,
            "lng": 80.741671
        },
        "ad_info": {
            "adcode": 654023,
            "province": "新疆维吾尔自治区",
            "city": "伊犁哈萨克自治州",
            "district": "霍城县"
        }
    },
    {
        "id": "7281489836409027028",
        "title": "公共厕所",
        "address": "新疆维吾尔自治区伊犁哈萨克自治州伊宁市天马路与解放西路十三巷交叉口西南方向104米左右",
        "tel": "",
        "category": "基础设施:公共设施:公共厕所",
        "type": 0,
        "location": {
            "lat": 43.938645,
            "lng": 81.300432
        },
        "ad_info": {
            "adcode": 654002,
            "province": "新疆维吾尔自治区",
            "city": "伊犁哈萨克自治州",
            "district": "伊宁市"
        }
    },
    {
        "id": "13417445866395838193",
        "title": "公共厕所",
        "address": "新疆维吾尔自治区伊犁哈萨克自治州伊宁市伊犁河路162号",
        "tel": "",
        "category": "基础设施:公共设施:公共厕所",
        "type": 0,
        "location": {
            "lat": 43.906257,
            "lng": 81.313307
        },
        "ad_info": {
            "adcode": 654002,
            "province": "新疆维吾尔自治区",
            "city": "伊犁哈萨克自治州",
            "district": "伊宁市"
        }
    },
    {
        "id": "7032868853167527630",
        "title": "公共厕所",
        "address": "新疆维吾尔自治区伊犁哈萨克自治州伊宁市昆仑路与飞机场路交叉口西南方向70米左右",
        "tel": "",
        "category": "基础设施:公共设施:公共厕所",
        "type": 0,
        "location": {
            "lat": 43.933953,
            "lng": 81.322653
        },
        "ad_info": {
            "adcode": 654002,
            "province": "新疆维吾尔自治区",
            "city": "伊犁哈萨克自治州",
            "district": "伊宁市"
        }
    },
    {
        "id": "16879866640057881135",
        "title": "公共厕所",
        "address": "新疆维吾尔自治区伊犁哈萨克自治州伊宁市英阿亚堤路一巷与英阿亚提路交叉口西南方向102米左右",
        "tel": "",
        "category": "基础设施:公共设施:公共厕所",
        "type": 0,
        "location": {
            "lat": 43.919389,
            "lng": 81.339989
        },
        "ad_info": {
            "adcode": 654002,
            "province": "新疆维吾尔自治区",
            "city": "伊犁哈萨克自治州",
            "district": "伊宁市"
        }
    },
    {
        "id": "8721270573851790613",
        "title": "免费公共厕所",
        "address": "新疆维吾尔自治区伊犁哈萨克自治州伊宁市一桥路与伊犁河路交叉口西南方向73米左右",
        "tel": "",
        "category": "基础设施:公共设施:公共厕所",
        "type": 0,
        "location": {
            "lat": 43.888442,
            "lng": 81.302756
        },
        "ad_info": {
            "adcode": 654002,
            "province": "新疆维吾尔自治区",
            "city": "伊犁哈萨克自治州",
            "district": "伊宁市"
        }
    },
    {
        "id": "6029443746426172897",
        "title": "公共厕所",
        "address": "新疆维吾尔自治区伊犁哈萨克自治州伊宁市吉林路与福州路交叉口正东方向84米左右",
        "tel": "",
        "category": "基础设施:公共设施:公共厕所",
        "type": 0,
        "location": {
            "lat": 43.942803,
            "lng": 81.283169
        },
        "ad_info": {
            "adcode": 654002,
            "province": "新疆维吾尔自治区",
            "city": "伊犁哈萨克自治州",
            "district": "伊宁市"
        }
    },
    {
        "id": "14241674250637945119",
        "title": "公共厕所",
        "address": "新疆维吾尔自治区伊犁哈萨克自治州伊宁市胜利北路与胜利北路十一巷交叉口正北方向40米左右",
        "tel": "",
        "category": "基础设施:公共设施:公共厕所",
        "type": 0,
        "location": {
            "lat": 43.924652,
            "lng": 81.332629
        },
        "ad_info": {
            "adcode": 654002,
            "province": "新疆维吾尔自治区",
            "city": "伊犁哈萨克自治州",
            "district": "伊宁市"
        }
    },
    {
        "id": "2852888855147631661",
        "title": "公共厕所",
        "address": "新疆维吾尔自治区伊犁哈萨克自治州伊宁市天山路与胜利北路交叉口西南方向98米左右",
        "tel": "",
        "category": "基础设施:公共设施:公共厕所",
        "type": 0,
        "location": {
            "lat": 43.926258,
            "lng": 81.334763
        },
        "ad_info": {
            "adcode": 654002,
            "province": "新疆维吾尔自治区",
            "city": "伊犁哈萨克自治州",
            "district": "伊宁市"
        }
    },
    {
        "id": "3524818309881248179",
        "title": "无障碍公共厕所",
        "address": "新疆维吾尔自治区伊犁哈萨克自治州奎屯市乌苏街与喀什西路交叉口正北方向157米左右",
        "tel": "",
        "category": "基础设施:公共设施:公共厕所",
        "type": 0,
        "location": {
            "lat": 44.413224,
            "lng": 84.896511
        },
        "ad_info": {
            "adcode": 654003,
            "province": "新疆维吾尔自治区",
            "city": "伊犁哈萨克自治州",
            "district": "奎屯市"
        }
    },
    {
        "id": "11368428882561138908",
        "title": "公共厕所",
        "address": "新疆维吾尔自治区伊犁哈萨克自治州昭苏县林场",
        "tel": "",
        "category": "基础设施:公共设施:公共厕所",
        "type": 0,
        "location": {
            "lat": 42.92103,
            "lng": 80.911443
        },
        "ad_info": {
            "adcode": 654026,
            "province": "新疆维吾尔自治区",
            "city": "伊犁哈萨克自治州",
            "district": "昭苏县"
        }
    },
    {
        "id": "9478578266947929376",
        "title": "公共厕所",
        "address": "新疆维吾尔自治区伊犁哈萨克自治州伊宁市解放西路OYO喜客宾馆(解放西路店)",
        "tel": "",
        "category": "基础设施:公共设施:公共厕所",
        "type": 0,
        "location": {
            "lat": 43.939364,
            "lng": 81.294895
        },
        "ad_info": {
            "adcode": 654002,
            "province": "新疆维吾尔自治区",
            "city": "伊犁哈萨克自治州",
            "district": "伊宁市"
        }
    },
    {
        "id": "13426396484947832736",
        "title": "公共厕所",
        "address": "新疆维吾尔自治区伊犁哈萨克自治州伊宁市仁和休闲步行街与西环路交叉口西北方向150米",
        "tel": "",
        "category": "基础设施:公共设施:公共厕所",
        "type": 0,
        "location": {
            "lat": 43.939567,
            "lng": 81.288204
        },
        "ad_info": {
            "adcode": 654002,
            "province": "新疆维吾尔自治区",
            "city": "伊犁哈萨克自治州",
            "district": "伊宁市"
        }
    },
    {
        "id": "2780798314604768374",
        "title": "公共厕所",
        "address": "新疆维吾尔自治区伊犁哈萨克自治州伊宁县S220中国石化加油站(英塔木乡中学西)",
        "tel": "",
        "category": "基础设施:公共设施:公共厕所",
        "type": 0,
        "location": {
            "lat": 43.74167,
            "lng": 81.695506
        },
        "ad_info": {
            "adcode": 654021,
            "province": "新疆维吾尔自治区",
            "city": "伊犁哈萨克自治州",
            "district": "伊宁县"
        }
    },
    {
        "id": "12200418891970369398",
        "title": "公共厕所",
        "address": "新疆维吾尔自治区伊犁哈萨克自治州特克斯县巽街与阿扎提街二环路交叉口西北方向180米左右",
        "tel": "",
        "category": "基础设施:公共设施:公共厕所",
        "type": 0,
        "location": {
            "lat": 43.213484,
            "lng": 81.842305
        },
        "ad_info": {
            "adcode": 654027,
            "province": "新疆维吾尔自治区",
            "city": "伊犁哈萨克自治州",
            "district": "特克斯县"
        }
    },
    {
        "id": "3443206889171732257",
        "title": "公共厕所",
        "address": "新疆维吾尔自治区伊犁哈萨克自治州伊宁市伊犁河路与喀瓒其街交叉口西北方向36米左右",
        "tel": "",
        "category": "基础设施:公共设施:公共厕所",
        "type": 0,
        "location": {
            "lat": 43.900945,
            "lng": 81.313106
        },
        "ad_info": {
            "adcode": 654002,
            "province": "新疆维吾尔自治区",
            "city": "伊犁哈萨克自治州",
            "district": "伊宁市"
        }
    },
    {
        "id": "18297721587241300481",
        "title": "公共厕所",
        "address": "新疆维吾尔自治区伊犁哈萨克自治州新源县幸福路与建设街交叉口正南方向70米左右",
        "tel": "",
        "category": "基础设施:公共设施:公共厕所",
        "type": 0,
        "location": {
            "lat": 43.427489,
            "lng": 83.263189
        },
        "ad_info": {
            "adcode": 654025,
            "province": "新疆维吾尔自治区",
            "city": "伊犁哈萨克自治州",
            "district": "新源县"
        }
    },
    {
        "id": "4938436026334398516",
        "title": "公共厕所",
        "address": "新疆维吾尔自治区伊犁哈萨克自治州伊宁市江苏路与解放西路七巷交叉口东北方向32米左右",
        "tel": "",
        "category": "基础设施:公共设施:公共厕所",
        "type": 0,
        "location": {
            "lat": 43.931475,
            "lng": 81.315115
        },
        "ad_info": {
            "adcode": 654002,
            "province": "新疆维吾尔自治区",
            "city": "伊犁哈萨克自治州",
            "district": "伊宁市"
        }
    },
    {
        "id": "612087790599916455",
        "title": "公共厕所",
        "address": "新疆维吾尔自治区伊犁哈萨克自治州霍城县上海北路与上海南路交叉口东南方向65米左右",
        "tel": "",
        "category": "基础设施:公共设施:公共厕所",
        "type": 0,
        "location": {
            "lat": 44.189202,
            "lng": 80.742629
        },
        "ad_info": {
            "adcode": 654023,
            "province": "新疆维吾尔自治区",
            "city": "伊犁哈萨克自治州",
            "district": "霍城县"
        }
    },
    {
        "id": "7812349800435418622",
        "title": "公共厕所",
        "address": "新疆维吾尔自治区伊犁哈萨克自治州巩留县乔勒盘路与幸福路交叉口正北方向133米左右",
        "tel": "",
        "category": "基础设施:公共设施:公共厕所",
        "type": 0,
        "location": {
            "lat": 43.479422,
            "lng": 82.228916
        },
        "ad_info": {
            "adcode": 654024,
            "province": "新疆维吾尔自治区",
            "city": "伊犁哈萨克自治州",
            "district": "巩留县"
        }
    },
    {
        "id": "17715530917715572821",
        "title": "公共厕所",
        "address": "新疆维吾尔自治区伊犁哈萨克自治州伊宁县G578与X715交叉口正南方向103米左右",
        "tel": "",
        "category": "基础设施:公共设施:公共厕所",
        "type": 0,
        "location": {
            "lat": 43.639302,
            "lng": 81.771751
        },
        "ad_info": {
            "adcode": 654021,
            "province": "新疆维吾尔自治区",
            "city": "伊犁哈萨克自治州",
            "district": "伊宁县"
        }
    },
    {
        "id": "15896815341967505412",
        "title": "公共厕所",
        "address": "新疆维吾尔自治区伊犁哈萨克自治州霍城县G30连霍高速与果子沟口服务区交叉口西南140米",
        "tel": "",
        "category": "基础设施:公共设施:公共厕所",
        "type": 0,
        "location": {
            "lat": 44.328808,
            "lng": 80.953551
        },
        "ad_info": {
            "adcode": 654023,
            "province": "新疆维吾尔自治区",
            "city": "伊犁哈萨克自治州",
            "district": "霍城县"
        }
    },
    {
        "id": "10004644100593272812",
        "title": "公共厕所",
        "address": "新疆维吾尔自治区伊犁哈萨克自治州巩留县G577与G578交叉口东南方向38米左右",
        "tel": "",
        "category": "基础设施:公共设施:公共厕所",
        "type": 0,
        "location": {
            "lat": 43.57716,
            "lng": 81.913107
        },
        "ad_info": {
            "adcode": 654024,
            "province": "新疆维吾尔自治区",
            "city": "伊犁哈萨克自治州",
            "district": "巩留县"
        }
    },
    {
        "id": "6202238351452424875",
        "title": "公共厕所",
        "address": "新疆维吾尔自治区伊犁哈萨克自治州伊宁县五道桥路与吉里于孜大街交叉口西北方向46米左右",
        "tel": "",
        "category": "基础设施:公共设施:公共厕所",
        "type": 0,
        "location": {
            "lat": 43.977805,
            "lng": 81.522409
        },
        "ad_info": {
            "adcode": 654021,
            "province": "新疆维吾尔自治区",
            "city": "伊犁哈萨克自治州",
            "district": "伊宁县"
        }
    },
    {
        "id": "17292037739931521051",
        "title": "公共厕所",
        "address": "新疆维吾尔自治区伊犁哈萨克自治州昭苏县G219与军唐路交叉口西南方向152米左右",
        "tel": "",
        "category": "基础设施:公共设施:公共厕所",
        "type": 0,
        "location": {
            "lat": 43.152779,
            "lng": 81.105264
        },
        "ad_info": {
            "adcode": 654026,
            "province": "新疆维吾尔自治区",
            "city": "伊犁哈萨克自治州",
            "district": "昭苏县"
        }
    },
    {
        "id": "16433279377965941001",
        "title": "公共厕所",
        "address": "新疆维吾尔自治区伊犁哈萨克自治州伊宁县G578与巴依托海大街交叉口东北方向108米左右",
        "tel": "",
        "category": "基础设施:公共设施:公共厕所",
        "type": 0,
        "location": {
            "lat": 43.671498,
            "lng": 81.788121
        },
        "ad_info": {
            "adcode": 654021,
            "province": "新疆维吾尔自治区",
            "city": "伊犁哈萨克自治州",
            "district": "伊宁县"
        }
    },
    {
        "id": "1323435950970485255",
        "title": "无障碍公共厕所",
        "address": "新疆维吾尔自治区伊犁哈萨克自治州伊宁市北京南路与民丰街交叉口正北方向67米左右",
        "tel": "",
        "category": "基础设施:公共设施:公共厕所",
        "type": 0,
        "location": {
            "lat": 43.920797,
            "lng": 81.263099
        },
        "ad_info": {
            "adcode": 654002,
            "province": "新疆维吾尔自治区",
            "city": "伊犁哈萨克自治州",
            "district": "伊宁市"
        }
    },
    {
        "id": "5422985625850456550",
        "title": "无障碍公共厕所",
        "address": "新疆维吾尔自治区伊犁哈萨克自治州奎屯市乌鲁木齐西路与额敏街交叉口正西方向163米左右",
        "tel": "",
        "category": "基础设施:公共设施:公共厕所",
        "type": 0,
        "location": {
            "lat": 44.430686,
            "lng": 84.880258
        },
        "ad_info": {
            "adcode": 654003,
            "province": "新疆维吾尔自治区",
            "city": "伊犁哈萨克自治州",
            "district": "奎屯市"
        }
    },
    {
        "id": "17311801861029145349",
        "title": "公共厕所",
        "address": "新疆维吾尔自治区伊犁哈萨克自治州新源县幸福路与建设街交叉口正北方向102米左右",
        "tel": "",
        "category": "基础设施:公共设施:公共厕所",
        "type": 0,
        "location": {
            "lat": 43.428986,
            "lng": 83.263171
        },
        "ad_info": {
            "adcode": 654025,
            "province": "新疆维吾尔自治区",
            "city": "伊犁哈萨克自治州",
            "district": "新源县"
        }
    },
    {
        "id": "5574591108142075548",
        "title": "公共厕所",
        "address": "新疆维吾尔自治区伊犁哈萨克自治州特克斯县阿扎提街二环路与阿热勒街三环路一巷交叉口西北方向327米左右",
        "tel": "",
        "category": "基础设施:公共设施:公共厕所",
        "type": 0,
        "location": {
            "lat": 43.215407,
            "lng": 81.841389
        },
        "ad_info": {
            "adcode": 654027,
            "province": "新疆维吾尔自治区",
            "city": "伊犁哈萨克自治州",
            "district": "特克斯县"
        }
    },
    {
        "id": "1852526106896358716",
        "title": "免费公共厕所",
        "address": "新疆维吾尔自治区伊犁哈萨克自治州伊宁市北京南路金茂·世界城",
        "tel": "",
        "category": "基础设施:公共设施:公共厕所",
        "type": 0,
        "location": {
            "lat": 43.92689,
            "lng": 81.270268
        },
        "ad_info": {
            "adcode": 654002,
            "province": "新疆维吾尔自治区",
            "city": "伊犁哈萨克自治州",
            "district": "伊宁市"
        }
    },
    {
        "id": "8084841950456453041",
        "title": "奎屯服务区公共厕所",
        "address": "新疆维吾尔自治区伊犁哈萨克自治州奎屯市恒运大道与瑞安南路交叉口正北方向724米左右",
        "tel": "",
        "category": "基础设施:公共设施:公共厕所",
        "type": 0,
        "location": {
            "lat": 44.363598,
            "lng": 85.117353
        },
        "ad_info": {
            "adcode": 654003,
            "province": "新疆维吾尔自治区",
            "city": "伊犁哈萨克自治州",
            "district": "奎屯市"
        }
    },
    {
        "id": "11373755422132286123",
        "title": "公共厕所",
        "address": "新疆维吾尔自治区伊犁哈萨克自治州新源县塔亚苏村G218",
        "tel": "",
        "category": "基础设施:公共设施:公共厕所",
        "type": 0,
        "location": {
            "lat": 43.349655,
            "lng": 83.934624
        },
        "ad_info": {
            "adcode": 654025,
            "province": "新疆维吾尔自治区",
            "city": "伊犁哈萨克自治州",
            "district": "新源县"
        }
    },
    {
        "id": "4821957794433289648",
        "title": "公共厕所",
        "address": "新疆维吾尔自治区伊犁哈萨克自治州新源县G578与发展街交叉口正东方向1018米左右",
        "tel": "",
        "category": "基础设施:公共设施:公共厕所",
        "type": 0,
        "location": {
            "lat": 43.423143,
            "lng": 83.086747
        },
        "ad_info": {
            "adcode": 654025,
            "province": "新疆维吾尔自治区",
            "city": "伊犁哈萨克自治州",
            "district": "新源县"
        }
    },
    {
        "id": "16364254282200838875",
        "title": "人民公园公共厕所",
        "address": "新疆维吾尔自治区伊犁哈萨克自治州伊宁市阿合买提江路177号人民公园旁",
        "tel": "",
        "category": "基础设施:公共设施:公共厕所",
        "type": 0,
        "location": {
            "lat": 43.919729,
            "lng": 81.306245
        },
        "ad_info": {
            "adcode": 654002,
            "province": "新疆维吾尔自治区",
            "city": "伊犁哈萨克自治州",
            "district": "伊宁市"
        }
    },
    {
        "id": "5985283597115379998",
        "title": "公共厕所",
        "address": "新疆维吾尔自治区伊犁哈萨克自治州巩留县G578与X737交叉口西北方向124米左右",
        "tel": "",
        "category": "基础设施:公共设施:公共厕所",
        "type": 0,
        "location": {
            "lat": 43.429516,
            "lng": 82.462464
        },
        "ad_info": {
            "adcode": 654024,
            "province": "新疆维吾尔自治区",
            "city": "伊犁哈萨克自治州",
            "district": "巩留县"
        }
    },
    {
        "id": "3290856743454711026",
        "title": "公共厕所",
        "address": "新疆维吾尔自治区伊犁哈萨克自治州新源县恰普河路与青年街交叉口正南方向218米左右",
        "tel": "",
        "category": "基础设施:公共设施:公共厕所",
        "type": 0,
        "location": {
            "lat": 43.431634,
            "lng": 83.257536
        },
        "ad_info": {
            "adcode": 654025,
            "province": "新疆维吾尔自治区",
            "city": "伊犁哈萨克自治州",
            "district": "新源县"
        }
    },
    {
        "id": "14749624552376557802",
        "title": "公共厕所",
        "address": "新疆维吾尔自治区伊犁哈萨克自治州新源县G578与恰普河大桥交叉口西南方向870米左右",
        "tel": "",
        "category": "基础设施:公共设施:公共厕所",
        "type": 0,
        "location": {
            "lat": 43.410024,
            "lng": 83.238459
        },
        "ad_info": {
            "adcode": 654025,
            "province": "新疆维吾尔自治区",
            "city": "伊犁哈萨克自治州",
            "district": "新源县"
        }
    },
    {
        "id": "2831736525102602891",
        "title": "伊犁庆华国际大酒店(伊宁)-洗手间",
        "address": "新疆维吾尔自治区伊犁哈萨克自治州伊宁县弓月城路与阿克乌增路交叉口西北方向643米左右",
        "tel": "",
        "category": "基础设施:公共设施:公共厕所",
        "type": 0,
        "location": {
            "lat": 44.000671,
            "lng": 81.517083
        },
        "ad_info": {
            "adcode": 654021,
            "province": "新疆维吾尔自治区",
            "city": "伊犁哈萨克自治州",
            "district": "伊宁县"
        }
    },
    {
        "id": "17623939524321110781",
        "title": "公共厕所",
        "address": "新疆维吾尔自治区伊犁哈萨克自治州特克斯县阿热勒街三环路与霍斯库勒街三环路交叉口正北方向43米左右",
        "tel": "",
        "category": "基础设施:公共设施:公共厕所",
        "type": 0,
        "location": {
            "lat": 43.216661,
            "lng": 81.849726
        },
        "ad_info": {
            "adcode": 654027,
            "province": "新疆维吾尔自治区",
            "city": "伊犁哈萨克自治州",
            "district": "特克斯县"
        }
    },
    {
        "id": "14183032455265233728",
        "title": "伊利那拉提空中草原度假酒店-洗手间",
        "address": "新疆维吾尔自治区伊犁哈萨克自治州新源县G218与景观大道北路交叉口正南方向998米左右",
        "tel": "",
        "category": "基础设施:公共设施:公共厕所",
        "type": 0,
        "location": {
            "lat": 43.31298,
            "lng": 84.03111
        },
        "ad_info": {
            "adcode": 654025,
            "province": "新疆维吾尔自治区",
            "city": "伊犁哈萨克自治州",
            "district": "新源县"
        }
    },
    {
        "id": "2064459643567109434",
        "title": "公共厕所",
        "address": "新疆维吾尔自治区伊犁哈萨克自治州新源县G578与X751交叉口正南方向16米左右",
        "tel": "",
        "category": "基础设施:公共设施:公共厕所",
        "type": 0,
        "location": {
            "lat": 43.437833,
            "lng": 82.575719
        },
        "ad_info": {
            "adcode": 654025,
            "province": "新疆维吾尔自治区",
            "city": "伊犁哈萨克自治州",
            "district": "新源县"
        }
    },
    {
        "id": "14954314068229233165",
        "title": "公共厕所",
        "address": "新疆维吾尔自治区伊犁哈萨克自治州特克斯县G577与水泥厂路交叉口西南方向148米左右",
        "tel": "",
        "category": "基础设施:公共设施:公共厕所",
        "type": 0,
        "location": {
            "lat": 43.261977,
            "lng": 81.811711
        },
        "ad_info": {
            "adcode": 654027,
            "province": "新疆维吾尔自治区",
            "city": "伊犁哈萨克自治州",
            "district": "特克斯县"
        }
    },
    {
        "id": "5787501498139037522",
        "title": "厕所",
        "address": "新疆维吾尔自治区伊犁哈萨克自治州特克斯县阿扎提街与阿扎提街四环路交叉口正东方向110米左右",
        "tel": "",
        "category": "基础设施:公共设施:公共厕所",
        "type": 0,
        "location": {
            "lat": 43.224606,
            "lng": 81.838019
        },
        "ad_info": {
            "adcode": 654027,
            "province": "新疆维吾尔自治区",
            "city": "伊犁哈萨克自治州",
            "district": "特克斯县"
        }
    },
    {
        "id": "12644518247530197596",
        "title": "公共厕所",
        "address": "新疆维吾尔自治区伊犁哈萨克自治州察布查尔锡伯自治县巴给街与巴给街东五巷交叉口正西方向22米左右",
        "tel": "",
        "category": "基础设施:公共设施:公共厕所",
        "type": 0,
        "location": {
            "lat": 43.840529,
            "lng": 81.159429
        },
        "ad_info": {
            "adcode": 654022,
            "province": "新疆维吾尔自治区",
            "city": "伊犁哈萨克自治州",
            "district": "察布查尔锡伯自治县"
        }
    },
    {
        "id": "4773414981936375102",
        "title": "公共厕所",
        "address": "新疆维吾尔自治区伊犁哈萨克自治州察布查尔锡伯自治县殷登南路与伊车街匝西三巷交叉口东20米",
        "tel": "",
        "category": "基础设施:公共设施:公共厕所",
        "type": 0,
        "location": {
            "lat": 43.840206,
            "lng": 81.150509
        },
        "ad_info": {
            "adcode": 654022,
            "province": "新疆维吾尔自治区",
            "city": "伊犁哈萨克自治州",
            "district": "察布查尔锡伯自治县"
        }
    },
    {
        "id": "7397827174678269699",
        "title": "服务区公共厕所",
        "address": "新疆维吾尔自治区伊犁哈萨克自治州霍尔果斯市X120与六十一团立交桥交叉口正西方向1916米左右",
        "tel": "",
        "category": "基础设施:公共设施:公共厕所",
        "type": 0,
        "location": {
            "lat": 44.170542,
            "lng": 80.552537
        },
        "ad_info": {
            "adcode": 654004,
            "province": "新疆维吾尔自治区",
            "city": "伊犁哈萨克自治州",
            "district": "霍尔果斯市"
        }
    },
    {
        "id": "15409962686337737013",
        "title": "公共厕所",
        "address": "新疆维吾尔自治区伊犁哈萨克自治州特克斯县阿克奇街四环路一巷与阿扎提街二环路交叉口东北方向298米左右",
        "tel": "",
        "category": "基础设施:公共设施:公共厕所",
        "type": 0,
        "location": {
            "lat": 43.21477,
            "lng": 81.838196
        },
        "ad_info": {
            "adcode": 654027,
            "province": "新疆维吾尔自治区",
            "city": "伊犁哈萨克自治州",
            "district": "特克斯县"
        }
    },
    {
        "id": "14680712622631247942",
        "title": "公共厕所",
        "address": "新疆维吾尔自治区伊犁哈萨克自治州特克斯县博斯坦街45号",
        "tel": "",
        "category": "基础设施:公共设施:公共厕所",
        "type": 0,
        "location": {
            "lat": 43.207342,
            "lng": 81.842434
        },
        "ad_info": {
            "adcode": 654027,
            "province": "新疆维吾尔自治区",
            "city": "伊犁哈萨克自治州",
            "district": "特克斯县"
        }
    },
    {
        "id": "13786577509854130129",
        "title": "旅游厕所",
        "address": "新疆维吾尔自治区伊犁哈萨克自治州尼勒克县S315与喀什河1号大桥交叉口正西方向623米左右",
        "tel": "",
        "category": "基础设施:公共设施:公共厕所",
        "type": 0,
        "location": {
            "lat": 43.832726,
            "lng": 82.384635
        },
        "ad_info": {
            "adcode": 654028,
            "province": "新疆维吾尔自治区",
            "city": "伊犁哈萨克自治州",
            "district": "尼勒克县"
        }
    },
    {
        "id": "1841361495655650028",
        "title": "果子沟口服务区公共厕所",
        "address": "新疆维吾尔自治区伊犁哈萨克自治州霍城县G312与Y177交叉口东北方向1710米左右",
        "tel": "",
        "category": "基础设施:公共设施:公共厕所",
        "type": 0,
        "location": {
            "lat": 44.330814,
            "lng": 80.955162
        },
        "ad_info": {
            "adcode": 654023,
            "province": "新疆维吾尔自治区",
            "city": "伊犁哈萨克自治州",
            "district": "霍城县"
        }
    },
    {
        "id": "8624351915052386920",
        "title": "免费公共厕所",
        "address": "新疆维吾尔自治区伊犁哈萨克自治州伊宁市斯大林西路与飞机场路交叉口正北方向124米左右",
        "tel": "",
        "category": "基础设施:公共设施:公共厕所",
        "type": 0,
        "location": {
            "lat": 43.918881,
            "lng": 81.31723
        },
        "ad_info": {
            "adcode": 654002,
            "province": "新疆维吾尔自治区",
            "city": "伊犁哈萨克自治州",
            "district": "伊宁市"
        }
    },
    {
        "id": "14069589615004927518",
        "title": "愉群翁服务区公共厕所",
        "address": "新疆维吾尔自治区伊犁哈萨克自治州伊宁县G218与团结路交叉口正北方向1589米左右",
        "tel": "",
        "category": "基础设施:公共设施:公共厕所",
        "type": 0,
        "location": {
            "lat": 43.903179,
            "lng": 81.607351
        },
        "ad_info": {
            "adcode": 654021,
            "province": "新疆维吾尔自治区",
            "city": "伊犁哈萨克自治州",
            "district": "伊宁县"
        }
    },
    {
        "id": "8825349925888369581",
        "title": "愉群翁服务区第二公共厕所",
        "address": "新疆维吾尔自治区伊犁哈萨克自治州伊宁县G218与团结路交叉口正北方向1780米左右",
        "tel": "",
        "category": "基础设施:公共设施:公共厕所",
        "type": 0,
        "location": {
            "lat": 43.904782,
            "lng": 81.606495
        },
        "ad_info": {
            "adcode": 654021,
            "province": "新疆维吾尔自治区",
            "city": "伊犁哈萨克自治州",
            "district": "伊宁县"
        }
    },
    {
        "id": "4164281738663843011",
        "title": "公共厕所",
        "address": "新疆维吾尔自治区伊犁哈萨克自治州新源县G218与独库公路交叉口西北方向86米左右",
        "tel": "",
        "category": "基础设施:公共设施:公共厕所",
        "type": 0,
        "location": {
            "lat": 43.270841,
            "lng": 84.293457
        },
        "ad_info": {
            "adcode": 654025,
            "province": "新疆维吾尔自治区",
            "city": "伊犁哈萨克自治州",
            "district": "新源县"
        }
    },
    {
        "id": "3684334291825321201",
        "title": "公共厕所",
        "address": "新疆维吾尔自治区伊犁哈萨克自治州伊宁市上海北路与辽宁路交叉口西南方向82米左右",
        "tel": "",
        "category": "基础设施:公共设施:公共厕所",
        "type": 0,
        "location": {
            "lat": 43.941285,
            "lng": 81.275472
        },
        "ad_info": {
            "adcode": 654002,
            "province": "新疆维吾尔自治区",
            "city": "伊犁哈萨克自治州",
            "district": "伊宁市"
        }
    },
    {
        "id": "8502635115021449263",
        "title": "果子沟口服务区第二公共厕所",
        "address": "新疆维吾尔自治区伊犁哈萨克自治州霍城县G312与Y177交叉口东北方向1865米左右",
        "tel": "",
        "category": "基础设施:公共设施:公共厕所",
        "type": 0,
        "location": {
            "lat": 44.331189,
            "lng": 80.957356
        },
        "ad_info": {
            "adcode": 654023,
            "province": "新疆维吾尔自治区",
            "city": "伊犁哈萨克自治州",
            "district": "霍城县"
        }
    },
    {
        "id": "1740350943532437636",
        "title": "公共厕所",
        "address": "新疆维吾尔自治区伊犁哈萨克自治州霍城县三环市场路与北京西路交叉口正南方向70米左右",
        "tel": "",
        "category": "基础设施:公共设施:公共厕所",
        "type": 0,
        "location": {
            "lat": 44.188751,
            "lng": 80.740221
        },
        "ad_info": {
            "adcode": 654023,
            "province": "新疆维吾尔自治区",
            "city": "伊犁哈萨克自治州",
            "district": "霍城县"
        }
    },
    {
        "id": "13425138838185391321",
        "title": "公共厕所",
        "address": "新疆维吾尔自治区伊犁哈萨克自治州奎屯市北京东路与昌吉街交叉口正南方向234米左右",
        "tel": "",
        "category": "基础设施:公共设施:公共厕所",
        "type": 0,
        "location": {
            "lat": 44.420899,
            "lng": 84.937952
        },
        "ad_info": {
            "adcode": 654003,
            "province": "新疆维吾尔自治区",
            "city": "伊犁哈萨克自治州",
            "district": "奎屯市"
        }
    },
    {
        "id": "6734046491242601683",
        "title": "公共厕所",
        "address": "新疆维吾尔自治区伊犁哈萨克自治州奎屯市乌鲁木齐东路与乌鲁木齐西路交叉口正北方向83米左右",
        "tel": "",
        "category": "基础设施:公共设施:公共厕所",
        "type": 0,
        "location": {
            "lat": 44.430387,
            "lng": 84.901628
        },
        "ad_info": {
            "adcode": 654003,
            "province": "新疆维吾尔自治区",
            "city": "伊犁哈萨克自治州",
            "district": "奎屯市"
        }
    },
    {
        "id": "1045303728553380036",
        "title": "公共卫生间",
        "address": "新疆维吾尔自治区伊犁哈萨克自治州奎屯市人杰路与沙湾街交叉口西南方向79米左右",
        "tel": "",
        "category": "基础设施:公共设施:公共厕所",
        "type": 0,
        "location": {
            "lat": 44.444034,
            "lng": 84.912094
        },
        "ad_info": {
            "adcode": 654003,
            "province": "新疆维吾尔自治区",
            "city": "伊犁哈萨克自治州",
            "district": "奎屯市"
        }
    },
    {
        "id": "10907238383540271168",
        "title": "公共厕所",
        "address": "新疆维吾尔自治区伊犁哈萨克自治州伊宁县广场路与青年路交叉口正东方向92米左右",
        "tel": "",
        "category": "基础设施:公共设施:公共厕所",
        "type": 0,
        "location": {
            "lat": 43.975452,
            "lng": 81.523429
        },
        "ad_info": {
            "adcode": 654021,
            "province": "新疆维吾尔自治区",
            "city": "伊犁哈萨克自治州",
            "district": "伊宁县"
        }
    },
    {
        "id": "18058957625562367169",
        "title": "公共厕所",
        "address": "新疆维吾尔自治区伊犁哈萨克自治州奎屯市红河北路与迎宾大道交叉口正北方向197米左右",
        "tel": "",
        "category": "基础设施:公共设施:公共厕所",
        "type": 0,
        "location": {
            "lat": 44.400138,
            "lng": 84.91539
        },
        "ad_info": {
            "adcode": 654003,
            "province": "新疆维吾尔自治区",
            "city": "伊犁哈萨克自治州",
            "district": "奎屯市"
        }
    },
    {
        "id": "4900619180237402485",
        "title": "公共厕所",
        "address": "新疆维吾尔自治区伊犁哈萨克自治州伊宁市宁远路与康复路交叉口西南方向316米左右",
        "tel": "",
        "category": "基础设施:公共设施:公共厕所",
        "type": 0,
        "location": {
            "lat": 43.943449,
            "lng": 81.29824
        },
        "ad_info": {
            "adcode": 654002,
            "province": "新疆维吾尔自治区",
            "city": "伊犁哈萨克自治州",
            "district": "伊宁市"
        }
    },
    {
        "id": "4946032942543533231",
        "title": "公共厕所",
        "address": "新疆维吾尔自治区伊犁哈萨克自治州伊宁县五道桥路与幸福路交叉口正南方向138米左右",
        "tel": "",
        "category": "基础设施:公共设施:公共厕所",
        "type": 0,
        "location": {
            "lat": 43.979333,
            "lng": 81.523738
        },
        "ad_info": {
            "adcode": 654021,
            "province": "新疆维吾尔自治区",
            "city": "伊犁哈萨克自治州",
            "district": "伊宁县"
        }
    },
    {
        "id": "15985853966842625263",
        "title": "公共厕所",
        "address": "新疆维吾尔自治区伊犁哈萨克自治州奎屯市伊犁路与塔城街交叉口正南方向76米左右",
        "tel": "",
        "category": "基础设施:公共设施:公共厕所",
        "type": 0,
        "location": {
            "lat": 44.433734,
            "lng": 84.888809
        },
        "ad_info": {
            "adcode": 654003,
            "province": "新疆维吾尔自治区",
            "city": "伊犁哈萨克自治州",
            "district": "奎屯市"
        }
    },
    {
        "id": "13568324296460202579",
        "title": "厕所",
        "address": "新疆维吾尔自治区伊犁哈萨克自治州霍尔果斯市亚欧路与神州路交叉口正西方向158米左右",
        "tel": "",
        "category": "基础设施:公共设施:公共厕所",
        "type": 0,
        "location": {
            "lat": 44.20729,
            "lng": 80.414882
        },
        "ad_info": {
            "adcode": 654004,
            "province": "新疆维吾尔自治区",
            "city": "伊犁哈萨克自治州",
            "district": "霍尔果斯市"
        }
    },
    {
        "id": "16044156699404121079",
        "title": "公共厕所",
        "address": "新疆维吾尔自治区伊犁哈萨克自治州伊宁市茹仙巴格街与阿勒玛勒路交叉口正北方向80米左右",
        "tel": "",
        "category": "基础设施:公共设施:公共厕所",
        "type": 0,
        "location": {
            "lat": 43.913817,
            "lng": 81.275153
        },
        "ad_info": {
            "adcode": 654002,
            "province": "新疆维吾尔自治区",
            "city": "伊犁哈萨克自治州",
            "district": "伊宁市"
        }
    },
    {
        "id": "5074763575842289930",
        "title": "公共厕所",
        "address": "新疆维吾尔自治区伊犁哈萨克自治州新源县G218与G578交叉口东南方向583米左右",
        "tel": "",
        "category": "基础设施:公共设施:公共厕所",
        "type": 0,
        "location": {
            "lat": 43.417486,
            "lng": 83.747071
        },
        "ad_info": {
            "adcode": 654025,
            "province": "新疆维吾尔自治区",
            "city": "伊犁哈萨克自治州",
            "district": "新源县"
        }
    },
    {
        "id": "12463729862586813200",
        "title": "公共厕所林场",
        "address": "新疆维吾尔自治区伊犁哈萨克自治州昭苏县G577",
        "tel": "",
        "category": "基础设施:公共设施:公共厕所",
        "type": 0,
        "location": {
            "lat": 42.921036,
            "lng": 80.91141
        },
        "ad_info": {
            "adcode": 654026,
            "province": "新疆维吾尔自治区",
            "city": "伊犁哈萨克自治州",
            "district": "昭苏县"
        }
    },
    {
        "id": "10862909063592515969",
        "title": "公共厕所",
        "address": "新疆维吾尔自治区伊犁哈萨克自治州伊宁县吉尔格朗北路与吉里于孜大街交叉口正东方向118米左右",
        "tel": "",
        "category": "基础设施:公共设施:公共厕所",
        "type": 0,
        "location": {
            "lat": 43.97817,
            "lng": 81.520012
        },
        "ad_info": {
            "adcode": 654021,
            "province": "新疆维吾尔自治区",
            "city": "伊犁哈萨克自治州",
            "district": "伊宁县"
        }
    },
    {
        "id": "2534368283839952949",
        "title": "公共厕所",
        "address": "新疆维吾尔自治区伊犁哈萨克自治州伊宁县G218与团结路交叉口西南方向24米左右",
        "tel": "",
        "category": "基础设施:公共设施:公共厕所",
        "type": 0,
        "location": {
            "lat": 43.901973,
            "lng": 81.550449
        },
        "ad_info": {
            "adcode": 654021,
            "province": "新疆维吾尔自治区",
            "city": "伊犁哈萨克自治州",
            "district": "伊宁县"
        }
    },
    {
        "id": "3799044313560905416",
        "title": "公共厕所",
        "address": "新疆维吾尔自治区伊犁哈萨克自治州昭苏县天山路与解放街交叉口正北方向88米左右",
        "tel": "",
        "category": "基础设施:公共设施:公共厕所",
        "type": 0,
        "location": {
            "lat": 43.15794,
            "lng": 81.12335
        },
        "ad_info": {
            "adcode": 654026,
            "province": "新疆维吾尔自治区",
            "city": "伊犁哈萨克自治州",
            "district": "昭苏县"
        }
    },
    {
        "id": "6094565287481921889",
        "title": "公共厕所",
        "address": "新疆维吾尔自治区伊犁哈萨克自治州奎屯市乌鲁木齐东路与沙湾街交叉口东南方向162米左右",
        "tel": "",
        "category": "基础设施:公共设施:公共厕所",
        "type": 0,
        "location": {
            "lat": 44.428594,
            "lng": 84.911294
        },
        "ad_info": {
            "adcode": 654003,
            "province": "新疆维吾尔自治区",
            "city": "伊犁哈萨克自治州",
            "district": "奎屯市"
        }
    },
    {
        "id": "8279184103174821449",
        "title": "公共厕所",
        "address": "新疆维吾尔自治区伊犁哈萨克自治州伊宁市江苏路与解放西路七巷交叉口正北方向29米左右",
        "tel": "",
        "category": "基础设施:公共设施:公共厕所",
        "type": 0,
        "location": {
            "lat": 43.931594,
            "lng": 81.314696
        },
        "ad_info": {
            "adcode": 654002,
            "province": "新疆维吾尔自治区",
            "city": "伊犁哈萨克自治州",
            "district": "伊宁市"
        }
    },
    {
        "id": "5722715342896148857",
        "title": "公共厕所",
        "address": "新疆维吾尔自治区伊犁哈萨克自治州霍城县三环市场路与北京西路交叉口东北方向59米左右",
        "tel": "",
        "category": "基础设施:公共设施:公共厕所",
        "type": 0,
        "location": {
            "lat": 44.189698,
            "lng": 80.740715
        },
        "ad_info": {
            "adcode": 654023,
            "province": "新疆维吾尔自治区",
            "city": "伊犁哈萨克自治州",
            "district": "霍城县"
        }
    },
    {
        "id": "15509701513010061061",
        "title": "公共厕所",
        "address": "新疆维吾尔自治区伊犁哈萨克自治州伊宁市新华西路与阿合买提江南路交叉口西南方向63米左右",
        "tel": "",
        "category": "基础设施:公共设施:公共厕所",
        "type": 0,
        "location": {
            "lat": 43.912233,
            "lng": 81.307058
        },
        "ad_info": {
            "adcode": 654002,
            "province": "新疆维吾尔自治区",
            "city": "伊犁哈萨克自治州",
            "district": "伊宁市"
        }
    },
    {
        "id": "1964939040762727377",
        "title": "公共厕所",
        "address": "新疆维吾尔自治区伊犁哈萨克自治州伊宁市汉宾村七组四巷与重庆中路二巷交叉口东南方向86米左右",
        "tel": "",
        "category": "基础设施:公共设施:公共厕所",
        "type": 0,
        "location": {
            "lat": 43.937466,
            "lng": 81.257289
        },
        "ad_info": {
            "adcode": 654002,
            "province": "新疆维吾尔自治区",
            "city": "伊犁哈萨克自治州",
            "district": "伊宁市"
        }
    },
    {
        "id": "11995498787091034873",
        "title": "俄罗斯风情园-公共厕所(XJ-YL-0314)",
        "address": "新疆维吾尔自治区伊犁哈萨克自治州伊宁市工人街91号",
        "tel": "",
        "category": "基础设施:公共设施:公共厕所",
        "type": 0,
        "location": {
            "lat": 43.932786,
            "lng": 81.308528
        },
        "ad_info": {
            "adcode": 654002,
            "province": "新疆维吾尔自治区",
            "city": "伊犁哈萨克自治州",
            "district": "伊宁市"
        }
    },
    {
        "id": "11741259540206650583",
        "title": "公共厕所",
        "address": "新疆维吾尔自治区伊犁哈萨克自治州伊宁市文苑街中苑新城",
        "tel": "",
        "category": "基础设施:公共设施:公共厕所",
        "type": 0,
        "location": {
            "lat": 43.939511,
            "lng": 81.356969
        },
        "ad_info": {
            "adcode": 654002,
            "province": "新疆维吾尔自治区",
            "city": "伊犁哈萨克自治州",
            "district": "伊宁市"
        }
    },
    {
        "id": "11750127947402739405",
        "title": "公共厕所",
        "address": "新疆维吾尔自治区伊犁哈萨克自治州伊宁市东梁街398号",
        "tel": "",
        "category": "基础设施:公共设施:公共厕所",
        "type": 0,
        "location": {
            "lat": 43.921759,
            "lng": 81.372995
        },
        "ad_info": {
            "adcode": 654002,
            "province": "新疆维吾尔自治区",
            "city": "伊犁哈萨克自治州",
            "district": "伊宁市"
        }
    },
    {
        "id": "9124468009625629976",
        "title": "公共厕所",
        "address": "新疆维吾尔自治区伊犁哈萨克自治州巩留县一路向西游客服务大厅东侧180米",
        "tel": "",
        "category": "基础设施:公共设施:公共厕所",
        "type": 0,
        "location": {
            "lat": 43.263995,
            "lng": 82.772761
        },
        "ad_info": {
            "adcode": 654024,
            "province": "新疆维吾尔自治区",
            "city": "伊犁哈萨克自治州",
            "district": "巩留县"
        }
    },
    {
        "id": "5615111400163078658",
        "title": "奎屯服务区公共厕所",
        "address": "新疆维吾尔自治区伊犁哈萨克自治州奎屯市连霍高速奎屯服务区",
        "tel": "",
        "category": "基础设施:公共设施:公共厕所",
        "type": 0,
        "location": {
            "lat": 44.361258,
            "lng": 85.1185
        },
        "ad_info": {
            "adcode": 654003,
            "province": "新疆维吾尔自治区",
            "city": "伊犁哈萨克自治州",
            "district": "奎屯市"
        }
    },
    {
        "id": "1761114179921233769",
        "title": "果子沟口服务区第一公共厕所",
        "address": "新疆维吾尔自治区伊犁哈萨克自治州霍城县G312与Y177交叉口东北方向1969米左右",
        "tel": "",
        "category": "基础设施:公共设施:公共厕所",
        "type": 0,
        "location": {
            "lat": 44.332372,
            "lng": 80.957575
        },
        "ad_info": {
            "adcode": 654023,
            "province": "新疆维吾尔自治区",
            "city": "伊犁哈萨克自治州",
            "district": "霍城县"
        }
    },
    {
        "id": "14352292890716356123",
        "title": "公共厕所",
        "address": "新疆维吾尔自治区伊犁哈萨克自治州昭苏县坡马东路与坡马西路交叉口正北方向108米左右",
        "tel": "",
        "category": "基础设施:公共设施:公共厕所",
        "type": 0,
        "location": {
            "lat": 42.692757,
            "lng": 80.271582
        },
        "ad_info": {
            "adcode": 654026,
            "province": "新疆维吾尔自治区",
            "city": "伊犁哈萨克自治州",
            "district": "昭苏县"
        }
    },
    {
        "id": "9334007790859262323",
        "title": "公共厕所",
        "address": "新疆维吾尔自治区伊犁哈萨克自治州察布查尔锡伯自治县查鲁东街与边防巷交叉口正西方向141米左右",
        "tel": "",
        "category": "基础设施:公共设施:公共厕所",
        "type": 0,
        "location": {
            "lat": 43.840415,
            "lng": 81.163698
        },
        "ad_info": {
            "adcode": 654022,
            "province": "新疆维吾尔自治区",
            "city": "伊犁哈萨克自治州",
            "district": "察布查尔锡伯自治县"
        }
    },
    {
        "id": "5129181490435277940",
        "title": "公共厕所",
        "address": "新疆维吾尔自治区伊犁哈萨克自治州伊宁县愉托线",
        "tel": "",
        "category": "基础设施:公共设施:公共厕所",
        "type": 0,
        "location": {
            "lat": 43.848009,
            "lng": 81.453859
        },
        "ad_info": {
            "adcode": 654021,
            "province": "新疆维吾尔自治区",
            "city": "伊犁哈萨克自治州",
            "district": "伊宁县"
        }
    },
    {
        "id": "8409852766378505425",
        "title": "公共厕所",
        "address": "新疆维吾尔自治区伊犁哈萨克自治州巩留县东环路与团结东路交叉口正西方向278米左右",
        "tel": "",
        "category": "基础设施:公共设施:公共厕所",
        "type": 0,
        "location": {
            "lat": 43.473879,
            "lng": 82.239711
        },
        "ad_info": {
            "adcode": 654024,
            "province": "新疆维吾尔自治区",
            "city": "伊犁哈萨克自治州",
            "district": "巩留县"
        }
    },
    {
        "id": "5643467179763725227",
        "title": "公共厕所",
        "address": "新疆维吾尔自治区伊犁哈萨克自治州巩留县东一路与幸福路交叉口东北方向40米左右",
        "tel": "",
        "category": "基础设施:公共设施:公共厕所",
        "type": 0,
        "location": {
            "lat": 43.476125,
            "lng": 82.229248
        },
        "ad_info": {
            "adcode": 654024,
            "province": "新疆维吾尔自治区",
            "city": "伊犁哈萨克自治州",
            "district": "巩留县"
        }
    },
    {
        "id": "10593146550411297612",
        "title": "公共厕所",
        "address": "新疆维吾尔自治区伊犁哈萨克自治州伊宁市伊犁河月夜音乐广场东侧140米",
        "tel": "",
        "category": "基础设施:公共设施:公共厕所",
        "type": 0,
        "location": {
            "lat": 43.889776,
            "lng": 81.295769
        },
        "ad_info": {
            "adcode": 654002,
            "province": "新疆维吾尔自治区",
            "city": "伊犁哈萨克自治州",
            "district": "伊宁市"
        }
    },
    {
        "id": "7197499881573285763",
        "title": "公共厕所",
        "address": "新疆维吾尔自治区伊犁哈萨克自治州伊宁市飞机场路31号",
        "tel": "",
        "category": "基础设施:公共设施:公共厕所",
        "type": 0,
        "location": {
            "lat": 43.934444,
            "lng": 81.322334
        },
        "ad_info": {
            "adcode": 654002,
            "province": "新疆维吾尔自治区",
            "city": "伊犁哈萨克自治州",
            "district": "伊宁市"
        }
    },
    {
        "id": "5158095372417929859",
        "title": "公共厕所",
        "address": "新疆维吾尔自治区伊犁哈萨克自治州奎屯市乌鲁木齐东路与昌吉街交叉口正东方向669米左右",
        "tel": "",
        "category": "基础设施:公共设施:公共厕所",
        "type": 0,
        "location": {
            "lat": 44.426675,
            "lng": 84.946927
        },
        "ad_info": {
            "adcode": 654003,
            "province": "新疆维吾尔自治区",
            "city": "伊犁哈萨克自治州",
            "district": "奎屯市"
        }
    },
    {
        "id": "15371754676432184825",
        "title": "迎宾大道检查站24小时公共厕所",
        "address": "新疆维吾尔自治区伊犁哈萨克自治州奎屯市恒乐园东侧300米",
        "tel": "",
        "category": "基础设施:公共设施:公共厕所",
        "type": 0,
        "location": {
            "lat": 44.399702,
            "lng": 84.916142
        },
        "ad_info": {
            "adcode": 654003,
            "province": "新疆维吾尔自治区",
            "city": "伊犁哈萨克自治州",
            "district": "奎屯市"
        }
    },
    {
        "id": "10105355072147545318",
        "title": "公共厕所",
        "address": "新疆维吾尔自治区伊犁哈萨克自治州巩留县党校路与幸福路交叉口西南方向66米左右",
        "tel": "",
        "category": "基础设施:公共设施:公共厕所",
        "type": 0,
        "location": {
            "lat": 43.482513,
            "lng": 82.226845
        },
        "ad_info": {
            "adcode": 654024,
            "province": "新疆维吾尔自治区",
            "city": "伊犁哈萨克自治州",
            "district": "巩留县"
        }
    },
    {
        "id": "8091616343853781670",
        "title": "公共厕所",
        "address": "新疆维吾尔自治区伊犁哈萨克自治州新源县团结路与天山街交叉口东南方向187米左右",
        "tel": "",
        "category": "基础设施:公共设施:公共厕所",
        "type": 0,
        "location": {
            "lat": 43.436006,
            "lng": 83.255455
        },
        "ad_info": {
            "adcode": 654025,
            "province": "新疆维吾尔自治区",
            "city": "伊犁哈萨克自治州",
            "district": "新源县"
        }
    },
    {
        "id": "17928594958894015655",
        "title": "公共厕所",
        "address": "新疆维吾尔自治区伊犁哈萨克自治州新源县218国道与042县道交叉口东南320米",
        "tel": "",
        "category": "基础设施:公共设施:公共厕所",
        "type": 0,
        "location": {
            "lat": 43.321305,
            "lng": 84.025497
        },
        "ad_info": {
            "adcode": 654025,
            "province": "新疆维吾尔自治区",
            "city": "伊犁哈萨克自治州",
            "district": "新源县"
        }
    },
    {
        "id": "16170150143255655197",
        "title": "公共厕所",
        "address": "新疆维吾尔自治区伊犁哈萨克自治州尼勒克县唐布拉路与团结路交叉口正南方向84米左右",
        "tel": "",
        "category": "基础设施:公共设施:公共厕所",
        "type": 0,
        "location": {
            "lat": 43.791161,
            "lng": 82.506073
        },
        "ad_info": {
            "adcode": 654028,
            "province": "新疆维吾尔自治区",
            "city": "伊犁哈萨克自治州",
            "district": "尼勒克县"
        }
    },
    {
        "id": "4512541712923122926",
        "title": "公共厕所",
        "address": "新疆维吾尔自治区伊犁哈萨克自治州新源县G218与Y030交叉口正西方向980米左右",
        "tel": "",
        "category": "基础设施:公共设施:公共厕所",
        "type": 0,
        "location": {
            "lat": 43.414656,
            "lng": 83.756352
        },
        "ad_info": {
            "adcode": 654025,
            "province": "新疆维吾尔自治区",
            "city": "伊犁哈萨克自治州",
            "district": "新源县"
        }
    },
    {
        "id": "14646366118446989343",
        "title": "公共厕所",
        "address": "新疆维吾尔自治区伊犁哈萨克自治州尼勒克县S315与独库公路交叉口正南方向47米左右",
        "tel": "",
        "category": "基础设施:公共设施:公共厕所",
        "type": 0,
        "location": {
            "lat": 43.653756,
            "lng": 84.36207
        },
        "ad_info": {
            "adcode": 654028,
            "province": "新疆维吾尔自治区",
            "city": "伊犁哈萨克自治州",
            "district": "尼勒克县"
        }
    },
    {
        "id": "15241307127456406677",
        "title": "公共厕所",
        "address": "新疆维吾尔自治区伊犁哈萨克自治州伊宁市上海北路与上海南路交叉口正东方向59米左右",
        "tel": "",
        "category": "基础设施:公共设施:公共厕所",
        "type": 0,
        "location": {
            "lat": 43.932384,
            "lng": 81.266054
        },
        "ad_info": {
            "adcode": 654002,
            "province": "新疆维吾尔自治区",
            "city": "伊犁哈萨克自治州",
            "district": "伊宁市"
        }
    },
    {
        "id": "16191730820220975524",
        "title": "公共厕所",
        "address": "新疆维吾尔自治区伊犁哈萨克自治州奎屯市喀什西路与团结南街交叉口西80米",
        "tel": "",
        "category": "基础设施:公共设施:公共厕所",
        "type": 0,
        "location": {
            "lat": 44.411774,
            "lng": 84.900551
        },
        "ad_info": {
            "adcode": 654003,
            "province": "新疆维吾尔自治区",
            "city": "伊犁哈萨克自治州",
            "district": "奎屯市"
        }
    },
    {
        "id": "17652224726533169228",
        "title": "公共厕所",
        "address": "新疆维吾尔自治区伊犁哈萨克自治州伊宁市解放西路274号",
        "tel": "",
        "category": "基础设施:公共设施:公共厕所",
        "type": 0,
        "location": {
            "lat": 43.932301,
            "lng": 81.30365
        },
        "ad_info": {
            "adcode": 654002,
            "province": "新疆维吾尔自治区",
            "city": "伊犁哈萨克自治州",
            "district": "伊宁市"
        }
    },
    {
        "id": "17765850796575467824",
        "title": "英也尔加油站第二公共厕所",
        "address": "新疆维吾尔自治区伊犁哈萨克自治州伊宁市G3016清伊高速与英也尔休息区交叉口西340米",
        "tel": "",
        "category": "基础设施:公共设施:公共厕所",
        "type": 0,
        "location": {
            "lat": 43.966269,
            "lng": 81.123732
        },
        "ad_info": {
            "adcode": 654002,
            "province": "新疆维吾尔自治区",
            "city": "伊犁哈萨克自治州",
            "district": "伊宁市"
        }
    },
    {
        "id": "8803754560792337103",
        "title": "公共厕所",
        "address": "新疆维吾尔自治区伊犁哈萨克自治州奎屯市乌鲁木齐西路与塔城街交叉口正南方向203米左右",
        "tel": "",
        "category": "基础设施:公共设施:公共厕所",
        "type": 0,
        "location": {
            "lat": 44.428707,
            "lng": 84.887795
        },
        "ad_info": {
            "adcode": 654003,
            "province": "新疆维吾尔自治区",
            "city": "伊犁哈萨克自治州",
            "district": "奎屯市"
        }
    },
    {
        "id": "11601623220096995274",
        "title": "公共厕所",
        "address": "新疆维吾尔自治区伊犁哈萨克自治州伊宁市后滩湿地公园(西南角)",
        "tel": "",
        "category": "基础设施:公共设施:公共厕所",
        "type": 0,
        "location": {
            "lat": 43.914076,
            "lng": 81.341195
        },
        "ad_info": {
            "adcode": 654002,
            "province": "新疆维吾尔自治区",
            "city": "伊犁哈萨克自治州",
            "district": "伊宁市"
        }
    },
    {
        "id": "8883750376341192620",
        "title": "公共厕所",
        "address": "新疆维吾尔自治区伊犁哈萨克自治州霍城县清泉路",
        "tel": "",
        "category": "基础设施:公共设施:公共厕所",
        "type": 0,
        "location": {
            "lat": 44.145879,
            "lng": 80.779743
        },
        "ad_info": {
            "adcode": 654023,
            "province": "新疆维吾尔自治区",
            "city": "伊犁哈萨克自治州",
            "district": "霍城县"
        }
    },
    {
        "id": "12051018744913447743",
        "title": "公共卫生间",
        "address": "新疆维吾尔自治区伊犁哈萨克自治州霍城县G312与Y122交叉口正西方向67米左右",
        "tel": "",
        "category": "基础设施:公共设施:公共厕所",
        "type": 0,
        "location": {
            "lat": 44.24334,
            "lng": 80.855206
        },
        "ad_info": {
            "adcode": 654023,
            "province": "新疆维吾尔自治区",
            "city": "伊犁哈萨克自治州",
            "district": "霍城县"
        }
    },
    {
        "id": "16850598525198164863",
        "title": "吐尔根服务区公共厕所",
        "address": "新疆维吾尔自治区伊犁哈萨克自治州新源县S12高伊高速与吐尔根服务区交叉口西440米",
        "tel": "",
        "category": "基础设施:公共设施:公共厕所",
        "type": 0,
        "location": {
            "lat": 43.532562,
            "lng": 83.371534
        },
        "ad_info": {
            "adcode": 654025,
            "province": "新疆维吾尔自治区",
            "city": "伊犁哈萨克自治州",
            "district": "新源县"
        }
    },
    {
        "id": "17901329297602480781",
        "title": "伊犁州旅游集散中心-公共厕所",
        "address": "新疆维吾尔自治区伊犁哈萨克自治州伊宁市兴边路与重庆北路交叉口西南方向27米左右",
        "tel": "",
        "category": "基础设施:公共设施:公共厕所",
        "type": 0,
        "location": {
            "lat": 43.957052,
            "lng": 81.274908
        },
        "ad_info": {
            "adcode": 654002,
            "province": "新疆维吾尔自治区",
            "city": "伊犁哈萨克自治州",
            "district": "伊宁市"
        }
    },
    {
        "id": "1783831718773423985",
        "title": "公共厕所",
        "address": "新疆维吾尔自治区伊犁哈萨克自治州巩留县巩留葡萄采摘园西北侧80米",
        "tel": "",
        "category": "基础设施:公共设施:公共厕所",
        "type": 0,
        "location": {
            "lat": 43.537381,
            "lng": 81.988625
        },
        "ad_info": {
            "adcode": 654024,
            "province": "新疆维吾尔自治区",
            "city": "伊犁哈萨克自治州",
            "district": "巩留县"
        }
    },
    {
        "id": "15119990864205277475",
        "title": "伊犁州奎屯市一品汇公共厕所工会驿站(微)",
        "address": "新疆维吾尔自治区伊犁哈萨克自治州奎屯市乌苏街与北京西路交叉口正北方向210米左右",
        "tel": "",
        "category": "基础设施:公共设施:公共厕所",
        "type": 0,
        "location": {
            "lat": 44.427284,
            "lng": 84.898697
        },
        "ad_info": {
            "adcode": 654003,
            "province": "新疆维吾尔自治区",
            "city": "伊犁哈萨克自治州",
            "district": "奎屯市"
        }
    },
    {
        "id": "3561288414148600671",
        "title": "英也尔休息区公共厕所",
        "address": "新疆维吾尔自治区伊犁哈萨克自治州伊宁市G218与三桥路交叉口东北方向318米左右",
        "tel": "",
        "category": "基础设施:公共设施:公共厕所",
        "type": 0,
        "location": {
            "lat": 43.967248,
            "lng": 81.14595
        },
        "ad_info": {
            "adcode": 654002,
            "province": "新疆维吾尔自治区",
            "city": "伊犁哈萨克自治州",
            "district": "伊宁市"
        }
    },
    {
        "id": "11990515665882953162",
        "title": "公共厕所",
        "address": "新疆维吾尔自治区伊犁哈萨克自治州新源县祥和佳苑北侧210米",
        "tel": "",
        "category": "基础设施:公共设施:公共厕所",
        "type": 0,
        "location": {
            "lat": 43.431287,
            "lng": 83.253495
        },
        "ad_info": {
            "adcode": 654025,
            "province": "新疆维吾尔自治区",
            "city": "伊犁哈萨克自治州",
            "district": "新源县"
        }
    },
    {
        "id": "8905837977873611167",
        "title": "愉群翁服务区公共厕所",
        "address": "新疆维吾尔自治区伊犁哈萨克自治州伊宁县G218与团结路交叉口西北方向1648米左右",
        "tel": "",
        "category": "基础设施:公共设施:公共厕所",
        "type": 0,
        "location": {
            "lat": 43.903191,
            "lng": 81.605348
        },
        "ad_info": {
            "adcode": 654021,
            "province": "新疆维吾尔自治区",
            "city": "伊犁哈萨克自治州",
            "district": "伊宁县"
        }
    },
    {
        "id": "13898080186573776904",
        "title": "公共厕所",
        "address": "新疆维吾尔自治区伊犁哈萨克自治州奎屯市凤翔路与团结北街交叉口正西方向296米左右",
        "tel": "",
        "category": "基础设施:公共设施:公共厕所",
        "type": 0,
        "location": {
            "lat": 44.44907,
            "lng": 84.902413
        },
        "ad_info": {
            "adcode": 654003,
            "province": "新疆维吾尔自治区",
            "city": "伊犁哈萨克自治州",
            "district": "奎屯市"
        }
    },
    {
        "id": "8326353560064232152",
        "title": "公共厕所",
        "address": "新疆维吾尔自治区伊犁哈萨克自治州伊宁县X708与Y143交叉口西南方向41米左右",
        "tel": "",
        "category": "基础设施:公共设施:公共厕所",
        "type": 0,
        "location": {
            "lat": 43.654891,
            "lng": 81.93786
        },
        "ad_info": {
            "adcode": 654021,
            "province": "新疆维吾尔自治区",
            "city": "伊犁哈萨克自治州",
            "district": "伊宁县"
        }
    },
    {
        "id": "1833826109638621997",
        "title": "那拉提服务区公共厕所",
        "address": "新疆维吾尔自治区伊犁哈萨克自治州新源县S12高伊高速与那拉提服务区交叉口西北480米",
        "tel": "",
        "category": "基础设施:公共设施:公共厕所",
        "type": 0,
        "location": {
            "lat": 43.387071,
            "lng": 83.940124
        },
        "ad_info": {
            "adcode": 654025,
            "province": "新疆维吾尔自治区",
            "city": "伊犁哈萨克自治州",
            "district": "新源县"
        }
    },
    {
        "id": "14564056506574224668",
        "title": "奎屯市火车站东广场24小时公共厕所",
        "address": "新疆维吾尔自治区伊犁哈萨克自治州奎屯市团结南街与铁二路交叉口东南方向82米左右",
        "tel": "",
        "category": "基础设施:公共设施:公共厕所",
        "type": 0,
        "location": {
            "lat": 44.404745,
            "lng": 84.901436
        },
        "ad_info": {
            "adcode": 654003,
            "province": "新疆维吾尔自治区",
            "city": "伊犁哈萨克自治州",
            "district": "奎屯市"
        }
    },
    {
        "id": "15467119242249296045",
        "title": "伊犁州奎屯市兵团客运站公共厕所工会驿站",
        "address": "新疆维吾尔自治区伊犁哈萨克自治州奎屯市乌鲁木齐东路与沙湾街交叉口西北方向102米左右",
        "tel": "",
        "category": "基础设施:公共设施:公共厕所",
        "type": 0,
        "location": {
            "lat": 44.429645,
            "lng": 84.908315
        },
        "ad_info": {
            "adcode": 654003,
            "province": "新疆维吾尔自治区",
            "city": "伊犁哈萨克自治州",
            "district": "奎屯市"
        }
    },
    {
        "id": "11853507229252474648",
        "title": "公共厕所",
        "address": "新疆维吾尔自治区伊犁哈萨克自治州巩留县新华路与静和路交叉口正东方向101米左右",
        "tel": "",
        "category": "基础设施:公共设施:公共厕所",
        "type": 0,
        "location": {
            "lat": 43.483977,
            "lng": 82.230816
        },
        "ad_info": {
            "adcode": 654024,
            "province": "新疆维吾尔自治区",
            "city": "伊犁哈萨克自治州",
            "district": "巩留县"
        }
    },
    {
        "id": "13342658357321069249",
        "title": "公共厕所",
        "address": "新疆维吾尔自治区伊犁哈萨克自治州新源县天山西街与托海路交叉口正西方向56米左右",
        "tel": "",
        "category": "基础设施:公共设施:公共厕所",
        "type": 0,
        "location": {
            "lat": 43.436586,
            "lng": 83.23945
        },
        "ad_info": {
            "adcode": 654025,
            "province": "新疆维吾尔自治区",
            "city": "伊犁哈萨克自治州",
            "district": "新源县"
        }
    },
    {
        "id": "11134725477471630248",
        "title": "人民广场-公共厕所",
        "address": "新疆维吾尔自治区伊犁哈萨克自治州伊宁市斯大林东路伊犁铜锣湾(东南角)",
        "tel": "",
        "category": "基础设施:公共设施:公共厕所",
        "type": 0,
        "location": {
            "lat": 43.917047,
            "lng": 81.328526
        },
        "ad_info": {
            "adcode": 654002,
            "province": "新疆维吾尔自治区",
            "city": "伊犁哈萨克自治州",
            "district": "伊宁市"
        }
    },
    {
        "id": "2851183612347271622",
        "title": "旅游厕所",
        "address": "新疆维吾尔自治区伊犁哈萨克自治州特克斯县Y272与Y287交叉口正北方向1399米左右",
        "tel": "",
        "category": "基础设施:公共设施:公共厕所",
        "type": 0,
        "location": {
            "lat": 43.286335,
            "lng": 81.708515
        },
        "ad_info": {
            "adcode": 654027,
            "province": "新疆维吾尔自治区",
            "city": "伊犁哈萨克自治州",
            "district": "特克斯县"
        }
    },
    {
        "id": "4224746206072368388",
        "title": "公共厕所",
        "address": "新疆维吾尔自治区伊犁哈萨克自治州奎屯市乌鲁木齐东路与呼图壁街交叉口正东方向112米左右",
        "tel": "",
        "category": "基础设施:公共设施:公共厕所",
        "type": 0,
        "location": {
            "lat": 44.427924,
            "lng": 84.931921
        },
        "ad_info": {
            "adcode": 654003,
            "province": "新疆维吾尔自治区",
            "city": "伊犁哈萨克自治州",
            "district": "奎屯市"
        }
    },
    {
        "id": "10220303496501338423",
        "title": "公共厕所",
        "address": "新疆维吾尔自治区伊犁哈萨克自治州伊宁县",
        "tel": "",
        "category": "基础设施:公共设施:公共厕所",
        "type": 0,
        "location": {
            "lat": 43.874383,
            "lng": 81.518065
        },
        "ad_info": {
            "adcode": 654021,
            "province": "新疆维吾尔自治区",
            "city": "伊犁哈萨克自治州",
            "district": "伊宁县"
        }
    },
    {
        "id": "9257590164454203756",
        "title": "公共厕所",
        "address": "新疆维吾尔自治区伊犁哈萨克自治州新源县则新路与迎宾路交叉口正东方向105米左右",
        "tel": "",
        "category": "基础设施:公共设施:公共厕所",
        "type": 0,
        "location": {
            "lat": 43.513206,
            "lng": 83.265135
        },
        "ad_info": {
            "adcode": 654025,
            "province": "新疆维吾尔自治区",
            "city": "伊犁哈萨克自治州",
            "district": "新源县"
        }
    },
    {
        "id": "6928774906606218862",
        "title": "公共厕所",
        "address": "新疆维吾尔自治区伊犁哈萨克自治州巩留县东二路与东环路交叉口正北方向162米左右",
        "tel": "",
        "category": "基础设施:公共设施:公共厕所",
        "type": 0,
        "location": {
            "lat": 43.480783,
            "lng": 82.2419
        },
        "ad_info": {
            "adcode": 654024,
            "province": "新疆维吾尔自治区",
            "city": "伊犁哈萨克自治州",
            "district": "巩留县"
        }
    },
    {
        "id": "9518140597653437003",
        "title": "公共厕所",
        "address": "新疆维吾尔自治区伊犁哈萨克自治州巩留县团结东路与幸福二路交叉口正西方向171米左右",
        "tel": "",
        "category": "基础设施:公共设施:公共厕所",
        "type": 0,
        "location": {
            "lat": 43.468999,
            "lng": 82.250714
        },
        "ad_info": {
            "adcode": 654024,
            "province": "新疆维吾尔自治区",
            "city": "伊犁哈萨克自治州",
            "district": "巩留县"
        }
    },
    {
        "id": "1089298659922644971",
        "title": "公共厕所",
        "address": "新疆维吾尔自治区伊犁哈萨克自治州奎屯市伊犁路与阿勒泰街交叉口正南方向90米左右",
        "tel": "",
        "category": "基础设施:公共设施:公共厕所",
        "type": 0,
        "location": {
            "lat": 44.433656,
            "lng": 84.895249
        },
        "ad_info": {
            "adcode": 654003,
            "province": "新疆维吾尔自治区",
            "city": "伊犁哈萨克自治州",
            "district": "奎屯市"
        }
    },
    {
        "id": "16172119184481513761",
        "title": "那拉提服务区公共厕所",
        "address": "新疆维吾尔自治区伊犁哈萨克自治州新源县那拉提服务区电动汽车充电站东南侧",
        "tel": "",
        "category": "基础设施:公共设施:公共厕所",
        "type": 0,
        "location": {
            "lat": 43.386986,
            "lng": 83.935243
        },
        "ad_info": {
            "adcode": 654025,
            "province": "新疆维吾尔自治区",
            "city": "伊犁哈萨克自治州",
            "district": "新源县"
        }
    },
    {
        "id": "13659758813951934679",
        "title": "木斯服务区公共厕所",
        "address": "新疆维吾尔自治区伊犁哈萨克自治州尼勒克县木斯服务区南40米",
        "tel": "",
        "category": "基础设施:公共设施:公共厕所",
        "type": 0,
        "location": {
            "lat": 43.588724,
            "lng": 82.759101
        },
        "ad_info": {
            "adcode": 654028,
            "province": "新疆维吾尔自治区",
            "city": "伊犁哈萨克自治州",
            "district": "尼勒克县"
        }
    },
    {
        "id": "16260386863657370377",
        "title": "公共厕所",
        "address": "新疆维吾尔自治区伊犁哈萨克自治州昭苏县Y249",
        "tel": "",
        "category": "基础设施:公共设施:公共厕所",
        "type": 0,
        "location": {
            "lat": 42.933112,
            "lng": 81.334907
        },
        "ad_info": {
            "adcode": 654026,
            "province": "新疆维吾尔自治区",
            "city": "伊犁哈萨克自治州",
            "district": "昭苏县"
        }
    },
    {
        "id": "192242260513478201",
        "title": "奎屯市第五空间公共厕所",
        "address": "新疆维吾尔自治区伊犁哈萨克自治州奎屯市新疆应用职业技术学院继续教育学院西侧210米",
        "tel": "",
        "category": "基础设施:公共设施:公共厕所",
        "type": 0,
        "location": {
            "lat": 44.426557,
            "lng": 84.874132
        },
        "ad_info": {
            "adcode": 654003,
            "province": "新疆维吾尔自治区",
            "city": "伊犁哈萨克自治州",
            "district": "奎屯市"
        }
    },
    {
        "id": "4981903653374765999",
        "title": "公共厕所",
        "address": "新疆维吾尔自治区伊犁哈萨克自治州新源县团结路与青年街交叉口东北方向217米左右",
        "tel": "",
        "category": "基础设施:公共设施:公共厕所",
        "type": 0,
        "location": {
            "lat": 43.434989,
            "lng": 83.255602
        },
        "ad_info": {
            "adcode": 654025,
            "province": "新疆维吾尔自治区",
            "city": "伊犁哈萨克自治州",
            "district": "新源县"
        }
    },
    {
        "id": "8993456231989102063",
        "title": "公共厕所",
        "address": "新疆维吾尔自治区伊犁哈萨克自治州伊宁市胜利街65号",
        "tel": "",
        "category": "基础设施:公共设施:公共厕所",
        "type": 0,
        "location": {
            "lat": 43.914466,
            "lng": 81.331504
        },
        "ad_info": {
            "adcode": 654002,
            "province": "新疆维吾尔自治区",
            "city": "伊犁哈萨克自治州",
            "district": "伊宁市"
        }
    },
    {
        "id": "8326353560064232152",
        "title": "公共厕所",
        "address": "新疆维吾尔自治区伊犁哈萨克自治州伊宁县X708与Y143交叉口西南方向41米左右",
        "tel": "",
        "category": "基础设施:公共设施:公共厕所",
        "type": 0,
        "location": {
            "lat": 43.654891,
            "lng": 81.93786
        },
        "ad_info": {
            "adcode": 654021,
            "province": "新疆维吾尔自治区",
            "city": "伊犁哈萨克自治州",
            "district": "伊宁县"
        }
    },
    {
        "id": "1833826109638621997",
        "title": "那拉提服务区公共厕所",
        "address": "新疆维吾尔自治区伊犁哈萨克自治州新源县S12高伊高速与那拉提服务区交叉口西北480米",
        "tel": "",
        "category": "基础设施:公共设施:公共厕所",
        "type": 0,
        "location": {
            "lat": 43.387071,
            "lng": 83.940124
        },
        "ad_info": {
            "adcode": 654025,
            "province": "新疆维吾尔自治区",
            "city": "伊犁哈萨克自治州",
            "district": "新源县"
        }
    },
    {
        "id": "14564056506574224668",
        "title": "奎屯市火车站东广场24小时公共厕所",
        "address": "新疆维吾尔自治区伊犁哈萨克自治州奎屯市团结南街与铁二路交叉口东南方向82米左右",
        "tel": "",
        "category": "基础设施:公共设施:公共厕所",
        "type": 0,
        "location": {
            "lat": 44.404745,
            "lng": 84.901436
        },
        "ad_info": {
            "adcode": 654003,
            "province": "新疆维吾尔自治区",
            "city": "伊犁哈萨克自治州",
            "district": "奎屯市"
        }
    },
    {
        "id": "15467119242249296045",
        "title": "伊犁州奎屯市兵团客运站公共厕所工会驿站",
        "address": "新疆维吾尔自治区伊犁哈萨克自治州奎屯市乌鲁木齐东路与沙湾街交叉口西北方向102米左右",
        "tel": "",
        "category": "基础设施:公共设施:公共厕所",
        "type": 0,
        "location": {
            "lat": 44.429645,
            "lng": 84.908315
        },
        "ad_info": {
            "adcode": 654003,
            "province": "新疆维吾尔自治区",
            "city": "伊犁哈萨克自治州",
            "district": "奎屯市"
        }
    },
    {
        "id": "11853507229252474648",
        "title": "公共厕所",
        "address": "新疆维吾尔自治区伊犁哈萨克自治州巩留县新华路与静和路交叉口正东方向101米左右",
        "tel": "",
        "category": "基础设施:公共设施:公共厕所",
        "type": 0,
        "location": {
            "lat": 43.483977,
            "lng": 82.230816
        },
        "ad_info": {
            "adcode": 654024,
            "province": "新疆维吾尔自治区",
            "city": "伊犁哈萨克自治州",
            "district": "巩留县"
        }
    },
    {
        "id": "13342658357321069249",
        "title": "公共厕所",
        "address": "新疆维吾尔自治区伊犁哈萨克自治州新源县天山西街与托海路交叉口正西方向56米左右",
        "tel": "",
        "category": "基础设施:公共设施:公共厕所",
        "type": 0,
        "location": {
            "lat": 43.436586,
            "lng": 83.23945
        },
        "ad_info": {
            "adcode": 654025,
            "province": "新疆维吾尔自治区",
            "city": "伊犁哈萨克自治州",
            "district": "新源县"
        }
    },
    {
        "id": "11134725477471630248",
        "title": "人民广场-公共厕所",
        "address": "新疆维吾尔自治区伊犁哈萨克自治州伊宁市斯大林东路伊犁铜锣湾(东南角)",
        "tel": "",
        "category": "基础设施:公共设施:公共厕所",
        "type": 0,
        "location": {
            "lat": 43.917047,
            "lng": 81.328526
        },
        "ad_info": {
            "adcode": 654002,
            "province": "新疆维吾尔自治区",
            "city": "伊犁哈萨克自治州",
            "district": "伊宁市"
        }
    },
    {
        "id": "2851183612347271622",
        "title": "旅游厕所",
        "address": "新疆维吾尔自治区伊犁哈萨克自治州特克斯县Y272与Y287交叉口正北方向1399米左右",
        "tel": "",
        "category": "基础设施:公共设施:公共厕所",
        "type": 0,
        "location": {
            "lat": 43.286335,
            "lng": 81.708515
        },
        "ad_info": {
            "adcode": 654027,
            "province": "新疆维吾尔自治区",
            "city": "伊犁哈萨克自治州",
            "district": "特克斯县"
        }
    },
    {
        "id": "4224746206072368388",
        "title": "公共厕所",
        "address": "新疆维吾尔自治区伊犁哈萨克自治州奎屯市乌鲁木齐东路与呼图壁街交叉口正东方向112米左右",
        "tel": "",
        "category": "基础设施:公共设施:公共厕所",
        "type": 0,
        "location": {
            "lat": 44.427924,
            "lng": 84.931921
        },
        "ad_info": {
            "adcode": 654003,
            "province": "新疆维吾尔自治区",
            "city": "伊犁哈萨克自治州",
            "district": "奎屯市"
        }
    },
    {
        "id": "10220303496501338423",
        "title": "公共厕所",
        "address": "新疆维吾尔自治区伊犁哈萨克自治州伊宁县",
        "tel": "",
        "category": "基础设施:公共设施:公共厕所",
        "type": 0,
        "location": {
            "lat": 43.874383,
            "lng": 81.518065
        },
        "ad_info": {
            "adcode": 654021,
            "province": "新疆维吾尔自治区",
            "city": "伊犁哈萨克自治州",
            "district": "伊宁县"
        }
    },
    {
        "id": "9257590164454203756",
        "title": "公共厕所",
        "address": "新疆维吾尔自治区伊犁哈萨克自治州新源县则新路与迎宾路交叉口正东方向105米左右",
        "tel": "",
        "category": "基础设施:公共设施:公共厕所",
        "type": 0,
        "location": {
            "lat": 43.513206,
            "lng": 83.265135
        },
        "ad_info": {
            "adcode": 654025,
            "province": "新疆维吾尔自治区",
            "city": "伊犁哈萨克自治州",
            "district": "新源县"
        }
    },
    {
        "id": "6928774906606218862",
        "title": "公共厕所",
        "address": "新疆维吾尔自治区伊犁哈萨克自治州巩留县东二路与东环路交叉口正北方向162米左右",
        "tel": "",
        "category": "基础设施:公共设施:公共厕所",
        "type": 0,
        "location": {
            "lat": 43.480783,
            "lng": 82.2419
        },
        "ad_info": {
            "adcode": 654024,
            "province": "新疆维吾尔自治区",
            "city": "伊犁哈萨克自治州",
            "district": "巩留县"
        }
    },
    {
        "id": "9518140597653437003",
        "title": "公共厕所",
        "address": "新疆维吾尔自治区伊犁哈萨克自治州巩留县团结东路与幸福二路交叉口正西方向171米左右",
        "tel": "",
        "category": "基础设施:公共设施:公共厕所",
        "type": 0,
        "location": {
            "lat": 43.468999,
            "lng": 82.250714
        },
        "ad_info": {
            "adcode": 654024,
            "province": "新疆维吾尔自治区",
            "city": "伊犁哈萨克自治州",
            "district": "巩留县"
        }
    },
    {
        "id": "1089298659922644971",
        "title": "公共厕所",
        "address": "新疆维吾尔自治区伊犁哈萨克自治州奎屯市伊犁路与阿勒泰街交叉口正南方向90米左右",
        "tel": "",
        "category": "基础设施:公共设施:公共厕所",
        "type": 0,
        "location": {
            "lat": 44.433656,
            "lng": 84.895249
        },
        "ad_info": {
            "adcode": 654003,
            "province": "新疆维吾尔自治区",
            "city": "伊犁哈萨克自治州",
            "district": "奎屯市"
        }
    },
    {
        "id": "16172119184481513761",
        "title": "那拉提服务区公共厕所",
        "address": "新疆维吾尔自治区伊犁哈萨克自治州新源县那拉提服务区电动汽车充电站东南侧",
        "tel": "",
        "category": "基础设施:公共设施:公共厕所",
        "type": 0,
        "location": {
            "lat": 43.386986,
            "lng": 83.935243
        },
        "ad_info": {
            "adcode": 654025,
            "province": "新疆维吾尔自治区",
            "city": "伊犁哈萨克自治州",
            "district": "新源县"
        }
    },
    {
        "id": "13659758813951934679",
        "title": "木斯服务区公共厕所",
        "address": "新疆维吾尔自治区伊犁哈萨克自治州尼勒克县木斯服务区南40米",
        "tel": "",
        "category": "基础设施:公共设施:公共厕所",
        "type": 0,
        "location": {
            "lat": 43.588724,
            "lng": 82.759101
        },
        "ad_info": {
            "adcode": 654028,
            "province": "新疆维吾尔自治区",
            "city": "伊犁哈萨克自治州",
            "district": "尼勒克县"
        }
    },
    {
        "id": "16260386863657370377",
        "title": "公共厕所",
        "address": "新疆维吾尔自治区伊犁哈萨克自治州昭苏县Y249",
        "tel": "",
        "category": "基础设施:公共设施:公共厕所",
        "type": 0,
        "location": {
            "lat": 42.933112,
            "lng": 81.334907
        },
        "ad_info": {
            "adcode": 654026,
            "province": "新疆维吾尔自治区",
            "city": "伊犁哈萨克自治州",
            "district": "昭苏县"
        }
    },
    {
        "id": "192242260513478201",
        "title": "奎屯市第五空间公共厕所",
        "address": "新疆维吾尔自治区伊犁哈萨克自治州奎屯市新疆应用职业技术学院继续教育学院西侧210米",
        "tel": "",
        "category": "基础设施:公共设施:公共厕所",
        "type": 0,
        "location": {
            "lat": 44.426557,
            "lng": 84.874132
        },
        "ad_info": {
            "adcode": 654003,
            "province": "新疆维吾尔自治区",
            "city": "伊犁哈萨克自治州",
            "district": "奎屯市"
        }
    },
    {
        "id": "4981903653374765999",
        "title": "公共厕所",
        "address": "新疆维吾尔自治区伊犁哈萨克自治州新源县团结路与青年街交叉口东北方向217米左右",
        "tel": "",
        "category": "基础设施:公共设施:公共厕所",
        "type": 0,
        "location": {
            "lat": 43.434989,
            "lng": 83.255602
        },
        "ad_info": {
            "adcode": 654025,
            "province": "新疆维吾尔自治区",
            "city": "伊犁哈萨克自治州",
            "district": "新源县"
        }
    },
    {
        "id": "8993456231989102063",
        "title": "公共厕所",
        "address": "新疆维吾尔自治区伊犁哈萨克自治州伊宁市胜利街65号",
        "tel": "",
        "category": "基础设施:公共设施:公共厕所",
        "type": 0,
        "location": {
            "lat": 43.914466,
            "lng": 81.331504
        },
        "ad_info": {
            "adcode": 654002,
            "province": "新疆维吾尔自治区",
            "city": "伊犁哈萨克自治州",
            "district": "伊宁市"
        }
    },
    {
        "id": "8326353560064232152",
        "title": "公共厕所",
        "address": "新疆维吾尔自治区伊犁哈萨克自治州伊宁县X708与Y143交叉口西南方向41米左右",
        "tel": "",
        "category": "基础设施:公共设施:公共厕所",
        "type": 0,
        "location": {
            "lat": 43.654891,
            "lng": 81.93786
        },
        "ad_info": {
            "adcode": 654021,
            "province": "新疆维吾尔自治区",
            "city": "伊犁哈萨克自治州",
            "district": "伊宁县"
        }
    },
    {
        "id": "1833826109638621997",
        "title": "那拉提服务区公共厕所",
        "address": "新疆维吾尔自治区伊犁哈萨克自治州新源县S12高伊高速与那拉提服务区交叉口西北480米",
        "tel": "",
        "category": "基础设施:公共设施:公共厕所",
        "type": 0,
        "location": {
            "lat": 43.387071,
            "lng": 83.940124
        },
        "ad_info": {
            "adcode": 654025,
            "province": "新疆维吾尔自治区",
            "city": "伊犁哈萨克自治州",
            "district": "新源县"
        }
    },
    {
        "id": "14564056506574224668",
        "title": "奎屯市火车站东广场24小时公共厕所",
        "address": "新疆维吾尔自治区伊犁哈萨克自治州奎屯市团结南街与铁二路交叉口东南方向82米左右",
        "tel": "",
        "category": "基础设施:公共设施:公共厕所",
        "type": 0,
        "location": {
            "lat": 44.404745,
            "lng": 84.901436
        },
        "ad_info": {
            "adcode": 654003,
            "province": "新疆维吾尔自治区",
            "city": "伊犁哈萨克自治州",
            "district": "奎屯市"
        }
    },
    {
        "id": "15467119242249296045",
        "title": "伊犁州奎屯市兵团客运站公共厕所工会驿站",
        "address": "新疆维吾尔自治区伊犁哈萨克自治州奎屯市乌鲁木齐东路与沙湾街交叉口西北方向102米左右",
        "tel": "",
        "category": "基础设施:公共设施:公共厕所",
        "type": 0,
        "location": {
            "lat": 44.429645,
            "lng": 84.908315
        },
        "ad_info": {
            "adcode": 654003,
            "province": "新疆维吾尔自治区",
            "city": "伊犁哈萨克自治州",
            "district": "奎屯市"
        }
    },
    {
        "id": "11853507229252474648",
        "title": "公共厕所",
        "address": "新疆维吾尔自治区伊犁哈萨克自治州巩留县新华路与静和路交叉口正东方向101米左右",
        "tel": "",
        "category": "基础设施:公共设施:公共厕所",
        "type": 0,
        "location": {
            "lat": 43.483977,
            "lng": 82.230816
        },
        "ad_info": {
            "adcode": 654024,
            "province": "新疆维吾尔自治区",
            "city": "伊犁哈萨克自治州",
            "district": "巩留县"
        }
    },
    {
        "id": "13342658357321069249",
        "title": "公共厕所",
        "address": "新疆维吾尔自治区伊犁哈萨克自治州新源县天山西街与托海路交叉口正西方向56米左右",
        "tel": "",
        "category": "基础设施:公共设施:公共厕所",
        "type": 0,
        "location": {
            "lat": 43.436586,
            "lng": 83.23945
        },
        "ad_info": {
            "adcode": 654025,
            "province": "新疆维吾尔自治区",
            "city": "伊犁哈萨克自治州",
            "district": "新源县"
        }
    },
    {
        "id": "11134725477471630248",
        "title": "人民广场-公共厕所",
        "address": "新疆维吾尔自治区伊犁哈萨克自治州伊宁市斯大林东路伊犁铜锣湾(东南角)",
        "tel": "",
        "category": "基础设施:公共设施:公共厕所",
        "type": 0,
        "location": {
            "lat": 43.917047,
            "lng": 81.328526
        },
        "ad_info": {
            "adcode": 654002,
            "province": "新疆维吾尔自治区",
            "city": "伊犁哈萨克自治州",
            "district": "伊宁市"
        }
    },
    {
        "id": "2851183612347271622",
        "title": "旅游厕所",
        "address": "新疆维吾尔自治区伊犁哈萨克自治州特克斯县Y272与Y287交叉口正北方向1399米左右",
        "tel": "",
        "category": "基础设施:公共设施:公共厕所",
        "type": 0,
        "location": {
            "lat": 43.286335,
            "lng": 81.708515
        },
        "ad_info": {
            "adcode": 654027,
            "province": "新疆维吾尔自治区",
            "city": "伊犁哈萨克自治州",
            "district": "特克斯县"
        }
    },
    {
        "id": "4224746206072368388",
        "title": "公共厕所",
        "address": "新疆维吾尔自治区伊犁哈萨克自治州奎屯市乌鲁木齐东路与呼图壁街交叉口正东方向112米左右",
        "tel": "",
        "category": "基础设施:公共设施:公共厕所",
        "type": 0,
        "location": {
            "lat": 44.427924,
            "lng": 84.931921
        },
        "ad_info": {
            "adcode": 654003,
            "province": "新疆维吾尔自治区",
            "city": "伊犁哈萨克自治州",
            "district": "奎屯市"
        }
    },
    {
        "id": "10220303496501338423",
        "title": "公共厕所",
        "address": "新疆维吾尔自治区伊犁哈萨克自治州伊宁县",
        "tel": "",
        "category": "基础设施:公共设施:公共厕所",
        "type": 0,
        "location": {
            "lat": 43.874383,
            "lng": 81.518065
        },
        "ad_info": {
            "adcode": 654021,
            "province": "新疆维吾尔自治区",
            "city": "伊犁哈萨克自治州",
            "district": "伊宁县"
        }
    },
    {
        "id": "9257590164454203756",
        "title": "公共厕所",
        "address": "新疆维吾尔自治区伊犁哈萨克自治州新源县则新路与迎宾路交叉口正东方向105米左右",
        "tel": "",
        "category": "基础设施:公共设施:公共厕所",
        "type": 0,
        "location": {
            "lat": 43.513206,
            "lng": 83.265135
        },
        "ad_info": {
            "adcode": 654025,
            "province": "新疆维吾尔自治区",
            "city": "伊犁哈萨克自治州",
            "district": "新源县"
        }
    },
    {
        "id": "6928774906606218862",
        "title": "公共厕所",
        "address": "新疆维吾尔自治区伊犁哈萨克自治州巩留县东二路与东环路交叉口正北方向162米左右",
        "tel": "",
        "category": "基础设施:公共设施:公共厕所",
        "type": 0,
        "location": {
            "lat": 43.480783,
            "lng": 82.2419
        },
        "ad_info": {
            "adcode": 654024,
            "province": "新疆维吾尔自治区",
            "city": "伊犁哈萨克自治州",
            "district": "巩留县"
        }
    },
    {
        "id": "9518140597653437003",
        "title": "公共厕所",
        "address": "新疆维吾尔自治区伊犁哈萨克自治州巩留县团结东路与幸福二路交叉口正西方向171米左右",
        "tel": "",
        "category": "基础设施:公共设施:公共厕所",
        "type": 0,
        "location": {
            "lat": 43.468999,
            "lng": 82.250714
        },
        "ad_info": {
            "adcode": 654024,
            "province": "新疆维吾尔自治区",
            "city": "伊犁哈萨克自治州",
            "district": "巩留县"
        }
    },
    {
        "id": "1089298659922644971",
        "title": "公共厕所",
        "address": "新疆维吾尔自治区伊犁哈萨克自治州奎屯市伊犁路与阿勒泰街交叉口正南方向90米左右",
        "tel": "",
        "category": "基础设施:公共设施:公共厕所",
        "type": 0,
        "location": {
            "lat": 44.433656,
            "lng": 84.895249
        },
        "ad_info": {
            "adcode": 654003,
            "province": "新疆维吾尔自治区",
            "city": "伊犁哈萨克自治州",
            "district": "奎屯市"
        }
    },
    {
        "id": "16172119184481513761",
        "title": "那拉提服务区公共厕所",
        "address": "新疆维吾尔自治区伊犁哈萨克自治州新源县那拉提服务区电动汽车充电站东南侧",
        "tel": "",
        "category": "基础设施:公共设施:公共厕所",
        "type": 0,
        "location": {
            "lat": 43.386986,
            "lng": 83.935243
        },
        "ad_info": {
            "adcode": 654025,
            "province": "新疆维吾尔自治区",
            "city": "伊犁哈萨克自治州",
            "district": "新源县"
        }
    },
    {
        "id": "13659758813951934679",
        "title": "木斯服务区公共厕所",
        "address": "新疆维吾尔自治区伊犁哈萨克自治州尼勒克县木斯服务区南40米",
        "tel": "",
        "category": "基础设施:公共设施:公共厕所",
        "type": 0,
        "location": {
            "lat": 43.588724,
            "lng": 82.759101
        },
        "ad_info": {
            "adcode": 654028,
            "province": "新疆维吾尔自治区",
            "city": "伊犁哈萨克自治州",
            "district": "尼勒克县"
        }
    },
    {
        "id": "16260386863657370377",
        "title": "公共厕所",
        "address": "新疆维吾尔自治区伊犁哈萨克自治州昭苏县Y249",
        "tel": "",
        "category": "基础设施:公共设施:公共厕所",
        "type": 0,
        "location": {
            "lat": 42.933112,
            "lng": 81.334907
        },
        "ad_info": {
            "adcode": 654026,
            "province": "新疆维吾尔自治区",
            "city": "伊犁哈萨克自治州",
            "district": "昭苏县"
        }
    },
    {
        "id": "192242260513478201",
        "title": "奎屯市第五空间公共厕所",
        "address": "新疆维吾尔自治区伊犁哈萨克自治州奎屯市新疆应用职业技术学院继续教育学院西侧210米",
        "tel": "",
        "category": "基础设施:公共设施:公共厕所",
        "type": 0,
        "location": {
            "lat": 44.426557,
            "lng": 84.874132
        },
        "ad_info": {
            "adcode": 654003,
            "province": "新疆维吾尔自治区",
            "city": "伊犁哈萨克自治州",
            "district": "奎屯市"
        }
    },
    {
        "id": "4981903653374765999",
        "title": "公共厕所",
        "address": "新疆维吾尔自治区伊犁哈萨克自治州新源县团结路与青年街交叉口东北方向217米左右",
        "tel": "",
        "category": "基础设施:公共设施:公共厕所",
        "type": 0,
        "location": {
            "lat": 43.434989,
            "lng": 83.255602
        },
        "ad_info": {
            "adcode": 654025,
            "province": "新疆维吾尔自治区",
            "city": "伊犁哈萨克自治州",
            "district": "新源县"
        }
    },
    {
        "id": "8993456231989102063",
        "title": "公共厕所",
        "address": "新疆维吾尔自治区伊犁哈萨克自治州伊宁市胜利街65号",
        "tel": "",
        "category": "基础设施:公共设施:公共厕所",
        "type": 0,
        "location": {
            "lat": 43.914466,
            "lng": 81.331504
        },
        "ad_info": {
            "adcode": 654002,
            "province": "新疆维吾尔自治区",
            "city": "伊犁哈萨克自治州",
            "district": "伊宁市"
        }
    },
    {
        "id": "8326353560064232152",
        "title": "公共厕所",
        "address": "新疆维吾尔自治区伊犁哈萨克自治州伊宁县X708与Y143交叉口西南方向41米左右",
        "tel": "",
        "category": "基础设施:公共设施:公共厕所",
        "type": 0,
        "location": {
            "lat": 43.654891,
            "lng": 81.93786
        },
        "ad_info": {
            "adcode": 654021,
            "province": "新疆维吾尔自治区",
            "city": "伊犁哈萨克自治州",
            "district": "伊宁县"
        }
    },
    {
        "id": "1833826109638621997",
        "title": "那拉提服务区公共厕所",
        "address": "新疆维吾尔自治区伊犁哈萨克自治州新源县S12高伊高速与那拉提服务区交叉口西北480米",
        "tel": "",
        "category": "基础设施:公共设施:公共厕所",
        "type": 0,
        "location": {
            "lat": 43.387071,
            "lng": 83.940124
        },
        "ad_info": {
            "adcode": 654025,
            "province": "新疆维吾尔自治区",
            "city": "伊犁哈萨克自治州",
            "district": "新源县"
        }
    },
    {
        "id": "14564056506574224668",
        "title": "奎屯市火车站东广场24小时公共厕所",
        "address": "新疆维吾尔自治区伊犁哈萨克自治州奎屯市团结南街与铁二路交叉口东南方向82米左右",
        "tel": "",
        "category": "基础设施:公共设施:公共厕所",
        "type": 0,
        "location": {
            "lat": 44.404745,
            "lng": 84.901436
        },
        "ad_info": {
            "adcode": 654003,
            "province": "新疆维吾尔自治区",
            "city": "伊犁哈萨克自治州",
            "district": "奎屯市"
        }
    },
    {
        "id": "15467119242249296045",
        "title": "伊犁州奎屯市兵团客运站公共厕所工会驿站",
        "address": "新疆维吾尔自治区伊犁哈萨克自治州奎屯市乌鲁木齐东路与沙湾街交叉口西北方向102米左右",
        "tel": "",
        "category": "基础设施:公共设施:公共厕所",
        "type": 0,
        "location": {
            "lat": 44.429645,
            "lng": 84.908315
        },
        "ad_info": {
            "adcode": 654003,
            "province": "新疆维吾尔自治区",
            "city": "伊犁哈萨克自治州",
            "district": "奎屯市"
        }
    },
    {
        "id": "11853507229252474648",
        "title": "公共厕所",
        "address": "新疆维吾尔自治区伊犁哈萨克自治州巩留县新华路与静和路交叉口正东方向101米左右",
        "tel": "",
        "category": "基础设施:公共设施:公共厕所",
        "type": 0,
        "location": {
            "lat": 43.483977,
            "lng": 82.230816
        },
        "ad_info": {
            "adcode": 654024,
            "province": "新疆维吾尔自治区",
            "city": "伊犁哈萨克自治州",
            "district": "巩留县"
        }
    },
    {
        "id": "13342658357321069249",
        "title": "公共厕所",
        "address": "新疆维吾尔自治区伊犁哈萨克自治州新源县天山西街与托海路交叉口正西方向56米左右",
        "tel": "",
        "category": "基础设施:公共设施:公共厕所",
        "type": 0,
        "location": {
            "lat": 43.436586,
            "lng": 83.23945
        },
        "ad_info": {
            "adcode": 654025,
            "province": "新疆维吾尔自治区",
            "city": "伊犁哈萨克自治州",
            "district": "新源县"
        }
    },
    {
        "id": "11134725477471630248",
        "title": "人民广场-公共厕所",
        "address": "新疆维吾尔自治区伊犁哈萨克自治州伊宁市斯大林东路伊犁铜锣湾(东南角)",
        "tel": "",
        "category": "基础设施:公共设施:公共厕所",
        "type": 0,
        "location": {
            "lat": 43.917047,
            "lng": 81.328526
        },
        "ad_info": {
            "adcode": 654002,
            "province": "新疆维吾尔自治区",
            "city": "伊犁哈萨克自治州",
            "district": "伊宁市"
        }
    },
    {
        "id": "2851183612347271622",
        "title": "旅游厕所",
        "address": "新疆维吾尔自治区伊犁哈萨克自治州特克斯县Y272与Y287交叉口正北方向1399米左右",
        "tel": "",
        "category": "基础设施:公共设施:公共厕所",
        "type": 0,
        "location": {
            "lat": 43.286335,
            "lng": 81.708515
        },
        "ad_info": {
            "adcode": 654027,
            "province": "新疆维吾尔自治区",
            "city": "伊犁哈萨克自治州",
            "district": "特克斯县"
        }
    },
    {
        "id": "4224746206072368388",
        "title": "公共厕所",
        "address": "新疆维吾尔自治区伊犁哈萨克自治州奎屯市乌鲁木齐东路与呼图壁街交叉口正东方向112米左右",
        "tel": "",
        "category": "基础设施:公共设施:公共厕所",
        "type": 0,
        "location": {
            "lat": 44.427924,
            "lng": 84.931921
        },
        "ad_info": {
            "adcode": 654003,
            "province": "新疆维吾尔自治区",
            "city": "伊犁哈萨克自治州",
            "district": "奎屯市"
        }
    },
    {
        "id": "10220303496501338423",
        "title": "公共厕所",
        "address": "新疆维吾尔自治区伊犁哈萨克自治州伊宁县",
        "tel": "",
        "category": "基础设施:公共设施:公共厕所",
        "type": 0,
        "location": {
            "lat": 43.874383,
            "lng": 81.518065
        },
        "ad_info": {
            "adcode": 654021,
            "province": "新疆维吾尔自治区",
            "city": "伊犁哈萨克自治州",
            "district": "伊宁县"
        }
    },
    {
        "id": "9257590164454203756",
        "title": "公共厕所",
        "address": "新疆维吾尔自治区伊犁哈萨克自治州新源县则新路与迎宾路交叉口正东方向105米左右",
        "tel": "",
        "category": "基础设施:公共设施:公共厕所",
        "type": 0,
        "location": {
            "lat": 43.513206,
            "lng": 83.265135
        },
        "ad_info": {
            "adcode": 654025,
            "province": "新疆维吾尔自治区",
            "city": "伊犁哈萨克自治州",
            "district": "新源县"
        }
    },
    {
        "id": "6928774906606218862",
        "title": "公共厕所",
        "address": "新疆维吾尔自治区伊犁哈萨克自治州巩留县东二路与东环路交叉口正北方向162米左右",
        "tel": "",
        "category": "基础设施:公共设施:公共厕所",
        "type": 0,
        "location": {
            "lat": 43.480783,
            "lng": 82.2419
        },
        "ad_info": {
            "adcode": 654024,
            "province": "新疆维吾尔自治区",
            "city": "伊犁哈萨克自治州",
            "district": "巩留县"
        }
    },
    {
        "id": "9518140597653437003",
        "title": "公共厕所",
        "address": "新疆维吾尔自治区伊犁哈萨克自治州巩留县团结东路与幸福二路交叉口正西方向171米左右",
        "tel": "",
        "category": "基础设施:公共设施:公共厕所",
        "type": 0,
        "location": {
            "lat": 43.468999,
            "lng": 82.250714
        },
        "ad_info": {
            "adcode": 654024,
            "province": "新疆维吾尔自治区",
            "city": "伊犁哈萨克自治州",
            "district": "巩留县"
        }
    },
    {
        "id": "1089298659922644971",
        "title": "公共厕所",
        "address": "新疆维吾尔自治区伊犁哈萨克自治州奎屯市伊犁路与阿勒泰街交叉口正南方向90米左右",
        "tel": "",
        "category": "基础设施:公共设施:公共厕所",
        "type": 0,
        "location": {
            "lat": 44.433656,
            "lng": 84.895249
        },
        "ad_info": {
            "adcode": 654003,
            "province": "新疆维吾尔自治区",
            "city": "伊犁哈萨克自治州",
            "district": "奎屯市"
        }
    },
    {
        "id": "16172119184481513761",
        "title": "那拉提服务区公共厕所",
        "address": "新疆维吾尔自治区伊犁哈萨克自治州新源县那拉提服务区电动汽车充电站东南侧",
        "tel": "",
        "category": "基础设施:公共设施:公共厕所",
        "type": 0,
        "location": {
            "lat": 43.386986,
            "lng": 83.935243
        },
        "ad_info": {
            "adcode": 654025,
            "province": "新疆维吾尔自治区",
            "city": "伊犁哈萨克自治州",
            "district": "新源县"
        }
    },
    {
        "id": "13659758813951934679",
        "title": "木斯服务区公共厕所",
        "address": "新疆维吾尔自治区伊犁哈萨克自治州尼勒克县木斯服务区南40米",
        "tel": "",
        "category": "基础设施:公共设施:公共厕所",
        "type": 0,
        "location": {
            "lat": 43.588724,
            "lng": 82.759101
        },
        "ad_info": {
            "adcode": 654028,
            "province": "新疆维吾尔自治区",
            "city": "伊犁哈萨克自治州",
            "district": "尼勒克县"
        }
    },
    {
        "id": "16260386863657370377",
        "title": "公共厕所",
        "address": "新疆维吾尔自治区伊犁哈萨克自治州昭苏县Y249",
        "tel": "",
        "category": "基础设施:公共设施:公共厕所",
        "type": 0,
        "location": {
            "lat": 42.933112,
            "lng": 81.334907
        },
        "ad_info": {
            "adcode": 654026,
            "province": "新疆维吾尔自治区",
            "city": "伊犁哈萨克自治州",
            "district": "昭苏县"
        }
    },
    {
        "id": "192242260513478201",
        "title": "奎屯市第五空间公共厕所",
        "address": "新疆维吾尔自治区伊犁哈萨克自治州奎屯市新疆应用职业技术学院继续教育学院西侧210米",
        "tel": "",
        "category": "基础设施:公共设施:公共厕所",
        "type": 0,
        "location": {
            "lat": 44.426557,
            "lng": 84.874132
        },
        "ad_info": {
            "adcode": 654003,
            "province": "新疆维吾尔自治区",
            "city": "伊犁哈萨克自治州",
            "district": "奎屯市"
        }
    },
    {
        "id": "4981903653374765999",
        "title": "公共厕所",
        "address": "新疆维吾尔自治区伊犁哈萨克自治州新源县团结路与青年街交叉口东北方向217米左右",
        "tel": "",
        "category": "基础设施:公共设施:公共厕所",
        "type": 0,
        "location": {
            "lat": 43.434989,
            "lng": 83.255602
        },
        "ad_info": {
            "adcode": 654025,
            "province": "新疆维吾尔自治区",
            "city": "伊犁哈萨克自治州",
            "district": "新源县"
        }
    },
    {
        "id": "8993456231989102063",
        "title": "公共厕所",
        "address": "新疆维吾尔自治区伊犁哈萨克自治州伊宁市胜利街65号",
        "tel": "",
        "category": "基础设施:公共设施:公共厕所",
        "type": 0,
        "location": {
            "lat": 43.914466,
            "lng": 81.331504
        },
        "ad_info": {
            "adcode": 654002,
            "province": "新疆维吾尔自治区",
            "city": "伊犁哈萨克自治州",
            "district": "伊宁市"
        }
    },
    {
        "id": "8326353560064232152",
        "title": "公共厕所",
        "address": "新疆维吾尔自治区伊犁哈萨克自治州伊宁县X708与Y143交叉口西南方向41米左右",
        "tel": "",
        "category": "基础设施:公共设施:公共厕所",
        "type": 0,
        "location": {
            "lat": 43.654891,
            "lng": 81.93786
        },
        "ad_info": {
            "adcode": 654021,
            "province": "新疆维吾尔自治区",
            "city": "伊犁哈萨克自治州",
            "district": "伊宁县"
        }
    },
    {
        "id": "1833826109638621997",
        "title": "那拉提服务区公共厕所",
        "address": "新疆维吾尔自治区伊犁哈萨克自治州新源县S12高伊高速与那拉提服务区交叉口西北480米",
        "tel": "",
        "category": "基础设施:公共设施:公共厕所",
        "type": 0,
        "location": {
            "lat": 43.387071,
            "lng": 83.940124
        },
        "ad_info": {
            "adcode": 654025,
            "province": "新疆维吾尔自治区",
            "city": "伊犁哈萨克自治州",
            "district": "新源县"
        }
    },
    {
        "id": "14564056506574224668",
        "title": "奎屯市火车站东广场24小时公共厕所",
        "address": "新疆维吾尔自治区伊犁哈萨克自治州奎屯市团结南街与铁二路交叉口东南方向82米左右",
        "tel": "",
        "category": "基础设施:公共设施:公共厕所",
        "type": 0,
        "location": {
            "lat": 44.404745,
            "lng": 84.901436
        },
        "ad_info": {
            "adcode": 654003,
            "province": "新疆维吾尔自治区",
            "city": "伊犁哈萨克自治州",
            "district": "奎屯市"
        }
    },
    {
        "id": "15467119242249296045",
        "title": "伊犁州奎屯市兵团客运站公共厕所工会驿站",
        "address": "新疆维吾尔自治区伊犁哈萨克自治州奎屯市乌鲁木齐东路与沙湾街交叉口西北方向102米左右",
        "tel": "",
        "category": "基础设施:公共设施:公共厕所",
        "type": 0,
        "location": {
            "lat": 44.429645,
            "lng": 84.908315
        },
        "ad_info": {
            "adcode": 654003,
            "province": "新疆维吾尔自治区",
            "city": "伊犁哈萨克自治州",
            "district": "奎屯市"
        }
    },
    {
        "id": "11853507229252474648",
        "title": "公共厕所",
        "address": "新疆维吾尔自治区伊犁哈萨克自治州巩留县新华路与静和路交叉口正东方向101米左右",
        "tel": "",
        "category": "基础设施:公共设施:公共厕所",
        "type": 0,
        "location": {
            "lat": 43.483977,
            "lng": 82.230816
        },
        "ad_info": {
            "adcode": 654024,
            "province": "新疆维吾尔自治区",
            "city": "伊犁哈萨克自治州",
            "district": "巩留县"
        }
    },
    {
        "id": "13342658357321069249",
        "title": "公共厕所",
        "address": "新疆维吾尔自治区伊犁哈萨克自治州新源县天山西街与托海路交叉口正西方向56米左右",
        "tel": "",
        "category": "基础设施:公共设施:公共厕所",
        "type": 0,
        "location": {
            "lat": 43.436586,
            "lng": 83.23945
        },
        "ad_info": {
            "adcode": 654025,
            "province": "新疆维吾尔自治区",
            "city": "伊犁哈萨克自治州",
            "district": "新源县"
        }
    },
    {
        "id": "11134725477471630248",
        "title": "人民广场-公共厕所",
        "address": "新疆维吾尔自治区伊犁哈萨克自治州伊宁市斯大林东路伊犁铜锣湾(东南角)",
        "tel": "",
        "category": "基础设施:公共设施:公共厕所",
        "type": 0,
        "location": {
            "lat": 43.917047,
            "lng": 81.328526
        },
        "ad_info": {
            "adcode": 654002,
            "province": "新疆维吾尔自治区",
            "city": "伊犁哈萨克自治州",
            "district": "伊宁市"
        }
    },
    {
        "id": "2851183612347271622",
        "title": "旅游厕所",
        "address": "新疆维吾尔自治区伊犁哈萨克自治州特克斯县Y272与Y287交叉口正北方向1399米左右",
        "tel": "",
        "category": "基础设施:公共设施:公共厕所",
        "type": 0,
        "location": {
            "lat": 43.286335,
            "lng": 81.708515
        },
        "ad_info": {
            "adcode": 654027,
            "province": "新疆维吾尔自治区",
            "city": "伊犁哈萨克自治州",
            "district": "特克斯县"
        }
    },
    {
        "id": "4224746206072368388",
        "title": "公共厕所",
        "address": "新疆维吾尔自治区伊犁哈萨克自治州奎屯市乌鲁木齐东路与呼图壁街交叉口正东方向112米左右",
        "tel": "",
        "category": "基础设施:公共设施:公共厕所",
        "type": 0,
        "location": {
            "lat": 44.427924,
            "lng": 84.931921
        },
        "ad_info": {
            "adcode": 654003,
            "province": "新疆维吾尔自治区",
            "city": "伊犁哈萨克自治州",
            "district": "奎屯市"
        }
    },
    {
        "id": "10220303496501338423",
        "title": "公共厕所",
        "address": "新疆维吾尔自治区伊犁哈萨克自治州伊宁县",
        "tel": "",
        "category": "基础设施:公共设施:公共厕所",
        "type": 0,
        "location": {
            "lat": 43.874383,
            "lng": 81.518065
        },
        "ad_info": {
            "adcode": 654021,
            "province": "新疆维吾尔自治区",
            "city": "伊犁哈萨克自治州",
            "district": "伊宁县"
        }
    },
    {
        "id": "9257590164454203756",
        "title": "公共厕所",
        "address": "新疆维吾尔自治区伊犁哈萨克自治州新源县则新路与迎宾路交叉口正东方向105米左右",
        "tel": "",
        "category": "基础设施:公共设施:公共厕所",
        "type": 0,
        "location": {
            "lat": 43.513206,
            "lng": 83.265135
        },
        "ad_info": {
            "adcode": 654025,
            "province": "新疆维吾尔自治区",
            "city": "伊犁哈萨克自治州",
            "district": "新源县"
        }
    },
    {
        "id": "6928774906606218862",
        "title": "公共厕所",
        "address": "新疆维吾尔自治区伊犁哈萨克自治州巩留县东二路与东环路交叉口正北方向162米左右",
        "tel": "",
        "category": "基础设施:公共设施:公共厕所",
        "type": 0,
        "location": {
            "lat": 43.480783,
            "lng": 82.2419
        },
        "ad_info": {
            "adcode": 654024,
            "province": "新疆维吾尔自治区",
            "city": "伊犁哈萨克自治州",
            "district": "巩留县"
        }
    },
    {
        "id": "9518140597653437003",
        "title": "公共厕所",
        "address": "新疆维吾尔自治区伊犁哈萨克自治州巩留县团结东路与幸福二路交叉口正西方向171米左右",
        "tel": "",
        "category": "基础设施:公共设施:公共厕所",
        "type": 0,
        "location": {
            "lat": 43.468999,
            "lng": 82.250714
        },
        "ad_info": {
            "adcode": 654024,
            "province": "新疆维吾尔自治区",
            "city": "伊犁哈萨克自治州",
            "district": "巩留县"
        }
    },
    {
        "id": "1089298659922644971",
        "title": "公共厕所",
        "address": "新疆维吾尔自治区伊犁哈萨克自治州奎屯市伊犁路与阿勒泰街交叉口正南方向90米左右",
        "tel": "",
        "category": "基础设施:公共设施:公共厕所",
        "type": 0,
        "location": {
            "lat": 44.433656,
            "lng": 84.895249
        },
        "ad_info": {
            "adcode": 654003,
            "province": "新疆维吾尔自治区",
            "city": "伊犁哈萨克自治州",
            "district": "奎屯市"
        }
    },
    {
        "id": "16172119184481513761",
        "title": "那拉提服务区公共厕所",
        "address": "新疆维吾尔自治区伊犁哈萨克自治州新源县那拉提服务区电动汽车充电站东南侧",
        "tel": "",
        "category": "基础设施:公共设施:公共厕所",
        "type": 0,
        "location": {
            "lat": 43.386986,
            "lng": 83.935243
        },
        "ad_info": {
            "adcode": 654025,
            "province": "新疆维吾尔自治区",
            "city": "伊犁哈萨克自治州",
            "district": "新源县"
        }
    },
    {
        "id": "13659758813951934679",
        "title": "木斯服务区公共厕所",
        "address": "新疆维吾尔自治区伊犁哈萨克自治州尼勒克县木斯服务区南40米",
        "tel": "",
        "category": "基础设施:公共设施:公共厕所",
        "type": 0,
        "location": {
            "lat": 43.588724,
            "lng": 82.759101
        },
        "ad_info": {
            "adcode": 654028,
            "province": "新疆维吾尔自治区",
            "city": "伊犁哈萨克自治州",
            "district": "尼勒克县"
        }
    },
    {
        "id": "16260386863657370377",
        "title": "公共厕所",
        "address": "新疆维吾尔自治区伊犁哈萨克自治州昭苏县Y249",
        "tel": "",
        "category": "基础设施:公共设施:公共厕所",
        "type": 0,
        "location": {
            "lat": 42.933112,
            "lng": 81.334907
        },
        "ad_info": {
            "adcode": 654026,
            "province": "新疆维吾尔自治区",
            "city": "伊犁哈萨克自治州",
            "district": "昭苏县"
        }
    },
    {
        "id": "192242260513478201",
        "title": "奎屯市第五空间公共厕所",
        "address": "新疆维吾尔自治区伊犁哈萨克自治州奎屯市新疆应用职业技术学院继续教育学院西侧210米",
        "tel": "",
        "category": "基础设施:公共设施:公共厕所",
        "type": 0,
        "location": {
            "lat": 44.426557,
            "lng": 84.874132
        },
        "ad_info": {
            "adcode": 654003,
            "province": "新疆维吾尔自治区",
            "city": "伊犁哈萨克自治州",
            "district": "奎屯市"
        }
    },
    {
        "id": "4981903653374765999",
        "title": "公共厕所",
        "address": "新疆维吾尔自治区伊犁哈萨克自治州新源县团结路与青年街交叉口东北方向217米左右",
        "tel": "",
        "category": "基础设施:公共设施:公共厕所",
        "type": 0,
        "location": {
            "lat": 43.434989,
            "lng": 83.255602
        },
        "ad_info": {
            "adcode": 654025,
            "province": "新疆维吾尔自治区",
            "city": "伊犁哈萨克自治州",
            "district": "新源县"
        }
    },
    {
        "id": "8993456231989102063",
        "title": "公共厕所",
        "address": "新疆维吾尔自治区伊犁哈萨克自治州伊宁市胜利街65号",
        "tel": "",
        "category": "基础设施:公共设施:公共厕所",
        "type": 0,
        "location": {
            "lat": 43.914466,
            "lng": 81.331504
        },
        "ad_info": {
            "adcode": 654002,
            "province": "新疆维吾尔自治区",
            "city": "伊犁哈萨克自治州",
            "district": "伊宁市"
        }
    },
    {
        "id": "8326353560064232152",
        "title": "公共厕所",
        "address": "新疆维吾尔自治区伊犁哈萨克自治州伊宁县X708与Y143交叉口西南方向41米左右",
        "tel": "",
        "category": "基础设施:公共设施:公共厕所",
        "type": 0,
        "location": {
            "lat": 43.654891,
            "lng": 81.93786
        },
        "ad_info": {
            "adcode": 654021,
            "province": "新疆维吾尔自治区",
            "city": "伊犁哈萨克自治州",
            "district": "伊宁县"
        }
    },
    {
        "id": "1833826109638621997",
        "title": "那拉提服务区公共厕所",
        "address": "新疆维吾尔自治区伊犁哈萨克自治州新源县S12高伊高速与那拉提服务区交叉口西北480米",
        "tel": "",
        "category": "基础设施:公共设施:公共厕所",
        "type": 0,
        "location": {
            "lat": 43.387071,
            "lng": 83.940124
        },
        "ad_info": {
            "adcode": 654025,
            "province": "新疆维吾尔自治区",
            "city": "伊犁哈萨克自治州",
            "district": "新源县"
        }
    },
    {
        "id": "14564056506574224668",
        "title": "奎屯市火车站东广场24小时公共厕所",
        "address": "新疆维吾尔自治区伊犁哈萨克自治州奎屯市团结南街与铁二路交叉口东南方向82米左右",
        "tel": "",
        "category": "基础设施:公共设施:公共厕所",
        "type": 0,
        "location": {
            "lat": 44.404745,
            "lng": 84.901436
        },
        "ad_info": {
            "adcode": 654003,
            "province": "新疆维吾尔自治区",
            "city": "伊犁哈萨克自治州",
            "district": "奎屯市"
        }
    },
    {
        "id": "15467119242249296045",
        "title": "伊犁州奎屯市兵团客运站公共厕所工会驿站",
        "address": "新疆维吾尔自治区伊犁哈萨克自治州奎屯市乌鲁木齐东路与沙湾街交叉口西北方向102米左右",
        "tel": "",
        "category": "基础设施:公共设施:公共厕所",
        "type": 0,
        "location": {
            "lat": 44.429645,
            "lng": 84.908315
        },
        "ad_info": {
            "adcode": 654003,
            "province": "新疆维吾尔自治区",
            "city": "伊犁哈萨克自治州",
            "district": "奎屯市"
        }
    },
    {
        "id": "11853507229252474648",
        "title": "公共厕所",
        "address": "新疆维吾尔自治区伊犁哈萨克自治州巩留县新华路与静和路交叉口正东方向101米左右",
        "tel": "",
        "category": "基础设施:公共设施:公共厕所",
        "type": 0,
        "location": {
            "lat": 43.483977,
            "lng": 82.230816
        },
        "ad_info": {
            "adcode": 654024,
            "province": "新疆维吾尔自治区",
            "city": "伊犁哈萨克自治州",
            "district": "巩留县"
        }
    },
    {
        "id": "13342658357321069249",
        "title": "公共厕所",
        "address": "新疆维吾尔自治区伊犁哈萨克自治州新源县天山西街与托海路交叉口正西方向56米左右",
        "tel": "",
        "category": "基础设施:公共设施:公共厕所",
        "type": 0,
        "location": {
            "lat": 43.436586,
            "lng": 83.23945
        },
        "ad_info": {
            "adcode": 654025,
            "province": "新疆维吾尔自治区",
            "city": "伊犁哈萨克自治州",
            "district": "新源县"
        }
    },
    {
        "id": "11134725477471630248",
        "title": "人民广场-公共厕所",
        "address": "新疆维吾尔自治区伊犁哈萨克自治州伊宁市斯大林东路伊犁铜锣湾(东南角)",
        "tel": "",
        "category": "基础设施:公共设施:公共厕所",
        "type": 0,
        "location": {
            "lat": 43.917047,
            "lng": 81.328526
        },
        "ad_info": {
            "adcode": 654002,
            "province": "新疆维吾尔自治区",
            "city": "伊犁哈萨克自治州",
            "district": "伊宁市"
        }
    },
    {
        "id": "2851183612347271622",
        "title": "旅游厕所",
        "address": "新疆维吾尔自治区伊犁哈萨克自治州特克斯县Y272与Y287交叉口正北方向1399米左右",
        "tel": "",
        "category": "基础设施:公共设施:公共厕所",
        "type": 0,
        "location": {
            "lat": 43.286335,
            "lng": 81.708515
        },
        "ad_info": {
            "adcode": 654027,
            "province": "新疆维吾尔自治区",
            "city": "伊犁哈萨克自治州",
            "district": "特克斯县"
        }
    },
    {
        "id": "4224746206072368388",
        "title": "公共厕所",
        "address": "新疆维吾尔自治区伊犁哈萨克自治州奎屯市乌鲁木齐东路与呼图壁街交叉口正东方向112米左右",
        "tel": "",
        "category": "基础设施:公共设施:公共厕所",
        "type": 0,
        "location": {
            "lat": 44.427924,
            "lng": 84.931921
        },
        "ad_info": {
            "adcode": 654003,
            "province": "新疆维吾尔自治区",
            "city": "伊犁哈萨克自治州",
            "district": "奎屯市"
        }
    },
    {
        "id": "10220303496501338423",
        "title": "公共厕所",
        "address": "新疆维吾尔自治区伊犁哈萨克自治州伊宁县",
        "tel": "",
        "category": "基础设施:公共设施:公共厕所",
        "type": 0,
        "location": {
            "lat": 43.874383,
            "lng": 81.518065
        },
        "ad_info": {
            "adcode": 654021,
            "province": "新疆维吾尔自治区",
            "city": "伊犁哈萨克自治州",
            "district": "伊宁县"
        }
    },
    {
        "id": "9257590164454203756",
        "title": "公共厕所",
        "address": "新疆维吾尔自治区伊犁哈萨克自治州新源县则新路与迎宾路交叉口正东方向105米左右",
        "tel": "",
        "category": "基础设施:公共设施:公共厕所",
        "type": 0,
        "location": {
            "lat": 43.513206,
            "lng": 83.265135
        },
        "ad_info": {
            "adcode": 654025,
            "province": "新疆维吾尔自治区",
            "city": "伊犁哈萨克自治州",
            "district": "新源县"
        }
    },
    {
        "id": "6928774906606218862",
        "title": "公共厕所",
        "address": "新疆维吾尔自治区伊犁哈萨克自治州巩留县东二路与东环路交叉口正北方向162米左右",
        "tel": "",
        "category": "基础设施:公共设施:公共厕所",
        "type": 0,
        "location": {
            "lat": 43.480783,
            "lng": 82.2419
        },
        "ad_info": {
            "adcode": 654024,
            "province": "新疆维吾尔自治区",
            "city": "伊犁哈萨克自治州",
            "district": "巩留县"
        }
    },
    {
        "id": "9518140597653437003",
        "title": "公共厕所",
        "address": "新疆维吾尔自治区伊犁哈萨克自治州巩留县团结东路与幸福二路交叉口正西方向171米左右",
        "tel": "",
        "category": "基础设施:公共设施:公共厕所",
        "type": 0,
        "location": {
            "lat": 43.468999,
            "lng": 82.250714
        },
        "ad_info": {
            "adcode": 654024,
            "province": "新疆维吾尔自治区",
            "city": "伊犁哈萨克自治州",
            "district": "巩留县"
        }
    },
    {
        "id": "1089298659922644971",
        "title": "公共厕所",
        "address": "新疆维吾尔自治区伊犁哈萨克自治州奎屯市伊犁路与阿勒泰街交叉口正南方向90米左右",
        "tel": "",
        "category": "基础设施:公共设施:公共厕所",
        "type": 0,
        "location": {
            "lat": 44.433656,
            "lng": 84.895249
        },
        "ad_info": {
            "adcode": 654003,
            "province": "新疆维吾尔自治区",
            "city": "伊犁哈萨克自治州",
            "district": "奎屯市"
        }
    },
    {
        "id": "16172119184481513761",
        "title": "那拉提服务区公共厕所",
        "address": "新疆维吾尔自治区伊犁哈萨克自治州新源县那拉提服务区电动汽车充电站东南侧",
        "tel": "",
        "category": "基础设施:公共设施:公共厕所",
        "type": 0,
        "location": {
            "lat": 43.386986,
            "lng": 83.935243
        },
        "ad_info": {
            "adcode": 654025,
            "province": "新疆维吾尔自治区",
            "city": "伊犁哈萨克自治州",
            "district": "新源县"
        }
    },
    {
        "id": "13659758813951934679",
        "title": "木斯服务区公共厕所",
        "address": "新疆维吾尔自治区伊犁哈萨克自治州尼勒克县木斯服务区南40米",
        "tel": "",
        "category": "基础设施:公共设施:公共厕所",
        "type": 0,
        "location": {
            "lat": 43.588724,
            "lng": 82.759101
        },
        "ad_info": {
            "adcode": 654028,
            "province": "新疆维吾尔自治区",
            "city": "伊犁哈萨克自治州",
            "district": "尼勒克县"
        }
    },
    {
        "id": "16260386863657370377",
        "title": "公共厕所",
        "address": "新疆维吾尔自治区伊犁哈萨克自治州昭苏县Y249",
        "tel": "",
        "category": "基础设施:公共设施:公共厕所",
        "type": 0,
        "location": {
            "lat": 42.933112,
            "lng": 81.334907
        },
        "ad_info": {
            "adcode": 654026,
            "province": "新疆维吾尔自治区",
            "city": "伊犁哈萨克自治州",
            "district": "昭苏县"
        }
    },
    {
        "id": "192242260513478201",
        "title": "奎屯市第五空间公共厕所",
        "address": "新疆维吾尔自治区伊犁哈萨克自治州奎屯市新疆应用职业技术学院继续教育学院西侧210米",
        "tel": "",
        "category": "基础设施:公共设施:公共厕所",
        "type": 0,
        "location": {
            "lat": 44.426557,
            "lng": 84.874132
        },
        "ad_info": {
            "adcode": 654003,
            "province": "新疆维吾尔自治区",
            "city": "伊犁哈萨克自治州",
            "district": "奎屯市"
        }
    },
    {
        "id": "4981903653374765999",
        "title": "公共厕所",
        "address": "新疆维吾尔自治区伊犁哈萨克自治州新源县团结路与青年街交叉口东北方向217米左右",
        "tel": "",
        "category": "基础设施:公共设施:公共厕所",
        "type": 0,
        "location": {
            "lat": 43.434989,
            "lng": 83.255602
        },
        "ad_info": {
            "adcode": 654025,
            "province": "新疆维吾尔自治区",
            "city": "伊犁哈萨克自治州",
            "district": "新源县"
        }
    },
    {
        "id": "8993456231989102063",
        "title": "公共厕所",
        "address": "新疆维吾尔自治区伊犁哈萨克自治州伊宁市胜利街65号",
        "tel": "",
        "category": "基础设施:公共设施:公共厕所",
        "type": 0,
        "location": {
            "lat": 43.914466,
            "lng": 81.331504
        },
        "ad_info": {
            "adcode": 654002,
            "province": "新疆维吾尔自治区",
            "city": "伊犁哈萨克自治州",
            "district": "伊宁市"
        }
    }
]