[
    {
        "id": "5410935272423261482",
        "title": "公共厕所",
        "address": "黑龙江省佳木斯市前进区红星胡同与长安东路辅路交叉口正西方向110米左右",
        "tel": "",
        "category": "基础设施:公共设施:公共厕所",
        "type": 0,
        "location": {
            "lat": 46.816453,
            "lng": 130.381483
        },
        "ad_info": {
            "adcode": 230804,
            "province": "黑龙江省",
            "city": "佳木斯市",
            "district": "前进区"
        }
    },
    {
        "id": "13560584001913317765",
        "title": "公共厕所",
        "address": "黑龙江省佳木斯市前进区师范巷佳木斯市十一中学",
        "tel": "",
        "category": "基础设施:公共设施:公共厕所",
        "type": 0,
        "location": {
            "lat": 46.806168,
            "lng": 130.373336
        },
        "ad_info": {
            "adcode": 230804,
            "province": "黑龙江省",
            "city": "佳木斯市",
            "district": "前进区"
        }
    },
    {
        "id": "8490388179499593569",
        "title": "公共厕所",
        "address": "黑龙江省佳木斯市前进区临江巷与滨江东路交叉口正北方向25米左右",
        "tel": "",
        "category": "基础设施:公共设施:公共厕所",
        "type": 0,
        "location": {
            "lat": 46.820024,
            "lng": 130.366518
        },
        "ad_info": {
            "adcode": 230804,
            "province": "黑龙江省",
            "city": "佳木斯市",
            "district": "前进区"
        }
    },
    {
        "id": "9072062585050928030",
        "title": "公共厕所",
        "address": "黑龙江省佳木斯市前进区安庆街与达贤路交叉口西北方向313米左右",
        "tel": "",
        "category": "基础设施:公共设施:公共厕所",
        "type": 0,
        "location": {
            "lat": 46.784512,
            "lng": 130.423392
        },
        "ad_info": {
            "adcode": 230804,
            "province": "黑龙江省",
            "city": "佳木斯市",
            "district": "前进区"
        }
    },
    {
        "id": "10017922257290032956",
        "title": "公共厕所",
        "address": "黑龙江省佳木斯市前进区升平街192号",
        "tel": "",
        "category": "基础设施:公共设施:公共厕所",
        "type": 0,
        "location": {
            "lat": 46.80697,
            "lng": 130.384229
        },
        "ad_info": {
            "adcode": 230804,
            "province": "黑龙江省",
            "city": "佳木斯市",
            "district": "前进区"
        }
    },
    {
        "id": "15261006826281741735",
        "title": "公共厕所",
        "address": "黑龙江省佳木斯市前进区光复东路佳木斯第十九中学(北校区)",
        "tel": "",
        "category": "基础设施:公共设施:公共厕所",
        "type": 0,
        "location": {
            "lat": 46.812867,
            "lng": 130.388791
        },
        "ad_info": {
            "adcode": 230804,
            "province": "黑龙江省",
            "city": "佳木斯市",
            "district": "前进区"
        }
    },
    {
        "id": "8585040892388713929",
        "title": "公共厕所",
        "address": "黑龙江省佳木斯市前进区和平街与滨江东路交叉口东北方向190米左右",
        "tel": "",
        "category": "基础设施:公共设施:公共厕所",
        "type": 0,
        "location": {
            "lat": 46.820177,
            "lng": 130.377363
        },
        "ad_info": {
            "adcode": 230804,
            "province": "黑龙江省",
            "city": "佳木斯市",
            "district": "前进区"
        }
    },
    {
        "id": "5333189277521060742",
        "title": "公共厕所",
        "address": "黑龙江省佳木斯市前进区中山街与杏林路交叉口东北方向27米左右",
        "tel": "",
        "category": "基础设施:公共设施:公共厕所",
        "type": 0,
        "location": {
            "lat": 46.807179,
            "lng": 130.369739
        },
        "ad_info": {
            "adcode": 230804,
            "province": "黑龙江省",
            "city": "佳木斯市",
            "district": "前进区"
        }
    },
    {
        "id": "7432572446347044648",
        "title": "公共厕所",
        "address": "黑龙江省佳木斯市前进区云峰巷与胜利东路交叉口西北方向116米左右",
        "tel": "",
        "category": "基础设施:公共设施:公共厕所",
        "type": 0,
        "location": {
            "lat": 46.796335,
            "lng": 130.381828
        },
        "ad_info": {
            "adcode": 230804,
            "province": "黑龙江省",
            "city": "佳木斯市",
            "district": "前进区"
        }
    },
    {
        "id": "14962678301858845841",
        "title": "公共厕所",
        "address": "黑龙江省佳木斯市前进区先锋路与安庆街交叉口西南方向120米左右",
        "tel": "",
        "category": "基础设施:公共设施:公共厕所",
        "type": 0,
        "location": {
            "lat": 46.802848,
            "lng": 130.398798
        },
        "ad_info": {
            "adcode": 230804,
            "province": "黑龙江省",
            "city": "佳木斯市",
            "district": "前进区"
        }
    },
    {
        "id": "12035307866280697339",
        "title": "公共厕所",
        "address": "黑龙江省佳木斯市前进区沿江路45号",
        "tel": "",
        "category": "基础设施:公共设施:公共厕所",
        "type": 0,
        "location": {
            "lat": 46.819414,
            "lng": 130.372802
        },
        "ad_info": {
            "adcode": 230804,
            "province": "黑龙江省",
            "city": "佳木斯市",
            "district": "前进区"
        }
    },
    {
        "id": "5466968204410574327",
        "title": "公共厕所",
        "address": "黑龙江省佳木斯市前进区永安街与滨江东路交叉口正东方向89米左右",
        "tel": "",
        "category": "基础设施:公共设施:公共厕所",
        "type": 0,
        "location": {
            "lat": 46.81941,
            "lng": 130.369027
        },
        "ad_info": {
            "adcode": 230804,
            "province": "黑龙江省",
            "city": "佳木斯市",
            "district": "前进区"
        }
    },
    {
        "id": "17582851558189592899",
        "title": "公共厕所",
        "address": "黑龙江省佳木斯市前进区升平街与滨江东路交叉口东北方向106米左右",
        "tel": "",
        "category": "基础设施:公共设施:公共厕所",
        "type": 0,
        "location": {
            "lat": 46.821105,
            "lng": 130.388223
        },
        "ad_info": {
            "adcode": 230804,
            "province": "黑龙江省",
            "city": "佳木斯市",
            "district": "前进区"
        }
    },
    {
        "id": "1547367711429393359",
        "title": "公共厕所",
        "address": "黑龙江省佳木斯市汤原县燃料胡同与胜利街交叉口正南方向142米左右",
        "tel": "",
        "category": "基础设施:公共设施:公共厕所",
        "type": 0,
        "location": {
            "lat": 46.73138,
            "lng": 129.9081
        },
        "ad_info": {
            "adcode": 230828,
            "province": "黑龙江省",
            "city": "佳木斯市",
            "district": "汤原县"
        }
    },
    {
        "id": "18394846959066061508",
        "title": "公共厕所",
        "address": "黑龙江省佳木斯市同江市建设路与闽江街交叉口东南方向135米左右",
        "tel": "",
        "category": "基础设施:公共设施:公共厕所",
        "type": 0,
        "location": {
            "lat": 47.650913,
            "lng": 132.507308
        },
        "ad_info": {
            "adcode": 230881,
            "province": "黑龙江省",
            "city": "佳木斯市",
            "district": "同江市"
        }
    },
    {
        "id": "10541519787397174339",
        "title": "公共厕所",
        "address": "黑龙江省佳木斯市前进区友联铝塑铝门窗有限公司西侧120米",
        "tel": "",
        "category": "基础设施:公共设施:公共厕所",
        "type": 0,
        "location": {
            "lat": 46.782219,
            "lng": 130.417515
        },
        "ad_info": {
            "adcode": 230804,
            "province": "黑龙江省",
            "city": "佳木斯市",
            "district": "前进区"
        }
    },
    {
        "id": "2650418150372852001",
        "title": "公共厕所",
        "address": "黑龙江省佳木斯市汤原县文化路与永安街交叉口西北方向127米左右",
        "tel": "",
        "category": "基础设施:公共设施:公共厕所",
        "type": 0,
        "location": {
            "lat": 47.055409,
            "lng": 130.29457
        },
        "ad_info": {
            "adcode": 230828,
            "province": "黑龙江省",
            "city": "佳木斯市",
            "district": "汤原县"
        }
    },
    {
        "id": "11140216841199424803",
        "title": "公共厕所",
        "address": "黑龙江省佳木斯市向阳区大学路佳木斯大学",
        "tel": "",
        "category": "基础设施:公共设施:公共厕所",
        "type": 0,
        "location": {
            "lat": 46.783747,
            "lng": 130.358979
        },
        "ad_info": {
            "adcode": 230803,
            "province": "黑龙江省",
            "city": "佳木斯市",
            "district": "向阳区"
        }
    },
    {
        "id": "7521707381576685467",
        "title": "公共厕所",
        "address": "黑龙江省佳木斯市郊区圃东街与李春胡同交叉口西北方向307米左右",
        "tel": "",
        "category": "基础设施:公共设施:公共厕所",
        "type": 0,
        "location": {
            "lat": 46.818366,
            "lng": 130.31104
        },
        "ad_info": {
            "adcode": 230811,
            "province": "黑龙江省",
            "city": "佳木斯市",
            "district": "郊区"
        }
    },
    {
        "id": "2428369802931390987",
        "title": "公共厕所",
        "address": "黑龙江省佳木斯市郊区合平路与四合街交叉口西南方向55米左右",
        "tel": "",
        "category": "基础设施:公共设施:公共厕所",
        "type": 0,
        "location": {
            "lat": 46.802257,
            "lng": 130.238218
        },
        "ad_info": {
            "adcode": 230811,
            "province": "黑龙江省",
            "city": "佳木斯市",
            "district": "郊区"
        }
    },
    {
        "id": "5458424461848421247",
        "title": "公共厕所",
        "address": "黑龙江省佳木斯市向阳区中山路188号鞋服商厦商场内",
        "tel": "",
        "category": "基础设施:公共设施:公共厕所",
        "type": 0,
        "location": {
            "lat": 46.814101,
            "lng": 130.365525
        },
        "ad_info": {
            "adcode": 230803,
            "province": "黑龙江省",
            "city": "佳木斯市",
            "district": "向阳区"
        }
    },
    {
        "id": "10944487219879317943",
        "title": "公共厕所",
        "address": "黑龙江省佳木斯市同江市松江街中国石油(同江市第一加油站)",
        "tel": "",
        "category": "基础设施:公共设施:公共厕所",
        "type": 0,
        "location": {
            "lat": 47.640685,
            "lng": 132.505993
        },
        "ad_info": {
            "adcode": 230881,
            "province": "黑龙江省",
            "city": "佳木斯市",
            "district": "同江市"
        }
    },
    {
        "id": "6847343201148234663",
        "title": "公共厕所",
        "address": "黑龙江省佳木斯市抚远市爱国福麻辣烫东南侧160米",
        "tel": "",
        "category": "基础设施:公共设施:公共厕所",
        "type": 0,
        "location": {
            "lat": 47.996045,
            "lng": 134.13463
        },
        "ad_info": {
            "adcode": 230883,
            "province": "黑龙江省",
            "city": "佳木斯市",
            "district": "抚远市"
        }
    },
    {
        "id": "8123660528854737914",
        "title": "公共厕所",
        "address": "黑龙江省佳木斯市汤原县体育街与逸夫街交叉口东北方向137米左右",
        "tel": "",
        "category": "基础设施:公共设施:公共厕所",
        "type": 0,
        "location": {
            "lat": 46.73454,
            "lng": 129.902194
        },
        "ad_info": {
            "adcode": 230828,
            "province": "黑龙江省",
            "city": "佳木斯市",
            "district": "汤原县"
        }
    },
    {
        "id": "1941219311683830878",
        "title": "公共厕所",
        "address": "黑龙江省佳木斯市郊区二手轿车轮胎大全南侧80米",
        "tel": "",
        "category": "基础设施:公共设施:公共厕所",
        "type": 0,
        "location": {
            "lat": 46.852279,
            "lng": 130.161484
        },
        "ad_info": {
            "adcode": 230811,
            "province": "黑龙江省",
            "city": "佳木斯市",
            "district": "郊区"
        }
    },
    {
        "id": "14481724486738840645",
        "title": "公共厕所",
        "address": "黑龙江省佳木斯市桦南县双果路桦兴小区",
        "tel": "",
        "category": "基础设施:公共设施:公共厕所",
        "type": 0,
        "location": {
            "lat": 46.250882,
            "lng": 130.572043
        },
        "ad_info": {
            "adcode": 230822,
            "province": "黑龙江省",
            "city": "佳木斯市",
            "district": "桦南县"
        }
    },
    {
        "id": "2858790830089461799",
        "title": "公共厕所",
        "address": "黑龙江省佳木斯市汤原县G201与鹤立桥交叉口西南方向176米左右",
        "tel": "",
        "category": "基础设施:公共设施:公共厕所",
        "type": 0,
        "location": {
            "lat": 47.062974,
            "lng": 130.303641
        },
        "ad_info": {
            "adcode": 230828,
            "province": "黑龙江省",
            "city": "佳木斯市",
            "district": "汤原县"
        }
    },
    {
        "id": "8960726121017857417",
        "title": "公共厕所",
        "address": "黑龙江省佳木斯市桦南县北环路与学府路交叉口东北方向490米左右",
        "tel": "",
        "category": "基础设施:公共设施:公共厕所",
        "type": 0,
        "location": {
            "lat": 46.262826,
            "lng": 130.611446
        },
        "ad_info": {
            "adcode": 230822,
            "province": "黑龙江省",
            "city": "佳木斯市",
            "district": "桦南县"
        }
    },
    {
        "id": "16013129577911572419",
        "title": "公共厕所",
        "address": "黑龙江省佳木斯市郊区合康路与四合街交叉口正西方向383米左右",
        "tel": "",
        "category": "基础设施:公共设施:公共厕所",
        "type": 0,
        "location": {
            "lat": 46.804552,
            "lng": 130.233172
        },
        "ad_info": {
            "adcode": 230811,
            "province": "黑龙江省",
            "city": "佳木斯市",
            "district": "郊区"
        }
    },
    {
        "id": "1247266993257227863",
        "title": "公共厕所",
        "address": "黑龙江省佳木斯市郊区清水湾洗浴(望江邮政支局西)北侧110米",
        "tel": "",
        "category": "基础设施:公共设施:公共厕所",
        "type": 0,
        "location": {
            "lat": 46.858236,
            "lng": 130.16593
        },
        "ad_info": {
            "adcode": 230811,
            "province": "黑龙江省",
            "city": "佳木斯市",
            "district": "郊区"
        }
    },
    {
        "id": "11757083212952543724",
        "title": "公共厕所",
        "address": "黑龙江省佳木斯市富锦市三江路与军垦大街交叉口东南方向53米左右",
        "tel": "",
        "category": "基础设施:公共设施:公共厕所",
        "type": 0,
        "location": {
            "lat": 47.255094,
            "lng": 132.627706
        },
        "ad_info": {
            "adcode": 230882,
            "province": "黑龙江省",
            "city": "佳木斯市",
            "district": "富锦市"
        }
    },
    {
        "id": "4614146999687832265",
        "title": "公共厕所",
        "address": "黑龙江省佳木斯市富锦市新一街富锦第四学校",
        "tel": "",
        "category": "基础设施:公共设施:公共厕所",
        "type": 0,
        "location": {
            "lat": 47.249773,
            "lng": 132.049023
        },
        "ad_info": {
            "adcode": 230882,
            "province": "黑龙江省",
            "city": "佳木斯市",
            "district": "富锦市"
        }
    },
    {
        "id": "15425289096759041193",
        "title": "公共厕所",
        "address": "黑龙江省佳木斯市向阳区红旗街与联盟路交叉口西南方向176米左右",
        "tel": "",
        "category": "基础设施:公共设施:公共厕所",
        "type": 0,
        "location": {
            "lat": 46.792814,
            "lng": 130.348447
        },
        "ad_info": {
            "adcode": 230803,
            "province": "黑龙江省",
            "city": "佳木斯市",
            "district": "向阳区"
        }
    },
    {
        "id": "1503186561867639080",
        "title": "公共厕所",
        "address": "黑龙江省佳木斯市东风区光复东路与松兴街交叉口东南方向33米左右",
        "tel": "",
        "category": "基础设施:公共设施:公共厕所",
        "type": 0,
        "location": {
            "lat": 46.835914,
            "lng": 130.438151
        },
        "ad_info": {
            "adcode": 230805,
            "province": "黑龙江省",
            "city": "佳木斯市",
            "district": "东风区"
        }
    },
    {
        "id": "12502943680696231023",
        "title": "公共厕所",
        "address": "黑龙江省佳木斯市东风区胜利路与长江巷交叉口正东方向527米左右",
        "tel": "",
        "category": "基础设施:公共设施:公共厕所",
        "type": 0,
        "location": {
            "lat": 46.824169,
            "lng": 130.444788
        },
        "ad_info": {
            "adcode": 230805,
            "province": "黑龙江省",
            "city": "佳木斯市",
            "district": "东风区"
        }
    },
    {
        "id": "5936659390456306593",
        "title": "公共厕所",
        "address": "黑龙江省佳木斯市汤原县G102与哈肇公路交叉口正东方向1297米左右",
        "tel": "",
        "category": "基础设施:公共设施:公共厕所",
        "type": 0,
        "location": {
            "lat": 46.563882,
            "lng": 129.712329
        },
        "ad_info": {
            "adcode": 230828,
            "province": "黑龙江省",
            "city": "佳木斯市",
            "district": "汤原县"
        }
    },
    {
        "id": "13637840528502317379",
        "title": "公共厕所",
        "address": "黑龙江省佳木斯市东风区乌苏里江街与长安东路交叉口东南方向47米左右",
        "tel": "",
        "category": "基础设施:公共设施:公共厕所",
        "type": 0,
        "location": {
            "lat": 46.843201,
            "lng": 130.447004
        },
        "ad_info": {
            "adcode": 230805,
            "province": "黑龙江省",
            "city": "佳木斯市",
            "district": "东风区"
        }
    },
    {
        "id": "1032658271673694561",
        "title": "公共厕所",
        "address": "黑龙江省佳木斯市东风区红原路与红阔街交叉口正北方向1596米左右",
        "tel": "",
        "category": "基础设施:公共设施:公共厕所",
        "type": 0,
        "location": {
            "lat": 46.855877,
            "lng": 130.479088
        },
        "ad_info": {
            "adcode": 230805,
            "province": "黑龙江省",
            "city": "佳木斯市",
            "district": "东风区"
        }
    },
    {
        "id": "16195709996337894921",
        "title": "公共厕所",
        "address": "黑龙江省佳木斯市东风区安庆街与林海路交叉口正东方向294米左右",
        "tel": "",
        "category": "基础设施:公共设施:公共厕所",
        "type": 0,
        "location": {
            "lat": 46.807106,
            "lng": 130.401819
        },
        "ad_info": {
            "adcode": 230805,
            "province": "黑龙江省",
            "city": "佳木斯市",
            "district": "东风区"
        }
    },
    {
        "id": "14353300214571504763",
        "title": "公共厕所",
        "address": "黑龙江省佳木斯市郊区哈萝公路与鹤大公路交叉口正北方向976米左右",
        "tel": "",
        "category": "基础设施:公共设施:公共厕所",
        "type": 0,
        "location": {
            "lat": 46.866258,
            "lng": 130.259759
        },
        "ad_info": {
            "adcode": 230811,
            "province": "黑龙江省",
            "city": "佳木斯市",
            "district": "郊区"
        }
    },
    {
        "id": "15343171531501206562",
        "title": "公共厕所",
        "address": "黑龙江省佳木斯市向阳区梅西巷与福丰路交叉口正北方向135米左右",
        "tel": "",
        "category": "基础设施:公共设施:公共厕所",
        "type": 0,
        "location": {
            "lat": 46.815247,
            "lng": 130.35013
        },
        "ad_info": {
            "adcode": 230803,
            "province": "黑龙江省",
            "city": "佳木斯市",
            "district": "向阳区"
        }
    },
    {
        "id": "4739338428936265594",
        "title": "公共厕所",
        "address": "黑龙江省佳木斯市同江市友谊路与通江街交叉口正北方向117米左右",
        "tel": "",
        "category": "基础设施:公共设施:公共厕所",
        "type": 0,
        "location": {
            "lat": 47.646604,
            "lng": 132.513683
        },
        "ad_info": {
            "adcode": 230881,
            "province": "黑龙江省",
            "city": "佳木斯市",
            "district": "同江市"
        }
    },
    {
        "id": "6702961926507256179",
        "title": "公共厕所",
        "address": "黑龙江省佳木斯市东风区建国街与模范路交叉口正北方向132米左右",
        "tel": "",
        "category": "基础设施:公共设施:公共厕所",
        "type": 0,
        "location": {
            "lat": 46.810534,
            "lng": 130.42328
        },
        "ad_info": {
            "adcode": 230805,
            "province": "黑龙江省",
            "city": "佳木斯市",
            "district": "东风区"
        }
    },
    {
        "id": "8321647412803958455",
        "title": "公共厕所",
        "address": "黑龙江省佳木斯市东风区惠民路与松兴街交叉口正北方向102米左右",
        "tel": "",
        "category": "基础设施:公共设施:公共厕所",
        "type": 0,
        "location": {
            "lat": 46.834423,
            "lng": 130.438746
        },
        "ad_info": {
            "adcode": 230805,
            "province": "黑龙江省",
            "city": "佳木斯市",
            "district": "东风区"
        }
    },
    {
        "id": "6825286746787749004",
        "title": "公共厕所",
        "address": "黑龙江省佳木斯市东风区安庆街与G1011哈同高速入口交叉口西北120米",
        "tel": "",
        "category": "基础设施:公共设施:公共厕所",
        "type": 0,
        "location": {
            "lat": 46.761472,
            "lng": 130.439902
        },
        "ad_info": {
            "adcode": 230805,
            "province": "黑龙江省",
            "city": "佳木斯市",
            "district": "东风区"
        }
    },
    {
        "id": "4330955446100059570",
        "title": "公共厕所",
        "address": "黑龙江省佳木斯市桦南县双果路御景豪庭",
        "tel": "",
        "category": "基础设施:公共设施:公共厕所",
        "type": 0,
        "location": {
            "lat": 46.252687,
            "lng": 130.571447
        },
        "ad_info": {
            "adcode": 230822,
            "province": "黑龙江省",
            "city": "佳木斯市",
            "district": "桦南县"
        }
    },
    {
        "id": "16033032544719848817",
        "title": "公共厕所",
        "address": "黑龙江省佳木斯市郊区服务区与G1011哈同高速入口交叉口西北100米",
        "tel": "",
        "category": "基础设施:公共设施:公共厕所",
        "type": 0,
        "location": {
            "lat": 46.780654,
            "lng": 130.183664
        },
        "ad_info": {
            "adcode": 230811,
            "province": "黑龙江省",
            "city": "佳木斯市",
            "district": "郊区"
        }
    },
    {
        "id": "15634163941696748460",
        "title": "公共厕所",
        "address": "黑龙江省佳木斯市东风区杏林路与长安东路交叉口正东方向71米左右",
        "tel": "",
        "category": "基础设施:公共设施:公共厕所",
        "type": 0,
        "location": {
            "lat": 46.819834,
            "lng": 130.39763
        },
        "ad_info": {
            "adcode": 230805,
            "province": "黑龙江省",
            "city": "佳木斯市",
            "district": "东风区"
        }
    },
    {
        "id": "5092182006049671042",
        "title": "公共厕所",
        "address": "黑龙江省佳木斯市抚远市102国道与G1012建黑高速出口交叉口北180米",
        "tel": "",
        "category": "基础设施:公共设施:公共厕所",
        "type": 0,
        "location": {
            "lat": 48.197259,
            "lng": 134.301334
        },
        "ad_info": {
            "adcode": 230883,
            "province": "黑龙江省",
            "city": "佳木斯市",
            "district": "抚远市"
        }
    },
    {
        "id": "3756898297562115558",
        "title": "公共厕所",
        "address": "黑龙江省佳木斯市东风区安庆街与林海路交叉口东北方向47米左右",
        "tel": "",
        "category": "基础设施:公共设施:公共厕所",
        "type": 0,
        "location": {
            "lat": 46.806388,
            "lng": 130.39871
        },
        "ad_info": {
            "adcode": 230805,
            "province": "黑龙江省",
            "city": "佳木斯市",
            "district": "东风区"
        }
    },
    {
        "id": "3700936882421174868",
        "title": "公共厕所",
        "address": "黑龙江省佳木斯市富锦市学苑街与支边路交叉口正南方向115米左右",
        "tel": "",
        "category": "基础设施:公共设施:公共厕所",
        "type": 0,
        "location": {
            "lat": 47.250561,
            "lng": 132.622729
        },
        "ad_info": {
            "adcode": 230882,
            "province": "黑龙江省",
            "city": "佳木斯市",
            "district": "富锦市"
        }
    },
    {
        "id": "4872654487118926905",
        "title": "公共厕所",
        "address": "黑龙江省佳木斯市郊区艺巧幼儿园(友谊路南)",
        "tel": "",
        "category": "基础设施:公共设施:公共厕所",
        "type": 0,
        "location": {
            "lat": 46.806626,
            "lng": 130.301287
        },
        "ad_info": {
            "adcode": 230811,
            "province": "黑龙江省",
            "city": "佳木斯市",
            "district": "郊区"
        }
    },
    {
        "id": "13143897232062228950",
        "title": "公共厕所",
        "address": "黑龙江省佳木斯市桦川县创业中心学校西北侧120米",
        "tel": "",
        "category": "基础设施:公共设施:公共厕所",
        "type": 0,
        "location": {
            "lat": 46.915699,
            "lng": 130.64651
        },
        "ad_info": {
            "adcode": 230826,
            "province": "黑龙江省",
            "city": "佳木斯市",
            "district": "桦川县"
        }
    },
    {
        "id": "5126293392247935489",
        "title": "公共厕所",
        "address": "黑龙江省佳木斯市抚远市永安大街与永安西三道街交叉口西北方向171米左右",
        "tel": "",
        "category": "基础设施:公共设施:公共厕所",
        "type": 0,
        "location": {
            "lat": 47.996093,
            "lng": 134.132432
        },
        "ad_info": {
            "adcode": 230883,
            "province": "黑龙江省",
            "city": "佳木斯市",
            "district": "抚远市"
        }
    },
    {
        "id": "18188138797874739285",
        "title": "公共厕所",
        "address": "黑龙江省佳木斯市东风区光复东路与科技大道交叉口正西方向51米左右",
        "tel": "",
        "category": "基础设施:公共设施:公共厕所",
        "type": 0,
        "location": {
            "lat": 46.837659,
            "lng": 130.442281
        },
        "ad_info": {
            "adcode": 230805,
            "province": "黑龙江省",
            "city": "佳木斯市",
            "district": "东风区"
        }
    },
    {
        "id": "487942967776429041",
        "title": "公共厕所",
        "address": "黑龙江省佳木斯市抚远市永安大街与永安西三道街交叉口西北方向248米左右",
        "tel": "",
        "category": "基础设施:公共设施:公共厕所",
        "type": 0,
        "location": {
            "lat": 47.996615,
            "lng": 134.131742
        },
        "ad_info": {
            "adcode": 230883,
            "province": "黑龙江省",
            "city": "佳木斯市",
            "district": "抚远市"
        }
    },
    {
        "id": "10450045863086801348",
        "title": "公共厕所",
        "address": "黑龙江省佳木斯市东风区二号路与建国街交叉口东北方向734米左右",
        "tel": "",
        "category": "基础设施:公共设施:公共厕所",
        "type": 0,
        "location": {
            "lat": 46.809379,
            "lng": 130.437739
        },
        "ad_info": {
            "adcode": 230805,
            "province": "黑龙江省",
            "city": "佳木斯市",
            "district": "东风区"
        }
    },
    {
        "id": "13771446281907246121",
        "title": "公共厕所",
        "address": "黑龙江省佳木斯市东风区化工路与环保路交叉口正南方向225米左右",
        "tel": "",
        "category": "基础设施:公共设施:公共厕所",
        "type": 0,
        "location": {
            "lat": 46.823106,
            "lng": 130.430219
        },
        "ad_info": {
            "adcode": 230805,
            "province": "黑龙江省",
            "city": "佳木斯市",
            "district": "东风区"
        }
    },
    {
        "id": "7014025688074582607",
        "title": "公共厕所",
        "address": "黑龙江省佳木斯市东风区蔡伦街与长安东路交叉口正南方向49米左右",
        "tel": "",
        "category": "基础设施:公共设施:公共厕所",
        "type": 0,
        "location": {
            "lat": 46.826573,
            "lng": 130.409024
        },
        "ad_info": {
            "adcode": 230805,
            "province": "黑龙江省",
            "city": "佳木斯市",
            "district": "东风区"
        }
    },
    {
        "id": "3648669913756072231",
        "title": "公共厕所",
        "address": "黑龙江省佳木斯市富锦市地建街与站前路交叉口西北方向188米左右",
        "tel": "",
        "category": "基础设施:公共设施:公共厕所",
        "type": 0,
        "location": {
            "lat": 47.252863,
            "lng": 132.644461
        },
        "ad_info": {
            "adcode": 230882,
            "province": "黑龙江省",
            "city": "佳木斯市",
            "district": "富锦市"
        }
    },
    {
        "id": "29699912098615310",
        "title": "公共厕所",
        "address": "黑龙江省佳木斯市向阳区光复西路与建业巷交叉口西南方向107米左右",
        "tel": "",
        "category": "基础设施:公共设施:公共厕所",
        "type": 0,
        "location": {
            "lat": 46.804699,
            "lng": 130.354141
        },
        "ad_info": {
            "adcode": 230803,
            "province": "黑龙江省",
            "city": "佳木斯市",
            "district": "向阳区"
        }
    },
    {
        "id": "855892893918156456",
        "title": "公共厕所",
        "address": "黑龙江省佳木斯市郊区G221与松桦街交叉口正北方向334米左右",
        "tel": "",
        "category": "基础设施:公共设施:公共厕所",
        "type": 0,
        "location": {
            "lat": 46.78508,
            "lng": 130.297527
        },
        "ad_info": {
            "adcode": 230811,
            "province": "黑龙江省",
            "city": "佳木斯市",
            "district": "郊区"
        }
    },
    {
        "id": "4859182480493417885",
        "title": "公共厕所",
        "address": "黑龙江省佳木斯市桦南县群星路与苗圃路交叉口正南方向369米左右",
        "tel": "",
        "category": "基础设施:公共设施:公共厕所",
        "type": 0,
        "location": {
            "lat": 46.227662,
            "lng": 130.560763
        },
        "ad_info": {
            "adcode": 230822,
            "province": "黑龙江省",
            "city": "佳木斯市",
            "district": "桦南县"
        }
    },
    {
        "id": "17009794530830545919",
        "title": "公共厕所",
        "address": "黑龙江省佳木斯市桦川县富民路与桦西街交叉口西南方向28米左右",
        "tel": "",
        "category": "基础设施:公共设施:公共厕所",
        "type": 0,
        "location": {
            "lat": 47.016283,
            "lng": 130.715936
        },
        "ad_info": {
            "adcode": 230826,
            "province": "黑龙江省",
            "city": "佳木斯市",
            "district": "桦川县"
        }
    },
    {
        "id": "3530459737442548935",
        "title": "公共厕所",
        "address": "黑龙江省佳木斯市富锦市七星路与胜利大街交叉口正西方向175米左右",
        "tel": "",
        "category": "基础设施:公共设施:公共厕所",
        "type": 0,
        "location": {
            "lat": 47.262886,
            "lng": 132.629836
        },
        "ad_info": {
            "adcode": 230882,
            "province": "黑龙江省",
            "city": "佳木斯市",
            "district": "富锦市"
        }
    },
    {
        "id": "841459176856366133",
        "title": "公共厕所",
        "address": "黑龙江省佳木斯市富锦市南五街陆园小区附近(昌盛剧场西南)",
        "tel": "",
        "category": "基础设施:公共设施:公共厕所",
        "type": 0,
        "location": {
            "lat": 47.258117,
            "lng": 132.034323
        },
        "ad_info": {
            "adcode": 230882,
            "province": "黑龙江省",
            "city": "佳木斯市",
            "district": "富锦市"
        }
    },
    {
        "id": "16798122849133487299",
        "title": "公共厕所",
        "address": "黑龙江省佳木斯市桦川县G102与Y001交叉口东北方向63米左右",
        "tel": "",
        "category": "基础设施:公共设施:公共厕所",
        "type": 0,
        "location": {
            "lat": 47.021473,
            "lng": 131.024345
        },
        "ad_info": {
            "adcode": 230826,
            "province": "黑龙江省",
            "city": "佳木斯市",
            "district": "桦川县"
        }
    },
    {
        "id": "246321507713505445",
        "title": "公共厕所",
        "address": "黑龙江省佳木斯市郊区团结胡同与近乡街交叉口西北方向46米左右",
        "tel": "",
        "category": "基础设施:公共设施:公共厕所",
        "type": 0,
        "location": {
            "lat": 46.810661,
            "lng": 130.271923
        },
        "ad_info": {
            "adcode": 230811,
            "province": "黑龙江省",
            "city": "佳木斯市",
            "district": "郊区"
        }
    },
    {
        "id": "7354963651004778829",
        "title": "公共厕所",
        "address": "黑龙江省佳木斯市郊区哈萝公路与长江路交叉口东北方向25米左右",
        "tel": "",
        "category": "基础设施:公共设施:公共厕所",
        "type": 0,
        "location": {
            "lat": 46.885607,
            "lng": 130.320045
        },
        "ad_info": {
            "adcode": 230811,
            "province": "黑龙江省",
            "city": "佳木斯市",
            "district": "郊区"
        }
    },
    {
        "id": "15948910276903928359",
        "title": "公共厕所",
        "address": "黑龙江省佳木斯市同江市三江口水上餐厅西南侧290米",
        "tel": "",
        "category": "基础设施:公共设施:公共厕所",
        "type": 0,
        "location": {
            "lat": 47.705617,
            "lng": 132.535102
        },
        "ad_info": {
            "adcode": 230881,
            "province": "黑龙江省",
            "city": "佳木斯市",
            "district": "同江市"
        }
    },
    {
        "id": "16338483069352774303",
        "title": "公共厕所",
        "address": "黑龙江省佳木斯市向阳区九州花园胡同与西林路交叉口正东方向171米左右",
        "tel": "",
        "category": "基础设施:公共设施:公共厕所",
        "type": 0,
        "location": {
            "lat": 46.809201,
            "lng": 130.343408
        },
        "ad_info": {
            "adcode": 230803,
            "province": "黑龙江省",
            "city": "佳木斯市",
            "district": "向阳区"
        }
    },
    {
        "id": "18019953968105823642",
        "title": "公共厕所",
        "address": "黑龙江省佳木斯市东风区安庆街黑龙江省农业科学院佳木斯分院",
        "tel": "",
        "category": "基础设施:公共设施:公共厕所",
        "type": 0,
        "location": {
            "lat": 46.796117,
            "lng": 130.415849
        },
        "ad_info": {
            "adcode": 230805,
            "province": "黑龙江省",
            "city": "佳木斯市",
            "district": "东风区"
        }
    },
    {
        "id": "17411800234188791069",
        "title": "公共厕所",
        "address": "黑龙江省佳木斯市东风区科技大道与长安东路交叉口正西方向145米左右",
        "tel": "",
        "category": "基础设施:公共设施:公共厕所",
        "type": 0,
        "location": {
            "lat": 46.841075,
            "lng": 130.43862
        },
        "ad_info": {
            "adcode": 230805,
            "province": "黑龙江省",
            "city": "佳木斯市",
            "district": "东风区"
        }
    },
    {
        "id": "15363899503484773775",
        "title": "公共厕所",
        "address": "黑龙江省佳木斯市汤原县",
        "tel": "",
        "category": "基础设施:公共设施:公共厕所",
        "type": 0,
        "location": {
            "lat": 46.716003,
            "lng": 129.768079
        },
        "ad_info": {
            "adcode": 230828,
            "province": "黑龙江省",
            "city": "佳木斯市",
            "district": "汤原县"
        }
    },
    {
        "id": "4991051989130632473",
        "title": "公共厕所",
        "address": "黑龙江省佳木斯市东风区建国街与模范路交叉口正东方向312米左右",
        "tel": "",
        "category": "基础设施:公共设施:公共厕所",
        "type": 0,
        "location": {
            "lat": 46.809088,
            "lng": 130.42782
        },
        "ad_info": {
            "adcode": 230805,
            "province": "黑龙江省",
            "city": "佳木斯市",
            "district": "东风区"
        }
    },
    {
        "id": "14061379520992738923",
        "title": "公共厕所",
        "address": "黑龙江省佳木斯市汤原县京抚路与合作街交叉口西北方向1463米左右",
        "tel": "",
        "category": "基础设施:公共设施:公共厕所",
        "type": 0,
        "location": {
            "lat": 46.738897,
            "lng": 129.877087
        },
        "ad_info": {
            "adcode": 230828,
            "province": "黑龙江省",
            "city": "佳木斯市",
            "district": "汤原县"
        }
    },
    {
        "id": "11634001435958035194",
        "title": "公共厕所",
        "address": "黑龙江省佳木斯市东风区曲经巷与长安东路交叉口正南方向178米左右",
        "tel": "",
        "category": "基础设施:公共设施:公共厕所",
        "type": 0,
        "location": {
            "lat": 46.81937,
            "lng": 130.40048
        },
        "ad_info": {
            "adcode": 230805,
            "province": "黑龙江省",
            "city": "佳木斯市",
            "district": "东风区"
        }
    },
    {
        "id": "16300090234851519222",
        "title": "公共厕所",
        "address": "黑龙江省佳木斯市抚远市前哨农场学校南侧240米",
        "tel": "",
        "category": "基础设施:公共设施:公共厕所",
        "type": 0,
        "location": {
            "lat": 47.996943,
            "lng": 134.13428
        },
        "ad_info": {
            "adcode": 230883,
            "province": "黑龙江省",
            "city": "佳木斯市",
            "district": "抚远市"
        }
    },
    {
        "id": "4680357830509705952",
        "title": "公共厕所",
        "address": "黑龙江省佳木斯市向阳区建业巷与桥北路交叉口正东方向47米左右",
        "tel": "",
        "category": "基础设施:公共设施:公共厕所",
        "type": 0,
        "location": {
            "lat": 46.802315,
            "lng": 130.357521
        },
        "ad_info": {
            "adcode": 230803,
            "province": "黑龙江省",
            "city": "佳木斯市",
            "district": "向阳区"
        }
    },
    {
        "id": "12051607167699201490",
        "title": "公共厕所",
        "address": "黑龙江省佳木斯市东风区文明巷与百隆胡同交叉口正南方向292米左右",
        "tel": "",
        "category": "基础设施:公共设施:公共厕所",
        "type": 0,
        "location": {
            "lat": 46.811352,
            "lng": 130.402981
        },
        "ad_info": {
            "adcode": 230805,
            "province": "黑龙江省",
            "city": "佳木斯市",
            "district": "东风区"
        }
    },
    {
        "id": "1223905938093278325",
        "title": "公共厕所",
        "address": "黑龙江省佳木斯市富锦市中央大街与站前路交叉口东南方向157米左右",
        "tel": "",
        "category": "基础设施:公共设施:公共厕所",
        "type": 0,
        "location": {
            "lat": 47.247374,
            "lng": 132.636738
        },
        "ad_info": {
            "adcode": 230882,
            "province": "黑龙江省",
            "city": "佳木斯市",
            "district": "富锦市"
        }
    },
    {
        "id": "9388900086785083443",
        "title": "公共厕所",
        "address": "黑龙江省佳木斯市东风区建兴巷与建河南胡同交叉口正东方向243米左右",
        "tel": "",
        "category": "基础设施:公共设施:公共厕所",
        "type": 0,
        "location": {
            "lat": 46.81871,
            "lng": 130.416669
        },
        "ad_info": {
            "adcode": 230805,
            "province": "黑龙江省",
            "city": "佳木斯市",
            "district": "东风区"
        }
    },
    {
        "id": "11584616331621226471",
        "title": "公共厕所",
        "address": "黑龙江省佳木斯市东风区建国街与水源胡同交叉口正东方向334米左右",
        "tel": "",
        "category": "基础设施:公共设施:公共厕所",
        "type": 0,
        "location": {
            "lat": 46.816399,
            "lng": 130.418983
        },
        "ad_info": {
            "adcode": 230805,
            "province": "黑龙江省",
            "city": "佳木斯市",
            "district": "东风区"
        }
    },
    {
        "id": "3682693611275607178",
        "title": "公共厕所",
        "address": "黑龙江省佳木斯市富锦市富锦国家湿地",
        "tel": "",
        "category": "基础设施:公共设施:公共厕所",
        "type": 0,
        "location": {
            "lat": 46.938575,
            "lng": 131.711081
        },
        "ad_info": {
            "adcode": 230882,
            "province": "黑龙江省",
            "city": "佳木斯市",
            "district": "富锦市"
        }
    },
    {
        "id": "12924119387799410707",
        "title": "公共厕所",
        "address": "黑龙江省佳木斯市富锦市G102与Y405交叉口正西方向587米左右",
        "tel": "",
        "category": "基础设施:公共设施:公共厕所",
        "type": 0,
        "location": {
            "lat": 47.15774,
            "lng": 131.704527
        },
        "ad_info": {
            "adcode": 230882,
            "province": "黑龙江省",
            "city": "佳木斯市",
            "district": "富锦市"
        }
    },
    {
        "id": "10242285109670704290",
        "title": "公共厕所",
        "address": "黑龙江省佳木斯市抚远市园林街与腾飞路交叉口正北方向90米左右",
        "tel": "",
        "category": "基础设施:公共设施:公共厕所",
        "type": 0,
        "location": {
            "lat": 47.709574,
            "lng": 134.159619
        },
        "ad_info": {
            "adcode": 230883,
            "province": "黑龙江省",
            "city": "佳木斯市",
            "district": "抚远市"
        }
    },
    {
        "id": "1569400684422036014",
        "title": "公共厕所",
        "address": "黑龙江省佳木斯市富锦市Y003与Y034交叉口正西方向778米左右",
        "tel": "",
        "category": "基础设施:公共设施:公共厕所",
        "type": 0,
        "location": {
            "lat": 47.304335,
            "lng": 132.340182
        },
        "ad_info": {
            "adcode": 230882,
            "province": "黑龙江省",
            "city": "佳木斯市",
            "district": "富锦市"
        }
    },
    {
        "id": "7640137141606257426",
        "title": "公共厕所",
        "address": "黑龙江省佳木斯市东风区建国街与水源胡同交叉口西南方向184米左右",
        "tel": "",
        "category": "基础设施:公共设施:公共厕所",
        "type": 0,
        "location": {
            "lat": 46.813968,
            "lng": 130.413573
        },
        "ad_info": {
            "adcode": 230805,
            "province": "黑龙江省",
            "city": "佳木斯市",
            "district": "东风区"
        }
    },
    {
        "id": "10995747332190872480",
        "title": "公共厕所",
        "address": "黑龙江省佳木斯市富锦市学苑街与迎宾路交叉口西北方向116米左右",
        "tel": "",
        "category": "基础设施:公共设施:公共厕所",
        "type": 0,
        "location": {
            "lat": 47.249561,
            "lng": 132.623344
        },
        "ad_info": {
            "adcode": 230882,
            "province": "黑龙江省",
            "city": "佳木斯市",
            "district": "富锦市"
        }
    },
    {
        "id": "9219352891961156675",
        "title": "公共厕所",
        "address": "黑龙江省佳木斯市向阳区锦绣江南(红旗街)北侧360米",
        "tel": "",
        "category": "基础设施:公共设施:公共厕所",
        "type": 0,
        "location": {
            "lat": 46.82255,
            "lng": 130.321331
        },
        "ad_info": {
            "adcode": 230803,
            "province": "黑龙江省",
            "city": "佳木斯市",
            "district": "向阳区"
        }
    },
    {
        "id": "9975138029453814156",
        "title": "公共厕所",
        "address": "黑龙江省佳木斯市富锦市创业农场医院西北侧200米",
        "tel": "",
        "category": "基础设施:公共设施:公共厕所",
        "type": 0,
        "location": {
            "lat": 47.368181,
            "lng": 133.052677
        },
        "ad_info": {
            "adcode": 230882,
            "province": "黑龙江省",
            "city": "佳木斯市",
            "district": "富锦市"
        }
    },
    {
        "id": "10919186455267219353",
        "title": "公共厕所",
        "address": "黑龙江省佳木斯市桦南县交通街与铁西路交叉口东南方向84米左右",
        "tel": "",
        "category": "基础设施:公共设施:公共厕所",
        "type": 0,
        "location": {
            "lat": 46.236253,
            "lng": 130.580886
        },
        "ad_info": {
            "adcode": 230822,
            "province": "黑龙江省",
            "city": "佳木斯市",
            "district": "桦南县"
        }
    },
    {
        "id": "2989339902045808932",
        "title": "公共厕所",
        "address": "黑龙江省佳木斯市向阳区学府街西100米",
        "tel": "",
        "category": "基础设施:公共设施:公共厕所",
        "type": 0,
        "location": {
            "lat": 46.781656,
            "lng": 130.36614
        },
        "ad_info": {
            "adcode": 230803,
            "province": "黑龙江省",
            "city": "佳木斯市",
            "district": "向阳区"
        }
    },
    {
        "id": "9731575787448557000",
        "title": "公共厕所",
        "address": "黑龙江省佳木斯市向阳区光复西路与永乐巷交叉口西南方向25米左右",
        "tel": "",
        "category": "基础设施:公共设施:公共厕所",
        "type": 0,
        "location": {
            "lat": 46.806645,
            "lng": 130.360835
        },
        "ad_info": {
            "adcode": 230803,
            "province": "黑龙江省",
            "city": "佳木斯市",
            "district": "向阳区"
        }
    },
    {
        "id": "9930752714537753107",
        "title": "公共厕所",
        "address": "黑龙江省佳木斯市向阳区光明胡同与通江街交叉口西北方向56米左右",
        "tel": "",
        "category": "基础设施:公共设施:公共厕所",
        "type": 0,
        "location": {
            "lat": 46.80725,
            "lng": 130.363661
        },
        "ad_info": {
            "adcode": 230803,
            "province": "黑龙江省",
            "city": "佳木斯市",
            "district": "向阳区"
        }
    },
    {
        "id": "9031393796667795890",
        "title": "公共厕所",
        "address": "黑龙江省佳木斯市富锦市三江路与东安街交叉口东南方向229米左右",
        "tel": "",
        "category": "基础设施:公共设施:公共厕所",
        "type": 0,
        "location": {
            "lat": 47.260483,
            "lng": 132.649091
        },
        "ad_info": {
            "adcode": 230882,
            "province": "黑龙江省",
            "city": "佳木斯市",
            "district": "富锦市"
        }
    },
    {
        "id": "933419407931743041",
        "title": "鼎特大酒店-洗手间",
        "address": "黑龙江省佳木斯市前进区友好巷与长安东路辅路交叉口东南方向57米左右",
        "tel": "",
        "category": "基础设施:公共设施:公共厕所",
        "type": 0,
        "location": {
            "lat": 46.813609,
            "lng": 130.373202
        },
        "ad_info": {
            "adcode": 230804,
            "province": "黑龙江省",
            "city": "佳木斯市",
            "district": "前进区"
        }
    },
    {
        "id": "18051448793302113326",
        "title": "公共厕所",
        "address": "黑龙江省佳木斯市富锦市富锦国家湿地公园访客中心西北侧190米",
        "tel": "",
        "category": "基础设施:公共设施:公共厕所",
        "type": 0,
        "location": {
            "lat": 46.939094,
            "lng": 131.707515
        },
        "ad_info": {
            "adcode": 230882,
            "province": "黑龙江省",
            "city": "佳木斯市",
            "district": "富锦市"
        }
    },
    {
        "id": "160709328808943912",
        "title": "公共厕所",
        "address": "黑龙江省佳木斯市富锦市G102与中央大街交叉口东南方向733米左右",
        "tel": "",
        "category": "基础设施:公共设施:公共厕所",
        "type": 0,
        "location": {
            "lat": 47.28059,
            "lng": 132.610823
        },
        "ad_info": {
            "adcode": 230882,
            "province": "黑龙江省",
            "city": "佳木斯市",
            "district": "富锦市"
        }
    },
    {
        "id": "17578482240148391114",
        "title": "公共厕所",
        "address": "黑龙江省佳木斯市富锦市东平路与北二街交叉口东南方向23米左右",
        "tel": "",
        "category": "基础设施:公共设施:公共厕所",
        "type": 0,
        "location": {
            "lat": 47.264357,
            "lng": 132.042602
        },
        "ad_info": {
            "adcode": 230882,
            "province": "黑龙江省",
            "city": "佳木斯市",
            "district": "富锦市"
        }
    },
    {
        "id": "2363979028869566808",
        "title": "公共厕所",
        "address": "黑龙江省佳木斯市向阳区桥南路与通园巷交叉口正东方向97米左右",
        "tel": "",
        "category": "基础设施:公共设施:公共厕所",
        "type": 0,
        "location": {
            "lat": 46.802692,
            "lng": 130.364387
        },
        "ad_info": {
            "adcode": 230803,
            "province": "黑龙江省",
            "city": "佳木斯市",
            "district": "向阳区"
        }
    },
    {
        "id": "7536610364845450098",
        "title": "公共厕所",
        "address": "黑龙江省佳木斯市富锦市勤得利街与站前路交叉口西北方向77米左右",
        "tel": "",
        "category": "基础设施:公共设施:公共厕所",
        "type": 0,
        "location": {
            "lat": 47.247056,
            "lng": 132.629014
        },
        "ad_info": {
            "adcode": 230882,
            "province": "黑龙江省",
            "city": "佳木斯市",
            "district": "富锦市"
        }
    },
    {
        "id": "10220745189857885611",
        "title": "公共厕所",
        "address": "黑龙江省佳木斯市向阳区铁西巷北铁西小区",
        "tel": "",
        "category": "基础设施:公共设施:公共厕所",
        "type": 0,
        "location": {
            "lat": 46.805425,
            "lng": 130.34033
        },
        "ad_info": {
            "adcode": 230803,
            "province": "黑龙江省",
            "city": "佳木斯市",
            "district": "向阳区"
        }
    },
    {
        "id": "8918858859581372879",
        "title": "公共厕所",
        "address": "黑龙江省佳木斯市向阳区滨江路与红旗街交叉口正东方向64米左右",
        "tel": "",
        "category": "基础设施:公共设施:公共厕所",
        "type": 0,
        "location": {
            "lat": 46.82319,
            "lng": 130.310347
        },
        "ad_info": {
            "adcode": 230803,
            "province": "黑龙江省",
            "city": "佳木斯市",
            "district": "向阳区"
        }
    },
    {
        "id": "7948388357779190504",
        "title": "公共厕所",
        "address": "黑龙江省佳木斯市同江市城西路与校园街交叉口正北方向221米左右",
        "tel": "",
        "category": "基础设施:公共设施:公共厕所",
        "type": 0,
        "location": {
            "lat": 47.591581,
            "lng": 133.514831
        },
        "ad_info": {
            "adcode": 230881,
            "province": "黑龙江省",
            "city": "佳木斯市",
            "district": "同江市"
        }
    },
    {
        "id": "943201591406330475",
        "title": "男洗手间(世纪生活广场)",
        "address": "黑龙江省佳木斯市桦南县桦南镇前进路278号世纪生活广场F5层",
        "tel": "",
        "category": "基础设施:公共设施:公共厕所",
        "type": 0,
        "location": {
            "lat": 46.238225,
            "lng": 130.569665
        },
        "ad_info": {
            "adcode": 230822,
            "province": "黑龙江省",
            "city": "佳木斯市",
            "district": "桦南县"
        }
    },
    {
        "id": "18424974771075942",
        "title": "服务区公共厕所",
        "address": "黑龙江省佳木斯市郊区哈同高速与绥满高速交叉口正西方向65米左右",
        "tel": "",
        "category": "基础设施:公共设施:公共厕所",
        "type": 0,
        "location": {
            "lat": 46.769873,
            "lng": 130.165132
        },
        "ad_info": {
            "adcode": 230811,
            "province": "黑龙江省",
            "city": "佳木斯市",
            "district": "郊区"
        }
    },
    {
        "id": "535986996115098868",
        "title": "四丰山服务区公共厕所",
        "address": "黑龙江省佳木斯市郊区四丰山服务区与G1011哈同高速交叉口东南80米",
        "tel": "",
        "category": "基础设施:公共设施:公共厕所",
        "type": 0,
        "location": {
            "lat": 46.765114,
            "lng": 130.380443
        },
        "ad_info": {
            "adcode": 230811,
            "province": "黑龙江省",
            "city": "佳木斯市",
            "district": "郊区"
        }
    },
    {
        "id": "17192442045618181377",
        "title": "草帽服务区公共厕所",
        "address": "黑龙江省佳木斯市郊区G201与和谐路交叉口正北方向637米左右",
        "tel": "",
        "category": "基础设施:公共设施:公共厕所",
        "type": 0,
        "location": {
            "lat": 46.719097,
            "lng": 130.270332
        },
        "ad_info": {
            "adcode": 230811,
            "province": "黑龙江省",
            "city": "佳木斯市",
            "district": "郊区"
        }
    },
    {
        "id": "7315619977344230124",
        "title": "共和湖服务区公共厕所",
        "address": "黑龙江省佳木斯市桦南县G201与桦新线交叉口东北方向459米左右",
        "tel": "",
        "category": "基础设施:公共设施:公共厕所",
        "type": 0,
        "location": {
            "lat": 46.409136,
            "lng": 130.423034
        },
        "ad_info": {
            "adcode": 230822,
            "province": "黑龙江省",
            "city": "佳木斯市",
            "district": "桦南县"
        }
    },
    {
        "id": "17015271159071767149",
        "title": "驿马山服务区公共厕所",
        "address": "黑龙江省佳木斯市桦南县鹤大高速驿马山服务区",
        "tel": "",
        "category": "基础设施:公共设施:公共厕所",
        "type": 0,
        "location": {
            "lat": 46.02427,
            "lng": 130.7135
        },
        "ad_info": {
            "adcode": 230822,
            "province": "黑龙江省",
            "city": "佳木斯市",
            "district": "桦南县"
        }
    },
    {
        "id": "18106637763085832305",
        "title": "兴梅公园公共厕所",
        "address": "黑龙江省佳木斯市向阳区六一胡同1号",
        "tel": "",
        "category": "基础设施:公共设施:公共厕所",
        "type": 0,
        "location": {
            "lat": 46.815184,
            "lng": 130.340239
        },
        "ad_info": {
            "adcode": 230803,
            "province": "黑龙江省",
            "city": "佳木斯市",
            "district": "向阳区"
        }
    },
    {
        "id": "12567029671256745351",
        "title": "男洗手间",
        "address": "黑龙江省佳木斯市向阳区光复西路1081号万达广场F1",
        "tel": "",
        "category": "基础设施:公共设施:公共厕所",
        "type": 0,
        "location": {
            "lat": 46.794971,
            "lng": 130.336871
        },
        "ad_info": {
            "adcode": 230803,
            "province": "黑龙江省",
            "city": "佳木斯市",
            "district": "向阳区"
        }
    },
    {
        "id": "14364631108021008252",
        "title": "锦山服务区公共厕所",
        "address": "黑龙江省佳木斯市富锦市哈同高速锦山服务区",
        "tel": "",
        "category": "基础设施:公共设施:公共厕所",
        "type": 0,
        "location": {
            "lat": 47.018638,
            "lng": 131.736029
        },
        "ad_info": {
            "adcode": 230882,
            "province": "黑龙江省",
            "city": "佳木斯市",
            "district": "富锦市"
        }
    },
    {
        "id": "18281307293486908618",
        "title": "共和湖服务区公共厕所",
        "address": "黑龙江省佳木斯市桦南县G201与桦新线交叉口东北方向441米左右",
        "tel": "",
        "category": "基础设施:公共设施:公共厕所",
        "type": 0,
        "location": {
            "lat": 46.410342,
            "lng": 130.421231
        },
        "ad_info": {
            "adcode": 230822,
            "province": "黑龙江省",
            "city": "佳木斯市",
            "district": "桦南县"
        }
    },
    {
        "id": "17783163465395755466",
        "title": "同江服务区公共厕所",
        "address": "黑龙江省佳木斯市同江市乐粮路与永顺路交叉口正北方向944米左右",
        "tel": "",
        "category": "基础设施:公共设施:公共厕所",
        "type": 0,
        "location": {
            "lat": 47.531248,
            "lng": 132.484155
        },
        "ad_info": {
            "adcode": 230881,
            "province": "黑龙江省",
            "city": "佳木斯市",
            "district": "同江市"
        }
    },
    {
        "id": "8684139593817586678",
        "title": "驿马山服务区公共厕所",
        "address": "黑龙江省佳木斯市桦南县G11鹤大高速与驿马山服务区交叉口西北240米",
        "tel": "",
        "category": "基础设施:公共设施:公共厕所",
        "type": 0,
        "location": {
            "lat": 46.023722,
            "lng": 130.71117
        },
        "ad_info": {
            "adcode": 230822,
            "province": "黑龙江省",
            "city": "佳木斯市",
            "district": "桦南县"
        }
    },
    {
        "id": "7193087866022900238",
        "title": "女洗手间(世纪生活广场)",
        "address": "黑龙江省佳木斯市桦南县桦南镇前进路278号世纪生活广场F2层",
        "tel": "",
        "category": "基础设施:公共设施:公共厕所",
        "type": 0,
        "location": {
            "lat": 46.238158,
            "lng": 130.569677
        },
        "ad_info": {
            "adcode": 230822,
            "province": "黑龙江省",
            "city": "佳木斯市",
            "district": "桦南县"
        }
    },
    {
        "id": "14665479564534451838",
        "title": "大兴服务区公共厕所",
        "address": "黑龙江省佳木斯市富锦市建鸡高速附近",
        "tel": "",
        "category": "基础设施:公共设施:公共厕所",
        "type": 0,
        "location": {
            "lat": 46.931594,
            "lng": 132.911431
        },
        "ad_info": {
            "adcode": 230882,
            "province": "黑龙江省",
            "city": "佳木斯市",
            "district": "富锦市"
        }
    },
    {
        "id": "10911897047681749287",
        "title": "女洗手间(利达国际购物中心)",
        "address": "黑龙江省佳木斯市向阳区德祥街与解放路交叉口利达国际购物中心F2层",
        "tel": "",
        "category": "基础设施:公共设施:公共厕所",
        "type": 0,
        "location": {
            "lat": 46.816855,
            "lng": 130.353736
        },
        "ad_info": {
            "adcode": 230803,
            "province": "黑龙江省",
            "city": "佳木斯市",
            "district": "向阳区"
        }
    },
    {
        "id": "14752511511739204760",
        "title": "公共厕所",
        "address": "黑龙江省佳木斯市东风区蔡伦街与长安东路交叉口东北方向213米左右",
        "tel": "",
        "category": "基础设施:公共设施:公共厕所",
        "type": 0,
        "location": {
            "lat": 46.828236,
            "lng": 130.41092
        },
        "ad_info": {
            "adcode": 230805,
            "province": "黑龙江省",
            "city": "佳木斯市",
            "district": "东风区"
        }
    },
    {
        "id": "7264814195871927096",
        "title": "公共厕所",
        "address": "黑龙江省佳木斯市同江市临金公路东50米",
        "tel": "",
        "category": "基础设施:公共设施:公共厕所",
        "type": 0,
        "location": {
            "lat": 48.063649,
            "lng": 133.695107
        },
        "ad_info": {
            "adcode": 230881,
            "province": "黑龙江省",
            "city": "佳木斯市",
            "district": "同江市"
        }
    },
    {
        "id": "4212267658028885312",
        "title": "公共厕所",
        "address": "黑龙江省佳木斯市郊区G221与友谊路交叉口西南方向625米左右",
        "tel": "",
        "category": "基础设施:公共设施:公共厕所",
        "type": 0,
        "location": {
            "lat": 46.778157,
            "lng": 130.182314
        },
        "ad_info": {
            "adcode": 230811,
            "province": "黑龙江省",
            "city": "佳木斯市",
            "district": "郊区"
        }
    },
    {
        "id": "5716813157505892939",
        "title": "大兴服务区第二公共厕所",
        "address": "黑龙江省佳木斯市富锦市建鸡高速附近",
        "tel": "",
        "category": "基础设施:公共设施:公共厕所",
        "type": 0,
        "location": {
            "lat": 46.931526,
            "lng": 132.910607
        },
        "ad_info": {
            "adcode": 230882,
            "province": "黑龙江省",
            "city": "佳木斯市",
            "district": "富锦市"
        }
    },
    {
        "id": "7426206915544584053",
        "title": "公共厕所",
        "address": "黑龙江省佳木斯市富锦市欣园街与迎宾路交叉口正北方向111米左右",
        "tel": "",
        "category": "基础设施:公共设施:公共厕所",
        "type": 0,
        "location": {
            "lat": 47.256915,
            "lng": 132.64555
        },
        "ad_info": {
            "adcode": 230882,
            "province": "黑龙江省",
            "city": "佳木斯市",
            "district": "富锦市"
        }
    },
    {
        "id": "6706126552852276892",
        "title": "公共厕所",
        "address": "黑龙江省佳木斯市前进区春光巷与顺德路交叉口正北方向65米左右",
        "tel": "",
        "category": "基础设施:公共设施:公共厕所",
        "type": 0,
        "location": {
            "lat": 46.809548,
            "lng": 130.382701
        },
        "ad_info": {
            "adcode": 230804,
            "province": "黑龙江省",
            "city": "佳木斯市",
            "district": "前进区"
        }
    },
    {
        "id": "9918934865012752807",
        "title": "公共厕所",
        "address": "黑龙江省佳木斯市富锦市中央大街辅路与富宏路交叉口正东方向104米左右",
        "tel": "",
        "category": "基础设施:公共设施:公共厕所",
        "type": 0,
        "location": {
            "lat": 47.255432,
            "lng": 132.054851
        },
        "ad_info": {
            "adcode": 230882,
            "province": "黑龙江省",
            "city": "佳木斯市",
            "district": "富锦市"
        }
    },
    {
        "id": "16075545574720407932",
        "title": "公共厕所",
        "address": "黑龙江省佳木斯市桦南县北环路与学府路交叉口正南方向44米左右",
        "tel": "",
        "category": "基础设施:公共设施:公共厕所",
        "type": 0,
        "location": {
            "lat": 46.258587,
            "lng": 130.608195
        },
        "ad_info": {
            "adcode": 230822,
            "province": "黑龙江省",
            "city": "佳木斯市",
            "district": "桦南县"
        }
    },
    {
        "id": "8766983177759450457",
        "title": "公共厕所",
        "address": "黑龙江省佳木斯市汤原县京抚路与华胜街交叉口东北方向863米左右",
        "tel": "",
        "category": "基础设施:公共设施:公共厕所",
        "type": 0,
        "location": {
            "lat": 46.74682,
            "lng": 129.92416
        },
        "ad_info": {
            "adcode": 230828,
            "province": "黑龙江省",
            "city": "佳木斯市",
            "district": "汤原县"
        }
    },
    {
        "id": "2726177239400723227",
        "title": "前进服务区公共厕所",
        "address": "黑龙江省佳木斯市同江市前进服务区北侧",
        "tel": "",
        "category": "基础设施:公共设施:公共厕所",
        "type": 0,
        "location": {
            "lat": 47.554037,
            "lng": 133.271726
        },
        "ad_info": {
            "adcode": 230881,
            "province": "黑龙江省",
            "city": "佳木斯市",
            "district": "同江市"
        }
    },
    {
        "id": "2663676437489354966",
        "title": "公共厕所",
        "address": "黑龙江省佳木斯市桦南县G201与八虎力河路交叉口正南方向259米左右",
        "tel": "",
        "category": "基础设施:公共设施:公共厕所",
        "type": 0,
        "location": {
            "lat": 46.297784,
            "lng": 130.517227
        },
        "ad_info": {
            "adcode": 230822,
            "province": "黑龙江省",
            "city": "佳木斯市",
            "district": "桦南县"
        }
    },
    {
        "id": "10309430201941749240",
        "title": "公共厕所",
        "address": "黑龙江省佳木斯市桦南县永兴合作社测土智能配肥车间西北侧200米",
        "tel": "",
        "category": "基础设施:公共设施:公共厕所",
        "type": 0,
        "location": {
            "lat": 46.138448,
            "lng": 130.603049
        },
        "ad_info": {
            "adcode": 230822,
            "province": "黑龙江省",
            "city": "佳木斯市",
            "district": "桦南县"
        }
    },
    {
        "id": "7181949559020048741",
        "title": "公共厕所",
        "address": "黑龙江省佳木斯市东风区光复东路与蔡伦街交叉口东南方向297米左右",
        "tel": "",
        "category": "基础设施:公共设施:公共厕所",
        "type": 0,
        "location": {
            "lat": 46.821756,
            "lng": 130.416984
        },
        "ad_info": {
            "adcode": 230805,
            "province": "黑龙江省",
            "city": "佳木斯市",
            "district": "东风区"
        }
    },
    {
        "id": "8622963061319617693",
        "title": "公共厕所",
        "address": "黑龙江省佳木斯市东风区胜利东路与长胜街交叉口东南方向327米左右",
        "tel": "",
        "category": "基础设施:公共设施:公共厕所",
        "type": 0,
        "location": {
            "lat": 46.808175,
            "lng": 130.418112
        },
        "ad_info": {
            "adcode": 230805,
            "province": "黑龙江省",
            "city": "佳木斯市",
            "district": "东风区"
        }
    },
    {
        "id": "60274787742511823",
        "title": "男洗手间(世纪生活广场)",
        "address": "黑龙江省佳木斯市桦南县桦南镇前进路278号世纪生活广场F3层",
        "tel": "",
        "category": "基础设施:公共设施:公共厕所",
        "type": 0,
        "location": {
            "lat": 46.238224,
            "lng": 130.569666
        },
        "ad_info": {
            "adcode": 230822,
            "province": "黑龙江省",
            "city": "佳木斯市",
            "district": "桦南县"
        }
    },
    {
        "id": "16765861534362711731",
        "title": "公共厕所",
        "address": "黑龙江省佳木斯市向阳区兴城胡同与通园巷交叉口正东方向113米左右",
        "tel": "",
        "category": "基础设施:公共设施:公共厕所",
        "type": 0,
        "location": {
            "lat": 46.802006,
            "lng": 130.365021
        },
        "ad_info": {
            "adcode": 230803,
            "province": "黑龙江省",
            "city": "佳木斯市",
            "district": "向阳区"
        }
    },
    {
        "id": "9902116057958034129",
        "title": "前进服务区公共厕所",
        "address": "黑龙江省佳木斯市同江市G1012建黑高速附近",
        "tel": "",
        "category": "基础设施:公共设施:公共厕所",
        "type": 0,
        "location": {
            "lat": 47.552922,
            "lng": 133.272412
        },
        "ad_info": {
            "adcode": 230881,
            "province": "黑龙江省",
            "city": "佳木斯市",
            "district": "同江市"
        }
    },
    {
        "id": "8349796197049935299",
        "title": "公共厕所",
        "address": "黑龙江省佳木斯市汤原县友谊路与胜利街交叉口正东方向323米左右",
        "tel": "",
        "category": "基础设施:公共设施:公共厕所",
        "type": 0,
        "location": {
            "lat": 46.726641,
            "lng": 129.915668
        },
        "ad_info": {
            "adcode": 230828,
            "province": "黑龙江省",
            "city": "佳木斯市",
            "district": "汤原县"
        }
    },
    {
        "id": "469142267737242064",
        "title": "公共厕所",
        "address": "黑龙江省佳木斯市郊区华安小区西北294米(近乡街东)",
        "tel": "",
        "category": "基础设施:公共设施:公共厕所",
        "type": 0,
        "location": {
            "lat": 46.811994,
            "lng": 130.277506
        },
        "ad_info": {
            "adcode": 230811,
            "province": "黑龙江省",
            "city": "佳木斯市",
            "district": "郊区"
        }
    },
    {
        "id": "4171116584806496236",
        "title": "公共厕所",
        "address": "黑龙江省佳木斯市东风区建国街与模范路交叉口西南方向407米左右",
        "tel": "",
        "category": "基础设施:公共设施:公共厕所",
        "type": 0,
        "location": {
            "lat": 46.806351,
            "lng": 130.420762
        },
        "ad_info": {
            "adcode": 230805,
            "province": "黑龙江省",
            "city": "佳木斯市",
            "district": "东风区"
        }
    },
    {
        "id": "18264113193320248225",
        "title": "公共厕所",
        "address": "黑龙江省佳木斯市郊区泰山街与珠江路交叉口东南方向645米左右",
        "tel": "",
        "category": "基础设施:公共设施:公共厕所",
        "type": 0,
        "location": {
            "lat": 46.879642,
            "lng": 130.323945
        },
        "ad_info": {
            "adcode": 230811,
            "province": "黑龙江省",
            "city": "佳木斯市",
            "district": "郊区"
        }
    },
    {
        "id": "14306457456858214499",
        "title": "公共厕所",
        "address": "黑龙江省佳木斯市郊区学院街与长安西路交叉口西北方向52米左右",
        "tel": "",
        "category": "基础设施:公共设施:公共厕所",
        "type": 0,
        "location": {
            "lat": 46.798248,
            "lng": 130.329814
        },
        "ad_info": {
            "adcode": 230811,
            "province": "黑龙江省",
            "city": "佳木斯市",
            "district": "郊区"
        }
    },
    {
        "id": "13289826195876498969",
        "title": "公共厕所",
        "address": "黑龙江省佳木斯市郊区国光胡同与近乡街交叉口正北方向175米左右",
        "tel": "",
        "category": "基础设施:公共设施:公共厕所",
        "type": 0,
        "location": {
            "lat": 46.804215,
            "lng": 130.273102
        },
        "ad_info": {
            "adcode": 230811,
            "province": "黑龙江省",
            "city": "佳木斯市",
            "district": "郊区"
        }
    },
    {
        "id": "17969623583704648298",
        "title": "公共厕所",
        "address": "黑龙江省佳木斯市富锦市南二街与清真路交叉口东南方向59米左右",
        "tel": "",
        "category": "基础设施:公共设施:公共厕所",
        "type": 0,
        "location": {
            "lat": 47.260695,
            "lng": 132.04173
        },
        "ad_info": {
            "adcode": 230882,
            "province": "黑龙江省",
            "city": "佳木斯市",
            "district": "富锦市"
        }
    },
    {
        "id": "2154605338235292401",
        "title": "女洗手间(利达国际购物中心)",
        "address": "黑龙江省佳木斯市向阳区德祥街与解放路交叉口利达国际购物中心F2层",
        "tel": "",
        "category": "基础设施:公共设施:公共厕所",
        "type": 0,
        "location": {
            "lat": 46.817431,
            "lng": 130.354086
        },
        "ad_info": {
            "adcode": 230803,
            "province": "黑龙江省",
            "city": "佳木斯市",
            "district": "向阳区"
        }
    },
    {
        "id": "16073729177059291957",
        "title": "公共厕所",
        "address": "黑龙江省佳木斯市郊区万粮街与光复西路交叉口正西方向42米左右",
        "tel": "",
        "category": "基础设施:公共设施:公共厕所",
        "type": 0,
        "location": {
            "lat": 46.796236,
            "lng": 130.339764
        },
        "ad_info": {
            "adcode": 230811,
            "province": "黑龙江省",
            "city": "佳木斯市",
            "district": "郊区"
        }
    },
    {
        "id": "17485845607207563583",
        "title": "公共厕所",
        "address": "黑龙江省佳木斯市郊区松桦街与龙实路交叉口正南方向141米左右",
        "tel": "",
        "category": "基础设施:公共设施:公共厕所",
        "type": 0,
        "location": {
            "lat": 46.814517,
            "lng": 130.288709
        },
        "ad_info": {
            "adcode": 230811,
            "province": "黑龙江省",
            "city": "佳木斯市",
            "district": "郊区"
        }
    },
    {
        "id": "9177032245848788450",
        "title": "公共厕所",
        "address": "黑龙江省佳木斯市汤原县中华路与光明街交叉口西南方向131米左右",
        "tel": "",
        "category": "基础设施:公共设施:公共厕所",
        "type": 0,
        "location": {
            "lat": 46.725189,
            "lng": 129.895457
        },
        "ad_info": {
            "adcode": 230828,
            "province": "黑龙江省",
            "city": "佳木斯市",
            "district": "汤原县"
        }
    },
    {
        "id": "9169278363515691724",
        "title": "公共厕所",
        "address": "黑龙江省佳木斯市富锦市S203与Y014交叉口东北方向1538米左右",
        "tel": "",
        "category": "基础设施:公共设施:公共厕所",
        "type": 0,
        "location": {
            "lat": 47.05318,
            "lng": 131.763425
        },
        "ad_info": {
            "adcode": 230882,
            "province": "黑龙江省",
            "city": "佳木斯市",
            "district": "富锦市"
        }
    },
    {
        "id": "9037692631085250919",
        "title": "公共厕所",
        "address": "黑龙江省佳木斯市富锦市S307与Y409交叉口西南方向417米左右",
        "tel": "",
        "category": "基础设施:公共设施:公共厕所",
        "type": 0,
        "location": {
            "lat": 47.369501,
            "lng": 133.065573
        },
        "ad_info": {
            "adcode": 230882,
            "province": "黑龙江省",
            "city": "佳木斯市",
            "district": "富锦市"
        }
    },
    {
        "id": "15676288248703259575",
        "title": "公共厕所",
        "address": "黑龙江省佳木斯市东风区光复东路与工区巷交叉口西北方向189米左右",
        "tel": "",
        "category": "基础设施:公共设施:公共厕所",
        "type": 0,
        "location": {
            "lat": 46.817591,
            "lng": 130.399636
        },
        "ad_info": {
            "adcode": 230805,
            "province": "黑龙江省",
            "city": "佳木斯市",
            "district": "东风区"
        }
    },
    {
        "id": "3478900178704743673",
        "title": "公共厕所",
        "address": "黑龙江省佳木斯市郊区G201与平安街交叉口东北方向47米左右",
        "tel": "",
        "category": "基础设施:公共设施:公共厕所",
        "type": 0,
        "location": {
            "lat": 46.758345,
            "lng": 130.278736
        },
        "ad_info": {
            "adcode": 230811,
            "province": "黑龙江省",
            "city": "佳木斯市",
            "district": "郊区"
        }
    },
    {
        "id": "2563214561994880675",
        "title": "公共厕所",
        "address": "黑龙江省佳木斯市前进区安庆街与达贤路交叉口正南方向996米左右",
        "tel": "",
        "category": "基础设施:公共设施:公共厕所",
        "type": 0,
        "location": {
            "lat": 46.774689,
            "lng": 130.421893
        },
        "ad_info": {
            "adcode": 230804,
            "province": "黑龙江省",
            "city": "佳木斯市",
            "district": "前进区"
        }
    },
    {
        "id": "9678860586064368164",
        "title": "公共厕所",
        "address": "黑龙江省佳木斯市抚远市G102与迎宾路交叉口正北方向880米左右",
        "tel": "",
        "category": "基础设施:公共设施:公共厕所",
        "type": 0,
        "location": {
            "lat": 48.342473,
            "lng": 134.297534
        },
        "ad_info": {
            "adcode": 230883,
            "province": "黑龙江省",
            "city": "佳木斯市",
            "district": "抚远市"
        }
    },
    {
        "id": "5327689778689846777",
        "title": "公共厕所",
        "address": "黑龙江省佳木斯市东风区晓云街道长胜街王三五河",
        "tel": "",
        "category": "基础设施:公共设施:公共厕所",
        "type": 0,
        "location": {
            "lat": 46.814812,
            "lng": 130.407384
        },
        "ad_info": {
            "adcode": 230805,
            "province": "黑龙江省",
            "city": "佳木斯市",
            "district": "东风区"
        }
    },
    {
        "id": "6996208850557763781",
        "title": "公共厕所",
        "address": "黑龙江省佳木斯市东风区建国街与曲经巷交叉口正西方向217米左右",
        "tel": "",
        "category": "基础设施:公共设施:公共厕所",
        "type": 0,
        "location": {
            "lat": 46.825299,
            "lng": 130.398967
        },
        "ad_info": {
            "adcode": 230805,
            "province": "黑龙江省",
            "city": "佳木斯市",
            "district": "东风区"
        }
    },
    {
        "id": "7198889247899330397",
        "title": "公共厕所",
        "address": "黑龙江省佳木斯市东风区长胜街与胜利东路辅路交叉口西40米",
        "tel": "",
        "category": "基础设施:公共设施:公共厕所",
        "type": 0,
        "location": {
            "lat": 46.810024,
            "lng": 130.41459
        },
        "ad_info": {
            "adcode": 230805,
            "province": "黑龙江省",
            "city": "佳木斯市",
            "district": "东风区"
        }
    },
    {
        "id": "7476734570879934254",
        "title": "公共厕所",
        "address": "黑龙江省佳木斯市东风区光复东路与长胜街交叉口正东方向51米左右",
        "tel": "",
        "category": "基础设施:公共设施:公共厕所",
        "type": 0,
        "location": {
            "lat": 46.81703,
            "lng": 130.404897
        },
        "ad_info": {
            "adcode": 230805,
            "province": "黑龙江省",
            "city": "佳木斯市",
            "district": "东风区"
        }
    },
    {
        "id": "9737174553138195016",
        "title": "公共厕所",
        "address": "黑龙江省佳木斯市东风区光复东路与科技大道交叉口正东方向371米左右",
        "tel": "",
        "category": "基础设施:公共设施:公共厕所",
        "type": 0,
        "location": {
            "lat": 46.838615,
            "lng": 130.44762
        },
        "ad_info": {
            "adcode": 230805,
            "province": "黑龙江省",
            "city": "佳木斯市",
            "district": "东风区"
        }
    },
    {
        "id": "2609274007694954112",
        "title": "公共厕所",
        "address": "黑龙江省佳木斯市向阳区红旗街与长安西路交叉口东北方向155米左右",
        "tel": "",
        "category": "基础设施:公共设施:公共厕所",
        "type": 0,
        "location": {
            "lat": 46.804785,
            "lng": 130.341679
        },
        "ad_info": {
            "adcode": 230803,
            "province": "黑龙江省",
            "city": "佳木斯市",
            "district": "向阳区"
        }
    },
    {
        "id": "7958447218675676167",
        "title": "公共厕所",
        "address": "黑龙江省佳木斯市汤原县振兴路与运材路交叉口西南方向309米左右",
        "tel": "",
        "category": "基础设施:公共设施:公共厕所",
        "type": 0,
        "location": {
            "lat": 47.055138,
            "lng": 130.28033
        },
        "ad_info": {
            "adcode": 230828,
            "province": "黑龙江省",
            "city": "佳木斯市",
            "district": "汤原县"
        }
    },
    {
        "id": "443011725808839954",
        "title": "公共厕所",
        "address": "黑龙江省佳木斯市郊区乐山街与长江路交叉口西北方向31米左右",
        "tel": "",
        "category": "基础设施:公共设施:公共厕所",
        "type": 0,
        "location": {
            "lat": 46.884303,
            "lng": 130.312539
        },
        "ad_info": {
            "adcode": 230811,
            "province": "黑龙江省",
            "city": "佳木斯市",
            "district": "郊区"
        }
    },
    {
        "id": "15242618588487932448",
        "title": "公共厕所",
        "address": "黑龙江省佳木斯市前进区光华学校东侧130米",
        "tel": "",
        "category": "基础设施:公共设施:公共厕所",
        "type": 0,
        "location": {
            "lat": 46.779329,
            "lng": 130.393245
        },
        "ad_info": {
            "adcode": 230804,
            "province": "黑龙江省",
            "city": "佳木斯市",
            "district": "前进区"
        }
    },
    {
        "id": "13864911980859231639",
        "title": "公共厕所",
        "address": "黑龙江省佳木斯市郊区G201与和谐路交叉口正北方向243米左右",
        "tel": "",
        "category": "基础设施:公共设施:公共厕所",
        "type": 0,
        "location": {
            "lat": 46.715873,
            "lng": 130.267857
        },
        "ad_info": {
            "adcode": 230811,
            "province": "黑龙江省",
            "city": "佳木斯市",
            "district": "郊区"
        }
    },
    {
        "id": "10982506192008980357",
        "title": "公共厕所",
        "address": "黑龙江省佳木斯市东风区南兴街与惠民路交叉口东南方向197米左右",
        "tel": "",
        "category": "基础设施:公共设施:公共厕所",
        "type": 0,
        "location": {
            "lat": 46.824279,
            "lng": 130.42314
        },
        "ad_info": {
            "adcode": 230805,
            "province": "黑龙江省",
            "city": "佳木斯市",
            "district": "东风区"
        }
    },
    {
        "id": "12005681457809805369",
        "title": "公共厕所",
        "address": "黑龙江省佳木斯市向阳区中华路与学府街交叉口西北方向339米左右",
        "tel": "",
        "category": "基础设施:公共设施:公共厕所",
        "type": 0,
        "location": {
            "lat": 46.778586,
            "lng": 130.367366
        },
        "ad_info": {
            "adcode": 230803,
            "province": "黑龙江省",
            "city": "佳木斯市",
            "district": "向阳区"
        }
    },
    {
        "id": "1604763678603103982",
        "title": "公共厕所",
        "address": "黑龙江省佳木斯市汤原县汤绥路",
        "tel": "",
        "category": "基础设施:公共设施:公共厕所",
        "type": 0,
        "location": {
            "lat": 47.101551,
            "lng": 130.662075
        },
        "ad_info": {
            "adcode": 230828,
            "province": "黑龙江省",
            "city": "佳木斯市",
            "district": "汤原县"
        }
    },
    {
        "id": "9815693597844873452",
        "title": "公共厕所",
        "address": "黑龙江省佳木斯市桦南县健康路与群星路交叉口西南方向187米左右",
        "tel": "",
        "category": "基础设施:公共设施:公共厕所",
        "type": 0,
        "location": {
            "lat": 46.230205,
            "lng": 130.564387
        },
        "ad_info": {
            "adcode": 230822,
            "province": "黑龙江省",
            "city": "佳木斯市",
            "district": "桦南县"
        }
    },
    {
        "id": "4307491737590916250",
        "title": "公共厕所",
        "address": "黑龙江省佳木斯市向阳区平吊街与红旗街交叉口西南方向100米左右",
        "tel": "",
        "category": "基础设施:公共设施:公共厕所",
        "type": 0,
        "location": {
            "lat": 46.777239,
            "lng": 130.357417
        },
        "ad_info": {
            "adcode": 230803,
            "province": "黑龙江省",
            "city": "佳木斯市",
            "district": "向阳区"
        }
    },
    {
        "id": "10170232832262238718",
        "title": "公共厕所",
        "address": "黑龙江省佳木斯市东风区乌苏里江街与长安东路交叉口东南方向358米左右",
        "tel": "",
        "category": "基础设施:公共设施:公共厕所",
        "type": 0,
        "location": {
            "lat": 46.840645,
            "lng": 130.448798
        },
        "ad_info": {
            "adcode": 230805,
            "province": "黑龙江省",
            "city": "佳木斯市",
            "district": "东风区"
        }
    },
    {
        "id": "13899517899413960547",
        "title": "公共厕所",
        "address": "黑龙江省佳木斯市郊区友谊路与起点巷交叉口东南方向308米左右",
        "tel": "",
        "category": "基础设施:公共设施:公共厕所",
        "type": 0,
        "location": {
            "lat": 46.806189,
            "lng": 130.25904
        },
        "ad_info": {
            "adcode": 230811,
            "province": "黑龙江省",
            "city": "佳木斯市",
            "district": "郊区"
        }
    },
    {
        "id": "10303985985024296746",
        "title": "公共厕所",
        "address": "黑龙江省佳木斯市抚远市西一道街与永安西一道街西一路交叉口西南方向76米左右",
        "tel": "",
        "category": "基础设施:公共设施:公共厕所",
        "type": 0,
        "location": {
            "lat": 47.999521,
            "lng": 134.137764
        },
        "ad_info": {
            "adcode": 230883,
            "province": "黑龙江省",
            "city": "佳木斯市",
            "district": "抚远市"
        }
    },
    {
        "id": "18124939462833074748",
        "title": "公共厕所",
        "address": "黑龙江省佳木斯市东风区佳木斯兴运小区西北侧220米",
        "tel": "",
        "category": "基础设施:公共设施:公共厕所",
        "type": 0,
        "location": {
            "lat": 46.807383,
            "lng": 130.404633
        },
        "ad_info": {
            "adcode": 230805,
            "province": "黑龙江省",
            "city": "佳木斯市",
            "district": "东风区"
        }
    },
    {
        "id": "16608260464693246737",
        "title": "公共厕所",
        "address": "黑龙江省佳木斯市同江市G331与诚信街交叉口正东方向109米左右",
        "tel": "",
        "category": "基础设施:公共设施:公共厕所",
        "type": 0,
        "location": {
            "lat": 48.195387,
            "lng": 134.046466
        },
        "ad_info": {
            "adcode": 230881,
            "province": "黑龙江省",
            "city": "佳木斯市",
            "district": "同江市"
        }
    },
    {
        "id": "4519428700307011689",
        "title": "公共厕所",
        "address": "黑龙江省佳木斯市向阳区永平巷与滨江西路交叉口正南方向32米左右",
        "tel": "",
        "category": "基础设施:公共设施:公共厕所",
        "type": 0,
        "location": {
            "lat": 46.820744,
            "lng": 130.360953
        },
        "ad_info": {
            "adcode": 230803,
            "province": "黑龙江省",
            "city": "佳木斯市",
            "district": "向阳区"
        }
    },
    {
        "id": "17938503401933715320",
        "title": "公共厕所",
        "address": "黑龙江省佳木斯市富锦市知青路与胜利大街交叉口正西方向119米左右",
        "tel": "",
        "category": "基础设施:公共设施:公共厕所",
        "type": 0,
        "location": {
            "lat": 47.26097,
            "lng": 132.632118
        },
        "ad_info": {
            "adcode": 230882,
            "province": "黑龙江省",
            "city": "佳木斯市",
            "district": "富锦市"
        }
    },
    {
        "id": "5333673948256765324",
        "title": "公共厕所",
        "address": "黑龙江省佳木斯市富锦市建三江管理局局直七星1分场4队",
        "tel": "",
        "category": "基础设施:公共设施:公共厕所",
        "type": 0,
        "location": {
            "lat": 47.258836,
            "lng": 132.648113
        },
        "ad_info": {
            "adcode": 230882,
            "province": "黑龙江省",
            "city": "佳木斯市",
            "district": "富锦市"
        }
    },
    {
        "id": "6695349799582457268",
        "title": "公共厕所",
        "address": "黑龙江省佳木斯市桦川县G102与S202交叉口东南方向33米左右",
        "tel": "",
        "category": "基础设施:公共设施:公共厕所",
        "type": 0,
        "location": {
            "lat": 47.131753,
            "lng": 131.464818
        },
        "ad_info": {
            "adcode": 230826,
            "province": "黑龙江省",
            "city": "佳木斯市",
            "district": "桦川县"
        }
    },
    {
        "id": "7816370309402083050",
        "title": "公共厕所",
        "address": "黑龙江省佳木斯市抚远市G102与佳抚路交叉口西南方向93米左右",
        "tel": "",
        "category": "基础设施:公共设施:公共厕所",
        "type": 0,
        "location": {
            "lat": 47.597373,
            "lng": 133.867707
        },
        "ad_info": {
            "adcode": 230883,
            "province": "黑龙江省",
            "city": "佳木斯市",
            "district": "抚远市"
        }
    },
    {
        "id": "3754200122343115708",
        "title": "无障碍洗手间(世纪生活广场)",
        "address": "黑龙江省佳木斯市桦南县桦南镇前进路278号世纪生活广场F5层",
        "tel": "",
        "category": "基础设施:公共设施:公共厕所",
        "type": 0,
        "location": {
            "lat": 46.238168,
            "lng": 130.569638
        },
        "ad_info": {
            "adcode": 230822,
            "province": "黑龙江省",
            "city": "佳木斯市",
            "district": "桦南县"
        }
    },
    {
        "id": "3360484536825107817",
        "title": "公共厕所",
        "address": "黑龙江省佳木斯市前进区升平街与长安东路交叉口正南方向63米左右",
        "tel": "",
        "category": "基础设施:公共设施:公共厕所",
        "type": 0,
        "location": {
            "lat": 46.817021,
            "lng": 130.387772
        },
        "ad_info": {
            "adcode": 230804,
            "province": "黑龙江省",
            "city": "佳木斯市",
            "district": "前进区"
        }
    },
    {
        "id": "5586997545155568016",
        "title": "公共厕所",
        "address": "黑龙江省佳木斯市桦南县学府路与桦石公路交叉口正北方向111米左右",
        "tel": "",
        "category": "基础设施:公共设施:公共厕所",
        "type": 0,
        "location": {
            "lat": 46.251359,
            "lng": 130.610189
        },
        "ad_info": {
            "adcode": 230822,
            "province": "黑龙江省",
            "city": "佳木斯市",
            "district": "桦南县"
        }
    },
    {
        "id": "6906947371899585612",
        "title": "公共厕所",
        "address": "黑龙江省佳木斯市抚远市南山公园入口",
        "tel": "",
        "category": "基础设施:公共设施:公共厕所",
        "type": 0,
        "location": {
            "lat": 48.354403,
            "lng": 134.286766
        },
        "ad_info": {
            "adcode": 230883,
            "province": "黑龙江省",
            "city": "佳木斯市",
            "district": "抚远市"
        }
    },
    {
        "id": "4494726779539727166",
        "title": "公共厕所",
        "address": "黑龙江省佳木斯市前进区南山街与胜利东路交叉口正东方向46米左右",
        "tel": "",
        "category": "基础设施:公共设施:公共厕所",
        "type": 0,
        "location": {
            "lat": 46.797926,
            "lng": 130.393046
        },
        "ad_info": {
            "adcode": 230804,
            "province": "黑龙江省",
            "city": "佳木斯市",
            "district": "前进区"
        }
    },
    {
        "id": "16698501031024125107",
        "title": "公共厕所",
        "address": "黑龙江省佳木斯市汤原县京抚路与华胜街交叉口正东方向56米左右",
        "tel": "",
        "category": "基础设施:公共设施:公共厕所",
        "type": 0,
        "location": {
            "lat": 46.740078,
            "lng": 129.919586
        },
        "ad_info": {
            "adcode": 230828,
            "province": "黑龙江省",
            "city": "佳木斯市",
            "district": "汤原县"
        }
    },
    {
        "id": "16396670403369209449",
        "title": "公共厕所",
        "address": "黑龙江省佳木斯市东风区光复东路与长胜街交叉口西北方向83米左右",
        "tel": "",
        "category": "基础设施:公共设施:公共厕所",
        "type": 0,
        "location": {
            "lat": 46.817807,
            "lng": 130.403678
        },
        "ad_info": {
            "adcode": 230805,
            "province": "黑龙江省",
            "city": "佳木斯市",
            "district": "东风区"
        }
    },
    {
        "id": "14482314825139630804",
        "title": "公共厕所",
        "address": "黑龙江省佳木斯市郊区哈萝公路与鹤大公路交叉口正西方向120米左右",
        "tel": "",
        "category": "基础设施:公共设施:公共厕所",
        "type": 0,
        "location": {
            "lat": 46.857712,
            "lng": 130.259177
        },
        "ad_info": {
            "adcode": 230811,
            "province": "黑龙江省",
            "city": "佳木斯市",
            "district": "郊区"
        }
    },
    {
        "id": "12189983797433505410",
        "title": "公共厕所",
        "address": "黑龙江省佳木斯市桦南县新建街与铁西路交叉口东北方向67米左右",
        "tel": "",
        "category": "基础设施:公共设施:公共厕所",
        "type": 0,
        "location": {
            "lat": 46.244743,
            "lng": 130.583237
        },
        "ad_info": {
            "adcode": 230822,
            "province": "黑龙江省",
            "city": "佳木斯市",
            "district": "桦南县"
        }
    },
    {
        "id": "5777135591019409616",
        "title": "公共厕所",
        "address": "黑龙江省佳木斯市前进区保卫路与友好巷交叉口东南方向90米左右",
        "tel": "",
        "category": "基础设施:公共设施:公共厕所",
        "type": 0,
        "location": {
            "lat": 46.81158,
            "lng": 130.37447
        },
        "ad_info": {
            "adcode": 230804,
            "province": "黑龙江省",
            "city": "佳木斯市",
            "district": "前进区"
        }
    },
    {
        "id": "6403868365214277167",
        "title": "公共厕所",
        "address": "黑龙江省佳木斯市富锦市富锦市创业学校西侧240米",
        "tel": "",
        "category": "基础设施:公共设施:公共厕所",
        "type": 0,
        "location": {
            "lat": 47.369597,
            "lng": 133.057546
        },
        "ad_info": {
            "adcode": 230882,
            "province": "黑龙江省",
            "city": "佳木斯市",
            "district": "富锦市"
        }
    },
    {
        "id": "2617001244551423255",
        "title": "公共厕所",
        "address": "黑龙江省佳木斯市桦川县冷云大街与长青路交叉口东北方向134米左右",
        "tel": "",
        "category": "基础设施:公共设施:公共厕所",
        "type": 0,
        "location": {
            "lat": 47.031114,
            "lng": 130.71642
        },
        "ad_info": {
            "adcode": 230826,
            "province": "黑龙江省",
            "city": "佳木斯市",
            "district": "桦川县"
        }
    },
    {
        "id": "9337583063511091713",
        "title": "男洗手间",
        "address": "黑龙江省佳木斯市向阳区光复西路1081号万达广场F2",
        "tel": "",
        "category": "基础设施:公共设施:男洗手间",
        "type": 0,
        "location": {
            "lat": 46.794177,
            "lng": 130.33738
        },
        "ad_info": {
            "adcode": 230803,
            "province": "黑龙江省",
            "city": "佳木斯市",
            "district": "向阳区"
        }
    },
    {
        "id": "2183402248740366125",
        "title": "残障-洗手间",
        "address": "黑龙江省佳木斯市向阳区光复西路1081号万达广场F3",
        "tel": "",
        "category": "基础设施:公共设施:无障碍洗手间",
        "type": 0,
        "location": {
            "lat": 46.792825,
            "lng": 130.33712
        },
        "ad_info": {
            "adcode": 230803,
            "province": "黑龙江省",
            "city": "佳木斯市",
            "district": "向阳区"
        }
    },
    {
        "id": "3320372252809258424",
        "title": "残障-洗手间",
        "address": "黑龙江省佳木斯市向阳区光复西路1081号万达广场F3",
        "tel": "",
        "category": "基础设施:公共设施:无障碍洗手间",
        "type": 0,
        "location": {
            "lat": 46.794946,
            "lng": 130.336824
        },
        "ad_info": {
            "adcode": 230803,
            "province": "黑龙江省",
            "city": "佳木斯市",
            "district": "向阳区"
        }
    },
    {
        "id": "5188269274102001434",
        "title": "残障-洗手间",
        "address": "黑龙江省佳木斯市向阳区光复西路1081号万达广场F3",
        "tel": "",
        "category": "基础设施:公共设施:无障碍洗手间",
        "type": 0,
        "location": {
            "lat": 46.792803,
            "lng": 130.337188
        },
        "ad_info": {
            "adcode": 230803,
            "province": "黑龙江省",
            "city": "佳木斯市",
            "district": "向阳区"
        }
    },
    {
        "id": "18192191053921038426",
        "title": "公共厕所",
        "address": "黑龙江省佳木斯市向阳区万发路与万新街交叉口西南方向181米左右",
        "tel": "",
        "category": "基础设施:公共设施:公共厕所",
        "type": 0,
        "location": {
            "lat": 46.792277,
            "lng": 130.336627
        },
        "ad_info": {
            "adcode": 230803,
            "province": "黑龙江省",
            "city": "佳木斯市",
            "district": "向阳区"
        }
    },
    {
        "id": "17207088032517568986",
        "title": "公共厕所",
        "address": "黑龙江省佳木斯市前进区顺和街128号佳木斯公路客运枢纽站",
        "tel": "",
        "category": "基础设施:公共设施:公共厕所",
        "type": 0,
        "location": {
            "lat": 46.805642,
            "lng": 130.379099
        },
        "ad_info": {
            "adcode": 230804,
            "province": "黑龙江省",
            "city": "佳木斯市",
            "district": "前进区"
        }
    },
    {
        "id": "4719922493320429255",
        "title": "公共厕所",
        "address": "黑龙江省佳木斯市桦南县健康路与群星路交叉口西南方向204米左右",
        "tel": "",
        "category": "基础设施:公共设施:公共厕所",
        "type": 0,
        "location": {
            "lat": 46.229992,
            "lng": 130.564493
        },
        "ad_info": {
            "adcode": 230822,
            "province": "黑龙江省",
            "city": "佳木斯市",
            "district": "桦南县"
        }
    },
    {
        "id": "7530782971475528762",
        "title": "公共厕所",
        "address": "黑龙江省佳木斯市桦川县奋斗路与悦来大街交叉口西南方向140米左右",
        "tel": "",
        "category": "基础设施:公共设施:公共厕所",
        "type": 0,
        "location": {
            "lat": 47.029934,
            "lng": 130.717558
        },
        "ad_info": {
            "adcode": 230826,
            "province": "黑龙江省",
            "city": "佳木斯市",
            "district": "桦川县"
        }
    },
    {
        "id": "12285617345184552232",
        "title": "公共厕所",
        "address": "黑龙江省佳木斯市富锦市七星路与胜利大街交叉口西南方向268米左右",
        "tel": "",
        "category": "基础设施:公共设施:公共厕所",
        "type": 0,
        "location": {
            "lat": 47.261577,
            "lng": 132.629631
        },
        "ad_info": {
            "adcode": 230882,
            "province": "黑龙江省",
            "city": "佳木斯市",
            "district": "富锦市"
        }
    },
    {
        "id": "3360484536825107817",
        "title": "公共厕所",
        "address": "黑龙江省佳木斯市前进区升平街与长安东路交叉口正南方向63米左右",
        "tel": "",
        "category": "基础设施:公共设施:公共厕所",
        "type": 0,
        "location": {
            "lat": 46.817021,
            "lng": 130.387772
        },
        "ad_info": {
            "adcode": 230804,
            "province": "黑龙江省",
            "city": "佳木斯市",
            "district": "前进区"
        }
    },
    {
        "id": "5586997545155568016",
        "title": "公共厕所",
        "address": "黑龙江省佳木斯市桦南县学府路与桦石公路交叉口正北方向111米左右",
        "tel": "",
        "category": "基础设施:公共设施:公共厕所",
        "type": 0,
        "location": {
            "lat": 46.251359,
            "lng": 130.610189
        },
        "ad_info": {
            "adcode": 230822,
            "province": "黑龙江省",
            "city": "佳木斯市",
            "district": "桦南县"
        }
    },
    {
        "id": "6906947371899585612",
        "title": "公共厕所",
        "address": "黑龙江省佳木斯市抚远市南山公园入口",
        "tel": "",
        "category": "基础设施:公共设施:公共厕所",
        "type": 0,
        "location": {
            "lat": 48.354403,
            "lng": 134.286766
        },
        "ad_info": {
            "adcode": 230883,
            "province": "黑龙江省",
            "city": "佳木斯市",
            "district": "抚远市"
        }
    },
    {
        "id": "4494726779539727166",
        "title": "公共厕所",
        "address": "黑龙江省佳木斯市前进区南山街与胜利东路交叉口正东方向46米左右",
        "tel": "",
        "category": "基础设施:公共设施:公共厕所",
        "type": 0,
        "location": {
            "lat": 46.797926,
            "lng": 130.393046
        },
        "ad_info": {
            "adcode": 230804,
            "province": "黑龙江省",
            "city": "佳木斯市",
            "district": "前进区"
        }
    },
    {
        "id": "16698501031024125107",
        "title": "公共厕所",
        "address": "黑龙江省佳木斯市汤原县京抚路与华胜街交叉口正东方向56米左右",
        "tel": "",
        "category": "基础设施:公共设施:公共厕所",
        "type": 0,
        "location": {
            "lat": 46.740078,
            "lng": 129.919586
        },
        "ad_info": {
            "adcode": 230828,
            "province": "黑龙江省",
            "city": "佳木斯市",
            "district": "汤原县"
        }
    },
    {
        "id": "16396670403369209449",
        "title": "公共厕所",
        "address": "黑龙江省佳木斯市东风区光复东路与长胜街交叉口西北方向83米左右",
        "tel": "",
        "category": "基础设施:公共设施:公共厕所",
        "type": 0,
        "location": {
            "lat": 46.817807,
            "lng": 130.403678
        },
        "ad_info": {
            "adcode": 230805,
            "province": "黑龙江省",
            "city": "佳木斯市",
            "district": "东风区"
        }
    },
    {
        "id": "14482314825139630804",
        "title": "公共厕所",
        "address": "黑龙江省佳木斯市郊区哈萝公路与鹤大公路交叉口正西方向120米左右",
        "tel": "",
        "category": "基础设施:公共设施:公共厕所",
        "type": 0,
        "location": {
            "lat": 46.857712,
            "lng": 130.259177
        },
        "ad_info": {
            "adcode": 230811,
            "province": "黑龙江省",
            "city": "佳木斯市",
            "district": "郊区"
        }
    },
    {
        "id": "12189983797433505410",
        "title": "公共厕所",
        "address": "黑龙江省佳木斯市桦南县新建街与铁西路交叉口东北方向67米左右",
        "tel": "",
        "category": "基础设施:公共设施:公共厕所",
        "type": 0,
        "location": {
            "lat": 46.244743,
            "lng": 130.583237
        },
        "ad_info": {
            "adcode": 230822,
            "province": "黑龙江省",
            "city": "佳木斯市",
            "district": "桦南县"
        }
    },
    {
        "id": "5777135591019409616",
        "title": "公共厕所",
        "address": "黑龙江省佳木斯市前进区保卫路与友好巷交叉口东南方向90米左右",
        "tel": "",
        "category": "基础设施:公共设施:公共厕所",
        "type": 0,
        "location": {
            "lat": 46.81158,
            "lng": 130.37447
        },
        "ad_info": {
            "adcode": 230804,
            "province": "黑龙江省",
            "city": "佳木斯市",
            "district": "前进区"
        }
    },
    {
        "id": "6403868365214277167",
        "title": "公共厕所",
        "address": "黑龙江省佳木斯市富锦市富锦市创业学校西侧240米",
        "tel": "",
        "category": "基础设施:公共设施:公共厕所",
        "type": 0,
        "location": {
            "lat": 47.369597,
            "lng": 133.057546
        },
        "ad_info": {
            "adcode": 230882,
            "province": "黑龙江省",
            "city": "佳木斯市",
            "district": "富锦市"
        }
    },
    {
        "id": "2617001244551423255",
        "title": "公共厕所",
        "address": "黑龙江省佳木斯市桦川县冷云大街与长青路交叉口东北方向134米左右",
        "tel": "",
        "category": "基础设施:公共设施:公共厕所",
        "type": 0,
        "location": {
            "lat": 47.031114,
            "lng": 130.71642
        },
        "ad_info": {
            "adcode": 230826,
            "province": "黑龙江省",
            "city": "佳木斯市",
            "district": "桦川县"
        }
    },
    {
        "id": "9337583063511091713",
        "title": "男洗手间",
        "address": "黑龙江省佳木斯市向阳区光复西路1081号万达广场F2",
        "tel": "",
        "category": "基础设施:公共设施:男洗手间",
        "type": 0,
        "location": {
            "lat": 46.794177,
            "lng": 130.33738
        },
        "ad_info": {
            "adcode": 230803,
            "province": "黑龙江省",
            "city": "佳木斯市",
            "district": "向阳区"
        }
    },
    {
        "id": "2183402248740366125",
        "title": "残障-洗手间",
        "address": "黑龙江省佳木斯市向阳区光复西路1081号万达广场F3",
        "tel": "",
        "category": "基础设施:公共设施:无障碍洗手间",
        "type": 0,
        "location": {
            "lat": 46.792825,
            "lng": 130.33712
        },
        "ad_info": {
            "adcode": 230803,
            "province": "黑龙江省",
            "city": "佳木斯市",
            "district": "向阳区"
        }
    },
    {
        "id": "3320372252809258424",
        "title": "残障-洗手间",
        "address": "黑龙江省佳木斯市向阳区光复西路1081号万达广场F3",
        "tel": "",
        "category": "基础设施:公共设施:无障碍洗手间",
        "type": 0,
        "location": {
            "lat": 46.794946,
            "lng": 130.336824
        },
        "ad_info": {
            "adcode": 230803,
            "province": "黑龙江省",
            "city": "佳木斯市",
            "district": "向阳区"
        }
    },
    {
        "id": "5188269274102001434",
        "title": "残障-洗手间",
        "address": "黑龙江省佳木斯市向阳区光复西路1081号万达广场F3",
        "tel": "",
        "category": "基础设施:公共设施:无障碍洗手间",
        "type": 0,
        "location": {
            "lat": 46.792803,
            "lng": 130.337188
        },
        "ad_info": {
            "adcode": 230803,
            "province": "黑龙江省",
            "city": "佳木斯市",
            "district": "向阳区"
        }
    },
    {
        "id": "18192191053921038426",
        "title": "公共厕所",
        "address": "黑龙江省佳木斯市向阳区万发路与万新街交叉口西南方向181米左右",
        "tel": "",
        "category": "基础设施:公共设施:公共厕所",
        "type": 0,
        "location": {
            "lat": 46.792277,
            "lng": 130.336627
        },
        "ad_info": {
            "adcode": 230803,
            "province": "黑龙江省",
            "city": "佳木斯市",
            "district": "向阳区"
        }
    },
    {
        "id": "17207088032517568986",
        "title": "公共厕所",
        "address": "黑龙江省佳木斯市前进区顺和街128号佳木斯公路客运枢纽站",
        "tel": "",
        "category": "基础设施:公共设施:公共厕所",
        "type": 0,
        "location": {
            "lat": 46.805642,
            "lng": 130.379099
        },
        "ad_info": {
            "adcode": 230804,
            "province": "黑龙江省",
            "city": "佳木斯市",
            "district": "前进区"
        }
    },
    {
        "id": "4719922493320429255",
        "title": "公共厕所",
        "address": "黑龙江省佳木斯市桦南县健康路与群星路交叉口西南方向204米左右",
        "tel": "",
        "category": "基础设施:公共设施:公共厕所",
        "type": 0,
        "location": {
            "lat": 46.229992,
            "lng": 130.564493
        },
        "ad_info": {
            "adcode": 230822,
            "province": "黑龙江省",
            "city": "佳木斯市",
            "district": "桦南县"
        }
    },
    {
        "id": "7530782971475528762",
        "title": "公共厕所",
        "address": "黑龙江省佳木斯市桦川县奋斗路与悦来大街交叉口西南方向140米左右",
        "tel": "",
        "category": "基础设施:公共设施:公共厕所",
        "type": 0,
        "location": {
            "lat": 47.029934,
            "lng": 130.717558
        },
        "ad_info": {
            "adcode": 230826,
            "province": "黑龙江省",
            "city": "佳木斯市",
            "district": "桦川县"
        }
    },
    {
        "id": "12285617345184552232",
        "title": "公共厕所",
        "address": "黑龙江省佳木斯市富锦市七星路与胜利大街交叉口西南方向268米左右",
        "tel": "",
        "category": "基础设施:公共设施:公共厕所",
        "type": 0,
        "location": {
            "lat": 47.261577,
            "lng": 132.629631
        },
        "ad_info": {
            "adcode": 230882,
            "province": "黑龙江省",
            "city": "佳木斯市",
            "district": "富锦市"
        }
    },
    {
        "id": "3360484536825107817",
        "title": "公共厕所",
        "address": "黑龙江省佳木斯市前进区升平街与长安东路交叉口正南方向63米左右",
        "tel": "",
        "category": "基础设施:公共设施:公共厕所",
        "type": 0,
        "location": {
            "lat": 46.817021,
            "lng": 130.387772
        },
        "ad_info": {
            "adcode": 230804,
            "province": "黑龙江省",
            "city": "佳木斯市",
            "district": "前进区"
        }
    },
    {
        "id": "5586997545155568016",
        "title": "公共厕所",
        "address": "黑龙江省佳木斯市桦南县学府路与桦石公路交叉口正北方向111米左右",
        "tel": "",
        "category": "基础设施:公共设施:公共厕所",
        "type": 0,
        "location": {
            "lat": 46.251359,
            "lng": 130.610189
        },
        "ad_info": {
            "adcode": 230822,
            "province": "黑龙江省",
            "city": "佳木斯市",
            "district": "桦南县"
        }
    },
    {
        "id": "6906947371899585612",
        "title": "公共厕所",
        "address": "黑龙江省佳木斯市抚远市南山公园入口",
        "tel": "",
        "category": "基础设施:公共设施:公共厕所",
        "type": 0,
        "location": {
            "lat": 48.354403,
            "lng": 134.286766
        },
        "ad_info": {
            "adcode": 230883,
            "province": "黑龙江省",
            "city": "佳木斯市",
            "district": "抚远市"
        }
    },
    {
        "id": "4494726779539727166",
        "title": "公共厕所",
        "address": "黑龙江省佳木斯市前进区南山街与胜利东路交叉口正东方向46米左右",
        "tel": "",
        "category": "基础设施:公共设施:公共厕所",
        "type": 0,
        "location": {
            "lat": 46.797926,
            "lng": 130.393046
        },
        "ad_info": {
            "adcode": 230804,
            "province": "黑龙江省",
            "city": "佳木斯市",
            "district": "前进区"
        }
    },
    {
        "id": "16698501031024125107",
        "title": "公共厕所",
        "address": "黑龙江省佳木斯市汤原县京抚路与华胜街交叉口正东方向56米左右",
        "tel": "",
        "category": "基础设施:公共设施:公共厕所",
        "type": 0,
        "location": {
            "lat": 46.740078,
            "lng": 129.919586
        },
        "ad_info": {
            "adcode": 230828,
            "province": "黑龙江省",
            "city": "佳木斯市",
            "district": "汤原县"
        }
    },
    {
        "id": "16396670403369209449",
        "title": "公共厕所",
        "address": "黑龙江省佳木斯市东风区光复东路与长胜街交叉口西北方向83米左右",
        "tel": "",
        "category": "基础设施:公共设施:公共厕所",
        "type": 0,
        "location": {
            "lat": 46.817807,
            "lng": 130.403678
        },
        "ad_info": {
            "adcode": 230805,
            "province": "黑龙江省",
            "city": "佳木斯市",
            "district": "东风区"
        }
    },
    {
        "id": "14482314825139630804",
        "title": "公共厕所",
        "address": "黑龙江省佳木斯市郊区哈萝公路与鹤大公路交叉口正西方向120米左右",
        "tel": "",
        "category": "基础设施:公共设施:公共厕所",
        "type": 0,
        "location": {
            "lat": 46.857712,
            "lng": 130.259177
        },
        "ad_info": {
            "adcode": 230811,
            "province": "黑龙江省",
            "city": "佳木斯市",
            "district": "郊区"
        }
    },
    {
        "id": "12189983797433505410",
        "title": "公共厕所",
        "address": "黑龙江省佳木斯市桦南县新建街与铁西路交叉口东北方向67米左右",
        "tel": "",
        "category": "基础设施:公共设施:公共厕所",
        "type": 0,
        "location": {
            "lat": 46.244743,
            "lng": 130.583237
        },
        "ad_info": {
            "adcode": 230822,
            "province": "黑龙江省",
            "city": "佳木斯市",
            "district": "桦南县"
        }
    },
    {
        "id": "5777135591019409616",
        "title": "公共厕所",
        "address": "黑龙江省佳木斯市前进区保卫路与友好巷交叉口东南方向90米左右",
        "tel": "",
        "category": "基础设施:公共设施:公共厕所",
        "type": 0,
        "location": {
            "lat": 46.81158,
            "lng": 130.37447
        },
        "ad_info": {
            "adcode": 230804,
            "province": "黑龙江省",
            "city": "佳木斯市",
            "district": "前进区"
        }
    },
    {
        "id": "6403868365214277167",
        "title": "公共厕所",
        "address": "黑龙江省佳木斯市富锦市富锦市创业学校西侧240米",
        "tel": "",
        "category": "基础设施:公共设施:公共厕所",
        "type": 0,
        "location": {
            "lat": 47.369597,
            "lng": 133.057546
        },
        "ad_info": {
            "adcode": 230882,
            "province": "黑龙江省",
            "city": "佳木斯市",
            "district": "富锦市"
        }
    },
    {
        "id": "2617001244551423255",
        "title": "公共厕所",
        "address": "黑龙江省佳木斯市桦川县冷云大街与长青路交叉口东北方向134米左右",
        "tel": "",
        "category": "基础设施:公共设施:公共厕所",
        "type": 0,
        "location": {
            "lat": 47.031114,
            "lng": 130.71642
        },
        "ad_info": {
            "adcode": 230826,
            "province": "黑龙江省",
            "city": "佳木斯市",
            "district": "桦川县"
        }
    },
    {
        "id": "9337583063511091713",
        "title": "男洗手间",
        "address": "黑龙江省佳木斯市向阳区光复西路1081号万达广场F2",
        "tel": "",
        "category": "基础设施:公共设施:男洗手间",
        "type": 0,
        "location": {
            "lat": 46.794177,
            "lng": 130.33738
        },
        "ad_info": {
            "adcode": 230803,
            "province": "黑龙江省",
            "city": "佳木斯市",
            "district": "向阳区"
        }
    },
    {
        "id": "2183402248740366125",
        "title": "残障-洗手间",
        "address": "黑龙江省佳木斯市向阳区光复西路1081号万达广场F3",
        "tel": "",
        "category": "基础设施:公共设施:无障碍洗手间",
        "type": 0,
        "location": {
            "lat": 46.792825,
            "lng": 130.33712
        },
        "ad_info": {
            "adcode": 230803,
            "province": "黑龙江省",
            "city": "佳木斯市",
            "district": "向阳区"
        }
    },
    {
        "id": "3320372252809258424",
        "title": "残障-洗手间",
        "address": "黑龙江省佳木斯市向阳区光复西路1081号万达广场F3",
        "tel": "",
        "category": "基础设施:公共设施:无障碍洗手间",
        "type": 0,
        "location": {
            "lat": 46.794946,
            "lng": 130.336824
        },
        "ad_info": {
            "adcode": 230803,
            "province": "黑龙江省",
            "city": "佳木斯市",
            "district": "向阳区"
        }
    },
    {
        "id": "5188269274102001434",
        "title": "残障-洗手间",
        "address": "黑龙江省佳木斯市向阳区光复西路1081号万达广场F3",
        "tel": "",
        "category": "基础设施:公共设施:无障碍洗手间",
        "type": 0,
        "location": {
            "lat": 46.792803,
            "lng": 130.337188
        },
        "ad_info": {
            "adcode": 230803,
            "province": "黑龙江省",
            "city": "佳木斯市",
            "district": "向阳区"
        }
    },
    {
        "id": "18192191053921038426",
        "title": "公共厕所",
        "address": "黑龙江省佳木斯市向阳区万发路与万新街交叉口西南方向181米左右",
        "tel": "",
        "category": "基础设施:公共设施:公共厕所",
        "type": 0,
        "location": {
            "lat": 46.792277,
            "lng": 130.336627
        },
        "ad_info": {
            "adcode": 230803,
            "province": "黑龙江省",
            "city": "佳木斯市",
            "district": "向阳区"
        }
    },
    {
        "id": "17207088032517568986",
        "title": "公共厕所",
        "address": "黑龙江省佳木斯市前进区顺和街128号佳木斯公路客运枢纽站",
        "tel": "",
        "category": "基础设施:公共设施:公共厕所",
        "type": 0,
        "location": {
            "lat": 46.805642,
            "lng": 130.379099
        },
        "ad_info": {
            "adcode": 230804,
            "province": "黑龙江省",
            "city": "佳木斯市",
            "district": "前进区"
        }
    },
    {
        "id": "4719922493320429255",
        "title": "公共厕所",
        "address": "黑龙江省佳木斯市桦南县健康路与群星路交叉口西南方向204米左右",
        "tel": "",
        "category": "基础设施:公共设施:公共厕所",
        "type": 0,
        "location": {
            "lat": 46.229992,
            "lng": 130.564493
        },
        "ad_info": {
            "adcode": 230822,
            "province": "黑龙江省",
            "city": "佳木斯市",
            "district": "桦南县"
        }
    },
    {
        "id": "7530782971475528762",
        "title": "公共厕所",
        "address": "黑龙江省佳木斯市桦川县奋斗路与悦来大街交叉口西南方向140米左右",
        "tel": "",
        "category": "基础设施:公共设施:公共厕所",
        "type": 0,
        "location": {
            "lat": 47.029934,
            "lng": 130.717558
        },
        "ad_info": {
            "adcode": 230826,
            "province": "黑龙江省",
            "city": "佳木斯市",
            "district": "桦川县"
        }
    },
    {
        "id": "12285617345184552232",
        "title": "公共厕所",
        "address": "黑龙江省佳木斯市富锦市七星路与胜利大街交叉口西南方向268米左右",
        "tel": "",
        "category": "基础设施:公共设施:公共厕所",
        "type": 0,
        "location": {
            "lat": 47.261577,
            "lng": 132.629631
        },
        "ad_info": {
            "adcode": 230882,
            "province": "黑龙江省",
            "city": "佳木斯市",
            "district": "富锦市"
        }
    },
    {
        "id": "3360484536825107817",
        "title": "公共厕所",
        "address": "黑龙江省佳木斯市前进区升平街与长安东路交叉口正南方向63米左右",
        "tel": "",
        "category": "基础设施:公共设施:公共厕所",
        "type": 0,
        "location": {
            "lat": 46.817021,
            "lng": 130.387772
        },
        "ad_info": {
            "adcode": 230804,
            "province": "黑龙江省",
            "city": "佳木斯市",
            "district": "前进区"
        }
    },
    {
        "id": "5586997545155568016",
        "title": "公共厕所",
        "address": "黑龙江省佳木斯市桦南县学府路与桦石公路交叉口正北方向111米左右",
        "tel": "",
        "category": "基础设施:公共设施:公共厕所",
        "type": 0,
        "location": {
            "lat": 46.251359,
            "lng": 130.610189
        },
        "ad_info": {
            "adcode": 230822,
            "province": "黑龙江省",
            "city": "佳木斯市",
            "district": "桦南县"
        }
    },
    {
        "id": "6906947371899585612",
        "title": "公共厕所",
        "address": "黑龙江省佳木斯市抚远市南山公园入口",
        "tel": "",
        "category": "基础设施:公共设施:公共厕所",
        "type": 0,
        "location": {
            "lat": 48.354403,
            "lng": 134.286766
        },
        "ad_info": {
            "adcode": 230883,
            "province": "黑龙江省",
            "city": "佳木斯市",
            "district": "抚远市"
        }
    },
    {
        "id": "4494726779539727166",
        "title": "公共厕所",
        "address": "黑龙江省佳木斯市前进区南山街与胜利东路交叉口正东方向46米左右",
        "tel": "",
        "category": "基础设施:公共设施:公共厕所",
        "type": 0,
        "location": {
            "lat": 46.797926,
            "lng": 130.393046
        },
        "ad_info": {
            "adcode": 230804,
            "province": "黑龙江省",
            "city": "佳木斯市",
            "district": "前进区"
        }
    },
    {
        "id": "16698501031024125107",
        "title": "公共厕所",
        "address": "黑龙江省佳木斯市汤原县京抚路与华胜街交叉口正东方向56米左右",
        "tel": "",
        "category": "基础设施:公共设施:公共厕所",
        "type": 0,
        "location": {
            "lat": 46.740078,
            "lng": 129.919586
        },
        "ad_info": {
            "adcode": 230828,
            "province": "黑龙江省",
            "city": "佳木斯市",
            "district": "汤原县"
        }
    },
    {
        "id": "16396670403369209449",
        "title": "公共厕所",
        "address": "黑龙江省佳木斯市东风区光复东路与长胜街交叉口西北方向83米左右",
        "tel": "",
        "category": "基础设施:公共设施:公共厕所",
        "type": 0,
        "location": {
            "lat": 46.817807,
            "lng": 130.403678
        },
        "ad_info": {
            "adcode": 230805,
            "province": "黑龙江省",
            "city": "佳木斯市",
            "district": "东风区"
        }
    },
    {
        "id": "14482314825139630804",
        "title": "公共厕所",
        "address": "黑龙江省佳木斯市郊区哈萝公路与鹤大公路交叉口正西方向120米左右",
        "tel": "",
        "category": "基础设施:公共设施:公共厕所",
        "type": 0,
        "location": {
            "lat": 46.857712,
            "lng": 130.259177
        },
        "ad_info": {
            "adcode": 230811,
            "province": "黑龙江省",
            "city": "佳木斯市",
            "district": "郊区"
        }
    },
    {
        "id": "12189983797433505410",
        "title": "公共厕所",
        "address": "黑龙江省佳木斯市桦南县新建街与铁西路交叉口东北方向67米左右",
        "tel": "",
        "category": "基础设施:公共设施:公共厕所",
        "type": 0,
        "location": {
            "lat": 46.244743,
            "lng": 130.583237
        },
        "ad_info": {
            "adcode": 230822,
            "province": "黑龙江省",
            "city": "佳木斯市",
            "district": "桦南县"
        }
    },
    {
        "id": "5777135591019409616",
        "title": "公共厕所",
        "address": "黑龙江省佳木斯市前进区保卫路与友好巷交叉口东南方向90米左右",
        "tel": "",
        "category": "基础设施:公共设施:公共厕所",
        "type": 0,
        "location": {
            "lat": 46.81158,
            "lng": 130.37447
        },
        "ad_info": {
            "adcode": 230804,
            "province": "黑龙江省",
            "city": "佳木斯市",
            "district": "前进区"
        }
    },
    {
        "id": "6403868365214277167",
        "title": "公共厕所",
        "address": "黑龙江省佳木斯市富锦市富锦市创业学校西侧240米",
        "tel": "",
        "category": "基础设施:公共设施:公共厕所",
        "type": 0,
        "location": {
            "lat": 47.369597,
            "lng": 133.057546
        },
        "ad_info": {
            "adcode": 230882,
            "province": "黑龙江省",
            "city": "佳木斯市",
            "district": "富锦市"
        }
    },
    {
        "id": "2617001244551423255",
        "title": "公共厕所",
        "address": "黑龙江省佳木斯市桦川县冷云大街与长青路交叉口东北方向134米左右",
        "tel": "",
        "category": "基础设施:公共设施:公共厕所",
        "type": 0,
        "location": {
            "lat": 47.031114,
            "lng": 130.71642
        },
        "ad_info": {
            "adcode": 230826,
            "province": "黑龙江省",
            "city": "佳木斯市",
            "district": "桦川县"
        }
    },
    {
        "id": "9337583063511091713",
        "title": "男洗手间",
        "address": "黑龙江省佳木斯市向阳区光复西路1081号万达广场F2",
        "tel": "",
        "category": "基础设施:公共设施:男洗手间",
        "type": 0,
        "location": {
            "lat": 46.794177,
            "lng": 130.33738
        },
        "ad_info": {
            "adcode": 230803,
            "province": "黑龙江省",
            "city": "佳木斯市",
            "district": "向阳区"
        }
    },
    {
        "id": "2183402248740366125",
        "title": "残障-洗手间",
        "address": "黑龙江省佳木斯市向阳区光复西路1081号万达广场F3",
        "tel": "",
        "category": "基础设施:公共设施:无障碍洗手间",
        "type": 0,
        "location": {
            "lat": 46.792825,
            "lng": 130.33712
        },
        "ad_info": {
            "adcode": 230803,
            "province": "黑龙江省",
            "city": "佳木斯市",
            "district": "向阳区"
        }
    },
    {
        "id": "3320372252809258424",
        "title": "残障-洗手间",
        "address": "黑龙江省佳木斯市向阳区光复西路1081号万达广场F3",
        "tel": "",
        "category": "基础设施:公共设施:无障碍洗手间",
        "type": 0,
        "location": {
            "lat": 46.794946,
            "lng": 130.336824
        },
        "ad_info": {
            "adcode": 230803,
            "province": "黑龙江省",
            "city": "佳木斯市",
            "district": "向阳区"
        }
    },
    {
        "id": "5188269274102001434",
        "title": "残障-洗手间",
        "address": "黑龙江省佳木斯市向阳区光复西路1081号万达广场F3",
        "tel": "",
        "category": "基础设施:公共设施:无障碍洗手间",
        "type": 0,
        "location": {
            "lat": 46.792803,
            "lng": 130.337188
        },
        "ad_info": {
            "adcode": 230803,
            "province": "黑龙江省",
            "city": "佳木斯市",
            "district": "向阳区"
        }
    },
    {
        "id": "18192191053921038426",
        "title": "公共厕所",
        "address": "黑龙江省佳木斯市向阳区万发路与万新街交叉口西南方向181米左右",
        "tel": "",
        "category": "基础设施:公共设施:公共厕所",
        "type": 0,
        "location": {
            "lat": 46.792277,
            "lng": 130.336627
        },
        "ad_info": {
            "adcode": 230803,
            "province": "黑龙江省",
            "city": "佳木斯市",
            "district": "向阳区"
        }
    },
    {
        "id": "17207088032517568986",
        "title": "公共厕所",
        "address": "黑龙江省佳木斯市前进区顺和街128号佳木斯公路客运枢纽站",
        "tel": "",
        "category": "基础设施:公共设施:公共厕所",
        "type": 0,
        "location": {
            "lat": 46.805642,
            "lng": 130.379099
        },
        "ad_info": {
            "adcode": 230804,
            "province": "黑龙江省",
            "city": "佳木斯市",
            "district": "前进区"
        }
    },
    {
        "id": "4719922493320429255",
        "title": "公共厕所",
        "address": "黑龙江省佳木斯市桦南县健康路与群星路交叉口西南方向204米左右",
        "tel": "",
        "category": "基础设施:公共设施:公共厕所",
        "type": 0,
        "location": {
            "lat": 46.229992,
            "lng": 130.564493
        },
        "ad_info": {
            "adcode": 230822,
            "province": "黑龙江省",
            "city": "佳木斯市",
            "district": "桦南县"
        }
    },
    {
        "id": "7530782971475528762",
        "title": "公共厕所",
        "address": "黑龙江省佳木斯市桦川县奋斗路与悦来大街交叉口西南方向140米左右",
        "tel": "",
        "category": "基础设施:公共设施:公共厕所",
        "type": 0,
        "location": {
            "lat": 47.029934,
            "lng": 130.717558
        },
        "ad_info": {
            "adcode": 230826,
            "province": "黑龙江省",
            "city": "佳木斯市",
            "district": "桦川县"
        }
    },
    {
        "id": "12285617345184552232",
        "title": "公共厕所",
        "address": "黑龙江省佳木斯市富锦市七星路与胜利大街交叉口西南方向268米左右",
        "tel": "",
        "category": "基础设施:公共设施:公共厕所",
        "type": 0,
        "location": {
            "lat": 47.261577,
            "lng": 132.629631
        },
        "ad_info": {
            "adcode": 230882,
            "province": "黑龙江省",
            "city": "佳木斯市",
            "district": "富锦市"
        }
    },
    {
        "id": "3360484536825107817",
        "title": "公共厕所",
        "address": "黑龙江省佳木斯市前进区升平街与长安东路交叉口正南方向63米左右",
        "tel": "",
        "category": "基础设施:公共设施:公共厕所",
        "type": 0,
        "location": {
            "lat": 46.817021,
            "lng": 130.387772
        },
        "ad_info": {
            "adcode": 230804,
            "province": "黑龙江省",
            "city": "佳木斯市",
            "district": "前进区"
        }
    },
    {
        "id": "5586997545155568016",
        "title": "公共厕所",
        "address": "黑龙江省佳木斯市桦南县学府路与桦石公路交叉口正北方向111米左右",
        "tel": "",
        "category": "基础设施:公共设施:公共厕所",
        "type": 0,
        "location": {
            "lat": 46.251359,
            "lng": 130.610189
        },
        "ad_info": {
            "adcode": 230822,
            "province": "黑龙江省",
            "city": "佳木斯市",
            "district": "桦南县"
        }
    },
    {
        "id": "6906947371899585612",
        "title": "公共厕所",
        "address": "黑龙江省佳木斯市抚远市南山公园入口",
        "tel": "",
        "category": "基础设施:公共设施:公共厕所",
        "type": 0,
        "location": {
            "lat": 48.354403,
            "lng": 134.286766
        },
        "ad_info": {
            "adcode": 230883,
            "province": "黑龙江省",
            "city": "佳木斯市",
            "district": "抚远市"
        }
    },
    {
        "id": "4494726779539727166",
        "title": "公共厕所",
        "address": "黑龙江省佳木斯市前进区南山街与胜利东路交叉口正东方向46米左右",
        "tel": "",
        "category": "基础设施:公共设施:公共厕所",
        "type": 0,
        "location": {
            "lat": 46.797926,
            "lng": 130.393046
        },
        "ad_info": {
            "adcode": 230804,
            "province": "黑龙江省",
            "city": "佳木斯市",
            "district": "前进区"
        }
    },
    {
        "id": "16698501031024125107",
        "title": "公共厕所",
        "address": "黑龙江省佳木斯市汤原县京抚路与华胜街交叉口正东方向56米左右",
        "tel": "",
        "category": "基础设施:公共设施:公共厕所",
        "type": 0,
        "location": {
            "lat": 46.740078,
            "lng": 129.919586
        },
        "ad_info": {
            "adcode": 230828,
            "province": "黑龙江省",
            "city": "佳木斯市",
            "district": "汤原县"
        }
    },
    {
        "id": "16396670403369209449",
        "title": "公共厕所",
        "address": "黑龙江省佳木斯市东风区光复东路与长胜街交叉口西北方向83米左右",
        "tel": "",
        "category": "基础设施:公共设施:公共厕所",
        "type": 0,
        "location": {
            "lat": 46.817807,
            "lng": 130.403678
        },
        "ad_info": {
            "adcode": 230805,
            "province": "黑龙江省",
            "city": "佳木斯市",
            "district": "东风区"
        }
    },
    {
        "id": "14482314825139630804",
        "title": "公共厕所",
        "address": "黑龙江省佳木斯市郊区哈萝公路与鹤大公路交叉口正西方向120米左右",
        "tel": "",
        "category": "基础设施:公共设施:公共厕所",
        "type": 0,
        "location": {
            "lat": 46.857712,
            "lng": 130.259177
        },
        "ad_info": {
            "adcode": 230811,
            "province": "黑龙江省",
            "city": "佳木斯市",
            "district": "郊区"
        }
    },
    {
        "id": "12189983797433505410",
        "title": "公共厕所",
        "address": "黑龙江省佳木斯市桦南县新建街与铁西路交叉口东北方向67米左右",
        "tel": "",
        "category": "基础设施:公共设施:公共厕所",
        "type": 0,
        "location": {
            "lat": 46.244743,
            "lng": 130.583237
        },
        "ad_info": {
            "adcode": 230822,
            "province": "黑龙江省",
            "city": "佳木斯市",
            "district": "桦南县"
        }
    },
    {
        "id": "5777135591019409616",
        "title": "公共厕所",
        "address": "黑龙江省佳木斯市前进区保卫路与友好巷交叉口东南方向90米左右",
        "tel": "",
        "category": "基础设施:公共设施:公共厕所",
        "type": 0,
        "location": {
            "lat": 46.81158,
            "lng": 130.37447
        },
        "ad_info": {
            "adcode": 230804,
            "province": "黑龙江省",
            "city": "佳木斯市",
            "district": "前进区"
        }
    },
    {
        "id": "6403868365214277167",
        "title": "公共厕所",
        "address": "黑龙江省佳木斯市富锦市富锦市创业学校西侧240米",
        "tel": "",
        "category": "基础设施:公共设施:公共厕所",
        "type": 0,
        "location": {
            "lat": 47.369597,
            "lng": 133.057546
        },
        "ad_info": {
            "adcode": 230882,
            "province": "黑龙江省",
            "city": "佳木斯市",
            "district": "富锦市"
        }
    },
    {
        "id": "2617001244551423255",
        "title": "公共厕所",
        "address": "黑龙江省佳木斯市桦川县冷云大街与长青路交叉口东北方向134米左右",
        "tel": "",
        "category": "基础设施:公共设施:公共厕所",
        "type": 0,
        "location": {
            "lat": 47.031114,
            "lng": 130.71642
        },
        "ad_info": {
            "adcode": 230826,
            "province": "黑龙江省",
            "city": "佳木斯市",
            "district": "桦川县"
        }
    },
    {
        "id": "9337583063511091713",
        "title": "男洗手间",
        "address": "黑龙江省佳木斯市向阳区光复西路1081号万达广场F2",
        "tel": "",
        "category": "基础设施:公共设施:男洗手间",
        "type": 0,
        "location": {
            "lat": 46.794177,
            "lng": 130.33738
        },
        "ad_info": {
            "adcode": 230803,
            "province": "黑龙江省",
            "city": "佳木斯市",
            "district": "向阳区"
        }
    },
    {
        "id": "2183402248740366125",
        "title": "残障-洗手间",
        "address": "黑龙江省佳木斯市向阳区光复西路1081号万达广场F3",
        "tel": "",
        "category": "基础设施:公共设施:无障碍洗手间",
        "type": 0,
        "location": {
            "lat": 46.792825,
            "lng": 130.33712
        },
        "ad_info": {
            "adcode": 230803,
            "province": "黑龙江省",
            "city": "佳木斯市",
            "district": "向阳区"
        }
    },
    {
        "id": "3320372252809258424",
        "title": "残障-洗手间",
        "address": "黑龙江省佳木斯市向阳区光复西路1081号万达广场F3",
        "tel": "",
        "category": "基础设施:公共设施:无障碍洗手间",
        "type": 0,
        "location": {
            "lat": 46.794946,
            "lng": 130.336824
        },
        "ad_info": {
            "adcode": 230803,
            "province": "黑龙江省",
            "city": "佳木斯市",
            "district": "向阳区"
        }
    },
    {
        "id": "5188269274102001434",
        "title": "残障-洗手间",
        "address": "黑龙江省佳木斯市向阳区光复西路1081号万达广场F3",
        "tel": "",
        "category": "基础设施:公共设施:无障碍洗手间",
        "type": 0,
        "location": {
            "lat": 46.792803,
            "lng": 130.337188
        },
        "ad_info": {
            "adcode": 230803,
            "province": "黑龙江省",
            "city": "佳木斯市",
            "district": "向阳区"
        }
    },
    {
        "id": "18192191053921038426",
        "title": "公共厕所",
        "address": "黑龙江省佳木斯市向阳区万发路与万新街交叉口西南方向181米左右",
        "tel": "",
        "category": "基础设施:公共设施:公共厕所",
        "type": 0,
        "location": {
            "lat": 46.792277,
            "lng": 130.336627
        },
        "ad_info": {
            "adcode": 230803,
            "province": "黑龙江省",
            "city": "佳木斯市",
            "district": "向阳区"
        }
    },
    {
        "id": "17207088032517568986",
        "title": "公共厕所",
        "address": "黑龙江省佳木斯市前进区顺和街128号佳木斯公路客运枢纽站",
        "tel": "",
        "category": "基础设施:公共设施:公共厕所",
        "type": 0,
        "location": {
            "lat": 46.805642,
            "lng": 130.379099
        },
        "ad_info": {
            "adcode": 230804,
            "province": "黑龙江省",
            "city": "佳木斯市",
            "district": "前进区"
        }
    },
    {
        "id": "4719922493320429255",
        "title": "公共厕所",
        "address": "黑龙江省佳木斯市桦南县健康路与群星路交叉口西南方向204米左右",
        "tel": "",
        "category": "基础设施:公共设施:公共厕所",
        "type": 0,
        "location": {
            "lat": 46.229992,
            "lng": 130.564493
        },
        "ad_info": {
            "adcode": 230822,
            "province": "黑龙江省",
            "city": "佳木斯市",
            "district": "桦南县"
        }
    },
    {
        "id": "7530782971475528762",
        "title": "公共厕所",
        "address": "黑龙江省佳木斯市桦川县奋斗路与悦来大街交叉口西南方向140米左右",
        "tel": "",
        "category": "基础设施:公共设施:公共厕所",
        "type": 0,
        "location": {
            "lat": 47.029934,
            "lng": 130.717558
        },
        "ad_info": {
            "adcode": 230826,
            "province": "黑龙江省",
            "city": "佳木斯市",
            "district": "桦川县"
        }
    },
    {
        "id": "12285617345184552232",
        "title": "公共厕所",
        "address": "黑龙江省佳木斯市富锦市七星路与胜利大街交叉口西南方向268米左右",
        "tel": "",
        "category": "基础设施:公共设施:公共厕所",
        "type": 0,
        "location": {
            "lat": 47.261577,
            "lng": 132.629631
        },
        "ad_info": {
            "adcode": 230882,
            "province": "黑龙江省",
            "city": "佳木斯市",
            "district": "富锦市"
        }
    },
    {
        "id": "3360484536825107817",
        "title": "公共厕所",
        "address": "黑龙江省佳木斯市前进区升平街与长安东路交叉口正南方向63米左右",
        "tel": "",
        "category": "基础设施:公共设施:公共厕所",
        "type": 0,
        "location": {
            "lat": 46.817021,
            "lng": 130.387772
        },
        "ad_info": {
            "adcode": 230804,
            "province": "黑龙江省",
            "city": "佳木斯市",
            "district": "前进区"
        }
    },
    {
        "id": "5586997545155568016",
        "title": "公共厕所",
        "address": "黑龙江省佳木斯市桦南县学府路与桦石公路交叉口正北方向111米左右",
        "tel": "",
        "category": "基础设施:公共设施:公共厕所",
        "type": 0,
        "location": {
            "lat": 46.251359,
            "lng": 130.610189
        },
        "ad_info": {
            "adcode": 230822,
            "province": "黑龙江省",
            "city": "佳木斯市",
            "district": "桦南县"
        }
    },
    {
        "id": "6906947371899585612",
        "title": "公共厕所",
        "address": "黑龙江省佳木斯市抚远市南山公园入口",
        "tel": "",
        "category": "基础设施:公共设施:公共厕所",
        "type": 0,
        "location": {
            "lat": 48.354403,
            "lng": 134.286766
        },
        "ad_info": {
            "adcode": 230883,
            "province": "黑龙江省",
            "city": "佳木斯市",
            "district": "抚远市"
        }
    },
    {
        "id": "4494726779539727166",
        "title": "公共厕所",
        "address": "黑龙江省佳木斯市前进区南山街与胜利东路交叉口正东方向46米左右",
        "tel": "",
        "category": "基础设施:公共设施:公共厕所",
        "type": 0,
        "location": {
            "lat": 46.797926,
            "lng": 130.393046
        },
        "ad_info": {
            "adcode": 230804,
            "province": "黑龙江省",
            "city": "佳木斯市",
            "district": "前进区"
        }
    },
    {
        "id": "16698501031024125107",
        "title": "公共厕所",
        "address": "黑龙江省佳木斯市汤原县京抚路与华胜街交叉口正东方向56米左右",
        "tel": "",
        "category": "基础设施:公共设施:公共厕所",
        "type": 0,
        "location": {
            "lat": 46.740078,
            "lng": 129.919586
        },
        "ad_info": {
            "adcode": 230828,
            "province": "黑龙江省",
            "city": "佳木斯市",
            "district": "汤原县"
        }
    },
    {
        "id": "16396670403369209449",
        "title": "公共厕所",
        "address": "黑龙江省佳木斯市东风区光复东路与长胜街交叉口西北方向83米左右",
        "tel": "",
        "category": "基础设施:公共设施:公共厕所",
        "type": 0,
        "location": {
            "lat": 46.817807,
            "lng": 130.403678
        },
        "ad_info": {
            "adcode": 230805,
            "province": "黑龙江省",
            "city": "佳木斯市",
            "district": "东风区"
        }
    },
    {
        "id": "14482314825139630804",
        "title": "公共厕所",
        "address": "黑龙江省佳木斯市郊区哈萝公路与鹤大公路交叉口正西方向120米左右",
        "tel": "",
        "category": "基础设施:公共设施:公共厕所",
        "type": 0,
        "location": {
            "lat": 46.857712,
            "lng": 130.259177
        },
        "ad_info": {
            "adcode": 230811,
            "province": "黑龙江省",
            "city": "佳木斯市",
            "district": "郊区"
        }
    },
    {
        "id": "12189983797433505410",
        "title": "公共厕所",
        "address": "黑龙江省佳木斯市桦南县新建街与铁西路交叉口东北方向67米左右",
        "tel": "",
        "category": "基础设施:公共设施:公共厕所",
        "type": 0,
        "location": {
            "lat": 46.244743,
            "lng": 130.583237
        },
        "ad_info": {
            "adcode": 230822,
            "province": "黑龙江省",
            "city": "佳木斯市",
            "district": "桦南县"
        }
    },
    {
        "id": "5777135591019409616",
        "title": "公共厕所",
        "address": "黑龙江省佳木斯市前进区保卫路与友好巷交叉口东南方向90米左右",
        "tel": "",
        "category": "基础设施:公共设施:公共厕所",
        "type": 0,
        "location": {
            "lat": 46.81158,
            "lng": 130.37447
        },
        "ad_info": {
            "adcode": 230804,
            "province": "黑龙江省",
            "city": "佳木斯市",
            "district": "前进区"
        }
    },
    {
        "id": "6403868365214277167",
        "title": "公共厕所",
        "address": "黑龙江省佳木斯市富锦市富锦市创业学校西侧240米",
        "tel": "",
        "category": "基础设施:公共设施:公共厕所",
        "type": 0,
        "location": {
            "lat": 47.369597,
            "lng": 133.057546
        },
        "ad_info": {
            "adcode": 230882,
            "province": "黑龙江省",
            "city": "佳木斯市",
            "district": "富锦市"
        }
    },
    {
        "id": "2617001244551423255",
        "title": "公共厕所",
        "address": "黑龙江省佳木斯市桦川县冷云大街与长青路交叉口东北方向134米左右",
        "tel": "",
        "category": "基础设施:公共设施:公共厕所",
        "type": 0,
        "location": {
            "lat": 47.031114,
            "lng": 130.71642
        },
        "ad_info": {
            "adcode": 230826,
            "province": "黑龙江省",
            "city": "佳木斯市",
            "district": "桦川县"
        }
    },
    {
        "id": "9337583063511091713",
        "title": "男洗手间",
        "address": "黑龙江省佳木斯市向阳区光复西路1081号万达广场F2",
        "tel": "",
        "category": "基础设施:公共设施:男洗手间",
        "type": 0,
        "location": {
            "lat": 46.794177,
            "lng": 130.33738
        },
        "ad_info": {
            "adcode": 230803,
            "province": "黑龙江省",
            "city": "佳木斯市",
            "district": "向阳区"
        }
    },
    {
        "id": "2183402248740366125",
        "title": "残障-洗手间",
        "address": "黑龙江省佳木斯市向阳区光复西路1081号万达广场F3",
        "tel": "",
        "category": "基础设施:公共设施:无障碍洗手间",
        "type": 0,
        "location": {
            "lat": 46.792825,
            "lng": 130.33712
        },
        "ad_info": {
            "adcode": 230803,
            "province": "黑龙江省",
            "city": "佳木斯市",
            "district": "向阳区"
        }
    },
    {
        "id": "3320372252809258424",
        "title": "残障-洗手间",
        "address": "黑龙江省佳木斯市向阳区光复西路1081号万达广场F3",
        "tel": "",
        "category": "基础设施:公共设施:无障碍洗手间",
        "type": 0,
        "location": {
            "lat": 46.794946,
            "lng": 130.336824
        },
        "ad_info": {
            "adcode": 230803,
            "province": "黑龙江省",
            "city": "佳木斯市",
            "district": "向阳区"
        }
    },
    {
        "id": "5188269274102001434",
        "title": "残障-洗手间",
        "address": "黑龙江省佳木斯市向阳区光复西路1081号万达广场F3",
        "tel": "",
        "category": "基础设施:公共设施:无障碍洗手间",
        "type": 0,
        "location": {
            "lat": 46.792803,
            "lng": 130.337188
        },
        "ad_info": {
            "adcode": 230803,
            "province": "黑龙江省",
            "city": "佳木斯市",
            "district": "向阳区"
        }
    },
    {
        "id": "18192191053921038426",
        "title": "公共厕所",
        "address": "黑龙江省佳木斯市向阳区万发路与万新街交叉口西南方向181米左右",
        "tel": "",
        "category": "基础设施:公共设施:公共厕所",
        "type": 0,
        "location": {
            "lat": 46.792277,
            "lng": 130.336627
        },
        "ad_info": {
            "adcode": 230803,
            "province": "黑龙江省",
            "city": "佳木斯市",
            "district": "向阳区"
        }
    },
    {
        "id": "17207088032517568986",
        "title": "公共厕所",
        "address": "黑龙江省佳木斯市前进区顺和街128号佳木斯公路客运枢纽站",
        "tel": "",
        "category": "基础设施:公共设施:公共厕所",
        "type": 0,
        "location": {
            "lat": 46.805642,
            "lng": 130.379099
        },
        "ad_info": {
            "adcode": 230804,
            "province": "黑龙江省",
            "city": "佳木斯市",
            "district": "前进区"
        }
    },
    {
        "id": "4719922493320429255",
        "title": "公共厕所",
        "address": "黑龙江省佳木斯市桦南县健康路与群星路交叉口西南方向204米左右",
        "tel": "",
        "category": "基础设施:公共设施:公共厕所",
        "type": 0,
        "location": {
            "lat": 46.229992,
            "lng": 130.564493
        },
        "ad_info": {
            "adcode": 230822,
            "province": "黑龙江省",
            "city": "佳木斯市",
            "district": "桦南县"
        }
    },
    {
        "id": "7530782971475528762",
        "title": "公共厕所",
        "address": "黑龙江省佳木斯市桦川县奋斗路与悦来大街交叉口西南方向140米左右",
        "tel": "",
        "category": "基础设施:公共设施:公共厕所",
        "type": 0,
        "location": {
            "lat": 47.029934,
            "lng": 130.717558
        },
        "ad_info": {
            "adcode": 230826,
            "province": "黑龙江省",
            "city": "佳木斯市",
            "district": "桦川县"
        }
    },
    {
        "id": "12285617345184552232",
        "title": "公共厕所",
        "address": "黑龙江省佳木斯市富锦市七星路与胜利大街交叉口西南方向268米左右",
        "tel": "",
        "category": "基础设施:公共设施:公共厕所",
        "type": 0,
        "location": {
            "lat": 47.261577,
            "lng": 132.629631
        },
        "ad_info": {
            "adcode": 230882,
            "province": "黑龙江省",
            "city": "佳木斯市",
            "district": "富锦市"
        }
    },
    {
        "id": "3360484536825107817",
        "title": "公共厕所",
        "address": "黑龙江省佳木斯市前进区升平街与长安东路交叉口正南方向63米左右",
        "tel": "",
        "category": "基础设施:公共设施:公共厕所",
        "type": 0,
        "location": {
            "lat": 46.817021,
            "lng": 130.387772
        },
        "ad_info": {
            "adcode": 230804,
            "province": "黑龙江省",
            "city": "佳木斯市",
            "district": "前进区"
        }
    },
    {
        "id": "5586997545155568016",
        "title": "公共厕所",
        "address": "黑龙江省佳木斯市桦南县学府路与桦石公路交叉口正北方向111米左右",
        "tel": "",
        "category": "基础设施:公共设施:公共厕所",
        "type": 0,
        "location": {
            "lat": 46.251359,
            "lng": 130.610189
        },
        "ad_info": {
            "adcode": 230822,
            "province": "黑龙江省",
            "city": "佳木斯市",
            "district": "桦南县"
        }
    },
    {
        "id": "6906947371899585612",
        "title": "公共厕所",
        "address": "黑龙江省佳木斯市抚远市南山公园入口",
        "tel": "",
        "category": "基础设施:公共设施:公共厕所",
        "type": 0,
        "location": {
            "lat": 48.354403,
            "lng": 134.286766
        },
        "ad_info": {
            "adcode": 230883,
            "province": "黑龙江省",
            "city": "佳木斯市",
            "district": "抚远市"
        }
    },
    {
        "id": "4494726779539727166",
        "title": "公共厕所",
        "address": "黑龙江省佳木斯市前进区南山街与胜利东路交叉口正东方向46米左右",
        "tel": "",
        "category": "基础设施:公共设施:公共厕所",
        "type": 0,
        "location": {
            "lat": 46.797926,
            "lng": 130.393046
        },
        "ad_info": {
            "adcode": 230804,
            "province": "黑龙江省",
            "city": "佳木斯市",
            "district": "前进区"
        }
    },
    {
        "id": "16698501031024125107",
        "title": "公共厕所",
        "address": "黑龙江省佳木斯市汤原县京抚路与华胜街交叉口正东方向56米左右",
        "tel": "",
        "category": "基础设施:公共设施:公共厕所",
        "type": 0,
        "location": {
            "lat": 46.740078,
            "lng": 129.919586
        },
        "ad_info": {
            "adcode": 230828,
            "province": "黑龙江省",
            "city": "佳木斯市",
            "district": "汤原县"
        }
    },
    {
        "id": "16396670403369209449",
        "title": "公共厕所",
        "address": "黑龙江省佳木斯市东风区光复东路与长胜街交叉口西北方向83米左右",
        "tel": "",
        "category": "基础设施:公共设施:公共厕所",
        "type": 0,
        "location": {
            "lat": 46.817807,
            "lng": 130.403678
        },
        "ad_info": {
            "adcode": 230805,
            "province": "黑龙江省",
            "city": "佳木斯市",
            "district": "东风区"
        }
    },
    {
        "id": "14482314825139630804",
        "title": "公共厕所",
        "address": "黑龙江省佳木斯市郊区哈萝公路与鹤大公路交叉口正西方向120米左右",
        "tel": "",
        "category": "基础设施:公共设施:公共厕所",
        "type": 0,
        "location": {
            "lat": 46.857712,
            "lng": 130.259177
        },
        "ad_info": {
            "adcode": 230811,
            "province": "黑龙江省",
            "city": "佳木斯市",
            "district": "郊区"
        }
    },
    {
        "id": "12189983797433505410",
        "title": "公共厕所",
        "address": "黑龙江省佳木斯市桦南县新建街与铁西路交叉口东北方向67米左右",
        "tel": "",
        "category": "基础设施:公共设施:公共厕所",
        "type": 0,
        "location": {
            "lat": 46.244743,
            "lng": 130.583237
        },
        "ad_info": {
            "adcode": 230822,
            "province": "黑龙江省",
            "city": "佳木斯市",
            "district": "桦南县"
        }
    },
    {
        "id": "5777135591019409616",
        "title": "公共厕所",
        "address": "黑龙江省佳木斯市前进区保卫路与友好巷交叉口东南方向90米左右",
        "tel": "",
        "category": "基础设施:公共设施:公共厕所",
        "type": 0,
        "location": {
            "lat": 46.81158,
            "lng": 130.37447
        },
        "ad_info": {
            "adcode": 230804,
            "province": "黑龙江省",
            "city": "佳木斯市",
            "district": "前进区"
        }
    },
    {
        "id": "6403868365214277167",
        "title": "公共厕所",
        "address": "黑龙江省佳木斯市富锦市富锦市创业学校西侧240米",
        "tel": "",
        "category": "基础设施:公共设施:公共厕所",
        "type": 0,
        "location": {
            "lat": 47.369597,
            "lng": 133.057546
        },
        "ad_info": {
            "adcode": 230882,
            "province": "黑龙江省",
            "city": "佳木斯市",
            "district": "富锦市"
        }
    },
    {
        "id": "2617001244551423255",
        "title": "公共厕所",
        "address": "黑龙江省佳木斯市桦川县冷云大街与长青路交叉口东北方向134米左右",
        "tel": "",
        "category": "基础设施:公共设施:公共厕所",
        "type": 0,
        "location": {
            "lat": 47.031114,
            "lng": 130.71642
        },
        "ad_info": {
            "adcode": 230826,
            "province": "黑龙江省",
            "city": "佳木斯市",
            "district": "桦川县"
        }
    },
    {
        "id": "9337583063511091713",
        "title": "男洗手间",
        "address": "黑龙江省佳木斯市向阳区光复西路1081号万达广场F2",
        "tel": "",
        "category": "基础设施:公共设施:男洗手间",
        "type": 0,
        "location": {
            "lat": 46.794177,
            "lng": 130.33738
        },
        "ad_info": {
            "adcode": 230803,
            "province": "黑龙江省",
            "city": "佳木斯市",
            "district": "向阳区"
        }
    },
    {
        "id": "2183402248740366125",
        "title": "残障-洗手间",
        "address": "黑龙江省佳木斯市向阳区光复西路1081号万达广场F3",
        "tel": "",
        "category": "基础设施:公共设施:无障碍洗手间",
        "type": 0,
        "location": {
            "lat": 46.792825,
            "lng": 130.33712
        },
        "ad_info": {
            "adcode": 230803,
            "province": "黑龙江省",
            "city": "佳木斯市",
            "district": "向阳区"
        }
    },
    {
        "id": "3320372252809258424",
        "title": "残障-洗手间",
        "address": "黑龙江省佳木斯市向阳区光复西路1081号万达广场F3",
        "tel": "",
        "category": "基础设施:公共设施:无障碍洗手间",
        "type": 0,
        "location": {
            "lat": 46.794946,
            "lng": 130.336824
        },
        "ad_info": {
            "adcode": 230803,
            "province": "黑龙江省",
            "city": "佳木斯市",
            "district": "向阳区"
        }
    },
    {
        "id": "5188269274102001434",
        "title": "残障-洗手间",
        "address": "黑龙江省佳木斯市向阳区光复西路1081号万达广场F3",
        "tel": "",
        "category": "基础设施:公共设施:无障碍洗手间",
        "type": 0,
        "location": {
            "lat": 46.792803,
            "lng": 130.337188
        },
        "ad_info": {
            "adcode": 230803,
            "province": "黑龙江省",
            "city": "佳木斯市",
            "district": "向阳区"
        }
    },
    {
        "id": "18192191053921038426",
        "title": "公共厕所",
        "address": "黑龙江省佳木斯市向阳区万发路与万新街交叉口西南方向181米左右",
        "tel": "",
        "category": "基础设施:公共设施:公共厕所",
        "type": 0,
        "location": {
            "lat": 46.792277,
            "lng": 130.336627
        },
        "ad_info": {
            "adcode": 230803,
            "province": "黑龙江省",
            "city": "佳木斯市",
            "district": "向阳区"
        }
    },
    {
        "id": "17207088032517568986",
        "title": "公共厕所",
        "address": "黑龙江省佳木斯市前进区顺和街128号佳木斯公路客运枢纽站",
        "tel": "",
        "category": "基础设施:公共设施:公共厕所",
        "type": 0,
        "location": {
            "lat": 46.805642,
            "lng": 130.379099
        },
        "ad_info": {
            "adcode": 230804,
            "province": "黑龙江省",
            "city": "佳木斯市",
            "district": "前进区"
        }
    },
    {
        "id": "4719922493320429255",
        "title": "公共厕所",
        "address": "黑龙江省佳木斯市桦南县健康路与群星路交叉口西南方向204米左右",
        "tel": "",
        "category": "基础设施:公共设施:公共厕所",
        "type": 0,
        "location": {
            "lat": 46.229992,
            "lng": 130.564493
        },
        "ad_info": {
            "adcode": 230822,
            "province": "黑龙江省",
            "city": "佳木斯市",
            "district": "桦南县"
        }
    },
    {
        "id": "7530782971475528762",
        "title": "公共厕所",
        "address": "黑龙江省佳木斯市桦川县奋斗路与悦来大街交叉口西南方向140米左右",
        "tel": "",
        "category": "基础设施:公共设施:公共厕所",
        "type": 0,
        "location": {
            "lat": 47.029934,
            "lng": 130.717558
        },
        "ad_info": {
            "adcode": 230826,
            "province": "黑龙江省",
            "city": "佳木斯市",
            "district": "桦川县"
        }
    },
    {
        "id": "12285617345184552232",
        "title": "公共厕所",
        "address": "黑龙江省佳木斯市富锦市七星路与胜利大街交叉口西南方向268米左右",
        "tel": "",
        "category": "基础设施:公共设施:公共厕所",
        "type": 0,
        "location": {
            "lat": 47.261577,
            "lng": 132.629631
        },
        "ad_info": {
            "adcode": 230882,
            "province": "黑龙江省",
            "city": "佳木斯市",
            "district": "富锦市"
        }
    },
    {
        "id": "3360484536825107817",
        "title": "公共厕所",
        "address": "黑龙江省佳木斯市前进区升平街与长安东路交叉口正南方向63米左右",
        "tel": "",
        "category": "基础设施:公共设施:公共厕所",
        "type": 0,
        "location": {
            "lat": 46.817021,
            "lng": 130.387772
        },
        "ad_info": {
            "adcode": 230804,
            "province": "黑龙江省",
            "city": "佳木斯市",
            "district": "前进区"
        }
    },
    {
        "id": "5586997545155568016",
        "title": "公共厕所",
        "address": "黑龙江省佳木斯市桦南县学府路与桦石公路交叉口正北方向111米左右",
        "tel": "",
        "category": "基础设施:公共设施:公共厕所",
        "type": 0,
        "location": {
            "lat": 46.251359,
            "lng": 130.610189
        },
        "ad_info": {
            "adcode": 230822,
            "province": "黑龙江省",
            "city": "佳木斯市",
            "district": "桦南县"
        }
    },
    {
        "id": "6906947371899585612",
        "title": "公共厕所",
        "address": "黑龙江省佳木斯市抚远市南山公园入口",
        "tel": "",
        "category": "基础设施:公共设施:公共厕所",
        "type": 0,
        "location": {
            "lat": 48.354403,
            "lng": 134.286766
        },
        "ad_info": {
            "adcode": 230883,
            "province": "黑龙江省",
            "city": "佳木斯市",
            "district": "抚远市"
        }
    },
    {
        "id": "4494726779539727166",
        "title": "公共厕所",
        "address": "黑龙江省佳木斯市前进区南山街与胜利东路交叉口正东方向46米左右",
        "tel": "",
        "category": "基础设施:公共设施:公共厕所",
        "type": 0,
        "location": {
            "lat": 46.797926,
            "lng": 130.393046
        },
        "ad_info": {
            "adcode": 230804,
            "province": "黑龙江省",
            "city": "佳木斯市",
            "district": "前进区"
        }
    },
    {
        "id": "16698501031024125107",
        "title": "公共厕所",
        "address": "黑龙江省佳木斯市汤原县京抚路与华胜街交叉口正东方向56米左右",
        "tel": "",
        "category": "基础设施:公共设施:公共厕所",
        "type": 0,
        "location": {
            "lat": 46.740078,
            "lng": 129.919586
        },
        "ad_info": {
            "adcode": 230828,
            "province": "黑龙江省",
            "city": "佳木斯市",
            "district": "汤原县"
        }
    },
    {
        "id": "16396670403369209449",
        "title": "公共厕所",
        "address": "黑龙江省佳木斯市东风区光复东路与长胜街交叉口西北方向83米左右",
        "tel": "",
        "category": "基础设施:公共设施:公共厕所",
        "type": 0,
        "location": {
            "lat": 46.817807,
            "lng": 130.403678
        },
        "ad_info": {
            "adcode": 230805,
            "province": "黑龙江省",
            "city": "佳木斯市",
            "district": "东风区"
        }
    },
    {
        "id": "14482314825139630804",
        "title": "公共厕所",
        "address": "黑龙江省佳木斯市郊区哈萝公路与鹤大公路交叉口正西方向120米左右",
        "tel": "",
        "category": "基础设施:公共设施:公共厕所",
        "type": 0,
        "location": {
            "lat": 46.857712,
            "lng": 130.259177
        },
        "ad_info": {
            "adcode": 230811,
            "province": "黑龙江省",
            "city": "佳木斯市",
            "district": "郊区"
        }
    },
    {
        "id": "12189983797433505410",
        "title": "公共厕所",
        "address": "黑龙江省佳木斯市桦南县新建街与铁西路交叉口东北方向67米左右",
        "tel": "",
        "category": "基础设施:公共设施:公共厕所",
        "type": 0,
        "location": {
            "lat": 46.244743,
            "lng": 130.583237
        },
        "ad_info": {
            "adcode": 230822,
            "province": "黑龙江省",
            "city": "佳木斯市",
            "district": "桦南县"
        }
    },
    {
        "id": "5777135591019409616",
        "title": "公共厕所",
        "address": "黑龙江省佳木斯市前进区保卫路与友好巷交叉口东南方向90米左右",
        "tel": "",
        "category": "基础设施:公共设施:公共厕所",
        "type": 0,
        "location": {
            "lat": 46.81158,
            "lng": 130.37447
        },
        "ad_info": {
            "adcode": 230804,
            "province": "黑龙江省",
            "city": "佳木斯市",
            "district": "前进区"
        }
    },
    {
        "id": "6403868365214277167",
        "title": "公共厕所",
        "address": "黑龙江省佳木斯市富锦市富锦市创业学校西侧240米",
        "tel": "",
        "category": "基础设施:公共设施:公共厕所",
        "type": 0,
        "location": {
            "lat": 47.369597,
            "lng": 133.057546
        },
        "ad_info": {
            "adcode": 230882,
            "province": "黑龙江省",
            "city": "佳木斯市",
            "district": "富锦市"
        }
    },
    {
        "id": "2617001244551423255",
        "title": "公共厕所",
        "address": "黑龙江省佳木斯市桦川县冷云大街与长青路交叉口东北方向134米左右",
        "tel": "",
        "category": "基础设施:公共设施:公共厕所",
        "type": 0,
        "location": {
            "lat": 47.031114,
            "lng": 130.71642
        },
        "ad_info": {
            "adcode": 230826,
            "province": "黑龙江省",
            "city": "佳木斯市",
            "district": "桦川县"
        }
    },
    {
        "id": "9337583063511091713",
        "title": "男洗手间",
        "address": "黑龙江省佳木斯市向阳区光复西路1081号万达广场F2",
        "tel": "",
        "category": "基础设施:公共设施:男洗手间",
        "type": 0,
        "location": {
            "lat": 46.794177,
            "lng": 130.33738
        },
        "ad_info": {
            "adcode": 230803,
            "province": "黑龙江省",
            "city": "佳木斯市",
            "district": "向阳区"
        }
    },
    {
        "id": "2183402248740366125",
        "title": "残障-洗手间",
        "address": "黑龙江省佳木斯市向阳区光复西路1081号万达广场F3",
        "tel": "",
        "category": "基础设施:公共设施:无障碍洗手间",
        "type": 0,
        "location": {
            "lat": 46.792825,
            "lng": 130.33712
        },
        "ad_info": {
            "adcode": 230803,
            "province": "黑龙江省",
            "city": "佳木斯市",
            "district": "向阳区"
        }
    },
    {
        "id": "3320372252809258424",
        "title": "残障-洗手间",
        "address": "黑龙江省佳木斯市向阳区光复西路1081号万达广场F3",
        "tel": "",
        "category": "基础设施:公共设施:无障碍洗手间",
        "type": 0,
        "location": {
            "lat": 46.794946,
            "lng": 130.336824
        },
        "ad_info": {
            "adcode": 230803,
            "province": "黑龙江省",
            "city": "佳木斯市",
            "district": "向阳区"
        }
    },
    {
        "id": "5188269274102001434",
        "title": "残障-洗手间",
        "address": "黑龙江省佳木斯市向阳区光复西路1081号万达广场F3",
        "tel": "",
        "category": "基础设施:公共设施:无障碍洗手间",
        "type": 0,
        "location": {
            "lat": 46.792803,
            "lng": 130.337188
        },
        "ad_info": {
            "adcode": 230803,
            "province": "黑龙江省",
            "city": "佳木斯市",
            "district": "向阳区"
        }
    },
    {
        "id": "18192191053921038426",
        "title": "公共厕所",
        "address": "黑龙江省佳木斯市向阳区万发路与万新街交叉口西南方向181米左右",
        "tel": "",
        "category": "基础设施:公共设施:公共厕所",
        "type": 0,
        "location": {
            "lat": 46.792277,
            "lng": 130.336627
        },
        "ad_info": {
            "adcode": 230803,
            "province": "黑龙江省",
            "city": "佳木斯市",
            "district": "向阳区"
        }
    },
    {
        "id": "17207088032517568986",
        "title": "公共厕所",
        "address": "黑龙江省佳木斯市前进区顺和街128号佳木斯公路客运枢纽站",
        "tel": "",
        "category": "基础设施:公共设施:公共厕所",
        "type": 0,
        "location": {
            "lat": 46.805642,
            "lng": 130.379099
        },
        "ad_info": {
            "adcode": 230804,
            "province": "黑龙江省",
            "city": "佳木斯市",
            "district": "前进区"
        }
    },
    {
        "id": "4719922493320429255",
        "title": "公共厕所",
        "address": "黑龙江省佳木斯市桦南县健康路与群星路交叉口西南方向204米左右",
        "tel": "",
        "category": "基础设施:公共设施:公共厕所",
        "type": 0,
        "location": {
            "lat": 46.229992,
            "lng": 130.564493
        },
        "ad_info": {
            "adcode": 230822,
            "province": "黑龙江省",
            "city": "佳木斯市",
            "district": "桦南县"
        }
    },
    {
        "id": "7530782971475528762",
        "title": "公共厕所",
        "address": "黑龙江省佳木斯市桦川县奋斗路与悦来大街交叉口西南方向140米左右",
        "tel": "",
        "category": "基础设施:公共设施:公共厕所",
        "type": 0,
        "location": {
            "lat": 47.029934,
            "lng": 130.717558
        },
        "ad_info": {
            "adcode": 230826,
            "province": "黑龙江省",
            "city": "佳木斯市",
            "district": "桦川县"
        }
    },
    {
        "id": "12285617345184552232",
        "title": "公共厕所",
        "address": "黑龙江省佳木斯市富锦市七星路与胜利大街交叉口西南方向268米左右",
        "tel": "",
        "category": "基础设施:公共设施:公共厕所",
        "type": 0,
        "location": {
            "lat": 47.261577,
            "lng": 132.629631
        },
        "ad_info": {
            "adcode": 230882,
            "province": "黑龙江省",
            "city": "佳木斯市",
            "district": "富锦市"
        }
    },
    {
        "id": "3360484536825107817",
        "title": "公共厕所",
        "address": "黑龙江省佳木斯市前进区升平街与长安东路交叉口正南方向63米左右",
        "tel": "",
        "category": "基础设施:公共设施:公共厕所",
        "type": 0,
        "location": {
            "lat": 46.817021,
            "lng": 130.387772
        },
        "ad_info": {
            "adcode": 230804,
            "province": "黑龙江省",
            "city": "佳木斯市",
            "district": "前进区"
        }
    },
    {
        "id": "5586997545155568016",
        "title": "公共厕所",
        "address": "黑龙江省佳木斯市桦南县学府路与桦石公路交叉口正北方向111米左右",
        "tel": "",
        "category": "基础设施:公共设施:公共厕所",
        "type": 0,
        "location": {
            "lat": 46.251359,
            "lng": 130.610189
        },
        "ad_info": {
            "adcode": 230822,
            "province": "黑龙江省",
            "city": "佳木斯市",
            "district": "桦南县"
        }
    },
    {
        "id": "6906947371899585612",
        "title": "公共厕所",
        "address": "黑龙江省佳木斯市抚远市南山公园入口",
        "tel": "",
        "category": "基础设施:公共设施:公共厕所",
        "type": 0,
        "location": {
            "lat": 48.354403,
            "lng": 134.286766
        },
        "ad_info": {
            "adcode": 230883,
            "province": "黑龙江省",
            "city": "佳木斯市",
            "district": "抚远市"
        }
    },
    {
        "id": "4494726779539727166",
        "title": "公共厕所",
        "address": "黑龙江省佳木斯市前进区南山街与胜利东路交叉口正东方向46米左右",
        "tel": "",
        "category": "基础设施:公共设施:公共厕所",
        "type": 0,
        "location": {
            "lat": 46.797926,
            "lng": 130.393046
        },
        "ad_info": {
            "adcode": 230804,
            "province": "黑龙江省",
            "city": "佳木斯市",
            "district": "前进区"
        }
    },
    {
        "id": "16698501031024125107",
        "title": "公共厕所",
        "address": "黑龙江省佳木斯市汤原县京抚路与华胜街交叉口正东方向56米左右",
        "tel": "",
        "category": "基础设施:公共设施:公共厕所",
        "type": 0,
        "location": {
            "lat": 46.740078,
            "lng": 129.919586
        },
        "ad_info": {
            "adcode": 230828,
            "province": "黑龙江省",
            "city": "佳木斯市",
            "district": "汤原县"
        }
    },
    {
        "id": "16396670403369209449",
        "title": "公共厕所",
        "address": "黑龙江省佳木斯市东风区光复东路与长胜街交叉口西北方向83米左右",
        "tel": "",
        "category": "基础设施:公共设施:公共厕所",
        "type": 0,
        "location": {
            "lat": 46.817807,
            "lng": 130.403678
        },
        "ad_info": {
            "adcode": 230805,
            "province": "黑龙江省",
            "city": "佳木斯市",
            "district": "东风区"
        }
    },
    {
        "id": "14482314825139630804",
        "title": "公共厕所",
        "address": "黑龙江省佳木斯市郊区哈萝公路与鹤大公路交叉口正西方向120米左右",
        "tel": "",
        "category": "基础设施:公共设施:公共厕所",
        "type": 0,
        "location": {
            "lat": 46.857712,
            "lng": 130.259177
        },
        "ad_info": {
            "adcode": 230811,
            "province": "黑龙江省",
            "city": "佳木斯市",
            "district": "郊区"
        }
    },
    {
        "id": "12189983797433505410",
        "title": "公共厕所",
        "address": "黑龙江省佳木斯市桦南县新建街与铁西路交叉口东北方向67米左右",
        "tel": "",
        "category": "基础设施:公共设施:公共厕所",
        "type": 0,
        "location": {
            "lat": 46.244743,
            "lng": 130.583237
        },
        "ad_info": {
            "adcode": 230822,
            "province": "黑龙江省",
            "city": "佳木斯市",
            "district": "桦南县"
        }
    },
    {
        "id": "5777135591019409616",
        "title": "公共厕所",
        "address": "黑龙江省佳木斯市前进区保卫路与友好巷交叉口东南方向90米左右",
        "tel": "",
        "category": "基础设施:公共设施:公共厕所",
        "type": 0,
        "location": {
            "lat": 46.81158,
            "lng": 130.37447
        },
        "ad_info": {
            "adcode": 230804,
            "province": "黑龙江省",
            "city": "佳木斯市",
            "district": "前进区"
        }
    },
    {
        "id": "6403868365214277167",
        "title": "公共厕所",
        "address": "黑龙江省佳木斯市富锦市富锦市创业学校西侧240米",
        "tel": "",
        "category": "基础设施:公共设施:公共厕所",
        "type": 0,
        "location": {
            "lat": 47.369597,
            "lng": 133.057546
        },
        "ad_info": {
            "adcode": 230882,
            "province": "黑龙江省",
            "city": "佳木斯市",
            "district": "富锦市"
        }
    },
    {
        "id": "2617001244551423255",
        "title": "公共厕所",
        "address": "黑龙江省佳木斯市桦川县冷云大街与长青路交叉口东北方向134米左右",
        "tel": "",
        "category": "基础设施:公共设施:公共厕所",
        "type": 0,
        "location": {
            "lat": 47.031114,
            "lng": 130.71642
        },
        "ad_info": {
            "adcode": 230826,
            "province": "黑龙江省",
            "city": "佳木斯市",
            "district": "桦川县"
        }
    },
    {
        "id": "9337583063511091713",
        "title": "男洗手间",
        "address": "黑龙江省佳木斯市向阳区光复西路1081号万达广场F2",
        "tel": "",
        "category": "基础设施:公共设施:男洗手间",
        "type": 0,
        "location": {
            "lat": 46.794177,
            "lng": 130.33738
        },
        "ad_info": {
            "adcode": 230803,
            "province": "黑龙江省",
            "city": "佳木斯市",
            "district": "向阳区"
        }
    },
    {
        "id": "2183402248740366125",
        "title": "残障-洗手间",
        "address": "黑龙江省佳木斯市向阳区光复西路1081号万达广场F3",
        "tel": "",
        "category": "基础设施:公共设施:无障碍洗手间",
        "type": 0,
        "location": {
            "lat": 46.792825,
            "lng": 130.33712
        },
        "ad_info": {
            "adcode": 230803,
            "province": "黑龙江省",
            "city": "佳木斯市",
            "district": "向阳区"
        }
    },
    {
        "id": "3320372252809258424",
        "title": "残障-洗手间",
        "address": "黑龙江省佳木斯市向阳区光复西路1081号万达广场F3",
        "tel": "",
        "category": "基础设施:公共设施:无障碍洗手间",
        "type": 0,
        "location": {
            "lat": 46.794946,
            "lng": 130.336824
        },
        "ad_info": {
            "adcode": 230803,
            "province": "黑龙江省",
            "city": "佳木斯市",
            "district": "向阳区"
        }
    },
    {
        "id": "5188269274102001434",
        "title": "残障-洗手间",
        "address": "黑龙江省佳木斯市向阳区光复西路1081号万达广场F3",
        "tel": "",
        "category": "基础设施:公共设施:无障碍洗手间",
        "type": 0,
        "location": {
            "lat": 46.792803,
            "lng": 130.337188
        },
        "ad_info": {
            "adcode": 230803,
            "province": "黑龙江省",
            "city": "佳木斯市",
            "district": "向阳区"
        }
    },
    {
        "id": "18192191053921038426",
        "title": "公共厕所",
        "address": "黑龙江省佳木斯市向阳区万发路与万新街交叉口西南方向181米左右",
        "tel": "",
        "category": "基础设施:公共设施:公共厕所",
        "type": 0,
        "location": {
            "lat": 46.792277,
            "lng": 130.336627
        },
        "ad_info": {
            "adcode": 230803,
            "province": "黑龙江省",
            "city": "佳木斯市",
            "district": "向阳区"
        }
    },
    {
        "id": "17207088032517568986",
        "title": "公共厕所",
        "address": "黑龙江省佳木斯市前进区顺和街128号佳木斯公路客运枢纽站",
        "tel": "",
        "category": "基础设施:公共设施:公共厕所",
        "type": 0,
        "location": {
            "lat": 46.805642,
            "lng": 130.379099
        },
        "ad_info": {
            "adcode": 230804,
            "province": "黑龙江省",
            "city": "佳木斯市",
            "district": "前进区"
        }
    },
    {
        "id": "4719922493320429255",
        "title": "公共厕所",
        "address": "黑龙江省佳木斯市桦南县健康路与群星路交叉口西南方向204米左右",
        "tel": "",
        "category": "基础设施:公共设施:公共厕所",
        "type": 0,
        "location": {
            "lat": 46.229992,
            "lng": 130.564493
        },
        "ad_info": {
            "adcode": 230822,
            "province": "黑龙江省",
            "city": "佳木斯市",
            "district": "桦南县"
        }
    },
    {
        "id": "7530782971475528762",
        "title": "公共厕所",
        "address": "黑龙江省佳木斯市桦川县奋斗路与悦来大街交叉口西南方向140米左右",
        "tel": "",
        "category": "基础设施:公共设施:公共厕所",
        "type": 0,
        "location": {
            "lat": 47.029934,
            "lng": 130.717558
        },
        "ad_info": {
            "adcode": 230826,
            "province": "黑龙江省",
            "city": "佳木斯市",
            "district": "桦川县"
        }
    },
    {
        "id": "12285617345184552232",
        "title": "公共厕所",
        "address": "黑龙江省佳木斯市富锦市七星路与胜利大街交叉口西南方向268米左右",
        "tel": "",
        "category": "基础设施:公共设施:公共厕所",
        "type": 0,
        "location": {
            "lat": 47.261577,
            "lng": 132.629631
        },
        "ad_info": {
            "adcode": 230882,
            "province": "黑龙江省",
            "city": "佳木斯市",
            "district": "富锦市"
        }
    }
]