[
    {
        "id": "8795718437372907752",
        "title": "公共厕所",
        "address": "海南省保亭黎族苗族自治县文明中路115号",
        "tel": "",
        "category": "基础设施:公共设施:公共厕所",
        "type": 0,
        "location": {
            "lat": 18.638649,
            "lng": 109.702915
        },
        "ad_info": {
            "adcode": 469029,
            "province": "海南省",
            "city": "",
            "district": "保亭黎族苗族自治县"
        }
    },
    {
        "id": "12069946892108409496",
        "title": "公共厕所",
        "address": "海南省保亭黎族苗族自治县凤凰路与迎宾路交叉口正西方向74米左右",
        "tel": "",
        "category": "基础设施:公共设施:公共厕所",
        "type": 0,
        "location": {
            "lat": 18.641501,
            "lng": 109.695078
        },
        "ad_info": {
            "adcode": 469029,
            "province": "海南省",
            "city": "",
            "district": "保亭黎族苗族自治县"
        }
    },
    {
        "id": "17254041476397717344",
        "title": "公共厕所",
        "address": "海南省保亭黎族苗族自治县畅好农场胶厂旁",
        "tel": "",
        "category": "基础设施:公共设施:公共厕所",
        "type": 0,
        "location": {
            "lat": 18.735002,
            "lng": 109.570429
        },
        "ad_info": {
            "adcode": 469029,
            "province": "海南省",
            "city": "",
            "district": "保亭黎族苗族自治县"
        }
    },
    {
        "id": "10240696041974681887",
        "title": "公共厕所",
        "address": "海南省保亭黎族苗族自治县抄茂村路与桃源路交叉口东南方向170米左右",
        "tel": "",
        "category": "基础设施:公共设施:公共厕所",
        "type": 0,
        "location": {
            "lat": 18.631916,
            "lng": 109.711583
        },
        "ad_info": {
            "adcode": 469029,
            "province": "海南省",
            "city": "",
            "district": "保亭黎族苗族自治县"
        }
    },
    {
        "id": "13001437161543858925",
        "title": "公共厕所",
        "address": "海南省保亭黎族苗族自治县温泉北路与迎宾路交叉口正西方向75米左右",
        "tel": "",
        "category": "基础设施:公共设施:公共厕所",
        "type": 0,
        "location": {
            "lat": 18.642699,
            "lng": 109.701505
        },
        "ad_info": {
            "adcode": 469029,
            "province": "海南省",
            "city": "",
            "district": "保亭黎族苗族自治县"
        }
    },
    {
        "id": "15691118866522060977",
        "title": "公共卫生间",
        "address": "海南省保亭黎族苗族自治县Y030与什慢村路交叉口正东方向692米左右",
        "tel": "",
        "category": "基础设施:公共设施:公共厕所",
        "type": 0,
        "location": {
            "lat": 18.661707,
            "lng": 109.693122
        },
        "ad_info": {
            "adcode": 469029,
            "province": "海南省",
            "city": "",
            "district": "保亭黎族苗族自治县"
        }
    },
    {
        "id": "17180588397695653857",
        "title": "公共厕所",
        "address": "海南省保亭黎族苗族自治县南环中路与南环路交叉口正东方向46米左右",
        "tel": "",
        "category": "基础设施:公共设施:公共厕所",
        "type": 0,
        "location": {
            "lat": 18.62623,
            "lng": 109.710269
        },
        "ad_info": {
            "adcode": 469029,
            "province": "海南省",
            "city": "",
            "district": "保亭黎族苗族自治县"
        }
    },
    {
        "id": "204095733296258636",
        "title": "公共厕所",
        "address": "海南省保亭黎族苗族自治县广场路与文化路交叉口东北方向138米左右",
        "tel": "",
        "category": "基础设施:公共设施:公共厕所",
        "type": 0,
        "location": {
            "lat": 18.63638,
            "lng": 109.707664
        },
        "ad_info": {
            "adcode": 469029,
            "province": "海南省",
            "city": "",
            "district": "保亭黎族苗族自治县"
        }
    },
    {
        "id": "13416842684525112731",
        "title": "公共厕所",
        "address": "海南省保亭黎族苗族自治县保兴西路与沿河南西路交叉口东北方向62米左右",
        "tel": "",
        "category": "基础设施:公共设施:公共厕所",
        "type": 0,
        "location": {
            "lat": 18.635464,
            "lng": 109.694894
        },
        "ad_info": {
            "adcode": 469029,
            "province": "海南省",
            "city": "",
            "district": "保亭黎族苗族自治县"
        }
    },
    {
        "id": "14592380864359657749",
        "title": "公共厕所",
        "address": "海南省保亭黎族苗族自治县G361与七仙大道交叉口东南方向16米左右",
        "tel": "",
        "category": "基础设施:公共设施:公共厕所",
        "type": 0,
        "location": {
            "lat": 18.634285,
            "lng": 109.711197
        },
        "ad_info": {
            "adcode": 469029,
            "province": "海南省",
            "city": "",
            "district": "保亭黎族苗族自治县"
        }
    },
    {
        "id": "18077615336337405209",
        "title": "公共厕所",
        "address": "海南省保亭黎族苗族自治县保兴西路与建新巷交叉口正北方向130米左右",
        "tel": "",
        "category": "基础设施:公共设施:公共厕所",
        "type": 0,
        "location": {
            "lat": 18.636362,
            "lng": 109.697554
        },
        "ad_info": {
            "adcode": 469029,
            "province": "海南省",
            "city": "",
            "district": "保亭黎族苗族自治县"
        }
    },
    {
        "id": "4961666737603874510",
        "title": "公共厕所",
        "address": "海南省保亭黎族苗族自治县新星农场东路与新星农场西路交叉口正东方向60米左右",
        "tel": "",
        "category": "基础设施:公共设施:公共厕所",
        "type": 0,
        "location": {
            "lat": 18.645108,
            "lng": 109.701574
        },
        "ad_info": {
            "adcode": 469029,
            "province": "海南省",
            "city": "",
            "district": "保亭黎族苗族自治县"
        }
    },
    {
        "id": "2364515327366995122",
        "title": "公共厕所",
        "address": "海南省保亭黎族苗族自治县民族风情街与滨河西南路交叉口东南方向159米左右",
        "tel": "",
        "category": "基础设施:公共设施:公共厕所",
        "type": 0,
        "location": {
            "lat": 18.641973,
            "lng": 109.706761
        },
        "ad_info": {
            "adcode": 469029,
            "province": "海南省",
            "city": "",
            "district": "保亭黎族苗族自治县"
        }
    },
    {
        "id": "6842581783308505797",
        "title": "公共厕所",
        "address": "海南省保亭黎族苗族自治县三道居十一队路与海榆中线交叉口西北方向47米左右",
        "tel": "",
        "category": "基础设施:公共设施:公共厕所",
        "type": 0,
        "location": {
            "lat": 18.445956,
            "lng": 109.676865
        },
        "ad_info": {
            "adcode": 469029,
            "province": "海南省",
            "city": "",
            "district": "保亭黎族苗族自治县"
        }
    },
    {
        "id": "3700329186725260281",
        "title": "公共厕所",
        "address": "海南省保亭黎族苗族自治县G361与桃源路交叉口东南方向45米左右",
        "tel": "",
        "category": "基础设施:公共设施:公共厕所",
        "type": 0,
        "location": {
            "lat": 18.634255,
            "lng": 109.712314
        },
        "ad_info": {
            "adcode": 469029,
            "province": "海南省",
            "city": "",
            "district": "保亭黎族苗族自治县"
        }
    },
    {
        "id": "16131559162595049250",
        "title": "公共厕所",
        "address": "海南省保亭黎族苗族自治县六弓大道与土眉村路交叉口西南方向110米左右",
        "tel": "",
        "category": "基础设施:公共设施:公共厕所",
        "type": 0,
        "location": {
            "lat": 18.539834,
            "lng": 109.784659
        },
        "ad_info": {
            "adcode": 469029,
            "province": "海南省",
            "city": "",
            "district": "保亭黎族苗族自治县"
        }
    },
    {
        "id": "10313053776261634155",
        "title": "公共厕所",
        "address": "海南省保亭黎族苗族自治县海榆中线与茶场居机关路交叉口正南方向157米左右",
        "tel": "",
        "category": "基础设施:公共设施:公共厕所",
        "type": 0,
        "location": {
            "lat": 18.680248,
            "lng": 109.578458
        },
        "ad_info": {
            "adcode": 469029,
            "province": "海南省",
            "city": "",
            "district": "保亭黎族苗族自治县"
        }
    },
    {
        "id": "15021098632242531113",
        "title": "公共厕所",
        "address": "海南省保亭黎族苗族自治县神玉岛文化旅游度假区西北侧110米",
        "tel": "",
        "category": "基础设施:公共设施:公共厕所",
        "type": 0,
        "location": {
            "lat": 18.651924,
            "lng": 109.583226
        },
        "ad_info": {
            "adcode": 469029,
            "province": "海南省",
            "city": "",
            "district": "保亭黎族苗族自治县"
        }
    },
    {
        "id": "1531273134573078832",
        "title": "公共厕所",
        "address": "海南省保亭黎族苗族自治县",
        "tel": "",
        "category": "基础设施:公共设施:公共厕所",
        "type": 0,
        "location": {
            "lat": 18.402122,
            "lng": 109.663098
        },
        "ad_info": {
            "adcode": 469029,
            "province": "海南省",
            "city": "",
            "district": "保亭黎族苗族自治县"
        }
    },
    {
        "id": "703107120659932175",
        "title": "公共厕所",
        "address": "海南省保亭黎族苗族自治县毛真水库神玉岛旅游度假区",
        "tel": "",
        "category": "基础设施:公共设施:公共厕所",
        "type": 0,
        "location": {
            "lat": 18.653799,
            "lng": 109.584195
        },
        "ad_info": {
            "adcode": 469029,
            "province": "海南省",
            "city": "",
            "district": "保亭黎族苗族自治县"
        }
    },
    {
        "id": "17325519824330148323",
        "title": "公共厕所",
        "address": "海南省保亭黎族苗族自治县七仙大道与玉仙桥交叉口西北方向280米左右",
        "tel": "",
        "category": "基础设施:公共设施:公共厕所",
        "type": 0,
        "location": {
            "lat": 18.645206,
            "lng": 109.704194
        },
        "ad_info": {
            "adcode": 469029,
            "province": "海南省",
            "city": "",
            "district": "保亭黎族苗族自治县"
        }
    },
    {
        "id": "8614367031384104411",
        "title": "公共卫生间",
        "address": "海南省保亭黎族苗族自治县新兴东路与温泉南路交叉口东北方向39米左右",
        "tel": "",
        "category": "基础设施:公共设施:公共厕所",
        "type": 0,
        "location": {
            "lat": 18.636953,
            "lng": 109.704362
        },
        "ad_info": {
            "adcode": 469029,
            "province": "海南省",
            "city": "",
            "district": "保亭黎族苗族自治县"
        }
    },
    {
        "id": "16007710151754752710",
        "title": "公共厕所",
        "address": "海南省保亭黎族苗族自治县保兴东路23号",
        "tel": "",
        "category": "基础设施:公共设施:公共厕所",
        "type": 0,
        "location": {
            "lat": 18.635625,
            "lng": 109.700177
        },
        "ad_info": {
            "adcode": 469029,
            "province": "海南省",
            "city": "",
            "district": "保亭黎族苗族自治县"
        }
    },
    {
        "id": "1756035088127819472",
        "title": "无障碍公共厕所",
        "address": "海南省保亭黎族苗族自治县加答村委会路与加答田洋路交叉口西南方向219米左右",
        "tel": "",
        "category": "基础设施:公共设施:公共厕所",
        "type": 0,
        "location": {
            "lat": 18.58934,
            "lng": 109.713688
        },
        "ad_info": {
            "adcode": 469029,
            "province": "海南省",
            "city": "",
            "district": "保亭黎族苗族自治县"
        }
    }
]