[
    {
        "id": "15435292719211294394",
        "title": "公共厕所",
        "address": "云南省保山市隆阳区象山路70号",
        "tel": "",
        "category": "基础设施:公共设施:公共厕所",
        "type": 0,
        "location": {
            "lat": 25.12004,
            "lng": 99.170094
        },
        "ad_info": {
            "adcode": 530502,
            "province": "云南省",
            "city": "保山市",
            "district": "隆阳区"
        }
    },
    {
        "id": "17222359630064524046",
        "title": "公共厕所",
        "address": "云南省保山市腾冲市华严路与平安路交叉口正南方向67米左右",
        "tel": "",
        "category": "基础设施:公共设施:公共厕所",
        "type": 0,
        "location": {
            "lat": 25.006368,
            "lng": 98.497845
        },
        "ad_info": {
            "adcode": 530581,
            "province": "云南省",
            "city": "保山市",
            "district": "腾冲市"
        }
    },
    {
        "id": "11440841841986493678",
        "title": "公共厕所",
        "address": "云南省保山市腾冲市上西街与凤山路交叉口东南方向250米左右",
        "tel": "",
        "category": "基础设施:公共设施:公共厕所",
        "type": 0,
        "location": {
            "lat": 25.022592,
            "lng": 98.496203
        },
        "ad_info": {
            "adcode": 530581,
            "province": "云南省",
            "city": "保山市",
            "district": "腾冲市"
        }
    },
    {
        "id": "10138064535792916599",
        "title": "公共厕所",
        "address": "云南省保山市隆阳区正阳北路与海棠路交叉口正东方向294米左右",
        "tel": "",
        "category": "基础设施:公共设施:公共厕所",
        "type": 0,
        "location": {
            "lat": 25.140314,
            "lng": 99.1802
        },
        "ad_info": {
            "adcode": 530502,
            "province": "云南省",
            "city": "保山市",
            "district": "隆阳区"
        }
    },
    {
        "id": "15808195023474504036",
        "title": "公共厕所",
        "address": "云南省保山市隆阳区学府路保山五洲国际广场(南侧)",
        "tel": "",
        "category": "基础设施:公共设施:公共厕所",
        "type": 0,
        "location": {
            "lat": 25.133183,
            "lng": 99.174479
        },
        "ad_info": {
            "adcode": 530502,
            "province": "云南省",
            "city": "保山市",
            "district": "隆阳区"
        }
    },
    {
        "id": "14822447374846115725",
        "title": "公共厕所",
        "address": "云南省保山市隆阳区同仁街与新桥路交叉口东北方向122米左右",
        "tel": "",
        "category": "基础设施:公共设施:公共厕所",
        "type": 0,
        "location": {
            "lat": 25.09636,
            "lng": 99.157651
        },
        "ad_info": {
            "adcode": 530502,
            "province": "云南省",
            "city": "保山市",
            "district": "隆阳区"
        }
    },
    {
        "id": "6880304683586427049",
        "title": "公共厕所",
        "address": "云南省保山市隆阳区宝盖山",
        "tel": "",
        "category": "基础设施:公共设施:公共厕所",
        "type": 0,
        "location": {
            "lat": 25.124349,
            "lng": 99.12809
        },
        "ad_info": {
            "adcode": 530502,
            "province": "云南省",
            "city": "保山市",
            "district": "隆阳区"
        }
    },
    {
        "id": "15920417677552763824",
        "title": "公共厕所",
        "address": "云南省保山市腾冲市一街步行街与东方路交叉口正南方向263米左右",
        "tel": "",
        "category": "基础设施:公共设施:公共厕所",
        "type": 0,
        "location": {
            "lat": 25.018228,
            "lng": 98.49969
        },
        "ad_info": {
            "adcode": 530581,
            "province": "云南省",
            "city": "保山市",
            "district": "腾冲市"
        }
    },
    {
        "id": "3166913267025709793",
        "title": "公共厕所",
        "address": "云南省保山市隆阳区兰城路与惠通路交叉口正西方向297米左右",
        "tel": "",
        "category": "基础设施:公共设施:公共厕所",
        "type": 0,
        "location": {
            "lat": 25.141088,
            "lng": 99.181688
        },
        "ad_info": {
            "adcode": 530502,
            "province": "云南省",
            "city": "保山市",
            "district": "隆阳区"
        }
    },
    {
        "id": "13393709698261438232",
        "title": "公共厕所",
        "address": "云南省保山市昌宁县右甸北路与文昌街交叉口西南方向82米左右",
        "tel": "",
        "category": "基础设施:公共设施:公共厕所",
        "type": 0,
        "location": {
            "lat": 24.828329,
            "lng": 99.61067
        },
        "ad_info": {
            "adcode": 530524,
            "province": "云南省",
            "city": "保山市",
            "district": "昌宁县"
        }
    },
    {
        "id": "3534653589452205795",
        "title": "公共厕所",
        "address": "云南省保山市隆阳区新闻路与花园巷交叉口西北方向48米左右",
        "tel": "",
        "category": "基础设施:公共设施:公共厕所",
        "type": 0,
        "location": {
            "lat": 25.114957,
            "lng": 99.17334
        },
        "ad_info": {
            "adcode": 530502,
            "province": "云南省",
            "city": "保山市",
            "district": "隆阳区"
        }
    },
    {
        "id": "18224556162087347151",
        "title": "公共厕所",
        "address": "云南省保山市腾冲市X195与观自段交叉口西南方向138米左右",
        "tel": "",
        "category": "基础设施:公共设施:公共厕所",
        "type": 0,
        "location": {
            "lat": 25.205657,
            "lng": 98.480702
        },
        "ad_info": {
            "adcode": 530581,
            "province": "云南省",
            "city": "保山市",
            "district": "腾冲市"
        }
    },
    {
        "id": "11233345807468058672",
        "title": "公共厕所",
        "address": "云南省保山市隆阳区X199与Y076交叉口西南方向410米左右",
        "tel": "",
        "category": "基础设施:公共设施:公共厕所",
        "type": 0,
        "location": {
            "lat": 25.170791,
            "lng": 99.224701
        },
        "ad_info": {
            "adcode": 530502,
            "province": "云南省",
            "city": "保山市",
            "district": "隆阳区"
        }
    },
    {
        "id": "14161703274137521309",
        "title": "公共厕所",
        "address": "云南省保山市腾冲市东方路与将台路交叉口西南方向77米左右",
        "tel": "",
        "category": "基础设施:公共设施:公共厕所",
        "type": 0,
        "location": {
            "lat": 25.004766,
            "lng": 98.493255
        },
        "ad_info": {
            "adcode": 530581,
            "province": "云南省",
            "city": "保山市",
            "district": "腾冲市"
        }
    },
    {
        "id": "15799997218405471022",
        "title": "公共厕所",
        "address": "云南省保山市腾冲市Y001与金源路交叉口正北方向1235米左右",
        "tel": "",
        "category": "基础设施:公共设施:公共厕所",
        "type": 0,
        "location": {
            "lat": 25.068307,
            "lng": 98.502781
        },
        "ad_info": {
            "adcode": 530581,
            "province": "云南省",
            "city": "保山市",
            "district": "腾冲市"
        }
    },
    {
        "id": "14734416741574936094",
        "title": "公共厕所",
        "address": "云南省保山市腾冲市建安街与翡翠路交叉口东北方向34米左右",
        "tel": "",
        "category": "基础设施:公共设施:公共厕所",
        "type": 0,
        "location": {
            "lat": 25.017479,
            "lng": 98.494447
        },
        "ad_info": {
            "adcode": 530581,
            "province": "云南省",
            "city": "保山市",
            "district": "腾冲市"
        }
    },
    {
        "id": "282931039780686988",
        "title": "公共厕所",
        "address": "云南省保山市隆阳区学校路与青堡路交叉口西南方向1844米左右",
        "tel": "",
        "category": "基础设施:公共设施:公共厕所",
        "type": 0,
        "location": {
            "lat": 25.076444,
            "lng": 99.217743
        },
        "ad_info": {
            "adcode": 530502,
            "province": "云南省",
            "city": "保山市",
            "district": "隆阳区"
        }
    },
    {
        "id": "4822105950846133511",
        "title": "公共厕所",
        "address": "云南省保山市腾冲市Y119与龙腾公路交叉口正南方向372米左右",
        "tel": "",
        "category": "基础设施:公共设施:公共厕所",
        "type": 0,
        "location": {
            "lat": 24.885236,
            "lng": 98.579038
        },
        "ad_info": {
            "adcode": 530581,
            "province": "云南省",
            "city": "保山市",
            "district": "腾冲市"
        }
    },
    {
        "id": "3505089562482709654",
        "title": "公共厕所",
        "address": "云南省保山市腾冲市光华路与凤翅路交叉口正北方向31米左右",
        "tel": "",
        "category": "基础设施:公共设施:公共厕所",
        "type": 0,
        "location": {
            "lat": 25.028333,
            "lng": 98.492778
        },
        "ad_info": {
            "adcode": 530581,
            "province": "云南省",
            "city": "保山市",
            "district": "腾冲市"
        }
    },
    {
        "id": "6836080221342986850",
        "title": "公共厕所",
        "address": "云南省保山市隆阳区新闻路与花园巷交叉口西南方向49米左右",
        "tel": "",
        "category": "基础设施:公共设施:公共厕所",
        "type": 0,
        "location": {
            "lat": 25.114245,
            "lng": 99.173325
        },
        "ad_info": {
            "adcode": 530502,
            "province": "云南省",
            "city": "保山市",
            "district": "隆阳区"
        }
    },
    {
        "id": "6609600560490685077",
        "title": "公共厕所",
        "address": "云南省保山市腾冲市XM74与向桥段交叉口西北方向658米左右",
        "tel": "",
        "category": "基础设施:公共设施:公共厕所",
        "type": 0,
        "location": {
            "lat": 25.213085,
            "lng": 98.57346
        },
        "ad_info": {
            "adcode": 530581,
            "province": "云南省",
            "city": "保山市",
            "district": "腾冲市"
        }
    },
    {
        "id": "1945755190893655832",
        "title": "公共厕所",
        "address": "云南省保山市隆阳区兰城路与南关街交叉口正北方向96米左右",
        "tel": "",
        "category": "基础设施:公共设施:公共厕所",
        "type": 0,
        "location": {
            "lat": 25.102987,
            "lng": 99.164396
        },
        "ad_info": {
            "adcode": 530502,
            "province": "云南省",
            "city": "保山市",
            "district": "隆阳区"
        }
    },
    {
        "id": "7798048829300264718",
        "title": "公共厕所",
        "address": "云南省保山市隆阳区九龙路549号",
        "tel": "",
        "category": "基础设施:公共设施:公共厕所",
        "type": 0,
        "location": {
            "lat": 25.12626,
            "lng": 99.177046
        },
        "ad_info": {
            "adcode": 530502,
            "province": "云南省",
            "city": "保山市",
            "district": "隆阳区"
        }
    },
    {
        "id": "4228681628699054866",
        "title": "公共厕所",
        "address": "云南省保山市隆阳区升阳路与永昌路交叉口东南方向459米左右",
        "tel": "",
        "category": "基础设施:公共设施:公共厕所",
        "type": 0,
        "location": {
            "lat": 25.121845,
            "lng": 99.18487
        },
        "ad_info": {
            "adcode": 530502,
            "province": "云南省",
            "city": "保山市",
            "district": "隆阳区"
        }
    },
    {
        "id": "16647047587246511520",
        "title": "公共厕所",
        "address": "云南省保山市隆阳区梨花路与永昌路交叉口正东方向78米左右",
        "tel": "",
        "category": "基础设施:公共设施:公共厕所",
        "type": 0,
        "location": {
            "lat": 25.097208,
            "lng": 99.164242
        },
        "ad_info": {
            "adcode": 530502,
            "province": "云南省",
            "city": "保山市",
            "district": "隆阳区"
        }
    },
    {
        "id": "6928573821668758794",
        "title": "公共厕所",
        "address": "云南省保山市隆阳区新闻路50号",
        "tel": "",
        "category": "基础设施:公共设施:公共厕所",
        "type": 0,
        "location": {
            "lat": 25.115348,
            "lng": 99.174198
        },
        "ad_info": {
            "adcode": 530502,
            "province": "云南省",
            "city": "保山市",
            "district": "隆阳区"
        }
    },
    {
        "id": "6740372974856545856",
        "title": "公共厕所",
        "address": "云南省保山市昌宁县武华路与滨河西路交叉口正西方向74米左右",
        "tel": "",
        "category": "基础设施:公共设施:公共厕所",
        "type": 0,
        "location": {
            "lat": 24.820828,
            "lng": 99.615944
        },
        "ad_info": {
            "adcode": 530524,
            "province": "云南省",
            "city": "保山市",
            "district": "昌宁县"
        }
    },
    {
        "id": "12942696065425478974",
        "title": "公共厕所",
        "address": "云南省保山市腾冲市文星街与玉泉路交叉口正西方向71米左右",
        "tel": "",
        "category": "基础设施:公共设施:公共厕所",
        "type": 0,
        "location": {
            "lat": 25.033979,
            "lng": 98.505204
        },
        "ad_info": {
            "adcode": 530581,
            "province": "云南省",
            "city": "保山市",
            "district": "腾冲市"
        }
    },
    {
        "id": "1159660833685479640",
        "title": "公共厕所",
        "address": "云南省保山市腾冲市S317与Y090交叉口东南方向228米左右",
        "tel": "",
        "category": "基础设施:公共设施:公共厕所",
        "type": 0,
        "location": {
            "lat": 25.063073,
            "lng": 98.396123
        },
        "ad_info": {
            "adcode": 530581,
            "province": "云南省",
            "city": "保山市",
            "district": "腾冲市"
        }
    },
    {
        "id": "12538697732037804740",
        "title": "公共厕所",
        "address": "云南省保山市腾冲市Y114与华严路交叉口正西方向225米左右",
        "tel": "",
        "category": "基础设施:公共设施:公共厕所",
        "type": 0,
        "location": {
            "lat": 25.028259,
            "lng": 98.508139
        },
        "ad_info": {
            "adcode": 530581,
            "province": "云南省",
            "city": "保山市",
            "district": "腾冲市"
        }
    },
    {
        "id": "4107183780265880116",
        "title": "公共厕所",
        "address": "云南省保山市腾冲市华严路与绮罗木瓜巷交叉口正东方向58米左右",
        "tel": "",
        "category": "基础设施:公共设施:公共厕所",
        "type": 0,
        "location": {
            "lat": 24.999122,
            "lng": 98.494814
        },
        "ad_info": {
            "adcode": 530581,
            "province": "云南省",
            "city": "保山市",
            "district": "腾冲市"
        }
    },
    {
        "id": "4316814569427931460",
        "title": "公共厕所",
        "address": "云南省保山市隆阳区人民路与正阳南路交叉口正东方向131米左右",
        "tel": "",
        "category": "基础设施:公共设施:公共厕所",
        "type": 0,
        "location": {
            "lat": 25.105205,
            "lng": 99.16375
        },
        "ad_info": {
            "adcode": 530502,
            "province": "云南省",
            "city": "保山市",
            "district": "隆阳区"
        }
    },
    {
        "id": "10596499106022305037",
        "title": "公共厕所",
        "address": "云南省保山市隆阳区北苑农贸市场",
        "tel": "",
        "category": "基础设施:公共设施:公共厕所",
        "type": 0,
        "location": {
            "lat": 25.137581,
            "lng": 99.187621
        },
        "ad_info": {
            "adcode": 530502,
            "province": "云南省",
            "city": "保山市",
            "district": "隆阳区"
        }
    },
    {
        "id": "15092590841720507563",
        "title": "公共厕所",
        "address": "云南省保山市腾冲市南昭路与宝峰路交叉口西北方向476米左右",
        "tel": "",
        "category": "基础设施:公共设施:公共厕所",
        "type": 0,
        "location": {
            "lat": 25.048455,
            "lng": 98.482223
        },
        "ad_info": {
            "adcode": 530581,
            "province": "云南省",
            "city": "保山市",
            "district": "腾冲市"
        }
    },
    {
        "id": "17972897135409752978",
        "title": "公共厕所",
        "address": "云南省保山市隆阳区平安路与龙泉路交叉口正北方向25米左右",
        "tel": "",
        "category": "基础设施:公共设施:公共厕所",
        "type": 0,
        "location": {
            "lat": 25.10471,
            "lng": 99.17402
        },
        "ad_info": {
            "adcode": 530502,
            "province": "云南省",
            "city": "保山市",
            "district": "隆阳区"
        }
    },
    {
        "id": "4779664043057978134",
        "title": "公共厕所",
        "address": "云南省保山市腾冲市Y096与砚湖路交叉口正东方向173米左右",
        "tel": "",
        "category": "基础设施:公共设施:公共厕所",
        "type": 0,
        "location": {
            "lat": 25.036752,
            "lng": 98.51013
        },
        "ad_info": {
            "adcode": 530581,
            "province": "云南省",
            "city": "保山市",
            "district": "腾冲市"
        }
    },
    {
        "id": "14213245045512767547",
        "title": "公共厕所",
        "address": "云南省保山市腾冲市观景大道附近",
        "tel": "",
        "category": "基础设施:公共设施:公共厕所",
        "type": 0,
        "location": {
            "lat": 25.103571,
            "lng": 98.510068
        },
        "ad_info": {
            "adcode": 530581,
            "province": "云南省",
            "city": "保山市",
            "district": "腾冲市"
        }
    },
    {
        "id": "9920349761889221874",
        "title": "公共厕所",
        "address": "云南省保山市腾冲市文星路与腾越路交叉口正西方向166米左右",
        "tel": "",
        "category": "基础设施:公共设施:公共厕所",
        "type": 0,
        "location": {
            "lat": 25.036997,
            "lng": 98.492532
        },
        "ad_info": {
            "adcode": 530581,
            "province": "云南省",
            "city": "保山市",
            "district": "腾冲市"
        }
    },
    {
        "id": "12717875191035037182",
        "title": "公共厕所",
        "address": "云南省保山市腾冲市X195与顺江桥(小桥)交叉口正北方向1388米左右",
        "tel": "",
        "category": "基础设施:公共设施:公共厕所",
        "type": 0,
        "location": {
            "lat": 25.277296,
            "lng": 98.481273
        },
        "ad_info": {
            "adcode": 530581,
            "province": "云南省",
            "city": "保山市",
            "district": "腾冲市"
        }
    },
    {
        "id": "16299356957371882598",
        "title": "公共厕所",
        "address": "云南省保山市隆阳区Y122与Y124交叉口正南方向1771米左右",
        "tel": "",
        "category": "基础设施:公共设施:公共厕所",
        "type": 0,
        "location": {
            "lat": 25.14225,
            "lng": 99.254005
        },
        "ad_info": {
            "adcode": 530502,
            "province": "云南省",
            "city": "保山市",
            "district": "隆阳区"
        }
    },
    {
        "id": "12504645872210456263",
        "title": "公共厕所",
        "address": "云南省保山市隆阳区G357与XM98交叉口东南方向688米左右",
        "tel": "",
        "category": "基础设施:公共设施:公共厕所",
        "type": 0,
        "location": {
            "lat": 24.928628,
            "lng": 99.321855
        },
        "ad_info": {
            "adcode": 530502,
            "province": "云南省",
            "city": "保山市",
            "district": "隆阳区"
        }
    },
    {
        "id": "6734556721186708040",
        "title": "公共厕所",
        "address": "云南省保山市隆阳区云峰五金光源商贸中心北(保岫东路)",
        "tel": "",
        "category": "基础设施:公共设施:公共厕所",
        "type": 0,
        "location": {
            "lat": 25.107445,
            "lng": 99.177674
        },
        "ad_info": {
            "adcode": 530502,
            "province": "云南省",
            "city": "保山市",
            "district": "隆阳区"
        }
    },
    {
        "id": "12567951810117750862",
        "title": "公共厕所",
        "address": "云南省保山市隆阳区G320与Y139交叉口正东方向383米左右",
        "tel": "",
        "category": "基础设施:公共设施:公共厕所",
        "type": 0,
        "location": {
            "lat": 25.010125,
            "lng": 99.02295
        },
        "ad_info": {
            "adcode": 530502,
            "province": "云南省",
            "city": "保山市",
            "district": "隆阳区"
        }
    },
    {
        "id": "7179365912002772633",
        "title": "公共厕所",
        "address": "云南省保山市隆阳区永昌路与玉泉路交叉口正西方向43米左右",
        "tel": "",
        "category": "基础设施:公共设施:公共厕所",
        "type": 0,
        "location": {
            "lat": 25.11649,
            "lng": 99.177199
        },
        "ad_info": {
            "adcode": 530502,
            "province": "云南省",
            "city": "保山市",
            "district": "隆阳区"
        }
    },
    {
        "id": "15616549542229569469",
        "title": "公共厕所",
        "address": "云南省保山市隆阳区保岫西路与同仁街交叉口正南方向42米左右",
        "tel": "",
        "category": "基础设施:公共设施:公共厕所",
        "type": 0,
        "location": {
            "lat": 25.113552,
            "lng": 99.162562
        },
        "ad_info": {
            "adcode": 530502,
            "province": "云南省",
            "city": "保山市",
            "district": "隆阳区"
        }
    },
    {
        "id": "300704551207924227",
        "title": "公共厕所",
        "address": "云南省保山市昌宁县南门寨路与右甸西路交叉口西北方向63米左右",
        "tel": "",
        "category": "基础设施:公共设施:公共厕所",
        "type": 0,
        "location": {
            "lat": 24.826121,
            "lng": 99.60441
        },
        "ad_info": {
            "adcode": 530524,
            "province": "云南省",
            "city": "保山市",
            "district": "昌宁县"
        }
    },
    {
        "id": "2190282695239107990",
        "title": "公共厕所",
        "address": "云南省保山市隆阳区九龙路与兰苑巷交叉口正西方向80米左右",
        "tel": "",
        "category": "基础设施:公共设施:公共厕所",
        "type": 0,
        "location": {
            "lat": 25.113662,
            "lng": 99.170575
        },
        "ad_info": {
            "adcode": 530502,
            "province": "云南省",
            "city": "保山市",
            "district": "隆阳区"
        }
    },
    {
        "id": "8913032666895299288",
        "title": "公共厕所",
        "address": "云南省保山市隆阳区九隆路与金水路交叉口正北方向57米左右",
        "tel": "",
        "category": "基础设施:公共设施:公共厕所",
        "type": 0,
        "location": {
            "lat": 25.099301,
            "lng": 99.164052
        },
        "ad_info": {
            "adcode": 530502,
            "province": "云南省",
            "city": "保山市",
            "district": "隆阳区"
        }
    },
    {
        "id": "1071396637499190111",
        "title": "公共厕所",
        "address": "云南省保山市腾冲市妙光路与热海路交叉口正西方向48米左右",
        "tel": "",
        "category": "基础设施:公共设施:公共厕所",
        "type": 0,
        "location": {
            "lat": 25.003074,
            "lng": 98.488011
        },
        "ad_info": {
            "adcode": 530581,
            "province": "云南省",
            "city": "保山市",
            "district": "腾冲市"
        }
    },
    {
        "id": "2831389916241086398",
        "title": "公共厕所",
        "address": "云南省保山市昌宁县357国道与G5615天猴高速入口交叉口南140米",
        "tel": "",
        "category": "基础设施:公共设施:公共厕所",
        "type": 0,
        "location": {
            "lat": 24.886266,
            "lng": 99.443587
        },
        "ad_info": {
            "adcode": 530524,
            "province": "云南省",
            "city": "保山市",
            "district": "昌宁县"
        }
    },
    {
        "id": "18193998136182861610",
        "title": "公共厕所",
        "address": "云南省保山市隆阳区东城大道与象山路交叉口东南方向1074米左右",
        "tel": "",
        "category": "基础设施:公共设施:公共厕所",
        "type": 0,
        "location": {
            "lat": 25.107411,
            "lng": 99.201991
        },
        "ad_info": {
            "adcode": 530502,
            "province": "云南省",
            "city": "保山市",
            "district": "隆阳区"
        }
    },
    {
        "id": "17645054945469154429",
        "title": "公共厕所",
        "address": "云南省保山市龙陵县Y075与龙腾公路交叉口正西方向553米左右",
        "tel": "",
        "category": "基础设施:公共设施:公共厕所",
        "type": 0,
        "location": {
            "lat": 24.652111,
            "lng": 98.6676
        },
        "ad_info": {
            "adcode": 530523,
            "province": "云南省",
            "city": "保山市",
            "district": "龙陵县"
        }
    },
    {
        "id": "15319656891717823141",
        "title": "公共厕所",
        "address": "云南省保山市隆阳区杭瑞高速与潞江坝立交交叉口正东方向923米左右",
        "tel": "",
        "category": "基础设施:公共设施:公共厕所",
        "type": 0,
        "location": {
            "lat": 24.924139,
            "lng": 98.881908
        },
        "ad_info": {
            "adcode": 530502,
            "province": "云南省",
            "city": "保山市",
            "district": "隆阳区"
        }
    },
    {
        "id": "2127408798545332845",
        "title": "公共厕所",
        "address": "云南省保山市昌宁县022乡道与M61县道交叉口东340米",
        "tel": "",
        "category": "基础设施:公共设施:公共厕所",
        "type": 0,
        "location": {
            "lat": 24.793969,
            "lng": 99.404521
        },
        "ad_info": {
            "adcode": 530524,
            "province": "云南省",
            "city": "保山市",
            "district": "昌宁县"
        }
    },
    {
        "id": "2612548602542205567",
        "title": "公共厕所",
        "address": "云南省保山市龙陵县G219与G320交叉口西南方向78米左右",
        "tel": "",
        "category": "基础设施:公共设施:公共厕所",
        "type": 0,
        "location": {
            "lat": 24.594773,
            "lng": 98.693056
        },
        "ad_info": {
            "adcode": 530523,
            "province": "云南省",
            "city": "保山市",
            "district": "龙陵县"
        }
    },
    {
        "id": "5324805045864512299",
        "title": "公共厕所",
        "address": "云南省保山市昌宁县G357与Y006交叉口正南方向533米左右",
        "tel": "",
        "category": "基础设施:公共设施:公共厕所",
        "type": 0,
        "location": {
            "lat": 24.695748,
            "lng": 99.697776
        },
        "ad_info": {
            "adcode": 530524,
            "province": "云南省",
            "city": "保山市",
            "district": "昌宁县"
        }
    },
    {
        "id": "7342095377730025288",
        "title": "公共厕所",
        "address": "云南省保山市隆阳区",
        "tel": "",
        "category": "基础设施:公共设施:公共厕所",
        "type": 0,
        "location": {
            "lat": 24.9238,
            "lng": 98.888321
        },
        "ad_info": {
            "adcode": 530502,
            "province": "云南省",
            "city": "保山市",
            "district": "隆阳区"
        }
    },
    {
        "id": "18427098371630757441",
        "title": "公共厕所",
        "address": "云南省保山市腾冲市192县道西50米",
        "tel": "",
        "category": "基础设施:公共设施:公共厕所",
        "type": 0,
        "location": {
            "lat": 25.001862,
            "lng": 98.631499
        },
        "ad_info": {
            "adcode": 530581,
            "province": "云南省",
            "city": "保山市",
            "district": "腾冲市"
        }
    },
    {
        "id": "17611237604152159439",
        "title": "公共厕所",
        "address": "云南省保山市腾冲市X195与云峰公路交叉口东南方向399米左右",
        "tel": "",
        "category": "基础设施:公共设施:公共厕所",
        "type": 0,
        "location": {
            "lat": 25.386047,
            "lng": 98.47272
        },
        "ad_info": {
            "adcode": 530581,
            "province": "云南省",
            "city": "保山市",
            "district": "腾冲市"
        }
    },
    {
        "id": "12588587042877537994",
        "title": "男洗手间(保山五洲国际广场)",
        "address": "云南省保山市隆阳区永昌街道正阳北路东侧(保山第二小学对面)保山五洲国际广场F2",
        "tel": "",
        "category": "基础设施:公共设施:公共厕所",
        "type": 0,
        "location": {
            "lat": 25.135035,
            "lng": 99.174508
        },
        "ad_info": {
            "adcode": 530502,
            "province": "云南省",
            "city": "保山市",
            "district": "隆阳区"
        }
    },
    {
        "id": "3806718170280040053",
        "title": "公共厕所",
        "address": "云南省保山市隆阳区九龙路与保岫东路交叉口东北方向65米左右",
        "tel": "",
        "category": "基础设施:公共设施:公共厕所",
        "type": 0,
        "location": {
            "lat": 25.111677,
            "lng": 99.171129
        },
        "ad_info": {
            "adcode": 530502,
            "province": "云南省",
            "city": "保山市",
            "district": "隆阳区"
        }
    },
    {
        "id": "9983383372802915192",
        "title": "公共厕所",
        "address": "云南省保山市隆阳区保泸高速与杭瑞高速交叉口西南方向711米左右",
        "tel": "",
        "category": "基础设施:公共设施:公共厕所",
        "type": 0,
        "location": {
            "lat": 25.327866,
            "lng": 99.18969
        },
        "ad_info": {
            "adcode": 530502,
            "province": "云南省",
            "city": "保山市",
            "district": "隆阳区"
        }
    },
    {
        "id": "15088701012687744859",
        "title": "公共厕所",
        "address": "云南省保山市隆阳区G320与X200交叉口正南方向233米左右",
        "tel": "",
        "category": "基础设施:公共设施:公共厕所",
        "type": 0,
        "location": {
            "lat": 25.052008,
            "lng": 99.150244
        },
        "ad_info": {
            "adcode": 530502,
            "province": "云南省",
            "city": "保山市",
            "district": "隆阳区"
        }
    },
    {
        "id": "3447490327919662886",
        "title": "滇西农特广场-公共厕所",
        "address": "云南省保山市隆阳区龙泉路滇西农特市场",
        "tel": "",
        "category": "基础设施:公共设施:公共厕所",
        "type": 0,
        "location": {
            "lat": 25.103149,
            "lng": 99.185472
        },
        "ad_info": {
            "adcode": 530502,
            "province": "云南省",
            "city": "保山市",
            "district": "隆阳区"
        }
    },
    {
        "id": "1144645657158043855",
        "title": "公共卫生间",
        "address": "云南省保山市隆阳区兰城路与学府路交叉口正西方向164米左右",
        "tel": "",
        "category": "基础设施:公共设施:公共厕所",
        "type": 0,
        "location": {
            "lat": 25.131307,
            "lng": 99.174099
        },
        "ad_info": {
            "adcode": 530502,
            "province": "云南省",
            "city": "保山市",
            "district": "隆阳区"
        }
    },
    {
        "id": "1024511918504282859",
        "title": "公共厕所",
        "address": "云南省保山市隆阳区板桥镇中国石化保山青莲加油站",
        "tel": "",
        "category": "基础设施:公共设施:公共厕所",
        "type": 0,
        "location": {
            "lat": 25.152138,
            "lng": 99.211567
        },
        "ad_info": {
            "adcode": 530502,
            "province": "云南省",
            "city": "保山市",
            "district": "隆阳区"
        }
    },
    {
        "id": "13027740039612678711",
        "title": "公共厕所",
        "address": "云南省保山市隆阳区G320与XM11交叉口正北方向42米左右",
        "tel": "",
        "category": "基础设施:公共设施:公共厕所",
        "type": 0,
        "location": {
            "lat": 25.160583,
            "lng": 99.219123
        },
        "ad_info": {
            "adcode": 530502,
            "province": "云南省",
            "city": "保山市",
            "district": "隆阳区"
        }
    },
    {
        "id": "2172540623164112719",
        "title": "公共厕所",
        "address": "云南省保山市隆阳区仁寿门街与保岫西路交叉口西南方向19米左右",
        "tel": "",
        "category": "基础设施:公共设施:公共厕所",
        "type": 0,
        "location": {
            "lat": 25.115535,
            "lng": 99.156704
        },
        "ad_info": {
            "adcode": 530502,
            "province": "云南省",
            "city": "保山市",
            "district": "隆阳区"
        }
    },
    {
        "id": "11254827607843316543",
        "title": "公共厕所",
        "address": "云南省保山市隆阳区上巷街与太保南路交叉口正南方向82米左右",
        "tel": "",
        "category": "基础设施:公共设施:公共厕所",
        "type": 0,
        "location": {
            "lat": 25.112585,
            "lng": 99.158799
        },
        "ad_info": {
            "adcode": 530502,
            "province": "云南省",
            "city": "保山市",
            "district": "隆阳区"
        }
    },
    {
        "id": "759226208560373242",
        "title": "公共厕所",
        "address": "云南省保山市龙陵县汇源路与沿河路交叉口东南方向84米左右",
        "tel": "",
        "category": "基础设施:公共设施:公共厕所",
        "type": 0,
        "location": {
            "lat": 24.593811,
            "lng": 98.695941
        },
        "ad_info": {
            "adcode": 530523,
            "province": "云南省",
            "city": "保山市",
            "district": "龙陵县"
        }
    },
    {
        "id": "8201158406330352947",
        "title": "公共厕所",
        "address": "云南省保山市隆阳区G320与XM11交叉口正南方向63米左右",
        "tel": "",
        "category": "基础设施:公共设施:公共厕所",
        "type": 0,
        "location": {
            "lat": 25.159629,
            "lng": 99.219136
        },
        "ad_info": {
            "adcode": 530502,
            "province": "云南省",
            "city": "保山市",
            "district": "隆阳区"
        }
    },
    {
        "id": "11353257357859265226",
        "title": "公共厕所",
        "address": "云南省保山市龙陵县东方直布罗陀酒店东侧240米",
        "tel": "",
        "category": "基础设施:公共设施:公共厕所",
        "type": 0,
        "location": {
            "lat": 24.72448,
            "lng": 98.929457
        },
        "ad_info": {
            "adcode": 530523,
            "province": "云南省",
            "city": "保山市",
            "district": "龙陵县"
        }
    },
    {
        "id": "3356440075860752261",
        "title": "公共厕所",
        "address": "云南省保山市龙陵县三甲巷与龙山路交叉口正东方向624米左右",
        "tel": "",
        "category": "基础设施:公共设施:公共厕所",
        "type": 0,
        "location": {
            "lat": 24.581035,
            "lng": 98.692633
        },
        "ad_info": {
            "adcode": 530523,
            "province": "云南省",
            "city": "保山市",
            "district": "龙陵县"
        }
    },
    {
        "id": "11363835678933576683",
        "title": "卫生间",
        "address": "云南省保山市腾冲市西部新城综合开发区(光华西路延长线与腾越路交汇处)腾越文化广场",
        "tel": "",
        "category": "基础设施:公共设施:公共厕所",
        "type": 0,
        "location": {
            "lat": 25.031892,
            "lng": 98.490286
        },
        "ad_info": {
            "adcode": 530581,
            "province": "云南省",
            "city": "保山市",
            "district": "腾冲市"
        }
    },
    {
        "id": "12361946086134970674",
        "title": "公共厕所",
        "address": "云南省保山市隆阳区228省道西50米",
        "tel": "",
        "category": "基础设施:公共设施:公共厕所",
        "type": 0,
        "location": {
            "lat": 25.490011,
            "lng": 99.205142
        },
        "ad_info": {
            "adcode": 530502,
            "province": "云南省",
            "city": "保山市",
            "district": "隆阳区"
        }
    },
    {
        "id": "1466931420901080131",
        "title": "公共厕所",
        "address": "云南省保山市龙陵县汇源路与沿河路交叉口东南方向114米左右",
        "tel": "",
        "category": "基础设施:公共设施:公共厕所",
        "type": 0,
        "location": {
            "lat": 24.593757,
            "lng": 98.69628
        },
        "ad_info": {
            "adcode": 530523,
            "province": "云南省",
            "city": "保山市",
            "district": "龙陵县"
        }
    },
    {
        "id": "559570127996242809",
        "title": "公共厕所",
        "address": "云南省保山市隆阳区",
        "tel": "",
        "category": "基础设施:公共设施:公共厕所",
        "type": 0,
        "location": {
            "lat": 25.485864,
            "lng": 98.878725
        },
        "ad_info": {
            "adcode": 530502,
            "province": "云南省",
            "city": "保山市",
            "district": "隆阳区"
        }
    },
    {
        "id": "15421802548482963306",
        "title": "公共厕所",
        "address": "云南省保山市隆阳区朱紫街1号",
        "tel": "",
        "category": "基础设施:公共设施:公共厕所",
        "type": 0,
        "location": {
            "lat": 25.112929,
            "lng": 99.166845
        },
        "ad_info": {
            "adcode": 530502,
            "province": "云南省",
            "city": "保山市",
            "district": "隆阳区"
        }
    },
    {
        "id": "3506106587225515973",
        "title": "公共厕所",
        "address": "云南省保山市隆阳区保山物流中心(杭瑞高速公路东)",
        "tel": "",
        "category": "基础设施:公共设施:公共厕所",
        "type": 0,
        "location": {
            "lat": 25.104648,
            "lng": 99.183205
        },
        "ad_info": {
            "adcode": 530502,
            "province": "云南省",
            "city": "保山市",
            "district": "隆阳区"
        }
    },
    {
        "id": "10941476918204624628",
        "title": "公共厕所",
        "address": "云南省保山市龙陵县松山大战遗址纪念园2号停车场",
        "tel": "",
        "category": "基础设施:公共设施:公共厕所",
        "type": 0,
        "location": {
            "lat": 24.738892,
            "lng": 98.904709
        },
        "ad_info": {
            "adcode": 530523,
            "province": "云南省",
            "city": "保山市",
            "district": "龙陵县"
        }
    },
    {
        "id": "976494620046572551",
        "title": "公共厕所",
        "address": "云南省保山市龙陵县G320与龙华路交叉口正西方向134米左右",
        "tel": "",
        "category": "基础设施:公共设施:公共厕所",
        "type": 0,
        "location": {
            "lat": 24.595262,
            "lng": 98.690711
        },
        "ad_info": {
            "adcode": 530523,
            "province": "云南省",
            "city": "保山市",
            "district": "龙陵县"
        }
    },
    {
        "id": "1061714143524660369",
        "title": "南停车场公共厕所",
        "address": "云南省保山市隆阳区东城大道与象山路交叉口正东方向862米左右",
        "tel": "",
        "category": "基础设施:公共设施:公共厕所",
        "type": 0,
        "location": {
            "lat": 25.11218,
            "lng": 99.2016
        },
        "ad_info": {
            "adcode": 530502,
            "province": "云南省",
            "city": "保山市",
            "district": "隆阳区"
        }
    },
    {
        "id": "5372978844548737493",
        "title": "花鸟市场公共厕所",
        "address": "云南省保山市隆阳区同仁街与龙泉路交叉口东北方向144米左右",
        "tel": "",
        "category": "基础设施:公共设施:公共厕所",
        "type": 0,
        "location": {
            "lat": 25.110162,
            "lng": 99.161903
        },
        "ad_info": {
            "adcode": 530502,
            "province": "云南省",
            "city": "保山市",
            "district": "隆阳区"
        }
    },
    {
        "id": "2567268804470036554",
        "title": "文笔塔公共厕所",
        "address": "云南省保山市隆阳区龙泉路与锦溪路交叉口北480米",
        "tel": "",
        "category": "基础设施:公共设施:公共厕所",
        "type": 0,
        "location": {
            "lat": 25.113779,
            "lng": 99.152117
        },
        "ad_info": {
            "adcode": 530502,
            "province": "云南省",
            "city": "保山市",
            "district": "隆阳区"
        }
    },
    {
        "id": "16395992143144123655",
        "title": "旅游厕所",
        "address": "云南省保山市隆阳区太保北路217号",
        "tel": "",
        "category": "基础设施:公共设施:公共厕所",
        "type": 0,
        "location": {
            "lat": 25.129387,
            "lng": 99.162946
        },
        "ad_info": {
            "adcode": 530502,
            "province": "云南省",
            "city": "保山市",
            "district": "隆阳区"
        }
    },
    {
        "id": "9567218220593911916",
        "title": "公共厕所",
        "address": "云南省保山市昌宁县攀佳宾馆(武华路北)",
        "tel": "",
        "category": "基础设施:公共设施:公共厕所",
        "type": 0,
        "location": {
            "lat": 24.82151,
            "lng": 99.60682
        },
        "ad_info": {
            "adcode": 530524,
            "province": "云南省",
            "city": "保山市",
            "district": "昌宁县"
        }
    },
    {
        "id": "14937967506105614147",
        "title": "奥新公共厕所",
        "address": "云南省保山市隆阳区惠通路与正阳北路交叉口正南方向229米左右",
        "tel": "",
        "category": "基础设施:公共设施:公共厕所",
        "type": 0,
        "location": {
            "lat": 25.141938,
            "lng": 99.18089
        },
        "ad_info": {
            "adcode": 530502,
            "province": "云南省",
            "city": "保山市",
            "district": "隆阳区"
        }
    },
    {
        "id": "15069150602938665835",
        "title": "畜牧市场公共厕所",
        "address": "云南省保山市隆阳区蒲缥镇畜牧交易市场内",
        "tel": "",
        "category": "基础设施:公共设施:公共厕所",
        "type": 0,
        "location": {
            "lat": 25.004672,
            "lng": 99.020896
        },
        "ad_info": {
            "adcode": 530502,
            "province": "云南省",
            "city": "保山市",
            "district": "隆阳区"
        }
    },
    {
        "id": "13993070499439452953",
        "title": "公共厕所",
        "address": "云南省保山市腾冲市市州后头与忠勇路交叉口正北方向58米左右",
        "tel": "",
        "category": "基础设施:公共设施:公共厕所",
        "type": 0,
        "location": {
            "lat": 25.031683,
            "lng": 98.4979
        },
        "ad_info": {
            "adcode": 530581,
            "province": "云南省",
            "city": "保山市",
            "district": "腾冲市"
        }
    },
    {
        "id": "17576838595118607576",
        "title": "公共厕所",
        "address": "云南省保山市施甸县S229与甸阳路交叉口东南方向34米左右",
        "tel": "",
        "category": "基础设施:公共设施:公共厕所",
        "type": 0,
        "location": {
            "lat": 24.736432,
            "lng": 99.182637
        },
        "ad_info": {
            "adcode": 530521,
            "province": "云南省",
            "city": "保山市",
            "district": "施甸县"
        }
    },
    {
        "id": "5532653640696759744",
        "title": "杜鹃王府公共厕所",
        "address": "云南省保山市腾冲市园兴路与宝济路交叉口正北方向186米左右",
        "tel": "",
        "category": "基础设施:公共设施:公共厕所",
        "type": 0,
        "location": {
            "lat": 25.02163,
            "lng": 98.43445
        },
        "ad_info": {
            "adcode": 530581,
            "province": "云南省",
            "city": "保山市",
            "district": "腾冲市"
        }
    },
    {
        "id": "12638779317816263398",
        "title": "龙江大桥停车区公共厕所",
        "address": "云南省保山市腾冲市XM44与保腾高速交叉口东南方向1032米左右",
        "tel": "",
        "category": "基础设施:公共设施:公共厕所",
        "type": 0,
        "location": {
            "lat": 24.840645,
            "lng": 98.666283
        },
        "ad_info": {
            "adcode": 530581,
            "province": "云南省",
            "city": "保山市",
            "district": "腾冲市"
        }
    },
    {
        "id": "17747826279478442386",
        "title": "公共厕所",
        "address": "云南省保山市施甸县人民路与文化路交叉口正北方向69米左右",
        "tel": "",
        "category": "基础设施:公共设施:公共厕所",
        "type": 0,
        "location": {
            "lat": 24.725185,
            "lng": 99.187323
        },
        "ad_info": {
            "adcode": 530521,
            "province": "云南省",
            "city": "保山市",
            "district": "施甸县"
        }
    },
    {
        "id": "10508581132770739860",
        "title": "公共洗手间",
        "address": "云南省保山市隆阳区兰城路52号",
        "tel": "",
        "category": "基础设施:公共设施:公共厕所",
        "type": 0,
        "location": {
            "lat": 25.113964,
            "lng": 99.169218
        },
        "ad_info": {
            "adcode": 530502,
            "province": "云南省",
            "city": "保山市",
            "district": "隆阳区"
        }
    },
    {
        "id": "3583509825922708727",
        "title": "水莲亭公共厕所",
        "address": "云南省保山市隆阳区东城大道与象山路交叉口正东方向1858米左右",
        "tel": "",
        "category": "基础设施:公共设施:公共厕所",
        "type": 0,
        "location": {
            "lat": 25.118638,
            "lng": 99.210306
        },
        "ad_info": {
            "adcode": 530502,
            "province": "云南省",
            "city": "保山市",
            "district": "隆阳区"
        }
    },
    {
        "id": "6102048408433950162",
        "title": "公共厕所",
        "address": "云南省保山市施甸县S232与施孟路交叉口东南方向230米左右",
        "tel": "",
        "category": "基础设施:公共设施:公共厕所",
        "type": 0,
        "location": {
            "lat": 24.613842,
            "lng": 99.225916
        },
        "ad_info": {
            "adcode": 530521,
            "province": "云南省",
            "city": "保山市",
            "district": "施甸县"
        }
    },
    {
        "id": "15825404918897759802",
        "title": "公共厕所",
        "address": "云南省保山市施甸县XM27与Y005交叉口正东方向88米",
        "tel": "",
        "category": "基础设施:公共设施:公共厕所",
        "type": 0,
        "location": {
            "lat": 24.722514,
            "lng": 99.192883
        },
        "ad_info": {
            "adcode": 530521,
            "province": "云南省",
            "city": "保山市",
            "district": "施甸县"
        }
    },
    {
        "id": "9121079206294912906",
        "title": "紫薇垣码头公共厕所",
        "address": "云南省保山市昌宁县右甸东路与滨河路交汇处右甸河田园生态旅游区内",
        "tel": "",
        "category": "基础设施:公共设施:公共厕所",
        "type": 0,
        "location": {
            "lat": 24.811754,
            "lng": 99.622889
        },
        "ad_info": {
            "adcode": 530524,
            "province": "云南省",
            "city": "保山市",
            "district": "昌宁县"
        }
    },
    {
        "id": "9495420086036872884",
        "title": "七色园公共厕所",
        "address": "云南省保山市昌宁县X195与Y015交叉口正东方向425米左右",
        "tel": "",
        "category": "基础设施:公共设施:公共厕所",
        "type": 0,
        "location": {
            "lat": 24.83991,
            "lng": 99.61428
        },
        "ad_info": {
            "adcode": 530524,
            "province": "云南省",
            "city": "保山市",
            "district": "昌宁县"
        }
    },
    {
        "id": "5566644524562126475",
        "title": "潞江坝服务区第一公共厕所",
        "address": "云南省保山市隆阳区杭瑞高速潞江坝服务区",
        "tel": "",
        "category": "基础设施:公共设施:公共厕所",
        "type": 0,
        "location": {
            "lat": 24.924245,
            "lng": 98.876692
        },
        "ad_info": {
            "adcode": 530502,
            "province": "云南省",
            "city": "保山市",
            "district": "隆阳区"
        }
    },
    {
        "id": "17567184832829285787",
        "title": "八卦广场公共厕所",
        "address": "云南省保山市腾冲市XM74与观自段交叉口东北方向1574米左右",
        "tel": "",
        "category": "基础设施:公共设施:公共厕所",
        "type": 0,
        "location": {
            "lat": 25.216275,
            "lng": 98.4968
        },
        "ad_info": {
            "adcode": 530581,
            "province": "云南省",
            "city": "保山市",
            "district": "腾冲市"
        }
    },
    {
        "id": "17454908985319246141",
        "title": "松山日本兽行馆公共厕所",
        "address": "云南省保山市龙陵县X191与松龙段交叉口东北方向941米左右",
        "tel": "",
        "category": "基础设施:公共设施:公共厕所",
        "type": 0,
        "location": {
            "lat": 24.73535,
            "lng": 98.90266
        },
        "ad_info": {
            "adcode": 530523,
            "province": "云南省",
            "city": "保山市",
            "district": "龙陵县"
        }
    },
    {
        "id": "7091432260973420567",
        "title": "蒲缥加水站公共厕所",
        "address": "云南省保山市隆阳区蒲缥加水站蒲缥加水站",
        "tel": "",
        "category": "基础设施:公共设施:公共厕所",
        "type": 0,
        "location": {
            "lat": 24.955362,
            "lng": 99.051692
        },
        "ad_info": {
            "adcode": 530502,
            "province": "云南省",
            "city": "保山市",
            "district": "隆阳区"
        }
    },
    {
        "id": "7388842045136999126",
        "title": "行政办公区卫生间",
        "address": "云南省保山市腾冲市X195与Y034交叉口正南方向1139米左右",
        "tel": "",
        "category": "基础设施:公共设施:公共厕所",
        "type": 0,
        "location": {
            "lat": 25.16284,
            "lng": 98.47831
        },
        "ad_info": {
            "adcode": 530581,
            "province": "云南省",
            "city": "保山市",
            "district": "腾冲市"
        }
    },
    {
        "id": "3801083626924429818",
        "title": "黄龙玉交易市场公共厕所",
        "address": "云南省保山市龙陵县黄龙玉交易市场内",
        "tel": "13887808988",
        "category": "基础设施:公共设施:公共厕所",
        "type": 0,
        "location": {
            "lat": 24.579979,
            "lng": 98.677353
        },
        "ad_info": {
            "adcode": 530523,
            "province": "云南省",
            "city": "保山市",
            "district": "龙陵县"
        }
    },
    {
        "id": "9049844765228253672",
        "title": "无障碍公共厕所",
        "address": "云南省保山市腾冲市东方路222号",
        "tel": "",
        "category": "基础设施:公共设施:公共厕所",
        "type": 0,
        "location": {
            "lat": 25.02295,
            "lng": 98.502842
        },
        "ad_info": {
            "adcode": 530581,
            "province": "云南省",
            "city": "保山市",
            "district": "腾冲市"
        }
    },
    {
        "id": "11562680625092575078",
        "title": "腾冲服务区第二公共厕所",
        "address": "云南省保山市腾冲市S10保腾高速与腾冲服务区交叉口东南420米",
        "tel": "",
        "category": "基础设施:公共设施:公共厕所",
        "type": 0,
        "location": {
            "lat": 24.965394,
            "lng": 98.521479
        },
        "ad_info": {
            "adcode": 530581,
            "province": "云南省",
            "city": "保山市",
            "district": "腾冲市"
        }
    },
    {
        "id": "10938348368032330784",
        "title": "小红桥农贸市场公共厕所",
        "address": "云南省保山市龙陵县三甲巷与环城路交叉口正南方向210米左右",
        "tel": "",
        "category": "基础设施:公共设施:公共厕所",
        "type": 0,
        "location": {
            "lat": 24.58065,
            "lng": 98.684807
        },
        "ad_info": {
            "adcode": 530523,
            "province": "云南省",
            "city": "保山市",
            "district": "龙陵县"
        }
    },
    {
        "id": "7876234450807987391",
        "title": "员工宿舍区卫生间",
        "address": "云南省保山市腾冲市X195与Y034交叉口正南方向1103米左右",
        "tel": "",
        "category": "基础设施:公共设施:公共厕所",
        "type": 0,
        "location": {
            "lat": 25.16315,
            "lng": 98.47897
        },
        "ad_info": {
            "adcode": 530581,
            "province": "云南省",
            "city": "保山市",
            "district": "腾冲市"
        }
    },
    {
        "id": "8385601809524047868",
        "title": "龙山社区公共厕所",
        "address": "云南省保山市龙陵县长庚路与龙华路交叉口正南方向385米左右",
        "tel": "13887808988",
        "category": "基础设施:公共设施:公共厕所",
        "type": 0,
        "location": {
            "lat": 24.584056,
            "lng": 98.692154
        },
        "ad_info": {
            "adcode": 530523,
            "province": "云南省",
            "city": "保山市",
            "district": "龙陵县"
        }
    },
    {
        "id": "3719227262336274979",
        "title": "龙陵停车区第一公共厕所",
        "address": "云南省保山市龙陵县三甲巷与环城路交叉口西北方向1385米左右",
        "tel": "",
        "category": "基础设施:公共设施:公共厕所",
        "type": 0,
        "location": {
            "lat": 24.591055,
            "lng": 98.675148
        },
        "ad_info": {
            "adcode": 530523,
            "province": "云南省",
            "city": "保山市",
            "district": "龙陵县"
        }
    },
    {
        "id": "3091595482763111033",
        "title": "龙陵县西山小区公共厕所",
        "address": "云南省保山市龙陵县老年大学北面",
        "tel": "13887808988",
        "category": "基础设施:公共设施:公共厕所",
        "type": 0,
        "location": {
            "lat": 24.587183,
            "lng": 98.686038
        },
        "ad_info": {
            "adcode": 530523,
            "province": "云南省",
            "city": "保山市",
            "district": "龙陵县"
        }
    },
    {
        "id": "16348033940629724327",
        "title": "服务区北备用厕所",
        "address": "云南省保山市隆阳区杭瑞高速与潞江坝立交交叉口东北方向313米左右",
        "tel": "",
        "category": "基础设施:公共设施:公共厕所",
        "type": 0,
        "location": {
            "lat": 24.92346,
            "lng": 98.87573
        },
        "ad_info": {
            "adcode": 530502,
            "province": "云南省",
            "city": "保山市",
            "district": "隆阳区"
        }
    },
    {
        "id": "5987514656207236681",
        "title": "男洗手间(保山五洲国际广场)",
        "address": "云南省保山市隆阳区永昌街道正阳北路东侧(保山第二小学对面)保山五洲国际广场F2",
        "tel": "",
        "category": "基础设施:公共设施:公共厕所",
        "type": 0,
        "location": {
            "lat": 25.133507,
            "lng": 99.175088
        },
        "ad_info": {
            "adcode": 530502,
            "province": "云南省",
            "city": "保山市",
            "district": "隆阳区"
        }
    },
    {
        "id": "2152761373558314784",
        "title": "东坡森林公园1号公共厕所",
        "address": "云南省保山市龙陵县东坡森林公园环城东路路口",
        "tel": "13887808988",
        "category": "基础设施:公共设施:公共厕所",
        "type": 0,
        "location": {
            "lat": 24.586743,
            "lng": 98.699635
        },
        "ad_info": {
            "adcode": 530523,
            "province": "云南省",
            "city": "保山市",
            "district": "龙陵县"
        }
    },
    {
        "id": "12641199665843521501",
        "title": "1号公共厕所",
        "address": "云南省保山市施甸县一红段与西一段交叉口东南方向1749米左右",
        "tel": "",
        "category": "基础设施:公共设施:公共厕所",
        "type": 0,
        "location": {
            "lat": 24.74251,
            "lng": 99.00972
        },
        "ad_info": {
            "adcode": 530521,
            "province": "云南省",
            "city": "保山市",
            "district": "施甸县"
        }
    },
    {
        "id": "17940192670773623030",
        "title": "3号公共厕所",
        "address": "云南省保山市施甸县一红段与西一段交叉口东南方向1870米左右",
        "tel": "",
        "category": "基础设施:公共设施:公共厕所",
        "type": 0,
        "location": {
            "lat": 24.740965,
            "lng": 99.009748
        },
        "ad_info": {
            "adcode": 530521,
            "province": "云南省",
            "city": "保山市",
            "district": "施甸县"
        }
    },
    {
        "id": "5079910264562417197",
        "title": "和尚田传统村落卫生间",
        "address": "云南省保山市施甸县和尚田传统村落右侧",
        "tel": "",
        "category": "基础设施:公共设施:公共厕所",
        "type": 0,
        "location": {
            "lat": 24.48429,
            "lng": 99.21406
        },
        "ad_info": {
            "adcode": 530521,
            "province": "云南省",
            "city": "保山市",
            "district": "施甸县"
        }
    },
    {
        "id": "7073758412445975767",
        "title": "2号公共厕所",
        "address": "云南省保山市施甸县一红段与西一段交叉口东南方向1765米左右",
        "tel": "",
        "category": "基础设施:公共设施:公共厕所",
        "type": 0,
        "location": {
            "lat": 24.741927,
            "lng": 99.009337
        },
        "ad_info": {
            "adcode": 530521,
            "province": "云南省",
            "city": "保山市",
            "district": "施甸县"
        }
    },
    {
        "id": "10276902912158410343",
        "title": "龙陵停车区第一公共厕所",
        "address": "云南省保山市龙陵县三甲巷与环城路交叉口西北方向1287米左右",
        "tel": "",
        "category": "基础设施:公共设施:公共厕所",
        "type": 0,
        "location": {
            "lat": 24.590221,
            "lng": 98.675627
        },
        "ad_info": {
            "adcode": 530523,
            "province": "云南省",
            "city": "保山市",
            "district": "龙陵县"
        }
    },
    {
        "id": "1455636270055722915",
        "title": "东坡森林公园2号公共厕所",
        "address": "云南省保山市龙陵县龙山镇东坡森林公园中心广场",
        "tel": "13887808988",
        "category": "基础设施:公共设施:公共厕所",
        "type": 0,
        "location": {
            "lat": 24.586972,
            "lng": 98.699691
        },
        "ad_info": {
            "adcode": 530523,
            "province": "云南省",
            "city": "保山市",
            "district": "龙陵县"
        }
    },
    {
        "id": "3270933569221213954",
        "title": "公共厕所",
        "address": "云南省保山市隆阳区保岫西路46号",
        "tel": "",
        "category": "基础设施:公共设施:公共厕所",
        "type": 0,
        "location": {
            "lat": 25.113978,
            "lng": 99.163317
        },
        "ad_info": {
            "adcode": 530502,
            "province": "云南省",
            "city": "保山市",
            "district": "隆阳区"
        }
    },
    {
        "id": "10673237185397105585",
        "title": "公共厕所",
        "address": "云南省保山市昌宁县S228与达丙街交叉口东北方向261米左右",
        "tel": "",
        "category": "基础设施:公共设施:公共厕所",
        "type": 0,
        "location": {
            "lat": 24.834863,
            "lng": 99.630824
        },
        "ad_info": {
            "adcode": 530524,
            "province": "云南省",
            "city": "保山市",
            "district": "昌宁县"
        }
    },
    {
        "id": "3793588039540847715",
        "title": "公共厕所",
        "address": "云南省保山市隆阳区G320与冷黄路交叉口正西方向621米左右",
        "tel": "",
        "category": "基础设施:公共设施:公共厕所",
        "type": 0,
        "location": {
            "lat": 24.996462,
            "lng": 99.08841
        },
        "ad_info": {
            "adcode": 530502,
            "province": "云南省",
            "city": "保山市",
            "district": "隆阳区"
        }
    },
    {
        "id": "195083133629207357",
        "title": "公共厕所",
        "address": "云南省保山市腾冲市XM74与向桥段交叉口正北方向1222米左右",
        "tel": "",
        "category": "基础设施:公共设施:公共厕所",
        "type": 0,
        "location": {
            "lat": 25.219998,
            "lng": 98.577305
        },
        "ad_info": {
            "adcode": 530581,
            "province": "云南省",
            "city": "保山市",
            "district": "腾冲市"
        }
    },
    {
        "id": "10843102461286506381",
        "title": "公共厕所",
        "address": "云南省保山市隆阳区农家郎蔬菜种植农民专业合作社东",
        "tel": "",
        "category": "基础设施:公共设施:公共厕所",
        "type": 0,
        "location": {
            "lat": 25.355644,
            "lng": 98.869878
        },
        "ad_info": {
            "adcode": 530502,
            "province": "云南省",
            "city": "保山市",
            "district": "隆阳区"
        }
    },
    {
        "id": "14393726858972616204",
        "title": "淌水街公共厕所",
        "address": "云南省保山市腾冲市XM47与Y080交叉口正南方向878米左右",
        "tel": "",
        "category": "基础设施:公共设施:公共厕所",
        "type": 0,
        "location": {
            "lat": 25.073602,
            "lng": 98.572954
        },
        "ad_info": {
            "adcode": 530581,
            "province": "云南省",
            "city": "保山市",
            "district": "腾冲市"
        }
    },
    {
        "id": "14205761528190578741",
        "title": "公共厕所",
        "address": "云南省保山市昌宁县XM61与Y022交叉口东南方向520米左右",
        "tel": "",
        "category": "基础设施:公共设施:公共厕所",
        "type": 0,
        "location": {
            "lat": 24.789112,
            "lng": 99.403747
        },
        "ad_info": {
            "adcode": 530524,
            "province": "云南省",
            "city": "保山市",
            "district": "昌宁县"
        }
    },
    {
        "id": "1537265087848404046",
        "title": "新街子小区公共厕所",
        "address": "云南省保山市龙陵县立丰通讯斜对面",
        "tel": "13887808988",
        "category": "基础设施:公共设施:公共厕所",
        "type": 0,
        "location": {
            "lat": 24.58889,
            "lng": 98.690829
        },
        "ad_info": {
            "adcode": 530523,
            "province": "云南省",
            "city": "保山市",
            "district": "龙陵县"
        }
    },
    {
        "id": "3116458438448812868",
        "title": "公共厕所",
        "address": "云南省保山市腾冲市文星路与腾固路交叉口西北方向217米左右",
        "tel": "",
        "category": "基础设施:公共设施:公共厕所",
        "type": 0,
        "location": {
            "lat": 25.034711,
            "lng": 98.495146
        },
        "ad_info": {
            "adcode": 530581,
            "province": "云南省",
            "city": "保山市",
            "district": "腾冲市"
        }
    },
    {
        "id": "2290624112902619634",
        "title": "公共厕所",
        "address": "云南省保山市隆阳区S230与Y073交叉口正南方向981米左右",
        "tel": "",
        "category": "基础设施:公共设施:公共厕所",
        "type": 0,
        "location": {
            "lat": 24.890089,
            "lng": 98.887028
        },
        "ad_info": {
            "adcode": 530502,
            "province": "云南省",
            "city": "保山市",
            "district": "隆阳区"
        }
    },
    {
        "id": "1046454095294795996",
        "title": "公共厕所",
        "address": "云南省保山市昌宁县XM61与Y020交叉口正南方向306米左右",
        "tel": "",
        "category": "基础设施:公共设施:公共厕所",
        "type": 0,
        "location": {
            "lat": 24.788605,
            "lng": 99.39884
        },
        "ad_info": {
            "adcode": 530524,
            "province": "云南省",
            "city": "保山市",
            "district": "昌宁县"
        }
    },
    {
        "id": "15176830493135102685",
        "title": "公共厕所",
        "address": "云南省保山市腾冲市Y114与东山路交叉口东北方向452米左右",
        "tel": "",
        "category": "基础设施:公共设施:公共厕所",
        "type": 0,
        "location": {
            "lat": 25.030517,
            "lng": 98.514462
        },
        "ad_info": {
            "adcode": 530581,
            "province": "云南省",
            "city": "保山市",
            "district": "腾冲市"
        }
    },
    {
        "id": "6176344555697000128",
        "title": "公共厕所",
        "address": "云南省保山市隆阳区G320与X200交叉口正东方向1514米左右",
        "tel": "",
        "category": "基础设施:公共设施:公共厕所",
        "type": 0,
        "location": {
            "lat": 25.052452,
            "lng": 99.165587
        },
        "ad_info": {
            "adcode": 530502,
            "province": "云南省",
            "city": "保山市",
            "district": "隆阳区"
        }
    },
    {
        "id": "16395802948072522837",
        "title": "公共厕所",
        "address": "云南省保山市昌宁县G357与XM64交叉口东南方向173米左右",
        "tel": "",
        "category": "基础设施:公共设施:公共厕所",
        "type": 0,
        "location": {
            "lat": 24.787998,
            "lng": 99.634289
        },
        "ad_info": {
            "adcode": 530524,
            "province": "云南省",
            "city": "保山市",
            "district": "昌宁县"
        }
    },
    {
        "id": "2232380368900912451",
        "title": "公共厕所",
        "address": "云南省保山市施甸县X197与施孟公路交叉口正南方向203米左右",
        "tel": "",
        "category": "基础设施:公共设施:公共厕所",
        "type": 0,
        "location": {
            "lat": 24.602156,
            "lng": 99.240028
        },
        "ad_info": {
            "adcode": 530521,
            "province": "云南省",
            "city": "保山市",
            "district": "施甸县"
        }
    },
    {
        "id": "3452808646743802838",
        "title": "公共厕所",
        "address": "云南省保山市隆阳区栖贤寺",
        "tel": "",
        "category": "基础设施:公共设施:公共厕所",
        "type": 0,
        "location": {
            "lat": 25.15637,
            "lng": 99.154724
        },
        "ad_info": {
            "adcode": 530502,
            "province": "云南省",
            "city": "保山市",
            "district": "隆阳区"
        }
    },
    {
        "id": "5210148435694430952",
        "title": "公共厕所",
        "address": "云南省保山市腾冲市G219与Y109交叉口东北方向1023米左右",
        "tel": "",
        "category": "基础设施:公共设施:公共厕所",
        "type": 0,
        "location": {
            "lat": 25.11241,
            "lng": 98.55356
        },
        "ad_info": {
            "adcode": 530581,
            "province": "云南省",
            "city": "保山市",
            "district": "腾冲市"
        }
    },
    {
        "id": "9861580522299680800",
        "title": "公共厕所",
        "address": "云南省保山市龙陵县",
        "tel": "",
        "category": "基础设施:公共设施:公共厕所",
        "type": 0,
        "location": {
            "lat": 24.628554,
            "lng": 98.995967
        },
        "ad_info": {
            "adcode": 530523,
            "province": "云南省",
            "city": "保山市",
            "district": "龙陵县"
        }
    },
    {
        "id": "16144781448784902909",
        "title": "公共厕所",
        "address": "云南省保山市腾冲市G219与X193交叉口东南方向1749米左右",
        "tel": "",
        "category": "基础设施:公共设施:公共厕所",
        "type": 0,
        "location": {
            "lat": 24.966064,
            "lng": 98.524453
        },
        "ad_info": {
            "adcode": 530581,
            "province": "云南省",
            "city": "保山市",
            "district": "腾冲市"
        }
    },
    {
        "id": "6402561464068924946",
        "title": "潞江坝服务区公共厕所",
        "address": "云南省保山市隆阳区杭瑞高速与潞江坝立交交叉口正东方向915米左右",
        "tel": "",
        "category": "基础设施:公共设施:公共厕所",
        "type": 0,
        "location": {
            "lat": 24.923453,
            "lng": 98.882003
        },
        "ad_info": {
            "adcode": 530502,
            "province": "云南省",
            "city": "保山市",
            "district": "隆阳区"
        }
    },
    {
        "id": "16594641016083024774",
        "title": "公共厕所",
        "address": "云南省保山市腾冲市叠园路与宝峰路交叉口西北方向47米左右",
        "tel": "",
        "category": "基础设施:公共设施:公共厕所",
        "type": 0,
        "location": {
            "lat": 25.028293,
            "lng": 98.480579
        },
        "ad_info": {
            "adcode": 530581,
            "province": "云南省",
            "city": "保山市",
            "district": "腾冲市"
        }
    },
    {
        "id": "14816835103414375503",
        "title": "公共厕所",
        "address": "云南省保山市龙陵县XM44与Y062交叉口西南方向190米左右",
        "tel": "",
        "category": "基础设施:公共设施:公共厕所",
        "type": 0,
        "location": {
            "lat": 24.690951,
            "lng": 98.8259
        },
        "ad_info": {
            "adcode": 530523,
            "province": "云南省",
            "city": "保山市",
            "district": "龙陵县"
        }
    },
    {
        "id": "14746166830559248726",
        "title": "天市垣游船码头公共厕所",
        "address": "云南省保山市昌宁县右甸东路与滨河路交汇处右甸河田园生态旅游区内",
        "tel": "",
        "category": "基础设施:公共设施:公共厕所",
        "type": 0,
        "location": {
            "lat": 24.818428,
            "lng": 99.621624
        },
        "ad_info": {
            "adcode": 530524,
            "province": "云南省",
            "city": "保山市",
            "district": "昌宁县"
        }
    },
    {
        "id": "4636146794935413153",
        "title": "公共厕所",
        "address": "云南省保山市龙陵县Y075与龙腾公路交叉口正西方向888米左右",
        "tel": "",
        "category": "基础设施:公共设施:公共厕所",
        "type": 0,
        "location": {
            "lat": 24.655886,
            "lng": 98.664544
        },
        "ad_info": {
            "adcode": 530523,
            "province": "云南省",
            "city": "保山市",
            "district": "龙陵县"
        }
    },
    {
        "id": "2028578780066119628",
        "title": "公共厕所",
        "address": "云南省保山市昌宁县G357与Y041交叉口正南方向863米左右",
        "tel": "",
        "category": "基础设施:公共设施:公共厕所",
        "type": 0,
        "location": {
            "lat": 24.872758,
            "lng": 99.440881
        },
        "ad_info": {
            "adcode": 530524,
            "province": "云南省",
            "city": "保山市",
            "district": "昌宁县"
        }
    },
    {
        "id": "4773291986969237728",
        "title": "公共厕所",
        "address": "云南省保山市龙陵县兴农路与龙华路交叉口西北方向132米左右",
        "tel": "",
        "category": "基础设施:公共设施:公共厕所",
        "type": 0,
        "location": {
            "lat": 24.589329,
            "lng": 98.693525
        },
        "ad_info": {
            "adcode": 530523,
            "province": "云南省",
            "city": "保山市",
            "district": "龙陵县"
        }
    },
    {
        "id": "5338013033730608903",
        "title": "奥新公共厕所",
        "address": "云南省保山市隆阳区惠通路与正阳北路交叉口西南方向227米左右",
        "tel": "",
        "category": "基础设施:公共设施:公共厕所",
        "type": 0,
        "location": {
            "lat": 25.142124,
            "lng": 99.180128
        },
        "ad_info": {
            "adcode": 530502,
            "province": "云南省",
            "city": "保山市",
            "district": "隆阳区"
        }
    },
    {
        "id": "15626358370140842442",
        "title": "公共厕所",
        "address": "云南省保山市龙陵县G219与蚌渺桥交叉口东北方向250米左右",
        "tel": "",
        "category": "基础设施:公共设施:公共厕所",
        "type": 0,
        "location": {
            "lat": 24.541109,
            "lng": 98.785633
        },
        "ad_info": {
            "adcode": 530523,
            "province": "云南省",
            "city": "保山市",
            "district": "龙陵县"
        }
    },
    {
        "id": "13591841856301458202",
        "title": "公共厕所",
        "address": "云南省保山市腾冲市大竹园加油站(238省道东)",
        "tel": "",
        "category": "基础设施:公共设施:公共厕所",
        "type": 0,
        "location": {
            "lat": 25.047842,
            "lng": 98.525013
        },
        "ad_info": {
            "adcode": 530581,
            "province": "云南省",
            "city": "保山市",
            "district": "腾冲市"
        }
    },
    {
        "id": "7314297900574347493",
        "title": "公共厕所",
        "address": "云南省保山市龙陵县G219与Y025交叉口东南方向82米左右",
        "tel": "",
        "category": "基础设施:公共设施:公共厕所",
        "type": 0,
        "location": {
            "lat": 24.572206,
            "lng": 98.826612
        },
        "ad_info": {
            "adcode": 530523,
            "province": "云南省",
            "city": "保山市",
            "district": "龙陵县"
        }
    },
    {
        "id": "1326446126778321682",
        "title": "善洲林场景区公共厕所",
        "address": "云南省保山市施甸县瞭望塔停车场右侧直行50米",
        "tel": "",
        "category": "基础设施:公共设施:公共厕所",
        "type": 0,
        "location": {
            "lat": 24.474029,
            "lng": 99.173229
        },
        "ad_info": {
            "adcode": 530521,
            "province": "云南省",
            "city": "保山市",
            "district": "施甸县"
        }
    },
    {
        "id": "4176394366817573417",
        "title": "旅游公共厕所",
        "address": "云南省保山市隆阳区杭瑞高速与潞江坝立交交叉口东北方向400米左右",
        "tel": "",
        "category": "基础设施:公共设施:公共厕所",
        "type": 0,
        "location": {
            "lat": 24.924008,
            "lng": 98.876362
        },
        "ad_info": {
            "adcode": 530502,
            "province": "云南省",
            "city": "保山市",
            "district": "隆阳区"
        }
    },
    {
        "id": "17699605831499595677",
        "title": "公共厕所",
        "address": "云南省保山市龙陵县汤家巷与龙山路交叉口西北方向333米左右",
        "tel": "",
        "category": "基础设施:公共设施:公共厕所",
        "type": 0,
        "location": {
            "lat": 24.586846,
            "lng": 98.685261
        },
        "ad_info": {
            "adcode": 530523,
            "province": "云南省",
            "city": "保山市",
            "district": "龙陵县"
        }
    },
    {
        "id": "8633193149620079861",
        "title": "公共厕所",
        "address": "云南省保山市腾冲市上绮罗路与东方路交叉口西南方向40米左右",
        "tel": "",
        "category": "基础设施:公共设施:公共厕所",
        "type": 0,
        "location": {
            "lat": 25.007145,
            "lng": 98.494167
        },
        "ad_info": {
            "adcode": 530581,
            "province": "云南省",
            "city": "保山市",
            "district": "腾冲市"
        }
    },
    {
        "id": "212695794255866074",
        "title": "公共厕所",
        "address": "云南省保山市龙陵县G320与环城东路交叉口西南方向220米左右",
        "tel": "",
        "category": "基础设施:公共设施:公共厕所",
        "type": 0,
        "location": {
            "lat": 24.568726,
            "lng": 98.673312
        },
        "ad_info": {
            "adcode": 530523,
            "province": "云南省",
            "city": "保山市",
            "district": "龙陵县"
        }
    },
    {
        "id": "11848886164565028361",
        "title": "公共厕所",
        "address": "云南省保山市腾冲市腾北园艺苗圃园南侧70米",
        "tel": "",
        "category": "基础设施:公共设施:公共厕所",
        "type": 0,
        "location": {
            "lat": 25.21481,
            "lng": 98.481706
        },
        "ad_info": {
            "adcode": 530581,
            "province": "云南省",
            "city": "保山市",
            "district": "腾冲市"
        }
    },
    {
        "id": "17099030673532473382",
        "title": "和顺古镇公共厕所",
        "address": "云南省保山市腾冲市Y016与和顺路交叉口正南方向311米左右",
        "tel": "",
        "category": "基础设施:公共设施:公共厕所",
        "type": 0,
        "location": {
            "lat": 25.01126,
            "lng": 98.45894
        },
        "ad_info": {
            "adcode": 530581,
            "province": "云南省",
            "city": "保山市",
            "district": "腾冲市"
        }
    },
    {
        "id": "14394899697734444737",
        "title": "公共厕所",
        "address": "云南省保山市龙陵县兴农路与龙华路交叉口东南方向528米左右",
        "tel": "",
        "category": "基础设施:公共设施:公共厕所",
        "type": 0,
        "location": {
            "lat": 24.586465,
            "lng": 98.699243
        },
        "ad_info": {
            "adcode": 530523,
            "province": "云南省",
            "city": "保山市",
            "district": "龙陵县"
        }
    },
    {
        "id": "14191252442763689529",
        "title": "公共厕所",
        "address": "云南省保山市龙陵县G219与龙等公路交叉口正南方向143米左右",
        "tel": "",
        "category": "基础设施:公共设施:公共厕所",
        "type": 0,
        "location": {
            "lat": 24.239684,
            "lng": 99.049645
        },
        "ad_info": {
            "adcode": 530523,
            "province": "云南省",
            "city": "保山市",
            "district": "龙陵县"
        }
    },
    {
        "id": "4292064129582751022",
        "title": "公共厕所",
        "address": "云南省保山市龙陵县G320与X191交叉口东南方向15米左右",
        "tel": "",
        "category": "基础设施:公共设施:公共厕所",
        "type": 0,
        "location": {
            "lat": 24.674978,
            "lng": 98.820364
        },
        "ad_info": {
            "adcode": 530523,
            "province": "云南省",
            "city": "保山市",
            "district": "龙陵县"
        }
    },
    {
        "id": "3144656579801237192",
        "title": "公共厕所",
        "address": "云南省保山市昌宁县右甸西路与长青路交叉口西南方向34米左右",
        "tel": "",
        "category": "基础设施:公共设施:公共厕所",
        "type": 0,
        "location": {
            "lat": 24.826237,
            "lng": 99.600799
        },
        "ad_info": {
            "adcode": 530524,
            "province": "云南省",
            "city": "保山市",
            "district": "昌宁县"
        }
    },
    {
        "id": "15728679749034121212",
        "title": "公共厕所",
        "address": "云南省保山市隆阳区",
        "tel": "",
        "category": "基础设施:公共设施:公共厕所",
        "type": 0,
        "location": {
            "lat": 24.974469,
            "lng": 99.044607
        },
        "ad_info": {
            "adcode": 530502,
            "province": "云南省",
            "city": "保山市",
            "district": "隆阳区"
        }
    },
    {
        "id": "3413565580712609647",
        "title": "公共厕所",
        "address": "云南省保山市隆阳区兰花街与永昌路交叉口正东方向89米左右",
        "tel": "",
        "category": "基础设施:公共设施:公共厕所",
        "type": 0,
        "location": {
            "lat": 25.094954,
            "lng": 99.161737
        },
        "ad_info": {
            "adcode": 530502,
            "province": "云南省",
            "city": "保山市",
            "district": "隆阳区"
        }
    },
    {
        "id": "12413802116015077063",
        "title": "公共厕所",
        "address": "云南省保山市隆阳区晏公巷与正阳南路交叉口东南方向32米左右",
        "tel": "",
        "category": "基础设施:公共设施:公共厕所",
        "type": 0,
        "location": {
            "lat": 25.109985,
            "lng": 99.164401
        },
        "ad_info": {
            "adcode": 530502,
            "province": "云南省",
            "city": "保山市",
            "district": "隆阳区"
        }
    },
    {
        "id": "1785548625614392190",
        "title": "云山社区公共厕所",
        "address": "云南省保山市龙陵县三甲巷与环城路交叉口西北方向470米左右",
        "tel": "13887808988",
        "category": "基础设施:公共设施:公共厕所",
        "type": 0,
        "location": {
            "lat": 24.584631,
            "lng": 98.681122
        },
        "ad_info": {
            "adcode": 530523,
            "province": "云南省",
            "city": "保山市",
            "district": "龙陵县"
        }
    },
    {
        "id": "13091484352682190384",
        "title": "公共厕所",
        "address": "云南省保山市昌宁县S228与Y050交叉口正南方向117米左右",
        "tel": "",
        "category": "基础设施:公共设施:公共厕所",
        "type": 0,
        "location": {
            "lat": 24.822734,
            "lng": 99.457619
        },
        "ad_info": {
            "adcode": 530524,
            "province": "云南省",
            "city": "保山市",
            "district": "昌宁县"
        }
    },
    {
        "id": "15107460049530652238",
        "title": "公共厕所",
        "address": "云南省保山市施甸县施甸客运站旁",
        "tel": "",
        "category": "基础设施:公共设施:公共厕所",
        "type": 0,
        "location": {
            "lat": 24.737783,
            "lng": 99.182455
        },
        "ad_info": {
            "adcode": 530521,
            "province": "云南省",
            "city": "保山市",
            "district": "施甸县"
        }
    },
    {
        "id": "428073272079865499",
        "title": "公共厕所",
        "address": "云南省保山市腾冲市桃李路与泰和路交叉口东北方向116米左右",
        "tel": "",
        "category": "基础设施:公共设施:公共厕所",
        "type": 0,
        "location": {
            "lat": 25.345892,
            "lng": 98.485133
        },
        "ad_info": {
            "adcode": 530581,
            "province": "云南省",
            "city": "保山市",
            "district": "腾冲市"
        }
    },
    {
        "id": "11850649759782233477",
        "title": "旅游公共厕所",
        "address": "云南省保山市隆阳区杭瑞高速与潞江坝立交交叉口正东方向920米左右",
        "tel": "",
        "category": "基础设施:公共设施:公共厕所",
        "type": 0,
        "location": {
            "lat": 24.92436,
            "lng": 98.88181
        },
        "ad_info": {
            "adcode": 530502,
            "province": "云南省",
            "city": "保山市",
            "district": "隆阳区"
        }
    },
    {
        "id": "3371464990806473378",
        "title": "公共厕所",
        "address": "云南省保山市施甸县交通路与摩苍路交叉口东北方向107米左右",
        "tel": "",
        "category": "基础设施:公共设施:公共厕所",
        "type": 0,
        "location": {
            "lat": 24.728879,
            "lng": 99.186867
        },
        "ad_info": {
            "adcode": 530521,
            "province": "云南省",
            "city": "保山市",
            "district": "施甸县"
        }
    },
    {
        "id": "13489974260942273809",
        "title": "公共厕所",
        "address": "云南省保山市腾冲市腾越路与东营巷交叉口东南140米",
        "tel": "",
        "category": "基础设施:公共设施:公共厕所",
        "type": 0,
        "location": {
            "lat": 25.029768,
            "lng": 98.488605
        },
        "ad_info": {
            "adcode": 530581,
            "province": "云南省",
            "city": "保山市",
            "district": "腾冲市"
        }
    },
    {
        "id": "17509893132293799585",
        "title": "公共厕所",
        "address": "云南省保山市隆阳区G320与G357交叉口正北方向621米左右",
        "tel": "",
        "category": "基础设施:公共设施:公共厕所",
        "type": 0,
        "location": {
            "lat": 25.403187,
            "lng": 99.288885
        },
        "ad_info": {
            "adcode": 530502,
            "province": "云南省",
            "city": "保山市",
            "district": "隆阳区"
        }
    },
    {
        "id": "12047413616623831707",
        "title": "公共厕所",
        "address": "云南省保山市隆阳区G320与Y174交叉口西南方向1012米左右",
        "tel": "",
        "category": "基础设施:公共设施:公共厕所",
        "type": 0,
        "location": {
            "lat": 25.217367,
            "lng": 99.209017
        },
        "ad_info": {
            "adcode": 530502,
            "province": "云南省",
            "city": "保山市",
            "district": "隆阳区"
        }
    },
    {
        "id": "17157511676876225777",
        "title": "公共厕所",
        "address": "云南省保山市腾冲市G556与S317交叉口东北方向216米左右",
        "tel": "",
        "category": "基础设施:公共设施:公共厕所",
        "type": 0,
        "location": {
            "lat": 25.049897,
            "lng": 98.409853
        },
        "ad_info": {
            "adcode": 530581,
            "province": "云南省",
            "city": "保山市",
            "district": "腾冲市"
        }
    },
    {
        "id": "13469935996410158358",
        "title": "公共厕所",
        "address": "云南省保山市腾冲市保腾高速与华严路交叉口东南方向107米左右",
        "tel": "",
        "category": "基础设施:公共设施:公共厕所",
        "type": 0,
        "location": {
            "lat": 24.986505,
            "lng": 98.501536
        },
        "ad_info": {
            "adcode": 530581,
            "province": "云南省",
            "city": "保山市",
            "district": "腾冲市"
        }
    },
    {
        "id": "8990051472209052874",
        "title": "公共厕所",
        "address": "云南省保山市腾冲市G219与Y109交叉口西南方向1342米左右",
        "tel": "",
        "category": "基础设施:公共设施:公共厕所",
        "type": 0,
        "location": {
            "lat": 25.11499,
            "lng": 98.55515
        },
        "ad_info": {
            "adcode": 530581,
            "province": "云南省",
            "city": "保山市",
            "district": "腾冲市"
        }
    },
    {
        "id": "3175819223877568137",
        "title": "公共厕所",
        "address": "云南省保山市龙陵县G219与环城东路交叉口正南方向264米左右",
        "tel": "",
        "category": "基础设施:公共设施:公共厕所",
        "type": 0,
        "location": {
            "lat": 24.595171,
            "lng": 98.704012
        },
        "ad_info": {
            "adcode": 530523,
            "province": "云南省",
            "city": "保山市",
            "district": "龙陵县"
        }
    },
    {
        "id": "1805533869961358536",
        "title": "白塔社区公共厕所",
        "address": "云南省保山市龙陵县龙山镇白塔三组公房内",
        "tel": "13887808988",
        "category": "基础设施:公共设施:公共厕所",
        "type": 0,
        "location": {
            "lat": 24.59484,
            "lng": 98.687144
        },
        "ad_info": {
            "adcode": 530523,
            "province": "云南省",
            "city": "保山市",
            "district": "龙陵县"
        }
    },
    {
        "id": "12214381883453771771",
        "title": "村委会公共厕所",
        "address": "云南省保山市腾冲市Y127与Y128交叉口东南方向1030米左右",
        "tel": "",
        "category": "基础设施:公共设施:公共厕所",
        "type": 0,
        "location": {
            "lat": 25.30314,
            "lng": 98.51541
        },
        "ad_info": {
            "adcode": 530581,
            "province": "云南省",
            "city": "保山市",
            "district": "腾冲市"
        }
    },
    {
        "id": "8989092822572151042",
        "title": "公共厕所",
        "address": "云南省保山市腾冲市凤山路与文星路交叉口东北方向77米左右",
        "tel": "",
        "category": "基础设施:公共设施:公共厕所",
        "type": 0,
        "location": {
            "lat": 25.02962,
            "lng": 98.50026
        },
        "ad_info": {
            "adcode": 530581,
            "province": "云南省",
            "city": "保山市",
            "district": "腾冲市"
        }
    },
    {
        "id": "5016300401146984937",
        "title": "公共厕所",
        "address": "云南省保山市隆阳区G357与锦隆路交叉口正北方向309米左右",
        "tel": "",
        "category": "基础设施:公共设施:公共厕所",
        "type": 0,
        "location": {
            "lat": 25.44727,
            "lng": 99.261684
        },
        "ad_info": {
            "adcode": 530502,
            "province": "云南省",
            "city": "保山市",
            "district": "隆阳区"
        }
    },
    {
        "id": "11631099333179982022",
        "title": "公共厕所",
        "address": "云南省保山市施甸县G555与Y038交叉口正北方向363米左右",
        "tel": "",
        "category": "基础设施:公共设施:公共厕所",
        "type": 0,
        "location": {
            "lat": 24.876061,
            "lng": 99.103994
        },
        "ad_info": {
            "adcode": 530521,
            "province": "云南省",
            "city": "保山市",
            "district": "施甸县"
        }
    },
    {
        "id": "4310975999244307817",
        "title": "龙陵县意达农贸市场公共厕所",
        "address": "云南省保山市龙陵县兴农路与龙山路交叉口正南方向93米左右",
        "tel": "13887808988",
        "category": "基础设施:公共设施:公共厕所",
        "type": 0,
        "location": {
            "lat": 24.589646,
            "lng": 98.693109
        },
        "ad_info": {
            "adcode": 530523,
            "province": "云南省",
            "city": "保山市",
            "district": "龙陵县"
        }
    },
    {
        "id": "12194224764673526138",
        "title": "公共厕所",
        "address": "云南省保山市龙陵县G219与S237交叉口正东方向296米左右",
        "tel": "",
        "category": "基础设施:公共设施:公共厕所",
        "type": 0,
        "location": {
            "lat": 24.317803,
            "lng": 99.044703
        },
        "ad_info": {
            "adcode": 530523,
            "province": "云南省",
            "city": "保山市",
            "district": "龙陵县"
        }
    },
    {
        "id": "8657253798184359242",
        "title": "汇源商场公共厕所",
        "address": "云南省保山市龙陵县兴农路与汇源路交叉口正北方向121米左右",
        "tel": "",
        "category": "基础设施:公共设施:公共厕所",
        "type": 0,
        "location": {
            "lat": 24.593018,
            "lng": 98.691601
        },
        "ad_info": {
            "adcode": 530523,
            "province": "云南省",
            "city": "保山市",
            "district": "龙陵县"
        }
    },
    {
        "id": "13923948721583246458",
        "title": "公共厕所",
        "address": "云南省保山市隆阳区潞江镇中国石化潞江加油站",
        "tel": "",
        "category": "基础设施:公共设施:公共厕所",
        "type": 0,
        "location": {
            "lat": 24.9552,
            "lng": 98.912317
        },
        "ad_info": {
            "adcode": 530502,
            "province": "云南省",
            "city": "保山市",
            "district": "隆阳区"
        }
    },
    {
        "id": "15166923460480152186",
        "title": "公共厕所",
        "address": "云南省保山市龙陵县X191与红松段交叉口东南方向357米左右",
        "tel": "",
        "category": "基础设施:公共设施:公共厕所",
        "type": 0,
        "location": {
            "lat": 24.727767,
            "lng": 98.928269
        },
        "ad_info": {
            "adcode": 530523,
            "province": "云南省",
            "city": "保山市",
            "district": "龙陵县"
        }
    },
    {
        "id": "815157421137528455",
        "title": "公共厕所",
        "address": "云南省保山市隆阳区九龙路与升阳路交叉口正西方向68米左右",
        "tel": "",
        "category": "基础设施:公共设施:公共厕所",
        "type": 0,
        "location": {
            "lat": 25.125582,
            "lng": 99.175729
        },
        "ad_info": {
            "adcode": 530502,
            "province": "云南省",
            "city": "保山市",
            "district": "隆阳区"
        }
    },
    {
        "id": "2145060256241303001",
        "title": "公共厕所",
        "address": "云南省保山市腾冲市Y114与东山路交叉口正北方向791米左右",
        "tel": "",
        "category": "基础设施:公共设施:公共厕所",
        "type": 0,
        "location": {
            "lat": 25.031506,
            "lng": 98.518595
        },
        "ad_info": {
            "adcode": 530581,
            "province": "云南省",
            "city": "保山市",
            "district": "腾冲市"
        }
    },
    {
        "id": "1126218169013610611",
        "title": "百花园公共厕所",
        "address": "云南省保山市昌宁县右甸东路与滨河东路交叉口正南方向178米左右",
        "tel": "",
        "category": "基础设施:公共设施:公共厕所",
        "type": 0,
        "location": {
            "lat": 24.824526,
            "lng": 99.616336
        },
        "ad_info": {
            "adcode": 530524,
            "province": "云南省",
            "city": "保山市",
            "district": "昌宁县"
        }
    },
    {
        "id": "475046159909157075",
        "title": "公共厕所",
        "address": "云南省保山市隆阳区S230与Y073交叉口正南方向186米左右",
        "tel": "",
        "category": "基础设施:公共设施:公共厕所",
        "type": 0,
        "location": {
            "lat": 24.897172,
            "lng": 98.885275
        },
        "ad_info": {
            "adcode": 530502,
            "province": "云南省",
            "city": "保山市",
            "district": "隆阳区"
        }
    },
    {
        "id": "4853974138061268249",
        "title": "公共厕所",
        "address": "云南省保山市隆阳区G320与G357交叉口西北方向602米左右",
        "tel": "",
        "category": "基础设施:公共设施:公共厕所",
        "type": 0,
        "location": {
            "lat": 25.388293,
            "lng": 99.289261
        },
        "ad_info": {
            "adcode": 530502,
            "province": "云南省",
            "city": "保山市",
            "district": "隆阳区"
        }
    },
    {
        "id": "4446720259354129196",
        "title": "公共厕所",
        "address": "云南省保山市隆阳区230省道东50米",
        "tel": "",
        "category": "基础设施:公共设施:公共厕所",
        "type": 0,
        "location": {
            "lat": 25.403207,
            "lng": 98.872756
        },
        "ad_info": {
            "adcode": 530502,
            "province": "云南省",
            "city": "保山市",
            "district": "隆阳区"
        }
    },
    {
        "id": "1859572024401354430",
        "title": "龙陵县南片区保障房公共厕所",
        "address": "云南省保山市龙陵县公租房南100米",
        "tel": "13887808988",
        "category": "基础设施:公共设施:公共厕所",
        "type": 0,
        "location": {
            "lat": 24.57434,
            "lng": 98.67053
        },
        "ad_info": {
            "adcode": 530523,
            "province": "云南省",
            "city": "保山市",
            "district": "龙陵县"
        }
    },
    {
        "id": "3153398239523357460",
        "title": "公共厕所",
        "address": "云南省保山市隆阳区板桥镇北庙水库管理所西北300米",
        "tel": "",
        "category": "基础设施:公共设施:公共厕所",
        "type": 0,
        "location": {
            "lat": 25.24339,
            "lng": 99.20964
        },
        "ad_info": {
            "adcode": 530502,
            "province": "云南省",
            "city": "保山市",
            "district": "隆阳区"
        }
    },
    {
        "id": "9476182164152056043",
        "title": "腾冲雷华酒店-洗手间",
        "address": "云南省保山市腾冲市东方路与翡翠路交叉口西北方向33米左右",
        "tel": "",
        "category": "基础设施:公共设施:公共厕所",
        "type": 0,
        "location": {
            "lat": 25.016408,
            "lng": 98.497712
        },
        "ad_info": {
            "adcode": 530581,
            "province": "云南省",
            "city": "保山市",
            "district": "腾冲市"
        }
    },
    {
        "id": "3481144507980711930",
        "title": "舒云广场公共厕所",
        "address": "云南省保山市昌宁县S228与滨河西路交叉口正北方向439米左右",
        "tel": "",
        "category": "基础设施:公共设施:公共厕所",
        "type": 0,
        "location": {
            "lat": 24.837501,
            "lng": 99.615135
        },
        "ad_info": {
            "adcode": 530524,
            "province": "云南省",
            "city": "保山市",
            "district": "昌宁县"
        }
    },
    {
        "id": "3817831337789793146",
        "title": "镜秋园公共厕所",
        "address": "云南省保山市昌宁县右甸东路与滨河路交汇处右甸河田园生态旅游区内",
        "tel": "",
        "category": "基础设施:公共设施:公共厕所",
        "type": 0,
        "location": {
            "lat": 24.823947,
            "lng": 99.619293
        },
        "ad_info": {
            "adcode": 530524,
            "province": "云南省",
            "city": "保山市",
            "district": "昌宁县"
        }
    },
    {
        "id": "9296611725242337425",
        "title": "游客中心公共厕所",
        "address": "云南省保山市昌宁县右甸东路与滨河路交汇处右甸河田园生态旅游区内",
        "tel": "",
        "category": "基础设施:公共设施:公共厕所",
        "type": 0,
        "location": {
            "lat": 24.820553,
            "lng": 99.620477
        },
        "ad_info": {
            "adcode": 530524,
            "province": "云南省",
            "city": "保山市",
            "district": "昌宁县"
        }
    },
    {
        "id": "8989092822572151042",
        "title": "公共厕所",
        "address": "云南省保山市腾冲市凤山路与文星路交叉口东北方向77米左右",
        "tel": "",
        "category": "基础设施:公共设施:公共厕所",
        "type": 0,
        "location": {
            "lat": 25.02962,
            "lng": 98.50026
        },
        "ad_info": {
            "adcode": 530581,
            "province": "云南省",
            "city": "保山市",
            "district": "腾冲市"
        }
    },
    {
        "id": "5016300401146984937",
        "title": "公共厕所",
        "address": "云南省保山市隆阳区G357与锦隆路交叉口正北方向309米左右",
        "tel": "",
        "category": "基础设施:公共设施:公共厕所",
        "type": 0,
        "location": {
            "lat": 25.44727,
            "lng": 99.261684
        },
        "ad_info": {
            "adcode": 530502,
            "province": "云南省",
            "city": "保山市",
            "district": "隆阳区"
        }
    },
    {
        "id": "11631099333179982022",
        "title": "公共厕所",
        "address": "云南省保山市施甸县G555与Y038交叉口正北方向363米左右",
        "tel": "",
        "category": "基础设施:公共设施:公共厕所",
        "type": 0,
        "location": {
            "lat": 24.876061,
            "lng": 99.103994
        },
        "ad_info": {
            "adcode": 530521,
            "province": "云南省",
            "city": "保山市",
            "district": "施甸县"
        }
    },
    {
        "id": "4310975999244307817",
        "title": "龙陵县意达农贸市场公共厕所",
        "address": "云南省保山市龙陵县兴农路与龙山路交叉口正南方向93米左右",
        "tel": "13887808988",
        "category": "基础设施:公共设施:公共厕所",
        "type": 0,
        "location": {
            "lat": 24.589646,
            "lng": 98.693109
        },
        "ad_info": {
            "adcode": 530523,
            "province": "云南省",
            "city": "保山市",
            "district": "龙陵县"
        }
    },
    {
        "id": "12194224764673526138",
        "title": "公共厕所",
        "address": "云南省保山市龙陵县G219与S237交叉口正东方向296米左右",
        "tel": "",
        "category": "基础设施:公共设施:公共厕所",
        "type": 0,
        "location": {
            "lat": 24.317803,
            "lng": 99.044703
        },
        "ad_info": {
            "adcode": 530523,
            "province": "云南省",
            "city": "保山市",
            "district": "龙陵县"
        }
    },
    {
        "id": "8657253798184359242",
        "title": "汇源商场公共厕所",
        "address": "云南省保山市龙陵县兴农路与汇源路交叉口正北方向121米左右",
        "tel": "",
        "category": "基础设施:公共设施:公共厕所",
        "type": 0,
        "location": {
            "lat": 24.593018,
            "lng": 98.691601
        },
        "ad_info": {
            "adcode": 530523,
            "province": "云南省",
            "city": "保山市",
            "district": "龙陵县"
        }
    },
    {
        "id": "13923948721583246458",
        "title": "公共厕所",
        "address": "云南省保山市隆阳区潞江镇中国石化潞江加油站",
        "tel": "",
        "category": "基础设施:公共设施:公共厕所",
        "type": 0,
        "location": {
            "lat": 24.9552,
            "lng": 98.912317
        },
        "ad_info": {
            "adcode": 530502,
            "province": "云南省",
            "city": "保山市",
            "district": "隆阳区"
        }
    },
    {
        "id": "15166923460480152186",
        "title": "公共厕所",
        "address": "云南省保山市龙陵县X191与红松段交叉口东南方向357米左右",
        "tel": "",
        "category": "基础设施:公共设施:公共厕所",
        "type": 0,
        "location": {
            "lat": 24.727767,
            "lng": 98.928269
        },
        "ad_info": {
            "adcode": 530523,
            "province": "云南省",
            "city": "保山市",
            "district": "龙陵县"
        }
    },
    {
        "id": "815157421137528455",
        "title": "公共厕所",
        "address": "云南省保山市隆阳区九龙路与升阳路交叉口正西方向68米左右",
        "tel": "",
        "category": "基础设施:公共设施:公共厕所",
        "type": 0,
        "location": {
            "lat": 25.125582,
            "lng": 99.175729
        },
        "ad_info": {
            "adcode": 530502,
            "province": "云南省",
            "city": "保山市",
            "district": "隆阳区"
        }
    },
    {
        "id": "2145060256241303001",
        "title": "公共厕所",
        "address": "云南省保山市腾冲市Y114与东山路交叉口正北方向791米左右",
        "tel": "",
        "category": "基础设施:公共设施:公共厕所",
        "type": 0,
        "location": {
            "lat": 25.031506,
            "lng": 98.518595
        },
        "ad_info": {
            "adcode": 530581,
            "province": "云南省",
            "city": "保山市",
            "district": "腾冲市"
        }
    },
    {
        "id": "1126218169013610611",
        "title": "百花园公共厕所",
        "address": "云南省保山市昌宁县右甸东路与滨河东路交叉口正南方向178米左右",
        "tel": "",
        "category": "基础设施:公共设施:公共厕所",
        "type": 0,
        "location": {
            "lat": 24.824526,
            "lng": 99.616336
        },
        "ad_info": {
            "adcode": 530524,
            "province": "云南省",
            "city": "保山市",
            "district": "昌宁县"
        }
    },
    {
        "id": "475046159909157075",
        "title": "公共厕所",
        "address": "云南省保山市隆阳区S230与Y073交叉口正南方向186米左右",
        "tel": "",
        "category": "基础设施:公共设施:公共厕所",
        "type": 0,
        "location": {
            "lat": 24.897172,
            "lng": 98.885275
        },
        "ad_info": {
            "adcode": 530502,
            "province": "云南省",
            "city": "保山市",
            "district": "隆阳区"
        }
    },
    {
        "id": "4853974138061268249",
        "title": "公共厕所",
        "address": "云南省保山市隆阳区G320与G357交叉口西北方向602米左右",
        "tel": "",
        "category": "基础设施:公共设施:公共厕所",
        "type": 0,
        "location": {
            "lat": 25.388293,
            "lng": 99.289261
        },
        "ad_info": {
            "adcode": 530502,
            "province": "云南省",
            "city": "保山市",
            "district": "隆阳区"
        }
    },
    {
        "id": "4446720259354129196",
        "title": "公共厕所",
        "address": "云南省保山市隆阳区230省道东50米",
        "tel": "",
        "category": "基础设施:公共设施:公共厕所",
        "type": 0,
        "location": {
            "lat": 25.403207,
            "lng": 98.872756
        },
        "ad_info": {
            "adcode": 530502,
            "province": "云南省",
            "city": "保山市",
            "district": "隆阳区"
        }
    },
    {
        "id": "1859572024401354430",
        "title": "龙陵县南片区保障房公共厕所",
        "address": "云南省保山市龙陵县公租房南100米",
        "tel": "13887808988",
        "category": "基础设施:公共设施:公共厕所",
        "type": 0,
        "location": {
            "lat": 24.57434,
            "lng": 98.67053
        },
        "ad_info": {
            "adcode": 530523,
            "province": "云南省",
            "city": "保山市",
            "district": "龙陵县"
        }
    },
    {
        "id": "3153398239523357460",
        "title": "公共厕所",
        "address": "云南省保山市隆阳区板桥镇北庙水库管理所西北300米",
        "tel": "",
        "category": "基础设施:公共设施:公共厕所",
        "type": 0,
        "location": {
            "lat": 25.24339,
            "lng": 99.20964
        },
        "ad_info": {
            "adcode": 530502,
            "province": "云南省",
            "city": "保山市",
            "district": "隆阳区"
        }
    },
    {
        "id": "9476182164152056043",
        "title": "腾冲雷华酒店-洗手间",
        "address": "云南省保山市腾冲市东方路与翡翠路交叉口西北方向33米左右",
        "tel": "",
        "category": "基础设施:公共设施:公共厕所",
        "type": 0,
        "location": {
            "lat": 25.016408,
            "lng": 98.497712
        },
        "ad_info": {
            "adcode": 530581,
            "province": "云南省",
            "city": "保山市",
            "district": "腾冲市"
        }
    },
    {
        "id": "3481144507980711930",
        "title": "舒云广场公共厕所",
        "address": "云南省保山市昌宁县S228与滨河西路交叉口正北方向439米左右",
        "tel": "",
        "category": "基础设施:公共设施:公共厕所",
        "type": 0,
        "location": {
            "lat": 24.837501,
            "lng": 99.615135
        },
        "ad_info": {
            "adcode": 530524,
            "province": "云南省",
            "city": "保山市",
            "district": "昌宁县"
        }
    },
    {
        "id": "3817831337789793146",
        "title": "镜秋园公共厕所",
        "address": "云南省保山市昌宁县右甸东路与滨河路交汇处右甸河田园生态旅游区内",
        "tel": "",
        "category": "基础设施:公共设施:公共厕所",
        "type": 0,
        "location": {
            "lat": 24.823947,
            "lng": 99.619293
        },
        "ad_info": {
            "adcode": 530524,
            "province": "云南省",
            "city": "保山市",
            "district": "昌宁县"
        }
    },
    {
        "id": "9296611725242337425",
        "title": "游客中心公共厕所",
        "address": "云南省保山市昌宁县右甸东路与滨河路交汇处右甸河田园生态旅游区内",
        "tel": "",
        "category": "基础设施:公共设施:公共厕所",
        "type": 0,
        "location": {
            "lat": 24.820553,
            "lng": 99.620477
        },
        "ad_info": {
            "adcode": 530524,
            "province": "云南省",
            "city": "保山市",
            "district": "昌宁县"
        }
    },
    {
        "id": "8989092822572151042",
        "title": "公共厕所",
        "address": "云南省保山市腾冲市凤山路与文星路交叉口东北方向77米左右",
        "tel": "",
        "category": "基础设施:公共设施:公共厕所",
        "type": 0,
        "location": {
            "lat": 25.02962,
            "lng": 98.50026
        },
        "ad_info": {
            "adcode": 530581,
            "province": "云南省",
            "city": "保山市",
            "district": "腾冲市"
        }
    },
    {
        "id": "5016300401146984937",
        "title": "公共厕所",
        "address": "云南省保山市隆阳区G357与锦隆路交叉口正北方向309米左右",
        "tel": "",
        "category": "基础设施:公共设施:公共厕所",
        "type": 0,
        "location": {
            "lat": 25.44727,
            "lng": 99.261684
        },
        "ad_info": {
            "adcode": 530502,
            "province": "云南省",
            "city": "保山市",
            "district": "隆阳区"
        }
    },
    {
        "id": "11631099333179982022",
        "title": "公共厕所",
        "address": "云南省保山市施甸县G555与Y038交叉口正北方向363米左右",
        "tel": "",
        "category": "基础设施:公共设施:公共厕所",
        "type": 0,
        "location": {
            "lat": 24.876061,
            "lng": 99.103994
        },
        "ad_info": {
            "adcode": 530521,
            "province": "云南省",
            "city": "保山市",
            "district": "施甸县"
        }
    },
    {
        "id": "4310975999244307817",
        "title": "龙陵县意达农贸市场公共厕所",
        "address": "云南省保山市龙陵县兴农路与龙山路交叉口正南方向93米左右",
        "tel": "13887808988",
        "category": "基础设施:公共设施:公共厕所",
        "type": 0,
        "location": {
            "lat": 24.589646,
            "lng": 98.693109
        },
        "ad_info": {
            "adcode": 530523,
            "province": "云南省",
            "city": "保山市",
            "district": "龙陵县"
        }
    },
    {
        "id": "12194224764673526138",
        "title": "公共厕所",
        "address": "云南省保山市龙陵县G219与S237交叉口正东方向296米左右",
        "tel": "",
        "category": "基础设施:公共设施:公共厕所",
        "type": 0,
        "location": {
            "lat": 24.317803,
            "lng": 99.044703
        },
        "ad_info": {
            "adcode": 530523,
            "province": "云南省",
            "city": "保山市",
            "district": "龙陵县"
        }
    },
    {
        "id": "8657253798184359242",
        "title": "汇源商场公共厕所",
        "address": "云南省保山市龙陵县兴农路与汇源路交叉口正北方向121米左右",
        "tel": "",
        "category": "基础设施:公共设施:公共厕所",
        "type": 0,
        "location": {
            "lat": 24.593018,
            "lng": 98.691601
        },
        "ad_info": {
            "adcode": 530523,
            "province": "云南省",
            "city": "保山市",
            "district": "龙陵县"
        }
    },
    {
        "id": "13923948721583246458",
        "title": "公共厕所",
        "address": "云南省保山市隆阳区潞江镇中国石化潞江加油站",
        "tel": "",
        "category": "基础设施:公共设施:公共厕所",
        "type": 0,
        "location": {
            "lat": 24.9552,
            "lng": 98.912317
        },
        "ad_info": {
            "adcode": 530502,
            "province": "云南省",
            "city": "保山市",
            "district": "隆阳区"
        }
    },
    {
        "id": "15166923460480152186",
        "title": "公共厕所",
        "address": "云南省保山市龙陵县X191与红松段交叉口东南方向357米左右",
        "tel": "",
        "category": "基础设施:公共设施:公共厕所",
        "type": 0,
        "location": {
            "lat": 24.727767,
            "lng": 98.928269
        },
        "ad_info": {
            "adcode": 530523,
            "province": "云南省",
            "city": "保山市",
            "district": "龙陵县"
        }
    },
    {
        "id": "815157421137528455",
        "title": "公共厕所",
        "address": "云南省保山市隆阳区九龙路与升阳路交叉口正西方向68米左右",
        "tel": "",
        "category": "基础设施:公共设施:公共厕所",
        "type": 0,
        "location": {
            "lat": 25.125582,
            "lng": 99.175729
        },
        "ad_info": {
            "adcode": 530502,
            "province": "云南省",
            "city": "保山市",
            "district": "隆阳区"
        }
    },
    {
        "id": "2145060256241303001",
        "title": "公共厕所",
        "address": "云南省保山市腾冲市Y114与东山路交叉口正北方向791米左右",
        "tel": "",
        "category": "基础设施:公共设施:公共厕所",
        "type": 0,
        "location": {
            "lat": 25.031506,
            "lng": 98.518595
        },
        "ad_info": {
            "adcode": 530581,
            "province": "云南省",
            "city": "保山市",
            "district": "腾冲市"
        }
    },
    {
        "id": "1126218169013610611",
        "title": "百花园公共厕所",
        "address": "云南省保山市昌宁县右甸东路与滨河东路交叉口正南方向178米左右",
        "tel": "",
        "category": "基础设施:公共设施:公共厕所",
        "type": 0,
        "location": {
            "lat": 24.824526,
            "lng": 99.616336
        },
        "ad_info": {
            "adcode": 530524,
            "province": "云南省",
            "city": "保山市",
            "district": "昌宁县"
        }
    },
    {
        "id": "475046159909157075",
        "title": "公共厕所",
        "address": "云南省保山市隆阳区S230与Y073交叉口正南方向186米左右",
        "tel": "",
        "category": "基础设施:公共设施:公共厕所",
        "type": 0,
        "location": {
            "lat": 24.897172,
            "lng": 98.885275
        },
        "ad_info": {
            "adcode": 530502,
            "province": "云南省",
            "city": "保山市",
            "district": "隆阳区"
        }
    },
    {
        "id": "4853974138061268249",
        "title": "公共厕所",
        "address": "云南省保山市隆阳区G320与G357交叉口西北方向602米左右",
        "tel": "",
        "category": "基础设施:公共设施:公共厕所",
        "type": 0,
        "location": {
            "lat": 25.388293,
            "lng": 99.289261
        },
        "ad_info": {
            "adcode": 530502,
            "province": "云南省",
            "city": "保山市",
            "district": "隆阳区"
        }
    },
    {
        "id": "4446720259354129196",
        "title": "公共厕所",
        "address": "云南省保山市隆阳区230省道东50米",
        "tel": "",
        "category": "基础设施:公共设施:公共厕所",
        "type": 0,
        "location": {
            "lat": 25.403207,
            "lng": 98.872756
        },
        "ad_info": {
            "adcode": 530502,
            "province": "云南省",
            "city": "保山市",
            "district": "隆阳区"
        }
    },
    {
        "id": "1859572024401354430",
        "title": "龙陵县南片区保障房公共厕所",
        "address": "云南省保山市龙陵县公租房南100米",
        "tel": "13887808988",
        "category": "基础设施:公共设施:公共厕所",
        "type": 0,
        "location": {
            "lat": 24.57434,
            "lng": 98.67053
        },
        "ad_info": {
            "adcode": 530523,
            "province": "云南省",
            "city": "保山市",
            "district": "龙陵县"
        }
    },
    {
        "id": "3153398239523357460",
        "title": "公共厕所",
        "address": "云南省保山市隆阳区板桥镇北庙水库管理所西北300米",
        "tel": "",
        "category": "基础设施:公共设施:公共厕所",
        "type": 0,
        "location": {
            "lat": 25.24339,
            "lng": 99.20964
        },
        "ad_info": {
            "adcode": 530502,
            "province": "云南省",
            "city": "保山市",
            "district": "隆阳区"
        }
    },
    {
        "id": "9476182164152056043",
        "title": "腾冲雷华酒店-洗手间",
        "address": "云南省保山市腾冲市东方路与翡翠路交叉口西北方向33米左右",
        "tel": "",
        "category": "基础设施:公共设施:公共厕所",
        "type": 0,
        "location": {
            "lat": 25.016408,
            "lng": 98.497712
        },
        "ad_info": {
            "adcode": 530581,
            "province": "云南省",
            "city": "保山市",
            "district": "腾冲市"
        }
    },
    {
        "id": "3481144507980711930",
        "title": "舒云广场公共厕所",
        "address": "云南省保山市昌宁县S228与滨河西路交叉口正北方向439米左右",
        "tel": "",
        "category": "基础设施:公共设施:公共厕所",
        "type": 0,
        "location": {
            "lat": 24.837501,
            "lng": 99.615135
        },
        "ad_info": {
            "adcode": 530524,
            "province": "云南省",
            "city": "保山市",
            "district": "昌宁县"
        }
    },
    {
        "id": "3817831337789793146",
        "title": "镜秋园公共厕所",
        "address": "云南省保山市昌宁县右甸东路与滨河路交汇处右甸河田园生态旅游区内",
        "tel": "",
        "category": "基础设施:公共设施:公共厕所",
        "type": 0,
        "location": {
            "lat": 24.823947,
            "lng": 99.619293
        },
        "ad_info": {
            "adcode": 530524,
            "province": "云南省",
            "city": "保山市",
            "district": "昌宁县"
        }
    },
    {
        "id": "9296611725242337425",
        "title": "游客中心公共厕所",
        "address": "云南省保山市昌宁县右甸东路与滨河路交汇处右甸河田园生态旅游区内",
        "tel": "",
        "category": "基础设施:公共设施:公共厕所",
        "type": 0,
        "location": {
            "lat": 24.820553,
            "lng": 99.620477
        },
        "ad_info": {
            "adcode": 530524,
            "province": "云南省",
            "city": "保山市",
            "district": "昌宁县"
        }
    },
    {
        "id": "8989092822572151042",
        "title": "公共厕所",
        "address": "云南省保山市腾冲市凤山路与文星路交叉口东北方向77米左右",
        "tel": "",
        "category": "基础设施:公共设施:公共厕所",
        "type": 0,
        "location": {
            "lat": 25.02962,
            "lng": 98.50026
        },
        "ad_info": {
            "adcode": 530581,
            "province": "云南省",
            "city": "保山市",
            "district": "腾冲市"
        }
    },
    {
        "id": "5016300401146984937",
        "title": "公共厕所",
        "address": "云南省保山市隆阳区G357与锦隆路交叉口正北方向309米左右",
        "tel": "",
        "category": "基础设施:公共设施:公共厕所",
        "type": 0,
        "location": {
            "lat": 25.44727,
            "lng": 99.261684
        },
        "ad_info": {
            "adcode": 530502,
            "province": "云南省",
            "city": "保山市",
            "district": "隆阳区"
        }
    },
    {
        "id": "11631099333179982022",
        "title": "公共厕所",
        "address": "云南省保山市施甸县G555与Y038交叉口正北方向363米左右",
        "tel": "",
        "category": "基础设施:公共设施:公共厕所",
        "type": 0,
        "location": {
            "lat": 24.876061,
            "lng": 99.103994
        },
        "ad_info": {
            "adcode": 530521,
            "province": "云南省",
            "city": "保山市",
            "district": "施甸县"
        }
    },
    {
        "id": "4310975999244307817",
        "title": "龙陵县意达农贸市场公共厕所",
        "address": "云南省保山市龙陵县兴农路与龙山路交叉口正南方向93米左右",
        "tel": "13887808988",
        "category": "基础设施:公共设施:公共厕所",
        "type": 0,
        "location": {
            "lat": 24.589646,
            "lng": 98.693109
        },
        "ad_info": {
            "adcode": 530523,
            "province": "云南省",
            "city": "保山市",
            "district": "龙陵县"
        }
    },
    {
        "id": "12194224764673526138",
        "title": "公共厕所",
        "address": "云南省保山市龙陵县G219与S237交叉口正东方向296米左右",
        "tel": "",
        "category": "基础设施:公共设施:公共厕所",
        "type": 0,
        "location": {
            "lat": 24.317803,
            "lng": 99.044703
        },
        "ad_info": {
            "adcode": 530523,
            "province": "云南省",
            "city": "保山市",
            "district": "龙陵县"
        }
    },
    {
        "id": "8657253798184359242",
        "title": "汇源商场公共厕所",
        "address": "云南省保山市龙陵县兴农路与汇源路交叉口正北方向121米左右",
        "tel": "",
        "category": "基础设施:公共设施:公共厕所",
        "type": 0,
        "location": {
            "lat": 24.593018,
            "lng": 98.691601
        },
        "ad_info": {
            "adcode": 530523,
            "province": "云南省",
            "city": "保山市",
            "district": "龙陵县"
        }
    },
    {
        "id": "13923948721583246458",
        "title": "公共厕所",
        "address": "云南省保山市隆阳区潞江镇中国石化潞江加油站",
        "tel": "",
        "category": "基础设施:公共设施:公共厕所",
        "type": 0,
        "location": {
            "lat": 24.9552,
            "lng": 98.912317
        },
        "ad_info": {
            "adcode": 530502,
            "province": "云南省",
            "city": "保山市",
            "district": "隆阳区"
        }
    },
    {
        "id": "15166923460480152186",
        "title": "公共厕所",
        "address": "云南省保山市龙陵县X191与红松段交叉口东南方向357米左右",
        "tel": "",
        "category": "基础设施:公共设施:公共厕所",
        "type": 0,
        "location": {
            "lat": 24.727767,
            "lng": 98.928269
        },
        "ad_info": {
            "adcode": 530523,
            "province": "云南省",
            "city": "保山市",
            "district": "龙陵县"
        }
    },
    {
        "id": "815157421137528455",
        "title": "公共厕所",
        "address": "云南省保山市隆阳区九龙路与升阳路交叉口正西方向68米左右",
        "tel": "",
        "category": "基础设施:公共设施:公共厕所",
        "type": 0,
        "location": {
            "lat": 25.125582,
            "lng": 99.175729
        },
        "ad_info": {
            "adcode": 530502,
            "province": "云南省",
            "city": "保山市",
            "district": "隆阳区"
        }
    },
    {
        "id": "2145060256241303001",
        "title": "公共厕所",
        "address": "云南省保山市腾冲市Y114与东山路交叉口正北方向791米左右",
        "tel": "",
        "category": "基础设施:公共设施:公共厕所",
        "type": 0,
        "location": {
            "lat": 25.031506,
            "lng": 98.518595
        },
        "ad_info": {
            "adcode": 530581,
            "province": "云南省",
            "city": "保山市",
            "district": "腾冲市"
        }
    },
    {
        "id": "1126218169013610611",
        "title": "百花园公共厕所",
        "address": "云南省保山市昌宁县右甸东路与滨河东路交叉口正南方向178米左右",
        "tel": "",
        "category": "基础设施:公共设施:公共厕所",
        "type": 0,
        "location": {
            "lat": 24.824526,
            "lng": 99.616336
        },
        "ad_info": {
            "adcode": 530524,
            "province": "云南省",
            "city": "保山市",
            "district": "昌宁县"
        }
    },
    {
        "id": "475046159909157075",
        "title": "公共厕所",
        "address": "云南省保山市隆阳区S230与Y073交叉口正南方向186米左右",
        "tel": "",
        "category": "基础设施:公共设施:公共厕所",
        "type": 0,
        "location": {
            "lat": 24.897172,
            "lng": 98.885275
        },
        "ad_info": {
            "adcode": 530502,
            "province": "云南省",
            "city": "保山市",
            "district": "隆阳区"
        }
    },
    {
        "id": "4853974138061268249",
        "title": "公共厕所",
        "address": "云南省保山市隆阳区G320与G357交叉口西北方向602米左右",
        "tel": "",
        "category": "基础设施:公共设施:公共厕所",
        "type": 0,
        "location": {
            "lat": 25.388293,
            "lng": 99.289261
        },
        "ad_info": {
            "adcode": 530502,
            "province": "云南省",
            "city": "保山市",
            "district": "隆阳区"
        }
    },
    {
        "id": "4446720259354129196",
        "title": "公共厕所",
        "address": "云南省保山市隆阳区230省道东50米",
        "tel": "",
        "category": "基础设施:公共设施:公共厕所",
        "type": 0,
        "location": {
            "lat": 25.403207,
            "lng": 98.872756
        },
        "ad_info": {
            "adcode": 530502,
            "province": "云南省",
            "city": "保山市",
            "district": "隆阳区"
        }
    },
    {
        "id": "1859572024401354430",
        "title": "龙陵县南片区保障房公共厕所",
        "address": "云南省保山市龙陵县公租房南100米",
        "tel": "13887808988",
        "category": "基础设施:公共设施:公共厕所",
        "type": 0,
        "location": {
            "lat": 24.57434,
            "lng": 98.67053
        },
        "ad_info": {
            "adcode": 530523,
            "province": "云南省",
            "city": "保山市",
            "district": "龙陵县"
        }
    },
    {
        "id": "3153398239523357460",
        "title": "公共厕所",
        "address": "云南省保山市隆阳区板桥镇北庙水库管理所西北300米",
        "tel": "",
        "category": "基础设施:公共设施:公共厕所",
        "type": 0,
        "location": {
            "lat": 25.24339,
            "lng": 99.20964
        },
        "ad_info": {
            "adcode": 530502,
            "province": "云南省",
            "city": "保山市",
            "district": "隆阳区"
        }
    },
    {
        "id": "9476182164152056043",
        "title": "腾冲雷华酒店-洗手间",
        "address": "云南省保山市腾冲市东方路与翡翠路交叉口西北方向33米左右",
        "tel": "",
        "category": "基础设施:公共设施:公共厕所",
        "type": 0,
        "location": {
            "lat": 25.016408,
            "lng": 98.497712
        },
        "ad_info": {
            "adcode": 530581,
            "province": "云南省",
            "city": "保山市",
            "district": "腾冲市"
        }
    },
    {
        "id": "3481144507980711930",
        "title": "舒云广场公共厕所",
        "address": "云南省保山市昌宁县S228与滨河西路交叉口正北方向439米左右",
        "tel": "",
        "category": "基础设施:公共设施:公共厕所",
        "type": 0,
        "location": {
            "lat": 24.837501,
            "lng": 99.615135
        },
        "ad_info": {
            "adcode": 530524,
            "province": "云南省",
            "city": "保山市",
            "district": "昌宁县"
        }
    },
    {
        "id": "3817831337789793146",
        "title": "镜秋园公共厕所",
        "address": "云南省保山市昌宁县右甸东路与滨河路交汇处右甸河田园生态旅游区内",
        "tel": "",
        "category": "基础设施:公共设施:公共厕所",
        "type": 0,
        "location": {
            "lat": 24.823947,
            "lng": 99.619293
        },
        "ad_info": {
            "adcode": 530524,
            "province": "云南省",
            "city": "保山市",
            "district": "昌宁县"
        }
    },
    {
        "id": "9296611725242337425",
        "title": "游客中心公共厕所",
        "address": "云南省保山市昌宁县右甸东路与滨河路交汇处右甸河田园生态旅游区内",
        "tel": "",
        "category": "基础设施:公共设施:公共厕所",
        "type": 0,
        "location": {
            "lat": 24.820553,
            "lng": 99.620477
        },
        "ad_info": {
            "adcode": 530524,
            "province": "云南省",
            "city": "保山市",
            "district": "昌宁县"
        }
    },
    {
        "id": "8989092822572151042",
        "title": "公共厕所",
        "address": "云南省保山市腾冲市凤山路与文星路交叉口东北方向77米左右",
        "tel": "",
        "category": "基础设施:公共设施:公共厕所",
        "type": 0,
        "location": {
            "lat": 25.02962,
            "lng": 98.50026
        },
        "ad_info": {
            "adcode": 530581,
            "province": "云南省",
            "city": "保山市",
            "district": "腾冲市"
        }
    },
    {
        "id": "5016300401146984937",
        "title": "公共厕所",
        "address": "云南省保山市隆阳区G357与锦隆路交叉口正北方向309米左右",
        "tel": "",
        "category": "基础设施:公共设施:公共厕所",
        "type": 0,
        "location": {
            "lat": 25.44727,
            "lng": 99.261684
        },
        "ad_info": {
            "adcode": 530502,
            "province": "云南省",
            "city": "保山市",
            "district": "隆阳区"
        }
    },
    {
        "id": "11631099333179982022",
        "title": "公共厕所",
        "address": "云南省保山市施甸县G555与Y038交叉口正北方向363米左右",
        "tel": "",
        "category": "基础设施:公共设施:公共厕所",
        "type": 0,
        "location": {
            "lat": 24.876061,
            "lng": 99.103994
        },
        "ad_info": {
            "adcode": 530521,
            "province": "云南省",
            "city": "保山市",
            "district": "施甸县"
        }
    },
    {
        "id": "4310975999244307817",
        "title": "龙陵县意达农贸市场公共厕所",
        "address": "云南省保山市龙陵县兴农路与龙山路交叉口正南方向93米左右",
        "tel": "13887808988",
        "category": "基础设施:公共设施:公共厕所",
        "type": 0,
        "location": {
            "lat": 24.589646,
            "lng": 98.693109
        },
        "ad_info": {
            "adcode": 530523,
            "province": "云南省",
            "city": "保山市",
            "district": "龙陵县"
        }
    },
    {
        "id": "12194224764673526138",
        "title": "公共厕所",
        "address": "云南省保山市龙陵县G219与S237交叉口正东方向296米左右",
        "tel": "",
        "category": "基础设施:公共设施:公共厕所",
        "type": 0,
        "location": {
            "lat": 24.317803,
            "lng": 99.044703
        },
        "ad_info": {
            "adcode": 530523,
            "province": "云南省",
            "city": "保山市",
            "district": "龙陵县"
        }
    },
    {
        "id": "8657253798184359242",
        "title": "汇源商场公共厕所",
        "address": "云南省保山市龙陵县兴农路与汇源路交叉口正北方向121米左右",
        "tel": "",
        "category": "基础设施:公共设施:公共厕所",
        "type": 0,
        "location": {
            "lat": 24.593018,
            "lng": 98.691601
        },
        "ad_info": {
            "adcode": 530523,
            "province": "云南省",
            "city": "保山市",
            "district": "龙陵县"
        }
    },
    {
        "id": "13923948721583246458",
        "title": "公共厕所",
        "address": "云南省保山市隆阳区潞江镇中国石化潞江加油站",
        "tel": "",
        "category": "基础设施:公共设施:公共厕所",
        "type": 0,
        "location": {
            "lat": 24.9552,
            "lng": 98.912317
        },
        "ad_info": {
            "adcode": 530502,
            "province": "云南省",
            "city": "保山市",
            "district": "隆阳区"
        }
    },
    {
        "id": "15166923460480152186",
        "title": "公共厕所",
        "address": "云南省保山市龙陵县X191与红松段交叉口东南方向357米左右",
        "tel": "",
        "category": "基础设施:公共设施:公共厕所",
        "type": 0,
        "location": {
            "lat": 24.727767,
            "lng": 98.928269
        },
        "ad_info": {
            "adcode": 530523,
            "province": "云南省",
            "city": "保山市",
            "district": "龙陵县"
        }
    },
    {
        "id": "815157421137528455",
        "title": "公共厕所",
        "address": "云南省保山市隆阳区九龙路与升阳路交叉口正西方向68米左右",
        "tel": "",
        "category": "基础设施:公共设施:公共厕所",
        "type": 0,
        "location": {
            "lat": 25.125582,
            "lng": 99.175729
        },
        "ad_info": {
            "adcode": 530502,
            "province": "云南省",
            "city": "保山市",
            "district": "隆阳区"
        }
    },
    {
        "id": "2145060256241303001",
        "title": "公共厕所",
        "address": "云南省保山市腾冲市Y114与东山路交叉口正北方向791米左右",
        "tel": "",
        "category": "基础设施:公共设施:公共厕所",
        "type": 0,
        "location": {
            "lat": 25.031506,
            "lng": 98.518595
        },
        "ad_info": {
            "adcode": 530581,
            "province": "云南省",
            "city": "保山市",
            "district": "腾冲市"
        }
    },
    {
        "id": "1126218169013610611",
        "title": "百花园公共厕所",
        "address": "云南省保山市昌宁县右甸东路与滨河东路交叉口正南方向178米左右",
        "tel": "",
        "category": "基础设施:公共设施:公共厕所",
        "type": 0,
        "location": {
            "lat": 24.824526,
            "lng": 99.616336
        },
        "ad_info": {
            "adcode": 530524,
            "province": "云南省",
            "city": "保山市",
            "district": "昌宁县"
        }
    },
    {
        "id": "475046159909157075",
        "title": "公共厕所",
        "address": "云南省保山市隆阳区S230与Y073交叉口正南方向186米左右",
        "tel": "",
        "category": "基础设施:公共设施:公共厕所",
        "type": 0,
        "location": {
            "lat": 24.897172,
            "lng": 98.885275
        },
        "ad_info": {
            "adcode": 530502,
            "province": "云南省",
            "city": "保山市",
            "district": "隆阳区"
        }
    },
    {
        "id": "4853974138061268249",
        "title": "公共厕所",
        "address": "云南省保山市隆阳区G320与G357交叉口西北方向602米左右",
        "tel": "",
        "category": "基础设施:公共设施:公共厕所",
        "type": 0,
        "location": {
            "lat": 25.388293,
            "lng": 99.289261
        },
        "ad_info": {
            "adcode": 530502,
            "province": "云南省",
            "city": "保山市",
            "district": "隆阳区"
        }
    },
    {
        "id": "4446720259354129196",
        "title": "公共厕所",
        "address": "云南省保山市隆阳区230省道东50米",
        "tel": "",
        "category": "基础设施:公共设施:公共厕所",
        "type": 0,
        "location": {
            "lat": 25.403207,
            "lng": 98.872756
        },
        "ad_info": {
            "adcode": 530502,
            "province": "云南省",
            "city": "保山市",
            "district": "隆阳区"
        }
    },
    {
        "id": "1859572024401354430",
        "title": "龙陵县南片区保障房公共厕所",
        "address": "云南省保山市龙陵县公租房南100米",
        "tel": "13887808988",
        "category": "基础设施:公共设施:公共厕所",
        "type": 0,
        "location": {
            "lat": 24.57434,
            "lng": 98.67053
        },
        "ad_info": {
            "adcode": 530523,
            "province": "云南省",
            "city": "保山市",
            "district": "龙陵县"
        }
    },
    {
        "id": "3153398239523357460",
        "title": "公共厕所",
        "address": "云南省保山市隆阳区板桥镇北庙水库管理所西北300米",
        "tel": "",
        "category": "基础设施:公共设施:公共厕所",
        "type": 0,
        "location": {
            "lat": 25.24339,
            "lng": 99.20964
        },
        "ad_info": {
            "adcode": 530502,
            "province": "云南省",
            "city": "保山市",
            "district": "隆阳区"
        }
    },
    {
        "id": "9476182164152056043",
        "title": "腾冲雷华酒店-洗手间",
        "address": "云南省保山市腾冲市东方路与翡翠路交叉口西北方向33米左右",
        "tel": "",
        "category": "基础设施:公共设施:公共厕所",
        "type": 0,
        "location": {
            "lat": 25.016408,
            "lng": 98.497712
        },
        "ad_info": {
            "adcode": 530581,
            "province": "云南省",
            "city": "保山市",
            "district": "腾冲市"
        }
    },
    {
        "id": "3481144507980711930",
        "title": "舒云广场公共厕所",
        "address": "云南省保山市昌宁县S228与滨河西路交叉口正北方向439米左右",
        "tel": "",
        "category": "基础设施:公共设施:公共厕所",
        "type": 0,
        "location": {
            "lat": 24.837501,
            "lng": 99.615135
        },
        "ad_info": {
            "adcode": 530524,
            "province": "云南省",
            "city": "保山市",
            "district": "昌宁县"
        }
    },
    {
        "id": "3817831337789793146",
        "title": "镜秋园公共厕所",
        "address": "云南省保山市昌宁县右甸东路与滨河路交汇处右甸河田园生态旅游区内",
        "tel": "",
        "category": "基础设施:公共设施:公共厕所",
        "type": 0,
        "location": {
            "lat": 24.823947,
            "lng": 99.619293
        },
        "ad_info": {
            "adcode": 530524,
            "province": "云南省",
            "city": "保山市",
            "district": "昌宁县"
        }
    },
    {
        "id": "9296611725242337425",
        "title": "游客中心公共厕所",
        "address": "云南省保山市昌宁县右甸东路与滨河路交汇处右甸河田园生态旅游区内",
        "tel": "",
        "category": "基础设施:公共设施:公共厕所",
        "type": 0,
        "location": {
            "lat": 24.820553,
            "lng": 99.620477
        },
        "ad_info": {
            "adcode": 530524,
            "province": "云南省",
            "city": "保山市",
            "district": "昌宁县"
        }
    },
    {
        "id": "8989092822572151042",
        "title": "公共厕所",
        "address": "云南省保山市腾冲市凤山路与文星路交叉口东北方向77米左右",
        "tel": "",
        "category": "基础设施:公共设施:公共厕所",
        "type": 0,
        "location": {
            "lat": 25.02962,
            "lng": 98.50026
        },
        "ad_info": {
            "adcode": 530581,
            "province": "云南省",
            "city": "保山市",
            "district": "腾冲市"
        }
    },
    {
        "id": "5016300401146984937",
        "title": "公共厕所",
        "address": "云南省保山市隆阳区G357与锦隆路交叉口正北方向309米左右",
        "tel": "",
        "category": "基础设施:公共设施:公共厕所",
        "type": 0,
        "location": {
            "lat": 25.44727,
            "lng": 99.261684
        },
        "ad_info": {
            "adcode": 530502,
            "province": "云南省",
            "city": "保山市",
            "district": "隆阳区"
        }
    },
    {
        "id": "11631099333179982022",
        "title": "公共厕所",
        "address": "云南省保山市施甸县G555与Y038交叉口正北方向363米左右",
        "tel": "",
        "category": "基础设施:公共设施:公共厕所",
        "type": 0,
        "location": {
            "lat": 24.876061,
            "lng": 99.103994
        },
        "ad_info": {
            "adcode": 530521,
            "province": "云南省",
            "city": "保山市",
            "district": "施甸县"
        }
    },
    {
        "id": "4310975999244307817",
        "title": "龙陵县意达农贸市场公共厕所",
        "address": "云南省保山市龙陵县兴农路与龙山路交叉口正南方向93米左右",
        "tel": "13887808988",
        "category": "基础设施:公共设施:公共厕所",
        "type": 0,
        "location": {
            "lat": 24.589646,
            "lng": 98.693109
        },
        "ad_info": {
            "adcode": 530523,
            "province": "云南省",
            "city": "保山市",
            "district": "龙陵县"
        }
    },
    {
        "id": "12194224764673526138",
        "title": "公共厕所",
        "address": "云南省保山市龙陵县G219与S237交叉口正东方向296米左右",
        "tel": "",
        "category": "基础设施:公共设施:公共厕所",
        "type": 0,
        "location": {
            "lat": 24.317803,
            "lng": 99.044703
        },
        "ad_info": {
            "adcode": 530523,
            "province": "云南省",
            "city": "保山市",
            "district": "龙陵县"
        }
    },
    {
        "id": "8657253798184359242",
        "title": "汇源商场公共厕所",
        "address": "云南省保山市龙陵县兴农路与汇源路交叉口正北方向121米左右",
        "tel": "",
        "category": "基础设施:公共设施:公共厕所",
        "type": 0,
        "location": {
            "lat": 24.593018,
            "lng": 98.691601
        },
        "ad_info": {
            "adcode": 530523,
            "province": "云南省",
            "city": "保山市",
            "district": "龙陵县"
        }
    },
    {
        "id": "13923948721583246458",
        "title": "公共厕所",
        "address": "云南省保山市隆阳区潞江镇中国石化潞江加油站",
        "tel": "",
        "category": "基础设施:公共设施:公共厕所",
        "type": 0,
        "location": {
            "lat": 24.9552,
            "lng": 98.912317
        },
        "ad_info": {
            "adcode": 530502,
            "province": "云南省",
            "city": "保山市",
            "district": "隆阳区"
        }
    },
    {
        "id": "15166923460480152186",
        "title": "公共厕所",
        "address": "云南省保山市龙陵县X191与红松段交叉口东南方向357米左右",
        "tel": "",
        "category": "基础设施:公共设施:公共厕所",
        "type": 0,
        "location": {
            "lat": 24.727767,
            "lng": 98.928269
        },
        "ad_info": {
            "adcode": 530523,
            "province": "云南省",
            "city": "保山市",
            "district": "龙陵县"
        }
    },
    {
        "id": "815157421137528455",
        "title": "公共厕所",
        "address": "云南省保山市隆阳区九龙路与升阳路交叉口正西方向68米左右",
        "tel": "",
        "category": "基础设施:公共设施:公共厕所",
        "type": 0,
        "location": {
            "lat": 25.125582,
            "lng": 99.175729
        },
        "ad_info": {
            "adcode": 530502,
            "province": "云南省",
            "city": "保山市",
            "district": "隆阳区"
        }
    },
    {
        "id": "2145060256241303001",
        "title": "公共厕所",
        "address": "云南省保山市腾冲市Y114与东山路交叉口正北方向791米左右",
        "tel": "",
        "category": "基础设施:公共设施:公共厕所",
        "type": 0,
        "location": {
            "lat": 25.031506,
            "lng": 98.518595
        },
        "ad_info": {
            "adcode": 530581,
            "province": "云南省",
            "city": "保山市",
            "district": "腾冲市"
        }
    },
    {
        "id": "1126218169013610611",
        "title": "百花园公共厕所",
        "address": "云南省保山市昌宁县右甸东路与滨河东路交叉口正南方向178米左右",
        "tel": "",
        "category": "基础设施:公共设施:公共厕所",
        "type": 0,
        "location": {
            "lat": 24.824526,
            "lng": 99.616336
        },
        "ad_info": {
            "adcode": 530524,
            "province": "云南省",
            "city": "保山市",
            "district": "昌宁县"
        }
    },
    {
        "id": "475046159909157075",
        "title": "公共厕所",
        "address": "云南省保山市隆阳区S230与Y073交叉口正南方向186米左右",
        "tel": "",
        "category": "基础设施:公共设施:公共厕所",
        "type": 0,
        "location": {
            "lat": 24.897172,
            "lng": 98.885275
        },
        "ad_info": {
            "adcode": 530502,
            "province": "云南省",
            "city": "保山市",
            "district": "隆阳区"
        }
    },
    {
        "id": "4853974138061268249",
        "title": "公共厕所",
        "address": "云南省保山市隆阳区G320与G357交叉口西北方向602米左右",
        "tel": "",
        "category": "基础设施:公共设施:公共厕所",
        "type": 0,
        "location": {
            "lat": 25.388293,
            "lng": 99.289261
        },
        "ad_info": {
            "adcode": 530502,
            "province": "云南省",
            "city": "保山市",
            "district": "隆阳区"
        }
    },
    {
        "id": "4446720259354129196",
        "title": "公共厕所",
        "address": "云南省保山市隆阳区230省道东50米",
        "tel": "",
        "category": "基础设施:公共设施:公共厕所",
        "type": 0,
        "location": {
            "lat": 25.403207,
            "lng": 98.872756
        },
        "ad_info": {
            "adcode": 530502,
            "province": "云南省",
            "city": "保山市",
            "district": "隆阳区"
        }
    },
    {
        "id": "1859572024401354430",
        "title": "龙陵县南片区保障房公共厕所",
        "address": "云南省保山市龙陵县公租房南100米",
        "tel": "13887808988",
        "category": "基础设施:公共设施:公共厕所",
        "type": 0,
        "location": {
            "lat": 24.57434,
            "lng": 98.67053
        },
        "ad_info": {
            "adcode": 530523,
            "province": "云南省",
            "city": "保山市",
            "district": "龙陵县"
        }
    },
    {
        "id": "3153398239523357460",
        "title": "公共厕所",
        "address": "云南省保山市隆阳区板桥镇北庙水库管理所西北300米",
        "tel": "",
        "category": "基础设施:公共设施:公共厕所",
        "type": 0,
        "location": {
            "lat": 25.24339,
            "lng": 99.20964
        },
        "ad_info": {
            "adcode": 530502,
            "province": "云南省",
            "city": "保山市",
            "district": "隆阳区"
        }
    },
    {
        "id": "9476182164152056043",
        "title": "腾冲雷华酒店-洗手间",
        "address": "云南省保山市腾冲市东方路与翡翠路交叉口西北方向33米左右",
        "tel": "",
        "category": "基础设施:公共设施:公共厕所",
        "type": 0,
        "location": {
            "lat": 25.016408,
            "lng": 98.497712
        },
        "ad_info": {
            "adcode": 530581,
            "province": "云南省",
            "city": "保山市",
            "district": "腾冲市"
        }
    },
    {
        "id": "3481144507980711930",
        "title": "舒云广场公共厕所",
        "address": "云南省保山市昌宁县S228与滨河西路交叉口正北方向439米左右",
        "tel": "",
        "category": "基础设施:公共设施:公共厕所",
        "type": 0,
        "location": {
            "lat": 24.837501,
            "lng": 99.615135
        },
        "ad_info": {
            "adcode": 530524,
            "province": "云南省",
            "city": "保山市",
            "district": "昌宁县"
        }
    },
    {
        "id": "3817831337789793146",
        "title": "镜秋园公共厕所",
        "address": "云南省保山市昌宁县右甸东路与滨河路交汇处右甸河田园生态旅游区内",
        "tel": "",
        "category": "基础设施:公共设施:公共厕所",
        "type": 0,
        "location": {
            "lat": 24.823947,
            "lng": 99.619293
        },
        "ad_info": {
            "adcode": 530524,
            "province": "云南省",
            "city": "保山市",
            "district": "昌宁县"
        }
    },
    {
        "id": "9296611725242337425",
        "title": "游客中心公共厕所",
        "address": "云南省保山市昌宁县右甸东路与滨河路交汇处右甸河田园生态旅游区内",
        "tel": "",
        "category": "基础设施:公共设施:公共厕所",
        "type": 0,
        "location": {
            "lat": 24.820553,
            "lng": 99.620477
        },
        "ad_info": {
            "adcode": 530524,
            "province": "云南省",
            "city": "保山市",
            "district": "昌宁县"
        }
    },
    {
        "id": "8989092822572151042",
        "title": "公共厕所",
        "address": "云南省保山市腾冲市凤山路与文星路交叉口东北方向77米左右",
        "tel": "",
        "category": "基础设施:公共设施:公共厕所",
        "type": 0,
        "location": {
            "lat": 25.02962,
            "lng": 98.50026
        },
        "ad_info": {
            "adcode": 530581,
            "province": "云南省",
            "city": "保山市",
            "district": "腾冲市"
        }
    },
    {
        "id": "5016300401146984937",
        "title": "公共厕所",
        "address": "云南省保山市隆阳区G357与锦隆路交叉口正北方向309米左右",
        "tel": "",
        "category": "基础设施:公共设施:公共厕所",
        "type": 0,
        "location": {
            "lat": 25.44727,
            "lng": 99.261684
        },
        "ad_info": {
            "adcode": 530502,
            "province": "云南省",
            "city": "保山市",
            "district": "隆阳区"
        }
    },
    {
        "id": "11631099333179982022",
        "title": "公共厕所",
        "address": "云南省保山市施甸县G555与Y038交叉口正北方向363米左右",
        "tel": "",
        "category": "基础设施:公共设施:公共厕所",
        "type": 0,
        "location": {
            "lat": 24.876061,
            "lng": 99.103994
        },
        "ad_info": {
            "adcode": 530521,
            "province": "云南省",
            "city": "保山市",
            "district": "施甸县"
        }
    },
    {
        "id": "4310975999244307817",
        "title": "龙陵县意达农贸市场公共厕所",
        "address": "云南省保山市龙陵县兴农路与龙山路交叉口正南方向93米左右",
        "tel": "13887808988",
        "category": "基础设施:公共设施:公共厕所",
        "type": 0,
        "location": {
            "lat": 24.589646,
            "lng": 98.693109
        },
        "ad_info": {
            "adcode": 530523,
            "province": "云南省",
            "city": "保山市",
            "district": "龙陵县"
        }
    },
    {
        "id": "12194224764673526138",
        "title": "公共厕所",
        "address": "云南省保山市龙陵县G219与S237交叉口正东方向296米左右",
        "tel": "",
        "category": "基础设施:公共设施:公共厕所",
        "type": 0,
        "location": {
            "lat": 24.317803,
            "lng": 99.044703
        },
        "ad_info": {
            "adcode": 530523,
            "province": "云南省",
            "city": "保山市",
            "district": "龙陵县"
        }
    },
    {
        "id": "8657253798184359242",
        "title": "汇源商场公共厕所",
        "address": "云南省保山市龙陵县兴农路与汇源路交叉口正北方向121米左右",
        "tel": "",
        "category": "基础设施:公共设施:公共厕所",
        "type": 0,
        "location": {
            "lat": 24.593018,
            "lng": 98.691601
        },
        "ad_info": {
            "adcode": 530523,
            "province": "云南省",
            "city": "保山市",
            "district": "龙陵县"
        }
    },
    {
        "id": "13923948721583246458",
        "title": "公共厕所",
        "address": "云南省保山市隆阳区潞江镇中国石化潞江加油站",
        "tel": "",
        "category": "基础设施:公共设施:公共厕所",
        "type": 0,
        "location": {
            "lat": 24.9552,
            "lng": 98.912317
        },
        "ad_info": {
            "adcode": 530502,
            "province": "云南省",
            "city": "保山市",
            "district": "隆阳区"
        }
    },
    {
        "id": "15166923460480152186",
        "title": "公共厕所",
        "address": "云南省保山市龙陵县X191与红松段交叉口东南方向357米左右",
        "tel": "",
        "category": "基础设施:公共设施:公共厕所",
        "type": 0,
        "location": {
            "lat": 24.727767,
            "lng": 98.928269
        },
        "ad_info": {
            "adcode": 530523,
            "province": "云南省",
            "city": "保山市",
            "district": "龙陵县"
        }
    },
    {
        "id": "815157421137528455",
        "title": "公共厕所",
        "address": "云南省保山市隆阳区九龙路与升阳路交叉口正西方向68米左右",
        "tel": "",
        "category": "基础设施:公共设施:公共厕所",
        "type": 0,
        "location": {
            "lat": 25.125582,
            "lng": 99.175729
        },
        "ad_info": {
            "adcode": 530502,
            "province": "云南省",
            "city": "保山市",
            "district": "隆阳区"
        }
    },
    {
        "id": "2145060256241303001",
        "title": "公共厕所",
        "address": "云南省保山市腾冲市Y114与东山路交叉口正北方向791米左右",
        "tel": "",
        "category": "基础设施:公共设施:公共厕所",
        "type": 0,
        "location": {
            "lat": 25.031506,
            "lng": 98.518595
        },
        "ad_info": {
            "adcode": 530581,
            "province": "云南省",
            "city": "保山市",
            "district": "腾冲市"
        }
    },
    {
        "id": "1126218169013610611",
        "title": "百花园公共厕所",
        "address": "云南省保山市昌宁县右甸东路与滨河东路交叉口正南方向178米左右",
        "tel": "",
        "category": "基础设施:公共设施:公共厕所",
        "type": 0,
        "location": {
            "lat": 24.824526,
            "lng": 99.616336
        },
        "ad_info": {
            "adcode": 530524,
            "province": "云南省",
            "city": "保山市",
            "district": "昌宁县"
        }
    },
    {
        "id": "475046159909157075",
        "title": "公共厕所",
        "address": "云南省保山市隆阳区S230与Y073交叉口正南方向186米左右",
        "tel": "",
        "category": "基础设施:公共设施:公共厕所",
        "type": 0,
        "location": {
            "lat": 24.897172,
            "lng": 98.885275
        },
        "ad_info": {
            "adcode": 530502,
            "province": "云南省",
            "city": "保山市",
            "district": "隆阳区"
        }
    },
    {
        "id": "4853974138061268249",
        "title": "公共厕所",
        "address": "云南省保山市隆阳区G320与G357交叉口西北方向602米左右",
        "tel": "",
        "category": "基础设施:公共设施:公共厕所",
        "type": 0,
        "location": {
            "lat": 25.388293,
            "lng": 99.289261
        },
        "ad_info": {
            "adcode": 530502,
            "province": "云南省",
            "city": "保山市",
            "district": "隆阳区"
        }
    },
    {
        "id": "4446720259354129196",
        "title": "公共厕所",
        "address": "云南省保山市隆阳区230省道东50米",
        "tel": "",
        "category": "基础设施:公共设施:公共厕所",
        "type": 0,
        "location": {
            "lat": 25.403207,
            "lng": 98.872756
        },
        "ad_info": {
            "adcode": 530502,
            "province": "云南省",
            "city": "保山市",
            "district": "隆阳区"
        }
    },
    {
        "id": "1859572024401354430",
        "title": "龙陵县南片区保障房公共厕所",
        "address": "云南省保山市龙陵县公租房南100米",
        "tel": "13887808988",
        "category": "基础设施:公共设施:公共厕所",
        "type": 0,
        "location": {
            "lat": 24.57434,
            "lng": 98.67053
        },
        "ad_info": {
            "adcode": 530523,
            "province": "云南省",
            "city": "保山市",
            "district": "龙陵县"
        }
    },
    {
        "id": "3153398239523357460",
        "title": "公共厕所",
        "address": "云南省保山市隆阳区板桥镇北庙水库管理所西北300米",
        "tel": "",
        "category": "基础设施:公共设施:公共厕所",
        "type": 0,
        "location": {
            "lat": 25.24339,
            "lng": 99.20964
        },
        "ad_info": {
            "adcode": 530502,
            "province": "云南省",
            "city": "保山市",
            "district": "隆阳区"
        }
    },
    {
        "id": "9476182164152056043",
        "title": "腾冲雷华酒店-洗手间",
        "address": "云南省保山市腾冲市东方路与翡翠路交叉口西北方向33米左右",
        "tel": "",
        "category": "基础设施:公共设施:公共厕所",
        "type": 0,
        "location": {
            "lat": 25.016408,
            "lng": 98.497712
        },
        "ad_info": {
            "adcode": 530581,
            "province": "云南省",
            "city": "保山市",
            "district": "腾冲市"
        }
    },
    {
        "id": "3481144507980711930",
        "title": "舒云广场公共厕所",
        "address": "云南省保山市昌宁县S228与滨河西路交叉口正北方向439米左右",
        "tel": "",
        "category": "基础设施:公共设施:公共厕所",
        "type": 0,
        "location": {
            "lat": 24.837501,
            "lng": 99.615135
        },
        "ad_info": {
            "adcode": 530524,
            "province": "云南省",
            "city": "保山市",
            "district": "昌宁县"
        }
    },
    {
        "id": "3817831337789793146",
        "title": "镜秋园公共厕所",
        "address": "云南省保山市昌宁县右甸东路与滨河路交汇处右甸河田园生态旅游区内",
        "tel": "",
        "category": "基础设施:公共设施:公共厕所",
        "type": 0,
        "location": {
            "lat": 24.823947,
            "lng": 99.619293
        },
        "ad_info": {
            "adcode": 530524,
            "province": "云南省",
            "city": "保山市",
            "district": "昌宁县"
        }
    },
    {
        "id": "9296611725242337425",
        "title": "游客中心公共厕所",
        "address": "云南省保山市昌宁县右甸东路与滨河路交汇处右甸河田园生态旅游区内",
        "tel": "",
        "category": "基础设施:公共设施:公共厕所",
        "type": 0,
        "location": {
            "lat": 24.820553,
            "lng": 99.620477
        },
        "ad_info": {
            "adcode": 530524,
            "province": "云南省",
            "city": "保山市",
            "district": "昌宁县"
        }
    },
    {
        "id": "8989092822572151042",
        "title": "公共厕所",
        "address": "云南省保山市腾冲市凤山路与文星路交叉口东北方向77米左右",
        "tel": "",
        "category": "基础设施:公共设施:公共厕所",
        "type": 0,
        "location": {
            "lat": 25.02962,
            "lng": 98.50026
        },
        "ad_info": {
            "adcode": 530581,
            "province": "云南省",
            "city": "保山市",
            "district": "腾冲市"
        }
    },
    {
        "id": "5016300401146984937",
        "title": "公共厕所",
        "address": "云南省保山市隆阳区G357与锦隆路交叉口正北方向309米左右",
        "tel": "",
        "category": "基础设施:公共设施:公共厕所",
        "type": 0,
        "location": {
            "lat": 25.44727,
            "lng": 99.261684
        },
        "ad_info": {
            "adcode": 530502,
            "province": "云南省",
            "city": "保山市",
            "district": "隆阳区"
        }
    },
    {
        "id": "11631099333179982022",
        "title": "公共厕所",
        "address": "云南省保山市施甸县G555与Y038交叉口正北方向363米左右",
        "tel": "",
        "category": "基础设施:公共设施:公共厕所",
        "type": 0,
        "location": {
            "lat": 24.876061,
            "lng": 99.103994
        },
        "ad_info": {
            "adcode": 530521,
            "province": "云南省",
            "city": "保山市",
            "district": "施甸县"
        }
    },
    {
        "id": "4310975999244307817",
        "title": "龙陵县意达农贸市场公共厕所",
        "address": "云南省保山市龙陵县兴农路与龙山路交叉口正南方向93米左右",
        "tel": "13887808988",
        "category": "基础设施:公共设施:公共厕所",
        "type": 0,
        "location": {
            "lat": 24.589646,
            "lng": 98.693109
        },
        "ad_info": {
            "adcode": 530523,
            "province": "云南省",
            "city": "保山市",
            "district": "龙陵县"
        }
    },
    {
        "id": "12194224764673526138",
        "title": "公共厕所",
        "address": "云南省保山市龙陵县G219与S237交叉口正东方向296米左右",
        "tel": "",
        "category": "基础设施:公共设施:公共厕所",
        "type": 0,
        "location": {
            "lat": 24.317803,
            "lng": 99.044703
        },
        "ad_info": {
            "adcode": 530523,
            "province": "云南省",
            "city": "保山市",
            "district": "龙陵县"
        }
    },
    {
        "id": "8657253798184359242",
        "title": "汇源商场公共厕所",
        "address": "云南省保山市龙陵县兴农路与汇源路交叉口正北方向121米左右",
        "tel": "",
        "category": "基础设施:公共设施:公共厕所",
        "type": 0,
        "location": {
            "lat": 24.593018,
            "lng": 98.691601
        },
        "ad_info": {
            "adcode": 530523,
            "province": "云南省",
            "city": "保山市",
            "district": "龙陵县"
        }
    },
    {
        "id": "13923948721583246458",
        "title": "公共厕所",
        "address": "云南省保山市隆阳区潞江镇中国石化潞江加油站",
        "tel": "",
        "category": "基础设施:公共设施:公共厕所",
        "type": 0,
        "location": {
            "lat": 24.9552,
            "lng": 98.912317
        },
        "ad_info": {
            "adcode": 530502,
            "province": "云南省",
            "city": "保山市",
            "district": "隆阳区"
        }
    },
    {
        "id": "15166923460480152186",
        "title": "公共厕所",
        "address": "云南省保山市龙陵县X191与红松段交叉口东南方向357米左右",
        "tel": "",
        "category": "基础设施:公共设施:公共厕所",
        "type": 0,
        "location": {
            "lat": 24.727767,
            "lng": 98.928269
        },
        "ad_info": {
            "adcode": 530523,
            "province": "云南省",
            "city": "保山市",
            "district": "龙陵县"
        }
    },
    {
        "id": "815157421137528455",
        "title": "公共厕所",
        "address": "云南省保山市隆阳区九龙路与升阳路交叉口正西方向68米左右",
        "tel": "",
        "category": "基础设施:公共设施:公共厕所",
        "type": 0,
        "location": {
            "lat": 25.125582,
            "lng": 99.175729
        },
        "ad_info": {
            "adcode": 530502,
            "province": "云南省",
            "city": "保山市",
            "district": "隆阳区"
        }
    },
    {
        "id": "2145060256241303001",
        "title": "公共厕所",
        "address": "云南省保山市腾冲市Y114与东山路交叉口正北方向791米左右",
        "tel": "",
        "category": "基础设施:公共设施:公共厕所",
        "type": 0,
        "location": {
            "lat": 25.031506,
            "lng": 98.518595
        },
        "ad_info": {
            "adcode": 530581,
            "province": "云南省",
            "city": "保山市",
            "district": "腾冲市"
        }
    },
    {
        "id": "1126218169013610611",
        "title": "百花园公共厕所",
        "address": "云南省保山市昌宁县右甸东路与滨河东路交叉口正南方向178米左右",
        "tel": "",
        "category": "基础设施:公共设施:公共厕所",
        "type": 0,
        "location": {
            "lat": 24.824526,
            "lng": 99.616336
        },
        "ad_info": {
            "adcode": 530524,
            "province": "云南省",
            "city": "保山市",
            "district": "昌宁县"
        }
    },
    {
        "id": "475046159909157075",
        "title": "公共厕所",
        "address": "云南省保山市隆阳区S230与Y073交叉口正南方向186米左右",
        "tel": "",
        "category": "基础设施:公共设施:公共厕所",
        "type": 0,
        "location": {
            "lat": 24.897172,
            "lng": 98.885275
        },
        "ad_info": {
            "adcode": 530502,
            "province": "云南省",
            "city": "保山市",
            "district": "隆阳区"
        }
    },
    {
        "id": "4853974138061268249",
        "title": "公共厕所",
        "address": "云南省保山市隆阳区G320与G357交叉口西北方向602米左右",
        "tel": "",
        "category": "基础设施:公共设施:公共厕所",
        "type": 0,
        "location": {
            "lat": 25.388293,
            "lng": 99.289261
        },
        "ad_info": {
            "adcode": 530502,
            "province": "云南省",
            "city": "保山市",
            "district": "隆阳区"
        }
    },
    {
        "id": "4446720259354129196",
        "title": "公共厕所",
        "address": "云南省保山市隆阳区230省道东50米",
        "tel": "",
        "category": "基础设施:公共设施:公共厕所",
        "type": 0,
        "location": {
            "lat": 25.403207,
            "lng": 98.872756
        },
        "ad_info": {
            "adcode": 530502,
            "province": "云南省",
            "city": "保山市",
            "district": "隆阳区"
        }
    },
    {
        "id": "1859572024401354430",
        "title": "龙陵县南片区保障房公共厕所",
        "address": "云南省保山市龙陵县公租房南100米",
        "tel": "13887808988",
        "category": "基础设施:公共设施:公共厕所",
        "type": 0,
        "location": {
            "lat": 24.57434,
            "lng": 98.67053
        },
        "ad_info": {
            "adcode": 530523,
            "province": "云南省",
            "city": "保山市",
            "district": "龙陵县"
        }
    },
    {
        "id": "3153398239523357460",
        "title": "公共厕所",
        "address": "云南省保山市隆阳区板桥镇北庙水库管理所西北300米",
        "tel": "",
        "category": "基础设施:公共设施:公共厕所",
        "type": 0,
        "location": {
            "lat": 25.24339,
            "lng": 99.20964
        },
        "ad_info": {
            "adcode": 530502,
            "province": "云南省",
            "city": "保山市",
            "district": "隆阳区"
        }
    },
    {
        "id": "9476182164152056043",
        "title": "腾冲雷华酒店-洗手间",
        "address": "云南省保山市腾冲市东方路与翡翠路交叉口西北方向33米左右",
        "tel": "",
        "category": "基础设施:公共设施:公共厕所",
        "type": 0,
        "location": {
            "lat": 25.016408,
            "lng": 98.497712
        },
        "ad_info": {
            "adcode": 530581,
            "province": "云南省",
            "city": "保山市",
            "district": "腾冲市"
        }
    },
    {
        "id": "3481144507980711930",
        "title": "舒云广场公共厕所",
        "address": "云南省保山市昌宁县S228与滨河西路交叉口正北方向439米左右",
        "tel": "",
        "category": "基础设施:公共设施:公共厕所",
        "type": 0,
        "location": {
            "lat": 24.837501,
            "lng": 99.615135
        },
        "ad_info": {
            "adcode": 530524,
            "province": "云南省",
            "city": "保山市",
            "district": "昌宁县"
        }
    },
    {
        "id": "3817831337789793146",
        "title": "镜秋园公共厕所",
        "address": "云南省保山市昌宁县右甸东路与滨河路交汇处右甸河田园生态旅游区内",
        "tel": "",
        "category": "基础设施:公共设施:公共厕所",
        "type": 0,
        "location": {
            "lat": 24.823947,
            "lng": 99.619293
        },
        "ad_info": {
            "adcode": 530524,
            "province": "云南省",
            "city": "保山市",
            "district": "昌宁县"
        }
    },
    {
        "id": "9296611725242337425",
        "title": "游客中心公共厕所",
        "address": "云南省保山市昌宁县右甸东路与滨河路交汇处右甸河田园生态旅游区内",
        "tel": "",
        "category": "基础设施:公共设施:公共厕所",
        "type": 0,
        "location": {
            "lat": 24.820553,
            "lng": 99.620477
        },
        "ad_info": {
            "adcode": 530524,
            "province": "云南省",
            "city": "保山市",
            "district": "昌宁县"
        }
    },
    {
        "id": "8989092822572151042",
        "title": "公共厕所",
        "address": "云南省保山市腾冲市凤山路与文星路交叉口东北方向77米左右",
        "tel": "",
        "category": "基础设施:公共设施:公共厕所",
        "type": 0,
        "location": {
            "lat": 25.02962,
            "lng": 98.50026
        },
        "ad_info": {
            "adcode": 530581,
            "province": "云南省",
            "city": "保山市",
            "district": "腾冲市"
        }
    },
    {
        "id": "5016300401146984937",
        "title": "公共厕所",
        "address": "云南省保山市隆阳区G357与锦隆路交叉口正北方向309米左右",
        "tel": "",
        "category": "基础设施:公共设施:公共厕所",
        "type": 0,
        "location": {
            "lat": 25.44727,
            "lng": 99.261684
        },
        "ad_info": {
            "adcode": 530502,
            "province": "云南省",
            "city": "保山市",
            "district": "隆阳区"
        }
    },
    {
        "id": "11631099333179982022",
        "title": "公共厕所",
        "address": "云南省保山市施甸县G555与Y038交叉口正北方向363米左右",
        "tel": "",
        "category": "基础设施:公共设施:公共厕所",
        "type": 0,
        "location": {
            "lat": 24.876061,
            "lng": 99.103994
        },
        "ad_info": {
            "adcode": 530521,
            "province": "云南省",
            "city": "保山市",
            "district": "施甸县"
        }
    },
    {
        "id": "4310975999244307817",
        "title": "龙陵县意达农贸市场公共厕所",
        "address": "云南省保山市龙陵县兴农路与龙山路交叉口正南方向93米左右",
        "tel": "13887808988",
        "category": "基础设施:公共设施:公共厕所",
        "type": 0,
        "location": {
            "lat": 24.589646,
            "lng": 98.693109
        },
        "ad_info": {
            "adcode": 530523,
            "province": "云南省",
            "city": "保山市",
            "district": "龙陵县"
        }
    },
    {
        "id": "12194224764673526138",
        "title": "公共厕所",
        "address": "云南省保山市龙陵县G219与S237交叉口正东方向296米左右",
        "tel": "",
        "category": "基础设施:公共设施:公共厕所",
        "type": 0,
        "location": {
            "lat": 24.317803,
            "lng": 99.044703
        },
        "ad_info": {
            "adcode": 530523,
            "province": "云南省",
            "city": "保山市",
            "district": "龙陵县"
        }
    },
    {
        "id": "8657253798184359242",
        "title": "汇源商场公共厕所",
        "address": "云南省保山市龙陵县兴农路与汇源路交叉口正北方向121米左右",
        "tel": "",
        "category": "基础设施:公共设施:公共厕所",
        "type": 0,
        "location": {
            "lat": 24.593018,
            "lng": 98.691601
        },
        "ad_info": {
            "adcode": 530523,
            "province": "云南省",
            "city": "保山市",
            "district": "龙陵县"
        }
    },
    {
        "id": "13923948721583246458",
        "title": "公共厕所",
        "address": "云南省保山市隆阳区潞江镇中国石化潞江加油站",
        "tel": "",
        "category": "基础设施:公共设施:公共厕所",
        "type": 0,
        "location": {
            "lat": 24.9552,
            "lng": 98.912317
        },
        "ad_info": {
            "adcode": 530502,
            "province": "云南省",
            "city": "保山市",
            "district": "隆阳区"
        }
    },
    {
        "id": "15166923460480152186",
        "title": "公共厕所",
        "address": "云南省保山市龙陵县X191与红松段交叉口东南方向357米左右",
        "tel": "",
        "category": "基础设施:公共设施:公共厕所",
        "type": 0,
        "location": {
            "lat": 24.727767,
            "lng": 98.928269
        },
        "ad_info": {
            "adcode": 530523,
            "province": "云南省",
            "city": "保山市",
            "district": "龙陵县"
        }
    },
    {
        "id": "815157421137528455",
        "title": "公共厕所",
        "address": "云南省保山市隆阳区九龙路与升阳路交叉口正西方向68米左右",
        "tel": "",
        "category": "基础设施:公共设施:公共厕所",
        "type": 0,
        "location": {
            "lat": 25.125582,
            "lng": 99.175729
        },
        "ad_info": {
            "adcode": 530502,
            "province": "云南省",
            "city": "保山市",
            "district": "隆阳区"
        }
    },
    {
        "id": "2145060256241303001",
        "title": "公共厕所",
        "address": "云南省保山市腾冲市Y114与东山路交叉口正北方向791米左右",
        "tel": "",
        "category": "基础设施:公共设施:公共厕所",
        "type": 0,
        "location": {
            "lat": 25.031506,
            "lng": 98.518595
        },
        "ad_info": {
            "adcode": 530581,
            "province": "云南省",
            "city": "保山市",
            "district": "腾冲市"
        }
    },
    {
        "id": "1126218169013610611",
        "title": "百花园公共厕所",
        "address": "云南省保山市昌宁县右甸东路与滨河东路交叉口正南方向178米左右",
        "tel": "",
        "category": "基础设施:公共设施:公共厕所",
        "type": 0,
        "location": {
            "lat": 24.824526,
            "lng": 99.616336
        },
        "ad_info": {
            "adcode": 530524,
            "province": "云南省",
            "city": "保山市",
            "district": "昌宁县"
        }
    },
    {
        "id": "475046159909157075",
        "title": "公共厕所",
        "address": "云南省保山市隆阳区S230与Y073交叉口正南方向186米左右",
        "tel": "",
        "category": "基础设施:公共设施:公共厕所",
        "type": 0,
        "location": {
            "lat": 24.897172,
            "lng": 98.885275
        },
        "ad_info": {
            "adcode": 530502,
            "province": "云南省",
            "city": "保山市",
            "district": "隆阳区"
        }
    },
    {
        "id": "4853974138061268249",
        "title": "公共厕所",
        "address": "云南省保山市隆阳区G320与G357交叉口西北方向602米左右",
        "tel": "",
        "category": "基础设施:公共设施:公共厕所",
        "type": 0,
        "location": {
            "lat": 25.388293,
            "lng": 99.289261
        },
        "ad_info": {
            "adcode": 530502,
            "province": "云南省",
            "city": "保山市",
            "district": "隆阳区"
        }
    },
    {
        "id": "4446720259354129196",
        "title": "公共厕所",
        "address": "云南省保山市隆阳区230省道东50米",
        "tel": "",
        "category": "基础设施:公共设施:公共厕所",
        "type": 0,
        "location": {
            "lat": 25.403207,
            "lng": 98.872756
        },
        "ad_info": {
            "adcode": 530502,
            "province": "云南省",
            "city": "保山市",
            "district": "隆阳区"
        }
    },
    {
        "id": "1859572024401354430",
        "title": "龙陵县南片区保障房公共厕所",
        "address": "云南省保山市龙陵县公租房南100米",
        "tel": "13887808988",
        "category": "基础设施:公共设施:公共厕所",
        "type": 0,
        "location": {
            "lat": 24.57434,
            "lng": 98.67053
        },
        "ad_info": {
            "adcode": 530523,
            "province": "云南省",
            "city": "保山市",
            "district": "龙陵县"
        }
    },
    {
        "id": "3153398239523357460",
        "title": "公共厕所",
        "address": "云南省保山市隆阳区板桥镇北庙水库管理所西北300米",
        "tel": "",
        "category": "基础设施:公共设施:公共厕所",
        "type": 0,
        "location": {
            "lat": 25.24339,
            "lng": 99.20964
        },
        "ad_info": {
            "adcode": 530502,
            "province": "云南省",
            "city": "保山市",
            "district": "隆阳区"
        }
    },
    {
        "id": "9476182164152056043",
        "title": "腾冲雷华酒店-洗手间",
        "address": "云南省保山市腾冲市东方路与翡翠路交叉口西北方向33米左右",
        "tel": "",
        "category": "基础设施:公共设施:公共厕所",
        "type": 0,
        "location": {
            "lat": 25.016408,
            "lng": 98.497712
        },
        "ad_info": {
            "adcode": 530581,
            "province": "云南省",
            "city": "保山市",
            "district": "腾冲市"
        }
    },
    {
        "id": "3481144507980711930",
        "title": "舒云广场公共厕所",
        "address": "云南省保山市昌宁县S228与滨河西路交叉口正北方向439米左右",
        "tel": "",
        "category": "基础设施:公共设施:公共厕所",
        "type": 0,
        "location": {
            "lat": 24.837501,
            "lng": 99.615135
        },
        "ad_info": {
            "adcode": 530524,
            "province": "云南省",
            "city": "保山市",
            "district": "昌宁县"
        }
    },
    {
        "id": "3817831337789793146",
        "title": "镜秋园公共厕所",
        "address": "云南省保山市昌宁县右甸东路与滨河路交汇处右甸河田园生态旅游区内",
        "tel": "",
        "category": "基础设施:公共设施:公共厕所",
        "type": 0,
        "location": {
            "lat": 24.823947,
            "lng": 99.619293
        },
        "ad_info": {
            "adcode": 530524,
            "province": "云南省",
            "city": "保山市",
            "district": "昌宁县"
        }
    },
    {
        "id": "9296611725242337425",
        "title": "游客中心公共厕所",
        "address": "云南省保山市昌宁县右甸东路与滨河路交汇处右甸河田园生态旅游区内",
        "tel": "",
        "category": "基础设施:公共设施:公共厕所",
        "type": 0,
        "location": {
            "lat": 24.820553,
            "lng": 99.620477
        },
        "ad_info": {
            "adcode": 530524,
            "province": "云南省",
            "city": "保山市",
            "district": "昌宁县"
        }
    },
    {
        "id": "8989092822572151042",
        "title": "公共厕所",
        "address": "云南省保山市腾冲市凤山路与文星路交叉口东北方向77米左右",
        "tel": "",
        "category": "基础设施:公共设施:公共厕所",
        "type": 0,
        "location": {
            "lat": 25.02962,
            "lng": 98.50026
        },
        "ad_info": {
            "adcode": 530581,
            "province": "云南省",
            "city": "保山市",
            "district": "腾冲市"
        }
    },
    {
        "id": "5016300401146984937",
        "title": "公共厕所",
        "address": "云南省保山市隆阳区G357与锦隆路交叉口正北方向309米左右",
        "tel": "",
        "category": "基础设施:公共设施:公共厕所",
        "type": 0,
        "location": {
            "lat": 25.44727,
            "lng": 99.261684
        },
        "ad_info": {
            "adcode": 530502,
            "province": "云南省",
            "city": "保山市",
            "district": "隆阳区"
        }
    },
    {
        "id": "11631099333179982022",
        "title": "公共厕所",
        "address": "云南省保山市施甸县G555与Y038交叉口正北方向363米左右",
        "tel": "",
        "category": "基础设施:公共设施:公共厕所",
        "type": 0,
        "location": {
            "lat": 24.876061,
            "lng": 99.103994
        },
        "ad_info": {
            "adcode": 530521,
            "province": "云南省",
            "city": "保山市",
            "district": "施甸县"
        }
    },
    {
        "id": "4310975999244307817",
        "title": "龙陵县意达农贸市场公共厕所",
        "address": "云南省保山市龙陵县兴农路与龙山路交叉口正南方向93米左右",
        "tel": "13887808988",
        "category": "基础设施:公共设施:公共厕所",
        "type": 0,
        "location": {
            "lat": 24.589646,
            "lng": 98.693109
        },
        "ad_info": {
            "adcode": 530523,
            "province": "云南省",
            "city": "保山市",
            "district": "龙陵县"
        }
    },
    {
        "id": "12194224764673526138",
        "title": "公共厕所",
        "address": "云南省保山市龙陵县G219与S237交叉口正东方向296米左右",
        "tel": "",
        "category": "基础设施:公共设施:公共厕所",
        "type": 0,
        "location": {
            "lat": 24.317803,
            "lng": 99.044703
        },
        "ad_info": {
            "adcode": 530523,
            "province": "云南省",
            "city": "保山市",
            "district": "龙陵县"
        }
    },
    {
        "id": "8657253798184359242",
        "title": "汇源商场公共厕所",
        "address": "云南省保山市龙陵县兴农路与汇源路交叉口正北方向121米左右",
        "tel": "",
        "category": "基础设施:公共设施:公共厕所",
        "type": 0,
        "location": {
            "lat": 24.593018,
            "lng": 98.691601
        },
        "ad_info": {
            "adcode": 530523,
            "province": "云南省",
            "city": "保山市",
            "district": "龙陵县"
        }
    },
    {
        "id": "13923948721583246458",
        "title": "公共厕所",
        "address": "云南省保山市隆阳区潞江镇中国石化潞江加油站",
        "tel": "",
        "category": "基础设施:公共设施:公共厕所",
        "type": 0,
        "location": {
            "lat": 24.9552,
            "lng": 98.912317
        },
        "ad_info": {
            "adcode": 530502,
            "province": "云南省",
            "city": "保山市",
            "district": "隆阳区"
        }
    },
    {
        "id": "15166923460480152186",
        "title": "公共厕所",
        "address": "云南省保山市龙陵县X191与红松段交叉口东南方向357米左右",
        "tel": "",
        "category": "基础设施:公共设施:公共厕所",
        "type": 0,
        "location": {
            "lat": 24.727767,
            "lng": 98.928269
        },
        "ad_info": {
            "adcode": 530523,
            "province": "云南省",
            "city": "保山市",
            "district": "龙陵县"
        }
    },
    {
        "id": "815157421137528455",
        "title": "公共厕所",
        "address": "云南省保山市隆阳区九龙路与升阳路交叉口正西方向68米左右",
        "tel": "",
        "category": "基础设施:公共设施:公共厕所",
        "type": 0,
        "location": {
            "lat": 25.125582,
            "lng": 99.175729
        },
        "ad_info": {
            "adcode": 530502,
            "province": "云南省",
            "city": "保山市",
            "district": "隆阳区"
        }
    },
    {
        "id": "2145060256241303001",
        "title": "公共厕所",
        "address": "云南省保山市腾冲市Y114与东山路交叉口正北方向791米左右",
        "tel": "",
        "category": "基础设施:公共设施:公共厕所",
        "type": 0,
        "location": {
            "lat": 25.031506,
            "lng": 98.518595
        },
        "ad_info": {
            "adcode": 530581,
            "province": "云南省",
            "city": "保山市",
            "district": "腾冲市"
        }
    },
    {
        "id": "1126218169013610611",
        "title": "百花园公共厕所",
        "address": "云南省保山市昌宁县右甸东路与滨河东路交叉口正南方向178米左右",
        "tel": "",
        "category": "基础设施:公共设施:公共厕所",
        "type": 0,
        "location": {
            "lat": 24.824526,
            "lng": 99.616336
        },
        "ad_info": {
            "adcode": 530524,
            "province": "云南省",
            "city": "保山市",
            "district": "昌宁县"
        }
    },
    {
        "id": "475046159909157075",
        "title": "公共厕所",
        "address": "云南省保山市隆阳区S230与Y073交叉口正南方向186米左右",
        "tel": "",
        "category": "基础设施:公共设施:公共厕所",
        "type": 0,
        "location": {
            "lat": 24.897172,
            "lng": 98.885275
        },
        "ad_info": {
            "adcode": 530502,
            "province": "云南省",
            "city": "保山市",
            "district": "隆阳区"
        }
    },
    {
        "id": "4853974138061268249",
        "title": "公共厕所",
        "address": "云南省保山市隆阳区G320与G357交叉口西北方向602米左右",
        "tel": "",
        "category": "基础设施:公共设施:公共厕所",
        "type": 0,
        "location": {
            "lat": 25.388293,
            "lng": 99.289261
        },
        "ad_info": {
            "adcode": 530502,
            "province": "云南省",
            "city": "保山市",
            "district": "隆阳区"
        }
    },
    {
        "id": "4446720259354129196",
        "title": "公共厕所",
        "address": "云南省保山市隆阳区230省道东50米",
        "tel": "",
        "category": "基础设施:公共设施:公共厕所",
        "type": 0,
        "location": {
            "lat": 25.403207,
            "lng": 98.872756
        },
        "ad_info": {
            "adcode": 530502,
            "province": "云南省",
            "city": "保山市",
            "district": "隆阳区"
        }
    },
    {
        "id": "1859572024401354430",
        "title": "龙陵县南片区保障房公共厕所",
        "address": "云南省保山市龙陵县公租房南100米",
        "tel": "13887808988",
        "category": "基础设施:公共设施:公共厕所",
        "type": 0,
        "location": {
            "lat": 24.57434,
            "lng": 98.67053
        },
        "ad_info": {
            "adcode": 530523,
            "province": "云南省",
            "city": "保山市",
            "district": "龙陵县"
        }
    },
    {
        "id": "3153398239523357460",
        "title": "公共厕所",
        "address": "云南省保山市隆阳区板桥镇北庙水库管理所西北300米",
        "tel": "",
        "category": "基础设施:公共设施:公共厕所",
        "type": 0,
        "location": {
            "lat": 25.24339,
            "lng": 99.20964
        },
        "ad_info": {
            "adcode": 530502,
            "province": "云南省",
            "city": "保山市",
            "district": "隆阳区"
        }
    },
    {
        "id": "9476182164152056043",
        "title": "腾冲雷华酒店-洗手间",
        "address": "云南省保山市腾冲市东方路与翡翠路交叉口西北方向33米左右",
        "tel": "",
        "category": "基础设施:公共设施:公共厕所",
        "type": 0,
        "location": {
            "lat": 25.016408,
            "lng": 98.497712
        },
        "ad_info": {
            "adcode": 530581,
            "province": "云南省",
            "city": "保山市",
            "district": "腾冲市"
        }
    },
    {
        "id": "3481144507980711930",
        "title": "舒云广场公共厕所",
        "address": "云南省保山市昌宁县S228与滨河西路交叉口正北方向439米左右",
        "tel": "",
        "category": "基础设施:公共设施:公共厕所",
        "type": 0,
        "location": {
            "lat": 24.837501,
            "lng": 99.615135
        },
        "ad_info": {
            "adcode": 530524,
            "province": "云南省",
            "city": "保山市",
            "district": "昌宁县"
        }
    },
    {
        "id": "3817831337789793146",
        "title": "镜秋园公共厕所",
        "address": "云南省保山市昌宁县右甸东路与滨河路交汇处右甸河田园生态旅游区内",
        "tel": "",
        "category": "基础设施:公共设施:公共厕所",
        "type": 0,
        "location": {
            "lat": 24.823947,
            "lng": 99.619293
        },
        "ad_info": {
            "adcode": 530524,
            "province": "云南省",
            "city": "保山市",
            "district": "昌宁县"
        }
    },
    {
        "id": "9296611725242337425",
        "title": "游客中心公共厕所",
        "address": "云南省保山市昌宁县右甸东路与滨河路交汇处右甸河田园生态旅游区内",
        "tel": "",
        "category": "基础设施:公共设施:公共厕所",
        "type": 0,
        "location": {
            "lat": 24.820553,
            "lng": 99.620477
        },
        "ad_info": {
            "adcode": 530524,
            "province": "云南省",
            "city": "保山市",
            "district": "昌宁县"
        }
    },
    {
        "id": "8989092822572151042",
        "title": "公共厕所",
        "address": "云南省保山市腾冲市凤山路与文星路交叉口东北方向77米左右",
        "tel": "",
        "category": "基础设施:公共设施:公共厕所",
        "type": 0,
        "location": {
            "lat": 25.02962,
            "lng": 98.50026
        },
        "ad_info": {
            "adcode": 530581,
            "province": "云南省",
            "city": "保山市",
            "district": "腾冲市"
        }
    },
    {
        "id": "5016300401146984937",
        "title": "公共厕所",
        "address": "云南省保山市隆阳区G357与锦隆路交叉口正北方向309米左右",
        "tel": "",
        "category": "基础设施:公共设施:公共厕所",
        "type": 0,
        "location": {
            "lat": 25.44727,
            "lng": 99.261684
        },
        "ad_info": {
            "adcode": 530502,
            "province": "云南省",
            "city": "保山市",
            "district": "隆阳区"
        }
    },
    {
        "id": "11631099333179982022",
        "title": "公共厕所",
        "address": "云南省保山市施甸县G555与Y038交叉口正北方向363米左右",
        "tel": "",
        "category": "基础设施:公共设施:公共厕所",
        "type": 0,
        "location": {
            "lat": 24.876061,
            "lng": 99.103994
        },
        "ad_info": {
            "adcode": 530521,
            "province": "云南省",
            "city": "保山市",
            "district": "施甸县"
        }
    },
    {
        "id": "4310975999244307817",
        "title": "龙陵县意达农贸市场公共厕所",
        "address": "云南省保山市龙陵县兴农路与龙山路交叉口正南方向93米左右",
        "tel": "13887808988",
        "category": "基础设施:公共设施:公共厕所",
        "type": 0,
        "location": {
            "lat": 24.589646,
            "lng": 98.693109
        },
        "ad_info": {
            "adcode": 530523,
            "province": "云南省",
            "city": "保山市",
            "district": "龙陵县"
        }
    },
    {
        "id": "12194224764673526138",
        "title": "公共厕所",
        "address": "云南省保山市龙陵县G219与S237交叉口正东方向296米左右",
        "tel": "",
        "category": "基础设施:公共设施:公共厕所",
        "type": 0,
        "location": {
            "lat": 24.317803,
            "lng": 99.044703
        },
        "ad_info": {
            "adcode": 530523,
            "province": "云南省",
            "city": "保山市",
            "district": "龙陵县"
        }
    },
    {
        "id": "8657253798184359242",
        "title": "汇源商场公共厕所",
        "address": "云南省保山市龙陵县兴农路与汇源路交叉口正北方向121米左右",
        "tel": "",
        "category": "基础设施:公共设施:公共厕所",
        "type": 0,
        "location": {
            "lat": 24.593018,
            "lng": 98.691601
        },
        "ad_info": {
            "adcode": 530523,
            "province": "云南省",
            "city": "保山市",
            "district": "龙陵县"
        }
    },
    {
        "id": "13923948721583246458",
        "title": "公共厕所",
        "address": "云南省保山市隆阳区潞江镇中国石化潞江加油站",
        "tel": "",
        "category": "基础设施:公共设施:公共厕所",
        "type": 0,
        "location": {
            "lat": 24.9552,
            "lng": 98.912317
        },
        "ad_info": {
            "adcode": 530502,
            "province": "云南省",
            "city": "保山市",
            "district": "隆阳区"
        }
    },
    {
        "id": "15166923460480152186",
        "title": "公共厕所",
        "address": "云南省保山市龙陵县X191与红松段交叉口东南方向357米左右",
        "tel": "",
        "category": "基础设施:公共设施:公共厕所",
        "type": 0,
        "location": {
            "lat": 24.727767,
            "lng": 98.928269
        },
        "ad_info": {
            "adcode": 530523,
            "province": "云南省",
            "city": "保山市",
            "district": "龙陵县"
        }
    },
    {
        "id": "815157421137528455",
        "title": "公共厕所",
        "address": "云南省保山市隆阳区九龙路与升阳路交叉口正西方向68米左右",
        "tel": "",
        "category": "基础设施:公共设施:公共厕所",
        "type": 0,
        "location": {
            "lat": 25.125582,
            "lng": 99.175729
        },
        "ad_info": {
            "adcode": 530502,
            "province": "云南省",
            "city": "保山市",
            "district": "隆阳区"
        }
    },
    {
        "id": "2145060256241303001",
        "title": "公共厕所",
        "address": "云南省保山市腾冲市Y114与东山路交叉口正北方向791米左右",
        "tel": "",
        "category": "基础设施:公共设施:公共厕所",
        "type": 0,
        "location": {
            "lat": 25.031506,
            "lng": 98.518595
        },
        "ad_info": {
            "adcode": 530581,
            "province": "云南省",
            "city": "保山市",
            "district": "腾冲市"
        }
    },
    {
        "id": "1126218169013610611",
        "title": "百花园公共厕所",
        "address": "云南省保山市昌宁县右甸东路与滨河东路交叉口正南方向178米左右",
        "tel": "",
        "category": "基础设施:公共设施:公共厕所",
        "type": 0,
        "location": {
            "lat": 24.824526,
            "lng": 99.616336
        },
        "ad_info": {
            "adcode": 530524,
            "province": "云南省",
            "city": "保山市",
            "district": "昌宁县"
        }
    },
    {
        "id": "475046159909157075",
        "title": "公共厕所",
        "address": "云南省保山市隆阳区S230与Y073交叉口正南方向186米左右",
        "tel": "",
        "category": "基础设施:公共设施:公共厕所",
        "type": 0,
        "location": {
            "lat": 24.897172,
            "lng": 98.885275
        },
        "ad_info": {
            "adcode": 530502,
            "province": "云南省",
            "city": "保山市",
            "district": "隆阳区"
        }
    },
    {
        "id": "4853974138061268249",
        "title": "公共厕所",
        "address": "云南省保山市隆阳区G320与G357交叉口西北方向602米左右",
        "tel": "",
        "category": "基础设施:公共设施:公共厕所",
        "type": 0,
        "location": {
            "lat": 25.388293,
            "lng": 99.289261
        },
        "ad_info": {
            "adcode": 530502,
            "province": "云南省",
            "city": "保山市",
            "district": "隆阳区"
        }
    },
    {
        "id": "4446720259354129196",
        "title": "公共厕所",
        "address": "云南省保山市隆阳区230省道东50米",
        "tel": "",
        "category": "基础设施:公共设施:公共厕所",
        "type": 0,
        "location": {
            "lat": 25.403207,
            "lng": 98.872756
        },
        "ad_info": {
            "adcode": 530502,
            "province": "云南省",
            "city": "保山市",
            "district": "隆阳区"
        }
    },
    {
        "id": "1859572024401354430",
        "title": "龙陵县南片区保障房公共厕所",
        "address": "云南省保山市龙陵县公租房南100米",
        "tel": "13887808988",
        "category": "基础设施:公共设施:公共厕所",
        "type": 0,
        "location": {
            "lat": 24.57434,
            "lng": 98.67053
        },
        "ad_info": {
            "adcode": 530523,
            "province": "云南省",
            "city": "保山市",
            "district": "龙陵县"
        }
    },
    {
        "id": "3153398239523357460",
        "title": "公共厕所",
        "address": "云南省保山市隆阳区板桥镇北庙水库管理所西北300米",
        "tel": "",
        "category": "基础设施:公共设施:公共厕所",
        "type": 0,
        "location": {
            "lat": 25.24339,
            "lng": 99.20964
        },
        "ad_info": {
            "adcode": 530502,
            "province": "云南省",
            "city": "保山市",
            "district": "隆阳区"
        }
    },
    {
        "id": "9476182164152056043",
        "title": "腾冲雷华酒店-洗手间",
        "address": "云南省保山市腾冲市东方路与翡翠路交叉口西北方向33米左右",
        "tel": "",
        "category": "基础设施:公共设施:公共厕所",
        "type": 0,
        "location": {
            "lat": 25.016408,
            "lng": 98.497712
        },
        "ad_info": {
            "adcode": 530581,
            "province": "云南省",
            "city": "保山市",
            "district": "腾冲市"
        }
    },
    {
        "id": "3481144507980711930",
        "title": "舒云广场公共厕所",
        "address": "云南省保山市昌宁县S228与滨河西路交叉口正北方向439米左右",
        "tel": "",
        "category": "基础设施:公共设施:公共厕所",
        "type": 0,
        "location": {
            "lat": 24.837501,
            "lng": 99.615135
        },
        "ad_info": {
            "adcode": 530524,
            "province": "云南省",
            "city": "保山市",
            "district": "昌宁县"
        }
    },
    {
        "id": "3817831337789793146",
        "title": "镜秋园公共厕所",
        "address": "云南省保山市昌宁县右甸东路与滨河路交汇处右甸河田园生态旅游区内",
        "tel": "",
        "category": "基础设施:公共设施:公共厕所",
        "type": 0,
        "location": {
            "lat": 24.823947,
            "lng": 99.619293
        },
        "ad_info": {
            "adcode": 530524,
            "province": "云南省",
            "city": "保山市",
            "district": "昌宁县"
        }
    },
    {
        "id": "9296611725242337425",
        "title": "游客中心公共厕所",
        "address": "云南省保山市昌宁县右甸东路与滨河路交汇处右甸河田园生态旅游区内",
        "tel": "",
        "category": "基础设施:公共设施:公共厕所",
        "type": 0,
        "location": {
            "lat": 24.820553,
            "lng": 99.620477
        },
        "ad_info": {
            "adcode": 530524,
            "province": "云南省",
            "city": "保山市",
            "district": "昌宁县"
        }
    }
]