[
    {
        "id": "10821920250712789451",
        "title": "公共厕所",
        "address": "海南省儋州市中兴大街辅路与龙腾东三街交叉口西120米",
        "tel": "13698957066",
        "category": "基础设施:公共设施:公共厕所",
        "type": 0,
        "location": {
            "lat": 19.519024,
            "lng": 109.568553
        },
        "ad_info": {
            "adcode": 460400,
            "province": "海南省",
            "city": "儋州市",
            "district": "儋州市"
        }
    },
    {
        "id": "14500632258730209141",
        "title": "公共厕所(童世界海洋乐园)",
        "address": "海南省儋州市环岛三西路与纬九南路交叉口西南方向760米左右",
        "tel": "",
        "category": "基础设施:公共设施:公共厕所",
        "type": 0,
        "location": {
            "lat": 19.662989,
            "lng": 109.186639
        },
        "ad_info": {
            "adcode": 460400,
            "province": "海南省",
            "city": "儋州市",
            "district": "儋州市"
        }
    },
    {
        "id": "14945795289082340641",
        "title": "公共厕所",
        "address": "海南省儋州市海花岛1号岛中央公园东南角",
        "tel": "",
        "category": "基础设施:公共设施:公共厕所",
        "type": 0,
        "location": {
            "lat": 19.661863,
            "lng": 109.179696
        },
        "ad_info": {
            "adcode": 460400,
            "province": "海南省",
            "city": "儋州市",
            "district": "儋州市"
        }
    },
    {
        "id": "7505755386621981936",
        "title": "公共厕所",
        "address": "海南省儋州市吉浦路与远洋路交叉口西北方向129米左右",
        "tel": "",
        "category": "基础设施:公共设施:公共厕所",
        "type": 0,
        "location": {
            "lat": 19.736341,
            "lng": 109.206227
        },
        "ad_info": {
            "adcode": 460400,
            "province": "海南省",
            "city": "儋州市",
            "district": "儋州市"
        }
    },
    {
        "id": "15060971314949911614",
        "title": "公共厕所(明清风情饮食街)",
        "address": "海南省儋州市排浦镇滨海大道100号中国海南海花岛",
        "tel": "",
        "category": "基础设施:公共设施:公共厕所",
        "type": 0,
        "location": {
            "lat": 19.65844,
            "lng": 109.178438
        },
        "ad_info": {
            "adcode": 460400,
            "province": "海南省",
            "city": "儋州市",
            "district": "儋州市"
        }
    },
    {
        "id": "4656559437747029355",
        "title": "公共厕所",
        "address": "海南省儋州市海花岛1号岛童世界海洋乐园旁",
        "tel": "",
        "category": "基础设施:公共设施:公共厕所",
        "type": 0,
        "location": {
            "lat": 19.663361,
            "lng": 109.1865
        },
        "ad_info": {
            "adcode": 460400,
            "province": "海南省",
            "city": "儋州市",
            "district": "儋州市"
        }
    },
    {
        "id": "3792896571813324343",
        "title": "公共厕所",
        "address": "海南省儋州市人民路与商业一横路交叉口正西方向19米左右",
        "tel": "",
        "category": "基础设施:公共设施:公共厕所",
        "type": 0,
        "location": {
            "lat": 19.710335,
            "lng": 109.219168
        },
        "ad_info": {
            "adcode": 460400,
            "province": "海南省",
            "city": "儋州市",
            "district": "儋州市"
        }
    },
    {
        "id": "4654023848160922736",
        "title": "公共厕所",
        "address": "海南省儋州市人民中路与文明街交叉口正南方向106米左右",
        "tel": "",
        "category": "基础设施:公共设施:公共厕所",
        "type": 0,
        "location": {
            "lat": 19.512913,
            "lng": 109.574189
        },
        "ad_info": {
            "adcode": 460400,
            "province": "海南省",
            "city": "儋州市",
            "district": "儋州市"
        }
    },
    {
        "id": "4296450464439544438",
        "title": "公共厕所(月塔)",
        "address": "海南省儋州市排浦镇滨海大道100号中国海南海花岛",
        "tel": "",
        "category": "基础设施:公共设施:公共厕所",
        "type": 0,
        "location": {
            "lat": 19.658916,
            "lng": 109.182184
        },
        "ad_info": {
            "adcode": 460400,
            "province": "海南省",
            "city": "儋州市",
            "district": "儋州市"
        }
    },
    {
        "id": "2735396069705114551",
        "title": "公共厕所",
        "address": "海南省儋州市东成北路与北部湾大道交叉口西北方向1054米左右",
        "tel": "",
        "category": "基础设施:公共设施:公共厕所",
        "type": 0,
        "location": {
            "lat": 19.714274,
            "lng": 109.450114
        },
        "ad_info": {
            "adcode": 460400,
            "province": "海南省",
            "city": "儋州市",
            "district": "儋州市"
        }
    },
    {
        "id": "12123546585541971896",
        "title": "公共厕所",
        "address": "海南省儋州市文化北路与文化北路六街交叉口正西方向135米左右",
        "tel": "",
        "category": "基础设施:公共设施:公共厕所",
        "type": 0,
        "location": {
            "lat": 19.5231,
            "lng": 109.58171
        },
        "ad_info": {
            "adcode": 460400,
            "province": "海南省",
            "city": "儋州市",
            "district": "儋州市"
        }
    },
    {
        "id": "12559790782100142861",
        "title": "公共厕所",
        "address": "海南省儋州市干冲医院东南侧250米",
        "tel": "",
        "category": "基础设施:公共设施:公共厕所",
        "type": 0,
        "location": {
            "lat": 19.733129,
            "lng": 109.19148
        },
        "ad_info": {
            "adcode": 460400,
            "province": "海南省",
            "city": "儋州市",
            "district": "儋州市"
        }
    },
    {
        "id": "13271457025824275123",
        "title": "公共厕所",
        "address": "海南省儋州市滨海大道与规划二路交叉口西北方向1194米左右",
        "tel": "",
        "category": "基础设施:公共设施:公共厕所",
        "type": 0,
        "location": {
            "lat": 19.657285,
            "lng": 109.174347
        },
        "ad_info": {
            "adcode": 460400,
            "province": "海南省",
            "city": "儋州市",
            "district": "儋州市"
        }
    },
    {
        "id": "12416210506608982545",
        "title": "公共厕所",
        "address": "海南省儋州市华盛路与文化北路交叉口正北方向188米左右",
        "tel": "",
        "category": "基础设施:公共设施:公共厕所",
        "type": 0,
        "location": {
            "lat": 19.535256,
            "lng": 109.583511
        },
        "ad_info": {
            "adcode": 460400,
            "province": "海南省",
            "city": "儋州市",
            "district": "儋州市"
        }
    },
    {
        "id": "16727040649409398673",
        "title": "公共厕所",
        "address": "海南省儋州市环岛三西路与纬九南路交叉口正西方向996米左右",
        "tel": "",
        "category": "基础设施:公共设施:公共厕所",
        "type": 0,
        "location": {
            "lat": 19.665823,
            "lng": 109.181999
        },
        "ad_info": {
            "adcode": 460400,
            "province": "海南省",
            "city": "儋州市",
            "district": "儋州市"
        }
    },
    {
        "id": "10632920922434929870",
        "title": "公共厕所",
        "address": "海南省儋州市中兴大街与北部湾十街交叉口东南方向75米左右",
        "tel": "",
        "category": "基础设施:公共设施:公共厕所",
        "type": 0,
        "location": {
            "lat": 19.518893,
            "lng": 109.561983
        },
        "ad_info": {
            "adcode": 460400,
            "province": "海南省",
            "city": "儋州市",
            "district": "儋州市"
        }
    },
    {
        "id": "4583716686424311441",
        "title": "公共厕所",
        "address": "海南省儋州市排浦镇滨海大道100号中国海南海花岛内",
        "tel": "",
        "category": "基础设施:公共设施:公共厕所",
        "type": 0,
        "location": {
            "lat": 19.66461,
            "lng": 109.176949
        },
        "ad_info": {
            "adcode": 460400,
            "province": "海南省",
            "city": "儋州市",
            "district": "儋州市"
        }
    },
    {
        "id": "6486642169562165609",
        "title": "公共厕所",
        "address": "海南省儋州市白马井镇卫生院-预防接种门诊西侧",
        "tel": "",
        "category": "基础设施:公共设施:公共厕所",
        "type": 0,
        "location": {
            "lat": 19.710213,
            "lng": 109.223567
        },
        "ad_info": {
            "adcode": 460400,
            "province": "海南省",
            "city": "儋州市",
            "district": "儋州市"
        }
    },
    {
        "id": "4144116697275689921",
        "title": "公共厕所",
        "address": "海南省儋州市海花岛1号岛轻奢购物中心旁",
        "tel": "",
        "category": "基础设施:公共设施:公共厕所",
        "type": 0,
        "location": {
            "lat": 19.658011,
            "lng": 109.177837
        },
        "ad_info": {
            "adcode": 460400,
            "province": "海南省",
            "city": "儋州市",
            "district": "儋州市"
        }
    },
    {
        "id": "16432202104535260542",
        "title": "公共厕所",
        "address": "海南省儋州市古盐田路与开源大道交叉口正西方向221米左右",
        "tel": "",
        "category": "基础设施:公共设施:公共厕所",
        "type": 0,
        "location": {
            "lat": 19.737909,
            "lng": 109.210621
        },
        "ad_info": {
            "adcode": 460400,
            "province": "海南省",
            "city": "儋州市",
            "district": "儋州市"
        }
    },
    {
        "id": "15626979176882755936",
        "title": "公共厕所",
        "address": "海南省儋州市滨海大道与规划二路交叉口正北方向1309米左右",
        "tel": "",
        "category": "基础设施:公共设施:公共厕所",
        "type": 0,
        "location": {
            "lat": 19.658728,
            "lng": 109.175391
        },
        "ad_info": {
            "adcode": 460400,
            "province": "海南省",
            "city": "儋州市",
            "district": "儋州市"
        }
    },
    {
        "id": "16278871131411046450",
        "title": "公共厕所",
        "address": "海南省儋州市文化北路一街与文化北路交叉口西南方向32米左右",
        "tel": "",
        "category": "基础设施:公共设施:公共厕所",
        "type": 0,
        "location": {
            "lat": 19.520482,
            "lng": 109.582861
        },
        "ad_info": {
            "adcode": 460400,
            "province": "海南省",
            "city": "儋州市",
            "district": "儋州市"
        }
    },
    {
        "id": "11190981298378172340",
        "title": "公共厕所",
        "address": "海南省儋州市古盐田路与吉浦路交叉口东北方向233米左右",
        "tel": "",
        "category": "基础设施:公共设施:公共厕所",
        "type": 0,
        "location": {
            "lat": 19.740271,
            "lng": 109.209494
        },
        "ad_info": {
            "adcode": 460400,
            "province": "海南省",
            "city": "儋州市",
            "district": "儋州市"
        }
    },
    {
        "id": "12079531387444233139",
        "title": "公共厕所",
        "address": "海南省儋州市环岛高速与白马井互通交叉口东北方向1298米",
        "tel": "",
        "category": "基础设施:公共设施:公共厕所",
        "type": 0,
        "location": {
            "lat": 19.659138,
            "lng": 109.254975
        },
        "ad_info": {
            "adcode": 460400,
            "province": "海南省",
            "city": "儋州市",
            "district": "儋州市"
        }
    },
    {
        "id": "4314596703293822366",
        "title": "公共厕所",
        "address": "海南省儋州市东方北街与东方南街交叉口东南方向640米左右",
        "tel": "",
        "category": "基础设施:公共设施:公共厕所",
        "type": 0,
        "location": {
            "lat": 19.502871,
            "lng": 109.563626
        },
        "ad_info": {
            "adcode": 460400,
            "province": "海南省",
            "city": "儋州市",
            "district": "儋州市"
        }
    },
    {
        "id": "10606308325325126711",
        "title": "公共厕所",
        "address": "海南省儋州市下街与腾洋路交叉口正北方向487米左右",
        "tel": "",
        "category": "基础设施:公共设施:公共厕所",
        "type": 0,
        "location": {
            "lat": 19.778135,
            "lng": 109.215631
        },
        "ad_info": {
            "adcode": 460400,
            "province": "海南省",
            "city": "儋州市",
            "district": "儋州市"
        }
    },
    {
        "id": "8726434015930434407",
        "title": "公共厕所",
        "address": "海南省儋州市镇一街与镇中街交叉口正南方向184米左右",
        "tel": "",
        "category": "基础设施:公共设施:公共厕所",
        "type": 0,
        "location": {
            "lat": 19.503685,
            "lng": 108.950671
        },
        "ad_info": {
            "adcode": 460400,
            "province": "海南省",
            "city": "儋州市",
            "district": "儋州市"
        }
    },
    {
        "id": "13126575535611129532",
        "title": "公共厕所",
        "address": "海南省儋州市海花岛1号岛意大利风情商业街",
        "tel": "",
        "category": "基础设施:公共设施:公共厕所",
        "type": 0,
        "location": {
            "lat": 19.654278,
            "lng": 109.176891
        },
        "ad_info": {
            "adcode": 460400,
            "province": "海南省",
            "city": "儋州市",
            "district": "儋州市"
        }
    },
    {
        "id": "6105626075066971372",
        "title": "公共厕所",
        "address": "海南省儋州市排浦镇滨海大道100号中国海南海花岛",
        "tel": "",
        "category": "基础设施:公共设施:公共厕所",
        "type": 0,
        "location": {
            "lat": 19.658912,
            "lng": 109.176446
        },
        "ad_info": {
            "adcode": 460400,
            "province": "海南省",
            "city": "儋州市",
            "district": "儋州市"
        }
    },
    {
        "id": "9404165242604449960",
        "title": "公共厕所(希尔顿酒店星塔)",
        "address": "海南省儋州市海花路与滨海大道辅路交叉口西北方向785米左右",
        "tel": "",
        "category": "基础设施:公共设施:公共厕所",
        "type": 0,
        "location": {
            "lat": 19.657669,
            "lng": 109.180891
        },
        "ad_info": {
            "adcode": 460400,
            "province": "海南省",
            "city": "儋州市",
            "district": "儋州市"
        }
    },
    {
        "id": "6963539131701891358",
        "title": "公共厕所",
        "address": "海南省儋州市文豪街与滨浦路交叉口正西方向330米左右",
        "tel": "",
        "category": "基础设施:公共设施:公共厕所",
        "type": 0,
        "location": {
            "lat": 19.637132,
            "lng": 109.165572
        },
        "ad_info": {
            "adcode": 460400,
            "province": "海南省",
            "city": "儋州市",
            "district": "儋州市"
        }
    },
    {
        "id": "9592440254807691882",
        "title": "公共厕所",
        "address": "海南省儋州市排浦镇滨海大道100号中国海南海花岛",
        "tel": "",
        "category": "基础设施:公共设施:公共厕所",
        "type": 0,
        "location": {
            "lat": 19.654625,
            "lng": 109.177607
        },
        "ad_info": {
            "adcode": 460400,
            "province": "海南省",
            "city": "儋州市",
            "district": "儋州市"
        }
    },
    {
        "id": "14068362490340437846",
        "title": "公共厕所",
        "address": "海南省儋州市海花路与滨海大道辅路交叉口西北方向848米左右",
        "tel": "",
        "category": "基础设施:公共设施:公共厕所",
        "type": 0,
        "location": {
            "lat": 19.658075,
            "lng": 109.180475
        },
        "ad_info": {
            "adcode": 460400,
            "province": "海南省",
            "city": "儋州市",
            "district": "儋州市"
        }
    },
    {
        "id": "12578908109420877053",
        "title": "公共厕所",
        "address": "海南省儋州市凯源一街与文兴路交叉口正北方向63米左右",
        "tel": "",
        "category": "基础设施:公共设施:公共厕所",
        "type": 0,
        "location": {
            "lat": 19.517655,
            "lng": 109.586693
        },
        "ad_info": {
            "adcode": 460400,
            "province": "海南省",
            "city": "儋州市",
            "district": "儋州市"
        }
    },
    {
        "id": "3863761724098317471",
        "title": "公共厕所",
        "address": "海南省儋州市X500与X501交叉口东南方向845米左右",
        "tel": "",
        "category": "基础设施:公共设施:公共厕所",
        "type": 0,
        "location": {
            "lat": 19.698337,
            "lng": 109.466102
        },
        "ad_info": {
            "adcode": 460400,
            "province": "海南省",
            "city": "儋州市",
            "district": "儋州市"
        }
    },
    {
        "id": "13389988446870997323",
        "title": "公共厕所",
        "address": "海南省儋州市中北街与洋浦大道交叉口正南方向108米左右",
        "tel": "",
        "category": "基础设施:公共设施:公共厕所",
        "type": 0,
        "location": {
            "lat": 19.734004,
            "lng": 109.186631
        },
        "ad_info": {
            "adcode": 460400,
            "province": "海南省",
            "city": "儋州市",
            "district": "儋州市"
        }
    },
    {
        "id": "2636340287316118037",
        "title": "公共厕所",
        "address": "海南省儋州市中兴大街与洋万辅道交叉口西南方向385米左右",
        "tel": "",
        "category": "基础设施:公共设施:公共厕所",
        "type": 0,
        "location": {
            "lat": 19.508817,
            "lng": 109.523679
        },
        "ad_info": {
            "adcode": 460400,
            "province": "海南省",
            "city": "儋州市",
            "district": "儋州市"
        }
    },
    {
        "id": "5520730987686914970",
        "title": "公共厕所",
        "address": "海南省儋州市中国海南海花岛德国黑森林风情商业街2楼",
        "tel": "",
        "category": "基础设施:公共设施:公共厕所",
        "type": 0,
        "location": {
            "lat": 19.654998,
            "lng": 109.173292
        },
        "ad_info": {
            "adcode": 460400,
            "province": "海南省",
            "city": "儋州市",
            "district": "儋州市"
        }
    },
    {
        "id": "16182732584372847575",
        "title": "公共厕所",
        "address": "海南省儋州市X513与北部湾大道交叉口东南方向107米左右",
        "tel": "",
        "category": "基础设施:公共设施:公共厕所",
        "type": 0,
        "location": {
            "lat": 19.781521,
            "lng": 109.349402
        },
        "ad_info": {
            "adcode": 460400,
            "province": "海南省",
            "city": "儋州市",
            "district": "儋州市"
        }
    },
    {
        "id": "1462160877529235588",
        "title": "公共厕所",
        "address": "海南省儋州市海花路与滨海大道辅路交叉口西北方向960米左右",
        "tel": "",
        "category": "基础设施:公共设施:公共厕所",
        "type": 0,
        "location": {
            "lat": 19.656947,
            "lng": 109.178226
        },
        "ad_info": {
            "adcode": 460400,
            "province": "海南省",
            "city": "儋州市",
            "district": "儋州市"
        }
    },
    {
        "id": "5696806232552801811",
        "title": "公共厕所",
        "address": "海南省儋州市兰洋路与福祥三巷交叉口东南方向584米左右",
        "tel": "",
        "category": "基础设施:公共设施:公共厕所",
        "type": 0,
        "location": {
            "lat": 19.497745,
            "lng": 109.592413
        },
        "ad_info": {
            "adcode": 460400,
            "province": "海南省",
            "city": "儋州市",
            "district": "儋州市"
        }
    },
    {
        "id": "16021276725107540725",
        "title": "公共厕所",
        "address": "海南省儋州市海花岛德国黑森林上商业街一楼",
        "tel": "",
        "category": "基础设施:公共设施:公共厕所",
        "type": 0,
        "location": {
            "lat": 19.655767,
            "lng": 109.173103
        },
        "ad_info": {
            "adcode": 460400,
            "province": "海南省",
            "city": "儋州市",
            "district": "儋州市"
        }
    },
    {
        "id": "14002252111812716721",
        "title": "公共厕所",
        "address": "海南省儋州市X503与南丰东路交叉口东南方向901米左右",
        "tel": "",
        "category": "基础设施:公共设施:公共厕所",
        "type": 0,
        "location": {
            "lat": 19.403234,
            "lng": 109.562135
        },
        "ad_info": {
            "adcode": 460400,
            "province": "海南省",
            "city": "儋州市",
            "district": "儋州市"
        }
    },
    {
        "id": "16272732274457613727",
        "title": "公共厕所",
        "address": "海南省儋州市滨海大道与规划二路交叉口正北方向921米左右",
        "tel": "",
        "category": "基础设施:公共设施:公共厕所",
        "type": 0,
        "location": {
            "lat": 19.655191,
            "lng": 109.175849
        },
        "ad_info": {
            "adcode": 460400,
            "province": "海南省",
            "city": "儋州市",
            "district": "儋州市"
        }
    },
    {
        "id": "7624774906445016052",
        "title": "公共厕所",
        "address": "海南省儋州市银滩站售票处西侧60米",
        "tel": "",
        "category": "基础设施:公共设施:公共厕所",
        "type": 0,
        "location": {
            "lat": 19.790354,
            "lng": 109.488649
        },
        "ad_info": {
            "adcode": 460400,
            "province": "海南省",
            "city": "儋州市",
            "district": "儋州市"
        }
    },
    {
        "id": "196439246190062279",
        "title": "公共厕所",
        "address": "海南省儋州市S307与兰洋大道交叉口西北方向150米左右",
        "tel": "",
        "category": "基础设施:公共设施:公共厕所",
        "type": 0,
        "location": {
            "lat": 19.461453,
            "lng": 109.66027
        },
        "ad_info": {
            "adcode": 460400,
            "province": "海南省",
            "city": "儋州市",
            "district": "儋州市"
        }
    },
    {
        "id": "11997396037135241872",
        "title": "公共厕所",
        "address": "海南省儋州市排浦镇滨海大道100号中国海南海花岛",
        "tel": "",
        "category": "基础设施:公共设施:公共厕所",
        "type": 0,
        "location": {
            "lat": 19.671949,
            "lng": 109.170387
        },
        "ad_info": {
            "adcode": 460400,
            "province": "海南省",
            "city": "儋州市",
            "district": "儋州市"
        }
    },
    {
        "id": "9030950818300017454",
        "title": "公共厕所",
        "address": "海南省儋州市洋浦大道辅路与瀚洋路交叉口正东方向23米左右",
        "tel": "",
        "category": "基础设施:公共设施:公共厕所",
        "type": 0,
        "location": {
            "lat": 19.736665,
            "lng": 109.187766
        },
        "ad_info": {
            "adcode": 460400,
            "province": "海南省",
            "city": "儋州市",
            "district": "儋州市"
        }
    },
    {
        "id": "15295196229455776510",
        "title": "公共厕所",
        "address": "海南省儋州市滨海大道与规划二路交叉口西北方向1131米左右",
        "tel": "",
        "category": "基础设施:公共设施:公共厕所",
        "type": 0,
        "location": {
            "lat": 19.656522,
            "lng": 109.174026
        },
        "ad_info": {
            "adcode": 460400,
            "province": "海南省",
            "city": "儋州市",
            "district": "儋州市"
        }
    },
    {
        "id": "10428185636430303611",
        "title": "公共厕所",
        "address": "海南省儋州市北部湾大道与洋浦互通交叉口西北方向1032米左右",
        "tel": "",
        "category": "基础设施:公共设施:公共厕所",
        "type": 0,
        "location": {
            "lat": 19.731378,
            "lng": 109.429159
        },
        "ad_info": {
            "adcode": 460400,
            "province": "海南省",
            "city": "儋州市",
            "district": "儋州市"
        }
    },
    {
        "id": "2120327357497568132",
        "title": "公共厕所",
        "address": "海南省儋州市植物园路与海榆西线交叉口正西方向122米左右",
        "tel": "",
        "category": "基础设施:公共设施:公共厕所",
        "type": 0,
        "location": {
            "lat": 19.50026,
            "lng": 109.512511
        },
        "ad_info": {
            "adcode": 460400,
            "province": "海南省",
            "city": "儋州市",
            "district": "儋州市"
        }
    },
    {
        "id": "10410670756165820193",
        "title": "公共厕所",
        "address": "海南省儋州市滨海大道与规划二路交叉口正北方向850米左右",
        "tel": "",
        "category": "基础设施:公共设施:公共厕所",
        "type": 0,
        "location": {
            "lat": 19.654985,
            "lng": 109.177992
        },
        "ad_info": {
            "adcode": 460400,
            "province": "海南省",
            "city": "儋州市",
            "district": "儋州市"
        }
    },
    {
        "id": "18290657842740080265",
        "title": "公共厕所",
        "address": "海南省儋州市海花路与滨海大道辅路交叉口西北方向870米左右",
        "tel": "",
        "category": "基础设施:公共设施:公共厕所",
        "type": 0,
        "location": {
            "lat": 19.655648,
            "lng": 109.178505
        },
        "ad_info": {
            "adcode": 460400,
            "province": "海南省",
            "city": "儋州市",
            "district": "儋州市"
        }
    },
    {
        "id": "6807334470470525025",
        "title": "公共厕所(星塔旁)",
        "address": "海南省儋州市海花岛1号岛G区二楼",
        "tel": "",
        "category": "基础设施:公共设施:公共厕所",
        "type": 0,
        "location": {
            "lat": 19.657895,
            "lng": 109.180701
        },
        "ad_info": {
            "adcode": 460400,
            "province": "海南省",
            "city": "儋州市",
            "district": "儋州市"
        }
    },
    {
        "id": "6370389191127567052",
        "title": "北吉市场公共厕所",
        "address": "海南省儋州市北吉二路与北吉二路二街交叉口西北方向51米左右",
        "tel": "",
        "category": "基础设施:公共设施:公共厕所",
        "type": 0,
        "location": {
            "lat": 19.523022,
            "lng": 109.604717
        },
        "ad_info": {
            "adcode": 460400,
            "province": "海南省",
            "city": "儋州市",
            "district": "儋州市"
        }
    },
    {
        "id": "8679563077038807821",
        "title": "儋州文化广场公共厕所",
        "address": "海南省儋州市文化公园",
        "tel": "13698957066",
        "category": "基础设施:公共设施:公共厕所",
        "type": 0,
        "location": {
            "lat": 19.534519,
            "lng": 109.587799
        },
        "ad_info": {
            "adcode": 460400,
            "province": "海南省",
            "city": "儋州市",
            "district": "儋州市"
        }
    },
    {
        "id": "15776669537839214604",
        "title": "热科院品质展览馆公共厕所",
        "address": "海南省儋州市Y016与农林大道交叉口正东方向714米左右",
        "tel": "",
        "category": "基础设施:公共设施:公共厕所",
        "type": 0,
        "location": {
            "lat": 19.508111,
            "lng": 109.502328
        },
        "ad_info": {
            "adcode": 460400,
            "province": "海南省",
            "city": "儋州市",
            "district": "儋州市"
        }
    },
    {
        "id": "8784581875168299553",
        "title": "红旗市场公共厕所",
        "address": "海南省儋州市大通路与红旗街交叉口东北方向76米左右",
        "tel": "13698957066",
        "category": "基础设施:公共设施:公共厕所",
        "type": 0,
        "location": {
            "lat": 19.507002,
            "lng": 109.573624
        },
        "ad_info": {
            "adcode": 460400,
            "province": "海南省",
            "city": "儋州市",
            "district": "儋州市"
        }
    },
    {
        "id": "8291297309202886190",
        "title": "人民路公共厕所",
        "address": "海南省儋州市东风路与人民东路交叉口正西方向275米左右",
        "tel": "13698957066",
        "category": "基础设施:公共设施:公共厕所",
        "type": 0,
        "location": {
            "lat": 19.510464,
            "lng": 109.580207
        },
        "ad_info": {
            "adcode": 460400,
            "province": "海南省",
            "city": "儋州市",
            "district": "儋州市"
        }
    },
    {
        "id": "16165192747280419272",
        "title": "白马井镇中国石化宏马加油站公共厕所",
        "address": "海南省儋州市白马井镇中心大道中国石化宏马加油站",
        "tel": "",
        "category": "基础设施:公共设施:公共厕所",
        "type": 0,
        "location": {
            "lat": 19.689116,
            "lng": 109.225111
        },
        "ad_info": {
            "adcode": 460400,
            "province": "海南省",
            "city": "儋州市",
            "district": "儋州市"
        }
    },
    {
        "id": "10301500449479841680",
        "title": "那大第二中学公共厕所",
        "address": "海南省儋州市文化中路与文化中路二街交叉口正西方向24米左右",
        "tel": "13698957066",
        "category": "基础设施:公共设施:公共厕所",
        "type": 0,
        "location": {
            "lat": 19.513656,
            "lng": 109.582747
        },
        "ad_info": {
            "adcode": 460400,
            "province": "海南省",
            "city": "儋州市",
            "district": "儋州市"
        }
    },
    {
        "id": "16651309181508187274",
        "title": "美扶村委会公共厕所",
        "address": "海南省儋州市中兴大街与美扶西路交叉口东南方向94米左右",
        "tel": "13698957066",
        "category": "基础设施:公共设施:公共厕所",
        "type": 0,
        "location": {
            "lat": 19.519437,
            "lng": 109.608456
        },
        "ad_info": {
            "adcode": 460400,
            "province": "海南省",
            "city": "儋州市",
            "district": "儋州市"
        }
    },
    {
        "id": "12578783350474805614",
        "title": "一场两馆东二公共厕所",
        "address": "海南省儋州市海榆西线与番朗路交叉口西北方向183米左右",
        "tel": "18389360951",
        "category": "基础设施:公共设施:公共厕所",
        "type": 0,
        "location": {
            "lat": 19.524125,
            "lng": 109.622664
        },
        "ad_info": {
            "adcode": 460400,
            "province": "海南省",
            "city": "儋州市",
            "district": "儋州市"
        }
    },
    {
        "id": "10127399227931481500",
        "title": "银滩度假村旁公共厕所",
        "address": "海南省儋州市银滩度假村南侧光村银滩",
        "tel": "",
        "category": "基础设施:公共设施:公共厕所",
        "type": 0,
        "location": {
            "lat": 19.839138,
            "lng": 109.498949
        },
        "ad_info": {
            "adcode": 460400,
            "province": "海南省",
            "city": "儋州市",
            "district": "儋州市"
        }
    },
    {
        "id": "14661859342329741908",
        "title": "高速公共厕所",
        "address": "海南省儋州市G98海南环岛高速与洋浦服务区交叉口东南140米",
        "tel": "",
        "category": "基础设施:公共设施:公共厕所",
        "type": 0,
        "location": {
            "lat": 19.732431,
            "lng": 109.4594
        },
        "ad_info": {
            "adcode": 460400,
            "province": "海南省",
            "city": "儋州市",
            "district": "儋州市"
        }
    },
    {
        "id": "1963368041628072728",
        "title": "公共厕所",
        "address": "海南省儋州市纬十路与经十八路交叉口正南方向231米左右",
        "tel": "",
        "category": "基础设施:公共设施:公共厕所",
        "type": 0,
        "location": {
            "lat": 19.651955,
            "lng": 109.155032
        },
        "ad_info": {
            "adcode": 460400,
            "province": "海南省",
            "city": "儋州市",
            "district": "儋州市"
        }
    },
    {
        "id": "11140329826900914932",
        "title": "茂根桥园林公共厕所",
        "address": "海南省儋州市伏波东路与伏波中路交叉口正北方向128米左右",
        "tel": "13698957066",
        "category": "基础设施:公共设施:公共厕所",
        "type": 0,
        "location": {
            "lat": 19.53042,
            "lng": 109.573935
        },
        "ad_info": {
            "adcode": 460400,
            "province": "海南省",
            "city": "儋州市",
            "district": "儋州市"
        }
    },
    {
        "id": "12253422361014011005",
        "title": "怡心花园中公共厕所",
        "address": "海南省儋州市怡心花园中",
        "tel": "13698957066",
        "category": "基础设施:公共设施:公共厕所",
        "type": 0,
        "location": {
            "lat": 19.539978,
            "lng": 109.593776
        },
        "ad_info": {
            "adcode": 460400,
            "province": "海南省",
            "city": "儋州市",
            "district": "儋州市"
        }
    },
    {
        "id": "911244583780985349",
        "title": "西部医院公共厕所",
        "address": "海南省儋州市伏波东路与迎宾大道交叉口正南方向75米左右",
        "tel": "13698957066",
        "category": "基础设施:公共设施:公共厕所",
        "type": 0,
        "location": {
            "lat": 19.53107,
            "lng": 109.599104
        },
        "ad_info": {
            "adcode": 460400,
            "province": "海南省",
            "city": "儋州市",
            "district": "儋州市"
        }
    },
    {
        "id": "5537529553939751070",
        "title": "那大民族中学公共厕所",
        "address": "海南省儋州市那大民族中学",
        "tel": "13698957066",
        "category": "基础设施:公共设施:公共厕所",
        "type": 0,
        "location": {
            "lat": 19.497427,
            "lng": 109.581357
        },
        "ad_info": {
            "adcode": 460400,
            "province": "海南省",
            "city": "儋州市",
            "district": "儋州市"
        }
    },
    {
        "id": "1514438948351406448",
        "title": "银河公园园林公共厕所(三)",
        "address": "海南省儋州市北吉二路18号",
        "tel": "13698957066",
        "category": "基础设施:公共设施:公共厕所",
        "type": 0,
        "location": {
            "lat": 19.523855,
            "lng": 109.597635
        },
        "ad_info": {
            "adcode": 460400,
            "province": "海南省",
            "city": "儋州市",
            "district": "儋州市"
        }
    },
    {
        "id": "14275053912368077521",
        "title": "临时厕所",
        "address": "海南省儋州市排浦镇海南环岛旅游公路排浦飞鹭停车区",
        "tel": "",
        "category": "基础设施:公共设施:公共厕所",
        "type": 0,
        "location": {
            "lat": 19.632469,
            "lng": 109.153256
        },
        "ad_info": {
            "adcode": 460400,
            "province": "海南省",
            "city": "儋州市",
            "district": "儋州市"
        }
    },
    {
        "id": "12410109761963155772",
        "title": "峨蔓镇龙门华坊村公共厕所",
        "address": "海南省儋州市峨蔓镇龙门激浪",
        "tel": "",
        "category": "基础设施:公共设施:公共厕所",
        "type": 0,
        "location": {
            "lat": 19.897281,
            "lng": 109.270019
        },
        "ad_info": {
            "adcode": 460400,
            "province": "海南省",
            "city": "儋州市",
            "district": "儋州市"
        }
    },
    {
        "id": "590750912279434787",
        "title": "警苑小区公共厕所",
        "address": "海南省儋州市云月路与牙拉路交叉口正南方向198米左右",
        "tel": "13698957066",
        "category": "基础设施:公共设施:公共厕所",
        "type": 0,
        "location": {
            "lat": 19.510082,
            "lng": 109.543125
        },
        "ad_info": {
            "adcode": 460400,
            "province": "海南省",
            "city": "儋州市",
            "district": "儋州市"
        }
    },
    {
        "id": "11586065244767998840",
        "title": "公共厕所(植物园萌生植物区)",
        "address": "海南省儋州市滨海大道与规划二路交叉口正北方向1004米左右",
        "tel": "",
        "category": "基础设施:公共设施:公共厕所",
        "type": 0,
        "location": {
            "lat": 19.656135,
            "lng": 109.176396
        },
        "ad_info": {
            "adcode": 460400,
            "province": "海南省",
            "city": "儋州市",
            "district": "儋州市"
        }
    },
    {
        "id": "9901948370176681109",
        "title": "西联东园公共厕所",
        "address": "海南省儋州市西联一横路与西联东路交叉口正南方向395米左右",
        "tel": "13807548998",
        "category": "基础设施:公共设施:公共厕所",
        "type": 0,
        "location": {
            "lat": 19.570575,
            "lng": 109.560002
        },
        "ad_info": {
            "adcode": 460400,
            "province": "海南省",
            "city": "儋州市",
            "district": "儋州市"
        }
    },
    {
        "id": "5987668460973192426",
        "title": "雅拉大桥公共厕所",
        "address": "海南省儋州市云月路与牙拉路交叉口正西方向544米左右",
        "tel": "",
        "category": "基础设施:公共设施:公共厕所",
        "type": 0,
        "location": {
            "lat": 19.51219,
            "lng": 109.538458
        },
        "ad_info": {
            "adcode": 460400,
            "province": "海南省",
            "city": "儋州市",
            "district": "儋州市"
        }
    },
    {
        "id": "6880712578480572679",
        "title": "一场两馆北公共厕所",
        "address": "海南省儋州市体育中心路与支二路交叉口正东方向273米左右",
        "tel": "18389660951",
        "category": "基础设施:公共设施:公共厕所",
        "type": 0,
        "location": {
            "lat": 19.524878,
            "lng": 109.618726
        },
        "ad_info": {
            "adcode": 460400,
            "province": "海南省",
            "city": "儋州市",
            "district": "儋州市"
        }
    },
    {
        "id": "18016292403015447008",
        "title": "富力阅山湖公共厕所",
        "address": "海南省儋州市中兴大街与牙拉河路交叉口西南方向482米左右",
        "tel": "",
        "category": "基础设施:公共设施:公共厕所",
        "type": 0,
        "location": {
            "lat": 19.517418,
            "lng": 109.533989
        },
        "ad_info": {
            "adcode": 460400,
            "province": "海南省",
            "city": "儋州市",
            "district": "儋州市"
        }
    },
    {
        "id": "8350808778318076397",
        "title": "水榭丹堤公共厕所",
        "address": "海南省儋州市水榭丹堤",
        "tel": "13698957066",
        "category": "基础设施:公共设施:公共厕所",
        "type": 0,
        "location": {
            "lat": 19.52793,
            "lng": 109.603071
        },
        "ad_info": {
            "adcode": 460400,
            "province": "海南省",
            "city": "儋州市",
            "district": "儋州市"
        }
    },
    {
        "id": "10629017233698348482",
        "title": "一场两馆东一公共厕所",
        "address": "海南省儋州市中兴大街与美扶东路交叉口正东方向72米左右",
        "tel": "18389360951",
        "category": "基础设施:公共设施:公共厕所",
        "type": 0,
        "location": {
            "lat": 19.522149,
            "lng": 109.613202
        },
        "ad_info": {
            "adcode": 460400,
            "province": "海南省",
            "city": "儋州市",
            "district": "儋州市"
        }
    },
    {
        "id": "3860455847806836442",
        "title": "人民东路部队加油站旁公共厕所",
        "address": "海南省儋州市兰洋路152号",
        "tel": "13698957066",
        "category": "基础设施:公共设施:公共厕所",
        "type": 0,
        "location": {
            "lat": 19.510557,
            "lng": 109.590232
        },
        "ad_info": {
            "adcode": 460400,
            "province": "海南省",
            "city": "儋州市",
            "district": "儋州市"
        }
    },
    {
        "id": "7412371511949803115",
        "title": "中兴大道中医院旁公共厕所",
        "address": "海南省儋州市中医院附近水利沟旁",
        "tel": "13698957066",
        "category": "基础设施:公共设施:公共厕所",
        "type": 0,
        "location": {
            "lat": 19.518635,
            "lng": 109.562151
        },
        "ad_info": {
            "adcode": 460400,
            "province": "海南省",
            "city": "儋州市",
            "district": "儋州市"
        }
    },
    {
        "id": "1172761274540620559",
        "title": "鸟枪岭公共厕所",
        "address": "海南省儋州市宝岛路与德义路交叉口西北方向282米左右",
        "tel": "",
        "category": "基础设施:公共设施:公共厕所",
        "type": 0,
        "location": {
            "lat": 19.542054,
            "lng": 109.574065
        },
        "ad_info": {
            "adcode": 460400,
            "province": "海南省",
            "city": "儋州市",
            "district": "儋州市"
        }
    },
    {
        "id": "6688406834058958110",
        "title": "茶山小学公共厕所",
        "address": "海南省儋州市学风路与紫薇路交叉口正北方向732米左右",
        "tel": "",
        "category": "基础设施:公共设施:公共厕所",
        "type": 0,
        "location": {
            "lat": 19.549702,
            "lng": 109.590299
        },
        "ad_info": {
            "adcode": 460400,
            "province": "海南省",
            "city": "儋州市",
            "district": "儋州市"
        }
    },
    {
        "id": "14766556446983921615",
        "title": "云月路公共厕所",
        "address": "海南省儋州市伏波西路266号",
        "tel": "",
        "category": "基础设施:公共设施:公共厕所",
        "type": 0,
        "location": {
            "lat": 19.51991,
            "lng": 109.543242
        },
        "ad_info": {
            "adcode": 460400,
            "province": "海南省",
            "city": "儋州市",
            "district": "儋州市"
        }
    },
    {
        "id": "4891733762191406579",
        "title": "人民中路公共厕所",
        "address": "海南省儋州市东门街与人民中路交叉口西北方向63米左右",
        "tel": "13698957066",
        "category": "基础设施:公共设施:公共厕所",
        "type": 0,
        "location": {
            "lat": 19.512997,
            "lng": 109.576477
        },
        "ad_info": {
            "adcode": 460400,
            "province": "海南省",
            "city": "儋州市",
            "district": "儋州市"
        }
    },
    {
        "id": "14820793667254846057",
        "title": "西部海鲜城公共厕所",
        "address": "海南省儋州市西部海鲜城",
        "tel": "18389360951",
        "category": "基础设施:公共设施:公共厕所",
        "type": 0,
        "location": {
            "lat": 19.529837,
            "lng": 109.601885
        },
        "ad_info": {
            "adcode": 460400,
            "province": "海南省",
            "city": "儋州市",
            "district": "儋州市"
        }
    },
    {
        "id": "9072815981540968763",
        "title": "南茶公园门口公共厕所",
        "address": "海南省儋州市万福西路与福隆路交叉口西南方向56米左右",
        "tel": "13698957066",
        "category": "基础设施:公共设施:公共厕所",
        "type": 0,
        "location": {
            "lat": 19.502505,
            "lng": 109.577408
        },
        "ad_info": {
            "adcode": 460400,
            "province": "海南省",
            "city": "儋州市",
            "district": "儋州市"
        }
    },
    {
        "id": "13882208044267033920",
        "title": "峨蔓镇麦屋村厕所",
        "address": "海南省儋州市峨蔓镇峨蔓港",
        "tel": "",
        "category": "基础设施:公共设施:公共厕所",
        "type": 0,
        "location": {
            "lat": 19.863145,
            "lng": 109.265987
        },
        "ad_info": {
            "adcode": 460400,
            "province": "海南省",
            "city": "儋州市",
            "district": "儋州市"
        }
    },
    {
        "id": "16204417203445751259",
        "title": "铁钉厂公共厕所",
        "address": "海南省儋州市解放北路55号",
        "tel": "13698957066",
        "category": "基础设施:公共设施:公共厕所",
        "type": 0,
        "location": {
            "lat": 19.523409,
            "lng": 109.572611
        },
        "ad_info": {
            "adcode": 460400,
            "province": "海南省",
            "city": "儋州市",
            "district": "儋州市"
        }
    },
    {
        "id": "1345470761398256094",
        "title": "东兴农贸市场公共厕所",
        "address": "海南省儋州市东兴市场(东兴西十三街北)",
        "tel": "",
        "category": "基础设施:公共设施:公共厕所",
        "type": 0,
        "location": {
            "lat": 19.507442,
            "lng": 109.595507
        },
        "ad_info": {
            "adcode": 460400,
            "province": "海南省",
            "city": "儋州市",
            "district": "儋州市"
        }
    },
    {
        "id": "18185812644223327475",
        "title": "旅游公共厕所",
        "address": "海南省儋州市X500与X513交叉口正东方向233米左右",
        "tel": "",
        "category": "基础设施:公共设施:公共厕所",
        "type": 0,
        "location": {
            "lat": 19.814835,
            "lng": 109.352839
        },
        "ad_info": {
            "adcode": 460400,
            "province": "海南省",
            "city": "儋州市",
            "district": "儋州市"
        }
    },
    {
        "id": "9666214803909424516",
        "title": "雅拉农场(畜牧队)公共厕所",
        "address": "海南省儋州市中兴大街与牙拉路交叉口东南方向402米左右",
        "tel": "",
        "category": "基础设施:公共设施:公共厕所",
        "type": 0,
        "location": {
            "lat": 19.511875,
            "lng": 109.532659
        },
        "ad_info": {
            "adcode": 460400,
            "province": "海南省",
            "city": "儋州市",
            "district": "儋州市"
        }
    },
    {
        "id": "4720355368033777758",
        "title": "东干桥公共厕所",
        "address": "海南省儋州市人民中路与人民西路交叉口西北方向110米左右",
        "tel": "13698957066",
        "category": "基础设施:公共设施:公共厕所",
        "type": 0,
        "location": {
            "lat": 19.509483,
            "lng": 109.562301
        },
        "ad_info": {
            "adcode": 460400,
            "province": "海南省",
            "city": "儋州市",
            "district": "儋州市"
        }
    },
    {
        "id": "14507255574611073829",
        "title": "光村镇泊潮村公共厕所",
        "address": "海南省儋州市光村镇泊潮村",
        "tel": "",
        "category": "基础设施:公共设施:公共厕所",
        "type": 0,
        "location": {
            "lat": 19.856822,
            "lng": 109.537442
        },
        "ad_info": {
            "adcode": 460400,
            "province": "海南省",
            "city": "儋州市",
            "district": "儋州市"
        }
    },
    {
        "id": "8579477040826667074",
        "title": "宝岛路6号公共厕所",
        "address": "海南省儋州市宝岛路与迎宾大道交叉口西南方向161米左右",
        "tel": "13698957066",
        "category": "基础设施:公共设施:公共厕所",
        "type": 0,
        "location": {
            "lat": 19.545094,
            "lng": 109.581391
        },
        "ad_info": {
            "adcode": 460400,
            "province": "海南省",
            "city": "儋州市",
            "district": "儋州市"
        }
    },
    {
        "id": "9945315649249304262",
        "title": "两院科技园公共厕所",
        "address": "海南省儋州市植物园路与海榆西线交叉口正西方向186米左右",
        "tel": "",
        "category": "基础设施:公共设施:公共厕所",
        "type": 0,
        "location": {
            "lat": 19.50059,
            "lng": 109.511869
        },
        "ad_info": {
            "adcode": 460400,
            "province": "海南省",
            "city": "儋州市",
            "district": "儋州市"
        }
    },
    {
        "id": "3708862191505011987",
        "title": "两院金富队公共厕所",
        "address": "海南省儋州市中兴大街与植物园路交叉口正西方向634米左右",
        "tel": "18289296269",
        "category": "基础设施:公共设施:公共厕所",
        "type": 0,
        "location": {
            "lat": 19.501845,
            "lng": 109.504853
        },
        "ad_info": {
            "adcode": 460400,
            "province": "海南省",
            "city": "儋州市",
            "district": "儋州市"
        }
    },
    {
        "id": "8074095549691872199",
        "title": "西联红卫小区水利沟边公共厕所",
        "address": "海南省儋州市西联一横路与西联东路交叉口正东方向327米左右",
        "tel": "13807548998",
        "category": "基础设施:公共设施:公共厕所",
        "type": 0,
        "location": {
            "lat": 19.572895,
            "lng": 109.561561
        },
        "ad_info": {
            "adcode": 460400,
            "province": "海南省",
            "city": "儋州市",
            "district": "儋州市"
        }
    },
    {
        "id": "9416071003210823091",
        "title": "阳光巴洛克市场公共厕所",
        "address": "海南省儋州市海南省公路管理局儋州公路分局北",
        "tel": "",
        "category": "基础设施:公共设施:公共厕所",
        "type": 0,
        "location": {
            "lat": 19.512185,
            "lng": 109.565939
        },
        "ad_info": {
            "adcode": 460400,
            "province": "海南省",
            "city": "儋州市",
            "district": "儋州市"
        }
    },
    {
        "id": "14031071849179410950",
        "title": "军屯临时市场公共厕所",
        "address": "海南省儋州市前进路128号",
        "tel": "13698957066",
        "category": "基础设施:公共设施:公共厕所",
        "type": 0,
        "location": {
            "lat": 19.52587,
            "lng": 109.567942
        },
        "ad_info": {
            "adcode": 460400,
            "province": "海南省",
            "city": "儋州市",
            "district": "儋州市"
        }
    },
    {
        "id": "4789904783296780714",
        "title": "热科院试验场科技园公共厕所",
        "address": "海南省儋州市儋阳楼森林公园西300米",
        "tel": "",
        "category": "基础设施:公共设施:公共厕所",
        "type": 0,
        "location": {
            "lat": 19.505049,
            "lng": 109.514925
        },
        "ad_info": {
            "adcode": 460400,
            "province": "海南省",
            "city": "儋州市",
            "district": "儋州市"
        }
    },
    {
        "id": "10367682679948644548",
        "title": "兰洋北路公共厕所",
        "address": "海南省儋州市兰洋北路10-12号",
        "tel": "13698957066",
        "category": "基础设施:公共设施:公共厕所",
        "type": 0,
        "location": {
            "lat": 19.523904,
            "lng": 109.589858
        },
        "ad_info": {
            "adcode": 460400,
            "province": "海南省",
            "city": "儋州市",
            "district": "儋州市"
        }
    },
    {
        "id": "3124675190379307254",
        "title": "热科院试验场丘凡队公共厕所",
        "address": "海南省儋州市海榆西线与铺仔路交叉口正北方向446米左右",
        "tel": "",
        "category": "基础设施:公共设施:公共厕所",
        "type": 0,
        "location": {
            "lat": 19.49621,
            "lng": 109.498262
        },
        "ad_info": {
            "adcode": 460400,
            "province": "海南省",
            "city": "儋州市",
            "district": "儋州市"
        }
    },
    {
        "id": "6835124853738865713",
        "title": "雅拉农场湖畔公共厕所",
        "address": "海南省儋州市中兴大街与翠薇路交叉口正东方向49米左右",
        "tel": "13976783473",
        "category": "基础设施:公共设施:公共厕所",
        "type": 0,
        "location": {
            "lat": 19.512621,
            "lng": 109.528258
        },
        "ad_info": {
            "adcode": 460400,
            "province": "海南省",
            "city": "儋州市",
            "district": "儋州市"
        }
    },
    {
        "id": "15375228336559341342",
        "title": "大成服务区公共厕所",
        "address": "海南省儋州市大成服务区西南30米",
        "tel": "",
        "category": "基础设施:公共设施:公共厕所",
        "type": 0,
        "location": {
            "lat": 19.543375,
            "lng": 109.439635
        },
        "ad_info": {
            "adcode": 460400,
            "province": "海南省",
            "city": "儋州市",
            "district": "儋州市"
        }
    },
    {
        "id": "5282443737838620918",
        "title": "热科院品质所展览馆公共厕所",
        "address": "海南省儋州市Y016与农林大道交叉口正东方向769米左右",
        "tel": "",
        "category": "基础设施:公共设施:公共厕所",
        "type": 0,
        "location": {
            "lat": 19.509944,
            "lng": 109.502604
        },
        "ad_info": {
            "adcode": 460400,
            "province": "海南省",
            "city": "儋州市",
            "district": "儋州市"
        }
    },
    {
        "id": "10977830423711914416",
        "title": "洋浦服务区公共厕所",
        "address": "海南省儋州市G98海南环岛高速与洋浦服务区交叉口东南120米",
        "tel": "",
        "category": "基础设施:公共设施:公共厕所",
        "type": 0,
        "location": {
            "lat": 19.732461,
            "lng": 109.45937
        },
        "ad_info": {
            "adcode": 460400,
            "province": "海南省",
            "city": "儋州市",
            "district": "儋州市"
        }
    },
    {
        "id": "5932013219883551499",
        "title": "立业西路公共厕所(一)",
        "address": "海南省儋州市云月路与立业路交叉口正东方向54米左右",
        "tel": "13698957066",
        "category": "基础设施:公共设施:公共厕所",
        "type": 0,
        "location": {
            "lat": 19.513776,
            "lng": 109.544129
        },
        "ad_info": {
            "adcode": 460400,
            "province": "海南省",
            "city": "儋州市",
            "district": "儋州市"
        }
    },
    {
        "id": "3094754330066703926",
        "title": "立业西路公共厕所(二)",
        "address": "海南省儋州市安居路与立业路交叉口正西方向232米左右",
        "tel": "",
        "category": "基础设施:公共设施:公共厕所",
        "type": 0,
        "location": {
            "lat": 19.513706,
            "lng": 109.546386
        },
        "ad_info": {
            "adcode": 460400,
            "province": "海南省",
            "city": "儋州市",
            "district": "儋州市"
        }
    },
    {
        "id": "8958953711703421130",
        "title": "中兴大街农委园林公共厕所",
        "address": "海南省儋州市中兴大街辅路与文化北路交叉口正东方向114米左右",
        "tel": "",
        "category": "基础设施:公共设施:公共厕所",
        "type": 0,
        "location": {
            "lat": 19.519643,
            "lng": 109.584086
        },
        "ad_info": {
            "adcode": 460400,
            "province": "海南省",
            "city": "儋州市",
            "district": "儋州市"
        }
    },
    {
        "id": "11402114055596770751",
        "title": "美扶路囗公共厕所",
        "address": "海南省儋州市S308与迎宾大道交叉口正东方向67米左右",
        "tel": "",
        "category": "基础设施:公共设施:公共厕所",
        "type": 0,
        "location": {
            "lat": 19.522329,
            "lng": 109.611562
        },
        "ad_info": {
            "adcode": 460400,
            "province": "海南省",
            "city": "儋州市",
            "district": "儋州市"
        }
    },
    {
        "id": "3679882619400924476",
        "title": "军屯花果山停车场公共厕所",
        "address": "海南省儋州市环湖路与花果山路交叉口东南方向125米左右",
        "tel": "",
        "category": "基础设施:公共设施:公共厕所",
        "type": 0,
        "location": {
            "lat": 19.535351,
            "lng": 109.554517
        },
        "ad_info": {
            "adcode": 460400,
            "province": "海南省",
            "city": "儋州市",
            "district": "儋州市"
        }
    },
    {
        "id": "12191611106557182609",
        "title": "峨蔓觅古养护工区临时厕所",
        "address": "海南省儋州市峨蔓觅古养护工区",
        "tel": "",
        "category": "基础设施:公共设施:公共厕所",
        "type": 0,
        "location": {
            "lat": 19.839421,
            "lng": 109.24818
        },
        "ad_info": {
            "adcode": 460400,
            "province": "海南省",
            "city": "儋州市",
            "district": "儋州市"
        }
    },
    {
        "id": "11441925840141424776",
        "title": "中国石化三都A加油站公共厕所",
        "address": "海南省儋州市北部湾大道51公里200米洋浦往儋州方向中国石化三都A加油站",
        "tel": "",
        "category": "基础设施:公共设施:公共厕所",
        "type": 0,
        "location": {
            "lat": 19.788834,
            "lng": 109.255175
        },
        "ad_info": {
            "adcode": 460400,
            "province": "海南省",
            "city": "儋州市",
            "district": "儋州市"
        }
    },
    {
        "id": "4771217681681986920",
        "title": "富力阅山湖公共厕所",
        "address": "海南省儋州市中兴大街与牙拉河路交叉口西南方向517米左右",
        "tel": "",
        "category": "基础设施:公共设施:公共厕所",
        "type": 0,
        "location": {
            "lat": 19.517464,
            "lng": 109.533603
        },
        "ad_info": {
            "adcode": 460400,
            "province": "海南省",
            "city": "儋州市",
            "district": "儋州市"
        }
    },
    {
        "id": "10241622598794800119",
        "title": "人民西路城乡结合部公共厕所",
        "address": "海南省儋州市人民西路城乡结合部",
        "tel": "13698957066",
        "category": "基础设施:公共设施:公共厕所",
        "type": 0,
        "location": {
            "lat": 19.507621,
            "lng": 109.53904
        },
        "ad_info": {
            "adcode": 460400,
            "province": "海南省",
            "city": "儋州市",
            "district": "儋州市"
        }
    },
    {
        "id": "11162438412894335499",
        "title": "两院铺仔小学公共厕所",
        "address": "海南省儋州市Y001与铺仔路交叉口正东方向302米左右",
        "tel": "",
        "category": "基础设施:公共设施:公共厕所",
        "type": 0,
        "location": {
            "lat": 19.492927,
            "lng": 109.504688
        },
        "ad_info": {
            "adcode": 460400,
            "province": "海南省",
            "city": "儋州市",
            "district": "儋州市"
        }
    },
    {
        "id": "14140048015641501441",
        "title": "中兴大街农委园林公共厕所",
        "address": "海南省儋州市中兴大街辅路与文化北路交叉口正东方向132米左右",
        "tel": "13698957066",
        "category": "基础设施:公共设施:公共厕所",
        "type": 0,
        "location": {
            "lat": 19.520032,
            "lng": 109.584243
        },
        "ad_info": {
            "adcode": 460400,
            "province": "海南省",
            "city": "儋州市",
            "district": "儋州市"
        }
    },
    {
        "id": "3020610584357951122",
        "title": "思源高中公共厕所",
        "address": "海南省儋州市体育中心北路与体育中心路交叉口正南方向30米左右",
        "tel": "18389360951",
        "category": "基础设施:公共设施:公共厕所",
        "type": 0,
        "location": {
            "lat": 19.526066,
            "lng": 109.616336
        },
        "ad_info": {
            "adcode": 460400,
            "province": "海南省",
            "city": "儋州市",
            "district": "儋州市"
        }
    },
    {
        "id": "14603904486411824309",
        "title": "公共厕所",
        "address": "海南省儋州市海花岛珍奇特色植物园内(北侧)",
        "tel": "",
        "category": "基础设施:公共设施:公共厕所",
        "type": 0,
        "location": {
            "lat": 19.658262,
            "lng": 109.176795
        },
        "ad_info": {
            "adcode": 460400,
            "province": "海南省",
            "city": "儋州市",
            "district": "儋州市"
        }
    },
    {
        "id": "4267143457809605189",
        "title": "前进农场公共厕所",
        "address": "海南省儋州市九祥路与九祥路八街交叉口正北方向30米左右",
        "tel": "13698957066",
        "category": "基础设施:公共设施:公共厕所",
        "type": 0,
        "location": {
            "lat": 19.53373,
            "lng": 109.578616
        },
        "ad_info": {
            "adcode": 460400,
            "province": "海南省",
            "city": "儋州市",
            "district": "儋州市"
        }
    },
    {
        "id": "10451462584500008431",
        "title": "云月路充电站公共厕所",
        "address": "海南省儋州市伏波西路266号",
        "tel": "",
        "category": "基础设施:公共设施:公共厕所",
        "type": 0,
        "location": {
            "lat": 19.52617,
            "lng": 109.542876
        },
        "ad_info": {
            "adcode": 460400,
            "province": "海南省",
            "city": "儋州市",
            "district": "儋州市"
        }
    },
    {
        "id": "14223449479540661822",
        "title": "公共厕所(植物园假山瀑布区)",
        "address": "海南省儋州市海花岛珍奇特色植物园内(西侧)",
        "tel": "",
        "category": "基础设施:公共设施:公共厕所",
        "type": 0,
        "location": {
            "lat": 19.656189,
            "lng": 109.175404
        },
        "ad_info": {
            "adcode": 460400,
            "province": "海南省",
            "city": "儋州市",
            "district": "儋州市"
        }
    },
    {
        "id": "11940049567253680142",
        "title": "军屯花果山公共厕所(二)",
        "address": "海南省儋州市鸿基·湖畔新城营销中心西北100米",
        "tel": "",
        "category": "基础设施:公共设施:公共厕所",
        "type": 0,
        "location": {
            "lat": 19.539392,
            "lng": 109.555792
        },
        "ad_info": {
            "adcode": 460400,
            "province": "海南省",
            "city": "儋州市",
            "district": "儋州市"
        }
    },
    {
        "id": "5919589955326199713",
        "title": "新屋村公共厕所",
        "address": "海南省儋州市学风路与紫薇路交叉口西北方向439米左右",
        "tel": "",
        "category": "基础设施:公共设施:公共厕所",
        "type": 0,
        "location": {
            "lat": 19.545661,
            "lng": 109.587158
        },
        "ad_info": {
            "adcode": 460400,
            "province": "海南省",
            "city": "儋州市",
            "district": "儋州市"
        }
    },
    {
        "id": "11700383382659856889",
        "title": "军屯花果山停车场公共厕所",
        "address": "海南省儋州市那大镇军屯花果山停车场",
        "tel": "",
        "category": "基础设施:公共设施:公共厕所",
        "type": 0,
        "location": {
            "lat": 19.534983,
            "lng": 109.553826
        },
        "ad_info": {
            "adcode": 460400,
            "province": "海南省",
            "city": "儋州市",
            "district": "儋州市"
        }
    },
    {
        "id": "3915822717083039728",
        "title": "怡心花园南公共厕所",
        "address": "海南省儋州市新区路与茶山路交叉口西北方向57米左右",
        "tel": "13698957066",
        "category": "基础设施:公共设施:公共厕所",
        "type": 0,
        "location": {
            "lat": 19.535612,
            "lng": 109.595058
        },
        "ad_info": {
            "adcode": 460400,
            "province": "海南省",
            "city": "儋州市",
            "district": "儋州市"
        }
    },
    {
        "id": "7618825558954380843",
        "title": "思源实验小学公共厕所",
        "address": "海南省儋州市九祥路58号",
        "tel": "13698957066",
        "category": "基础设施:公共设施:公共厕所",
        "type": 0,
        "location": {
            "lat": 19.538298,
            "lng": 109.57813
        },
        "ad_info": {
            "adcode": 460400,
            "province": "海南省",
            "city": "儋州市",
            "district": "儋州市"
        }
    },
    {
        "id": "2159875335807883903",
        "title": "公共厕所",
        "address": "海南省儋州市海花岛五国温泉城西南侧130米",
        "tel": "",
        "category": "基础设施:公共设施:公共厕所",
        "type": 0,
        "location": {
            "lat": 19.66233,
            "lng": 109.186413
        },
        "ad_info": {
            "adcode": 460400,
            "province": "海南省",
            "city": "儋州市",
            "district": "儋州市"
        }
    },
    {
        "id": "17053075648272393131",
        "title": "两院三队公共厕所",
        "address": "海南省儋州市Y001与万洋高速交叉口东北方向1610米左右",
        "tel": "18289296269",
        "category": "基础设施:公共设施:公共厕所",
        "type": 0,
        "location": {
            "lat": 19.541025,
            "lng": 109.482539
        },
        "ad_info": {
            "adcode": 460400,
            "province": "海南省",
            "city": "儋州市",
            "district": "儋州市"
        }
    },
    {
        "id": "7945754826791213203",
        "title": "公共厕所",
        "address": "海南省儋州市滨海大道与规划二路交叉口正北方向1210米左右",
        "tel": "",
        "category": "基础设施:公共设施:公共厕所",
        "type": 0,
        "location": {
            "lat": 19.657742,
            "lng": 109.175224
        },
        "ad_info": {
            "adcode": 460400,
            "province": "海南省",
            "city": "儋州市",
            "district": "儋州市"
        }
    },
    {
        "id": "3387716406746658505",
        "title": "万福市场转运站公共厕所",
        "address": "海南省儋州市文化路西二巷与福通东街交叉口正西方向105米左右",
        "tel": "13698957066",
        "category": "基础设施:公共设施:公共厕所",
        "type": 0,
        "location": {
            "lat": 19.504061,
            "lng": 109.580607
        },
        "ad_info": {
            "adcode": 460400,
            "province": "海南省",
            "city": "儋州市",
            "district": "儋州市"
        }
    },
    {
        "id": "4136443064931495233",
        "title": "公共厕所",
        "address": "海南省儋州市东浦路与农贸市场东侧支路交叉口正北方向104米左右",
        "tel": "",
        "category": "基础设施:公共设施:公共厕所",
        "type": 0,
        "location": {
            "lat": 19.745907,
            "lng": 109.223009
        },
        "ad_info": {
            "adcode": 460400,
            "province": "海南省",
            "city": "儋州市",
            "district": "儋州市"
        }
    },
    {
        "id": "17781163838733318279",
        "title": "两院动物公共厕所",
        "address": "海南省儋州市铺仔路88号",
        "tel": "",
        "category": "基础设施:公共设施:公共厕所",
        "type": 0,
        "location": {
            "lat": 19.502742,
            "lng": 109.512242
        },
        "ad_info": {
            "adcode": 460400,
            "province": "海南省",
            "city": "儋州市",
            "district": "儋州市"
        }
    },
    {
        "id": "3472810706102404099",
        "title": "大洲桥公共厕所",
        "address": "海南省儋州市桃园东三街与桃园东二街交叉口东北方向138米左右",
        "tel": "13698957066",
        "category": "基础设施:公共设施:公共厕所",
        "type": 0,
        "location": {
            "lat": 19.528254,
            "lng": 109.565392
        },
        "ad_info": {
            "adcode": 460400,
            "province": "海南省",
            "city": "儋州市",
            "district": "儋州市"
        }
    },
    {
        "id": "9870316863045660495",
        "title": "雅拉农场公共厕所(场部)",
        "address": "海南省儋州市中兴大街与牙拉路交叉口正北方向320米左右",
        "tel": "",
        "category": "基础设施:公共设施:公共厕所",
        "type": 0,
        "location": {
            "lat": 19.516888,
            "lng": 109.528715
        },
        "ad_info": {
            "adcode": 460400,
            "province": "海南省",
            "city": "儋州市",
            "district": "儋州市"
        }
    },
    {
        "id": "10608165473213015661",
        "title": "军屯车站公共厕所",
        "address": "海南省儋州市前进路12号",
        "tel": "13698957066",
        "category": "基础设施:公共设施:公共厕所",
        "type": 0,
        "location": {
            "lat": 19.5342,
            "lng": 109.56306
        },
        "ad_info": {
            "adcode": 460400,
            "province": "海南省",
            "city": "儋州市",
            "district": "儋州市"
        }
    },
    {
        "id": "349293162856900067",
        "title": "大成服务区公共厕所",
        "address": "海南省儋州市大成服务区东北侧",
        "tel": "",
        "category": "基础设施:公共设施:公共厕所",
        "type": 0,
        "location": {
            "lat": 19.545048,
            "lng": 109.44024
        },
        "ad_info": {
            "adcode": 460400,
            "province": "海南省",
            "city": "儋州市",
            "district": "儋州市"
        }
    },
    {
        "id": "4752573085784489841",
        "title": "公共厕所",
        "address": "海南省儋州市S308与迎宾大道交叉口东北方向41米左右",
        "tel": "",
        "category": "基础设施:公共设施:公共厕所",
        "type": 0,
        "location": {
            "lat": 19.522316,
            "lng": 109.611297
        },
        "ad_info": {
            "adcode": 460400,
            "province": "海南省",
            "city": "儋州市",
            "district": "儋州市"
        }
    },
    {
        "id": "13308368040699001015",
        "title": "公共厕所",
        "address": "海南省儋州市港东路与瀚洋路交叉口正东方向41米左右",
        "tel": "",
        "category": "基础设施:公共设施:公共厕所",
        "type": 0,
        "location": {
            "lat": 19.729878,
            "lng": 109.209777
        },
        "ad_info": {
            "adcode": 460400,
            "province": "海南省",
            "city": "儋州市",
            "district": "儋州市"
        }
    },
    {
        "id": "7487741775731099784",
        "title": "热科院试验场一队公共厕所",
        "address": "海南省儋州市",
        "tel": "",
        "category": "基础设施:公共设施:公共厕所",
        "type": 0,
        "location": {
            "lat": 19.557876,
            "lng": 109.507246
        },
        "ad_info": {
            "adcode": 460400,
            "province": "海南省",
            "city": "儋州市",
            "district": "儋州市"
        }
    },
    {
        "id": "17516899709969497674",
        "title": "美扶村二号公共厕所",
        "address": "海南省儋州市安程门业批发部西侧",
        "tel": "",
        "category": "基础设施:公共设施:公共厕所",
        "type": 0,
        "location": {
            "lat": 19.515632,
            "lng": 109.609482
        },
        "ad_info": {
            "adcode": 460400,
            "province": "海南省",
            "city": "儋州市",
            "district": "儋州市"
        }
    },
    {
        "id": "9897550550237539583",
        "title": "居里村公共厕所",
        "address": "海南省儋州市海南海殿堂食品有限公司(先锋西路北)",
        "tel": "13698957066",
        "category": "基础设施:公共设施:公共厕所",
        "type": 0,
        "location": {
            "lat": 19.516211,
            "lng": 109.55535
        },
        "ad_info": {
            "adcode": 460400,
            "province": "海南省",
            "city": "儋州市",
            "district": "儋州市"
        }
    },
    {
        "id": "4592725386423931525",
        "title": "新纪元公共厕所",
        "address": "海南省儋州市儋耳西路116号",
        "tel": "13698957066",
        "category": "基础设施:公共设施:公共厕所",
        "type": 0,
        "location": {
            "lat": 19.523493,
            "lng": 109.567914
        },
        "ad_info": {
            "adcode": 460400,
            "province": "海南省",
            "city": "儋州市",
            "district": "儋州市"
        }
    },
    {
        "id": "11342830386301558639",
        "title": "头潭村仓库公共厕所",
        "address": "海南省儋州市中兴大街与牙拉河路交叉口正东方向194米左右",
        "tel": "",
        "category": "基础设施:公共设施:公共厕所",
        "type": 0,
        "location": {
            "lat": 19.519837,
            "lng": 109.539896
        },
        "ad_info": {
            "adcode": 460400,
            "province": "海南省",
            "city": "儋州市",
            "district": "儋州市"
        }
    },
    {
        "id": "2365467364657504626",
        "title": "公共厕所",
        "address": "海南省儋州市儋州市第三中学西北300米",
        "tel": "",
        "category": "基础设施:公共设施:公共厕所",
        "type": 0,
        "location": {
            "lat": 19.504979,
            "lng": 109.563867
        },
        "ad_info": {
            "adcode": 460400,
            "province": "海南省",
            "city": "儋州市",
            "district": "儋州市"
        }
    },
    {
        "id": "5659805129244422658",
        "title": "菜园村公共厕所",
        "address": "海南省儋州市人民中路与人民西路交叉口东南方向272米左右",
        "tel": "",
        "category": "基础设施:公共设施:公共厕所",
        "type": 0,
        "location": {
            "lat": 19.50718,
            "lng": 109.565002
        },
        "ad_info": {
            "adcode": 460400,
            "province": "海南省",
            "city": "儋州市",
            "district": "儋州市"
        }
    },
    {
        "id": "13110829636039799423",
        "title": "建设路公共厕所",
        "address": "海南省儋州市建设路与新生街交叉口西南方向153米左右",
        "tel": "13698957066",
        "category": "基础设施:公共设施:公共厕所",
        "type": 0,
        "location": {
            "lat": 19.508937,
            "lng": 109.56686
        },
        "ad_info": {
            "adcode": 460400,
            "province": "海南省",
            "city": "儋州市",
            "district": "儋州市"
        }
    },
    {
        "id": "18289487423015475962",
        "title": "西湖公园(一)公共厕所",
        "address": "海南省儋州市军屯三街与军屯西十巷交叉口东北方向138米左右",
        "tel": "13698957066",
        "category": "基础设施:公共设施:公共厕所",
        "type": 0,
        "location": {
            "lat": 19.524096,
            "lng": 109.565814
        },
        "ad_info": {
            "adcode": 460400,
            "province": "海南省",
            "city": "儋州市",
            "district": "儋州市"
        }
    },
    {
        "id": "8706285276250496469",
        "title": "那大第二小学公共厕所",
        "address": "海南省儋州市那大第二小学",
        "tel": "13698957066",
        "category": "基础设施:公共设施:公共厕所",
        "type": 0,
        "location": {
            "lat": 19.503831,
            "lng": 109.568851
        },
        "ad_info": {
            "adcode": 460400,
            "province": "海南省",
            "city": "儋州市",
            "district": "儋州市"
        }
    },
    {
        "id": "8474336749219718699",
        "title": "儋州市火山海岸驿站公共厕所",
        "address": "海南省儋州市火山海岸驿站",
        "tel": "",
        "category": "基础设施:公共设施:公共厕所",
        "type": 0,
        "location": {
            "lat": 19.906122,
            "lng": 109.326398
        },
        "ad_info": {
            "adcode": 460400,
            "province": "海南省",
            "city": "儋州市",
            "district": "儋州市"
        }
    },
    {
        "id": "17512124062501886537",
        "title": "公共厕所",
        "address": "海南省儋州市油棕市场转运站",
        "tel": "13698957066",
        "category": "基础设施:公共设施:公共厕所",
        "type": 0,
        "location": {
            "lat": 19.530918,
            "lng": 109.579813
        },
        "ad_info": {
            "adcode": 460400,
            "province": "海南省",
            "city": "儋州市",
            "district": "儋州市"
        }
    },
    {
        "id": "2654658930642131172",
        "title": "热科院试验场一队公共厕所",
        "address": "海南省儋州市联昌",
        "tel": "18689650972;13807552989",
        "category": "基础设施:公共设施:公共厕所",
        "type": 0,
        "location": {
            "lat": 19.557881,
            "lng": 109.507628
        },
        "ad_info": {
            "adcode": 460400,
            "province": "海南省",
            "city": "儋州市",
            "district": "儋州市"
        }
    },
    {
        "id": "3429343790020783608",
        "title": "博文学校公共厕所",
        "address": "海南省儋州市体育中心北路与美迎路交叉口东北方向106米左右",
        "tel": "18389360951",
        "category": "基础设施:公共设施:公共厕所",
        "type": 0,
        "location": {
            "lat": 19.527368,
            "lng": 109.609658
        },
        "ad_info": {
            "adcode": 460400,
            "province": "海南省",
            "city": "儋州市",
            "district": "儋州市"
        }
    },
    {
        "id": "15364238667015875308",
        "title": "美乐街公共厕所",
        "address": "海南省儋州市国盛西路与美乐二街交叉口正东方向150米左右",
        "tel": "13698957066",
        "category": "基础设施:公共设施:公共厕所",
        "type": 0,
        "location": {
            "lat": 19.532614,
            "lng": 109.57201
        },
        "ad_info": {
            "adcode": 460400,
            "province": "海南省",
            "city": "儋州市",
            "district": "儋州市"
        }
    },
    {
        "id": "17440558908438417186",
        "title": "公共厕所",
        "address": "海南省儋州市滨海大道100号",
        "tel": "",
        "category": "基础设施:公共设施:公共厕所",
        "type": 0,
        "location": {
            "lat": 19.65397,
            "lng": 109.176957
        },
        "ad_info": {
            "adcode": 460400,
            "province": "海南省",
            "city": "儋州市",
            "district": "儋州市"
        }
    },
    {
        "id": "4687695468273868052",
        "title": "公共厕所",
        "address": "海南省儋州市纬十路与经十六路交叉口正东方向220米左右",
        "tel": "",
        "category": "基础设施:公共设施:公共厕所",
        "type": 0,
        "location": {
            "lat": 19.649469,
            "lng": 109.165208
        },
        "ad_info": {
            "adcode": 460400,
            "province": "海南省",
            "city": "儋州市",
            "district": "儋州市"
        }
    },
    {
        "id": "7565070571180769521",
        "title": "海南银行公共厕所",
        "address": "海南省儋州市海南银行(儋州分行营业部)东50米",
        "tel": "13698957066",
        "category": "基础设施:公共设施:公共厕所",
        "type": 0,
        "location": {
            "lat": 19.520094,
            "lng": 109.578064
        },
        "ad_info": {
            "adcode": 460400,
            "province": "海南省",
            "city": "儋州市",
            "district": "儋州市"
        }
    },
    {
        "id": "12339976593868369893",
        "title": "公共厕所",
        "address": "海南省儋州市市体育场内",
        "tel": "13698957066",
        "category": "基础设施:公共设施:公共厕所",
        "type": 0,
        "location": {
            "lat": 19.524042,
            "lng": 109.61252
        },
        "ad_info": {
            "adcode": 460400,
            "province": "海南省",
            "city": "儋州市",
            "district": "儋州市"
        }
    },
    {
        "id": "7643873569577587213",
        "title": "大戏院公共厕所",
        "address": "海南省儋州市城达路与先锋路六街交叉口东80米",
        "tel": "13698957066",
        "category": "基础设施:公共设施:公共厕所",
        "type": 0,
        "location": {
            "lat": 19.518577,
            "lng": 109.578601
        },
        "ad_info": {
            "adcode": 460400,
            "province": "海南省",
            "city": "儋州市",
            "district": "儋州市"
        }
    },
    {
        "id": "1561440055820158165",
        "title": "怡心花园北公共厕所",
        "address": "海南省儋州市学风路与新区路交叉口东南方向34米左右",
        "tel": "13698957066",
        "category": "基础设施:公共设施:公共厕所",
        "type": 0,
        "location": {
            "lat": 19.541135,
            "lng": 109.589
        },
        "ad_info": {
            "adcode": 460400,
            "province": "海南省",
            "city": "儋州市",
            "district": "儋州市"
        }
    },
    {
        "id": "13907089064701121043",
        "title": "鱼骨桥北停车区临时厕所",
        "address": "海南省儋州市峨蔓镇鱼骨桥北停车区",
        "tel": "",
        "category": "基础设施:公共设施:公共厕所",
        "type": 0,
        "location": {
            "lat": 19.912719,
            "lng": 109.302526
        },
        "ad_info": {
            "adcode": 460400,
            "province": "海南省",
            "city": "儋州市",
            "district": "儋州市"
        }
    },
    {
        "id": "12115004183962770078",
        "title": "运动员村公共厕所",
        "address": "海南省儋州市体育中心路与支二路交叉口正南方向89米左右",
        "tel": "18389360951",
        "category": "基础设施:公共设施:公共厕所",
        "type": 0,
        "location": {
            "lat": 19.523642,
            "lng": 109.616469
        },
        "ad_info": {
            "adcode": 460400,
            "province": "海南省",
            "city": "儋州市",
            "district": "儋州市"
        }
    },
    {
        "id": "12129441101628855483",
        "title": "西湖公园(二)公共厕所",
        "address": "海南省儋州市军屯市场路与前进路交叉口正西方向125米左右",
        "tel": "13698957066",
        "category": "基础设施:公共设施:公共厕所",
        "type": 0,
        "location": {
            "lat": 19.526078,
            "lng": 109.566991
        },
        "ad_info": {
            "adcode": 460400,
            "province": "海南省",
            "city": "儋州市",
            "district": "儋州市"
        }
    },
    {
        "id": "392727236340316804",
        "title": "那大商场公共厕所",
        "address": "海南省儋州市那大商场停车场旁",
        "tel": "",
        "category": "基础设施:公共设施:公共厕所",
        "type": 0,
        "location": {
            "lat": 19.51156,
            "lng": 109.569721
        },
        "ad_info": {
            "adcode": 460400,
            "province": "海南省",
            "city": "儋州市",
            "district": "儋州市"
        }
    },
    {
        "id": "2921779237318420534",
        "title": "华海夜市无障碍公共厕所",
        "address": "海南省儋州市华盛路与发源北路交叉口正北方向142米左右",
        "tel": "13698957066",
        "category": "基础设施:公共设施:公共厕所",
        "type": 0,
        "location": {
            "lat": 19.534811,
            "lng": 109.580038
        },
        "ad_info": {
            "adcode": 460400,
            "province": "海南省",
            "city": "儋州市",
            "district": "儋州市"
        }
    },
    {
        "id": "5127558642897404734",
        "title": "德义路公共厕所",
        "address": "海南省儋州市国盛西路与国盛路交叉口正北方向49米左右",
        "tel": "13698957066",
        "category": "基础设施:公共设施:公共厕所",
        "type": 0,
        "location": {
            "lat": 19.537259,
            "lng": 109.577387
        },
        "ad_info": {
            "adcode": 460400,
            "province": "海南省",
            "city": "儋州市",
            "district": "儋州市"
        }
    },
    {
        "id": "13141360104078414190",
        "title": "紫薇路公共厕所",
        "address": "海南省儋州市紫薇路与茶山路交叉口西北方向71米左右",
        "tel": "13698957066",
        "category": "基础设施:公共设施:公共厕所",
        "type": 0,
        "location": {
            "lat": 19.53753,
            "lng": 109.597048
        },
        "ad_info": {
            "adcode": 460400,
            "province": "海南省",
            "city": "儋州市",
            "district": "儋州市"
        }
    },
    {
        "id": "12897088069301103274",
        "title": "卫生间",
        "address": "海南省儋州市吉浦路与普瑞街交叉口正西方向170米左右",
        "tel": "",
        "category": "基础设施:公共设施:公共厕所",
        "type": 0,
        "location": {
            "lat": 19.734124,
            "lng": 109.20538
        },
        "ad_info": {
            "adcode": 460400,
            "province": "海南省",
            "city": "儋州市",
            "district": "儋州市"
        }
    },
    {
        "id": "1339481019086887114",
        "title": "华海夜市公共厕所",
        "address": "海南省儋州市华海夜市里面末端(演艺厅左边)",
        "tel": "",
        "category": "基础设施:公共设施:公共厕所",
        "type": 0,
        "location": {
            "lat": 19.535038,
            "lng": 109.579768
        },
        "ad_info": {
            "adcode": 460400,
            "province": "海南省",
            "city": "儋州市",
            "district": "儋州市"
        }
    },
    {
        "id": "17909952708240851658",
        "title": "那大第九小学公共厕所",
        "address": "海南省儋州市九祥路与九祥路八街交叉口西南方向120米左右",
        "tel": "13698957066",
        "category": "基础设施:公共设施:公共厕所",
        "type": 0,
        "location": {
            "lat": 19.532994,
            "lng": 109.577537
        },
        "ad_info": {
            "adcode": 460400,
            "province": "海南省",
            "city": "儋州市",
            "district": "儋州市"
        }
    },
    {
        "id": "7811416055177010925",
        "title": "农垦南路公共厕所",
        "address": "海南省儋州市农垦南路5号",
        "tel": "13698957066",
        "category": "基础设施:公共设施:公共厕所",
        "type": 0,
        "location": {
            "lat": 19.507943,
            "lng": 109.577493
        },
        "ad_info": {
            "adcode": 460400,
            "province": "海南省",
            "city": "儋州市",
            "district": "儋州市"
        }
    },
    {
        "id": "17768163929061885700",
        "title": "洋浦服务区公共厕所",
        "address": "海南省儋州市与G98海南环岛高速交叉口北100米",
        "tel": "",
        "category": "基础设施:公共设施:公共厕所",
        "type": 0,
        "location": {
            "lat": 19.73393,
            "lng": 109.458534
        },
        "ad_info": {
            "adcode": 460400,
            "province": "海南省",
            "city": "儋州市",
            "district": "儋州市"
        }
    },
    {
        "id": "5514101084719261271",
        "title": "两院动物园公共厕所",
        "address": "海南省儋州市植物园路与海榆西线交叉口正西方向186米左右",
        "tel": "",
        "category": "基础设施:公共设施:公共厕所",
        "type": 0,
        "location": {
            "lat": 19.50059,
            "lng": 109.51187
        },
        "ad_info": {
            "adcode": 460400,
            "province": "海南省",
            "city": "儋州市",
            "district": "儋州市"
        }
    },
    {
        "id": "18476425219605163",
        "title": "雅拉河大道公共厕所",
        "address": "海南省儋州市中兴大街与牙拉路交叉口东南方向182米左右",
        "tel": "13976783473",
        "category": "基础设施:公共设施:公共厕所",
        "type": 0,
        "location": {
            "lat": 19.513104,
            "lng": 109.531012
        },
        "ad_info": {
            "adcode": 460400,
            "province": "海南省",
            "city": "儋州市",
            "district": "儋州市"
        }
    },
    {
        "id": "2997970742151675993",
        "title": "那大糖厂公共厕所",
        "address": "海南省儋州市人民西路501号",
        "tel": "",
        "category": "基础设施:公共设施:公共厕所",
        "type": 0,
        "location": {
            "lat": 19.504527,
            "lng": 109.555868
        },
        "ad_info": {
            "adcode": 460400,
            "province": "海南省",
            "city": "儋州市",
            "district": "儋州市"
        }
    },
    {
        "id": "5130255167494044577",
        "title": "公共厕所",
        "address": "海南省儋州市八一南路与曙光南路交叉口正南方向123米左右",
        "tel": "",
        "category": "基础设施:公共设施:公共厕所",
        "type": 0,
        "location": {
            "lat": 19.449324,
            "lng": 109.310406
        },
        "ad_info": {
            "adcode": 460400,
            "province": "海南省",
            "city": "儋州市",
            "district": "儋州市"
        }
    },
    {
        "id": "1526436029560615794",
        "title": "公共厕所",
        "address": "海南省儋州市北部湾大道与联港南路交叉口西北方向1335米左右",
        "tel": "",
        "category": "基础设施:公共设施:公共厕所",
        "type": 0,
        "location": {
            "lat": 19.5848,
            "lng": 109.545982
        },
        "ad_info": {
            "adcode": 460400,
            "province": "海南省",
            "city": "儋州市",
            "district": "儋州市"
        }
    },
    {
        "id": "15999406744636456713",
        "title": "公共厕所",
        "address": "海南省儋州市先锋路与农垦北路交叉口正西方向89米左右",
        "tel": "",
        "category": "基础设施:公共设施:公共厕所",
        "type": 0,
        "location": {
            "lat": 19.516647,
            "lng": 109.579384
        },
        "ad_info": {
            "adcode": 460400,
            "province": "海南省",
            "city": "儋州市",
            "district": "儋州市"
        }
    },
    {
        "id": "3515638709525782721",
        "title": "公共厕所",
        "address": "海南省儋州市前进路与北部湾大道交叉口西北方向193米左右",
        "tel": "",
        "category": "基础设施:公共设施:公共厕所",
        "type": 0,
        "location": {
            "lat": 19.564763,
            "lng": 109.56449
        },
        "ad_info": {
            "adcode": 460400,
            "province": "海南省",
            "city": "儋州市",
            "district": "儋州市"
        }
    },
    {
        "id": "12420288326989369905",
        "title": "公共厕所",
        "address": "海南省儋州市排浦镇滨海大道100号中国海南海花岛内",
        "tel": "",
        "category": "基础设施:公共设施:公共厕所",
        "type": 0,
        "location": {
            "lat": 19.655619,
            "lng": 109.173354
        },
        "ad_info": {
            "adcode": 460400,
            "province": "海南省",
            "city": "儋州市",
            "district": "儋州市"
        }
    },
    {
        "id": "14499989725682191131",
        "title": "公共厕所",
        "address": "海南省儋州市海花路与滨海大道辅路交叉口西北方向902米左右",
        "tel": "",
        "category": "基础设施:公共设施:公共厕所",
        "type": 0,
        "location": {
            "lat": 19.656302,
            "lng": 109.178485
        },
        "ad_info": {
            "adcode": 460400,
            "province": "海南省",
            "city": "儋州市",
            "district": "儋州市"
        }
    },
    {
        "id": "1393482289479598198",
        "title": "公共厕所",
        "address": "海南省儋州市北部湾大道与滨海大道交叉口西南方向222米左右",
        "tel": "",
        "category": "基础设施:公共设施:公共厕所",
        "type": 0,
        "location": {
            "lat": 19.73988,
            "lng": 109.183369
        },
        "ad_info": {
            "adcode": 460400,
            "province": "海南省",
            "city": "儋州市",
            "district": "儋州市"
        }
    },
    {
        "id": "9080745903267912540",
        "title": "公共厕所",
        "address": "海南省儋州市环岛三西路与纬九南路交叉口正西方向1377米左右",
        "tel": "",
        "category": "基础设施:公共设施:公共厕所",
        "type": 0,
        "location": {
            "lat": 19.666839,
            "lng": 109.178073
        },
        "ad_info": {
            "adcode": 460400,
            "province": "海南省",
            "city": "儋州市",
            "district": "儋州市"
        }
    },
    {
        "id": "7999357793608236729",
        "title": "公共厕所",
        "address": "海南省儋州市峨蔓觅古养护工区东南侧",
        "tel": "",
        "category": "基础设施:公共设施:公共厕所",
        "type": 0,
        "location": {
            "lat": 19.838606,
            "lng": 109.247953
        },
        "ad_info": {
            "adcode": 460400,
            "province": "海南省",
            "city": "儋州市",
            "district": "儋州市"
        }
    },
    {
        "id": "17442052988257925020",
        "title": "军屯市场公共厕所",
        "address": "海南省儋州市东坡路96号",
        "tel": "13698957066",
        "category": "基础设施:公共设施:公共厕所",
        "type": 0,
        "location": {
            "lat": 19.526234,
            "lng": 109.57001
        },
        "ad_info": {
            "adcode": 460400,
            "province": "海南省",
            "city": "儋州市",
            "district": "儋州市"
        }
    },
    {
        "id": "3845645937934461965",
        "title": "峨珍停车区临时厕所",
        "address": "海南省儋州市木棠镇峨珍村峨珍停车区",
        "tel": "",
        "category": "基础设施:公共设施:公共厕所",
        "type": 0,
        "location": {
            "lat": 19.88043,
            "lng": 109.357613
        },
        "ad_info": {
            "adcode": 460400,
            "province": "海南省",
            "city": "儋州市",
            "district": "儋州市"
        }
    },
    {
        "id": "5419611886736169906",
        "title": "公共厕所",
        "address": "海南省儋州市Y133与海南环岛旅游公路交叉口西南方向217米左右",
        "tel": "",
        "category": "基础设施:公共设施:公共厕所",
        "type": 0,
        "location": {
            "lat": 19.882784,
            "lng": 109.268162
        },
        "ad_info": {
            "adcode": 460400,
            "province": "海南省",
            "city": "儋州市",
            "district": "儋州市"
        }
    },
    {
        "id": "3143227133814980033",
        "title": "公共厕所",
        "address": "海南省儋州市光村调声停车区北侧",
        "tel": "",
        "category": "基础设施:公共设施:公共厕所",
        "type": 0,
        "location": {
            "lat": 19.835989,
            "lng": 109.496883
        },
        "ad_info": {
            "adcode": 460400,
            "province": "海南省",
            "city": "儋州市",
            "district": "儋州市"
        }
    },
    {
        "id": "5233649393190307922",
        "title": "儋州市儋耳追光驿站公共厕所",
        "address": "海南省儋州市达克云汽车充电站(儋耳追光驿站充电站)西北侧",
        "tel": "",
        "category": "基础设施:公共设施:公共厕所",
        "type": 0,
        "location": {
            "lat": 19.853214,
            "lng": 109.434123
        },
        "ad_info": {
            "adcode": 460400,
            "province": "海南省",
            "city": "儋州市",
            "district": "儋州市"
        }
    }
]