[
    {
        "id": "1757678772829098616",
        "title": "公共厕所",
        "address": "新疆维吾尔自治区克孜勒苏柯尔克孜自治州阿图什市文化路与群众路交叉口东北方向68米左右",
        "tel": "",
        "category": "基础设施:公共设施:公共厕所",
        "type": 0,
        "location": {
            "lat": 39.714525,
            "lng": 76.178145
        },
        "ad_info": {
            "adcode": 653001,
            "province": "新疆维吾尔自治区",
            "city": "克孜勒苏柯尔克孜自治州",
            "district": "阿图什市"
        }
    },
    {
        "id": "123293719077108824",
        "title": "公共厕所",
        "address": "新疆维吾尔自治区克孜勒苏柯尔克孜自治州阿图什市吉米提拉路博格拉时代购物广场",
        "tel": "",
        "category": "基础设施:公共设施:公共厕所",
        "type": 0,
        "location": {
            "lat": 39.715359,
            "lng": 76.170677
        },
        "ad_info": {
            "adcode": 653001,
            "province": "新疆维吾尔自治区",
            "city": "克孜勒苏柯尔克孜自治州",
            "district": "阿图什市"
        }
    },
    {
        "id": "6805496285022064801",
        "title": "公共厕所",
        "address": "新疆维吾尔自治区克孜勒苏柯尔克孜自治州阿图什市幸福路体育公园(东侧)",
        "tel": "",
        "category": "基础设施:公共设施:公共厕所",
        "type": 0,
        "location": {
            "lat": 39.70338,
            "lng": 76.181557
        },
        "ad_info": {
            "adcode": 653001,
            "province": "新疆维吾尔自治区",
            "city": "克孜勒苏柯尔克孜自治州",
            "district": "阿图什市"
        }
    },
    {
        "id": "6133475956192762331",
        "title": "公共厕所",
        "address": "新疆维吾尔自治区克孜勒苏柯尔克孜自治州阿图什市天山路与松他克路交叉口东南方向206米左右",
        "tel": "",
        "category": "基础设施:公共设施:公共厕所",
        "type": 0,
        "location": {
            "lat": 39.712971,
            "lng": 76.172479
        },
        "ad_info": {
            "adcode": 653001,
            "province": "新疆维吾尔自治区",
            "city": "克孜勒苏柯尔克孜自治州",
            "district": "阿图什市"
        }
    },
    {
        "id": "4368858737531823812",
        "title": "公共厕所",
        "address": "新疆维吾尔自治区克孜勒苏柯尔克孜自治州阿图什市松他克路与群众路交叉口西南方向242米左右",
        "tel": "",
        "category": "基础设施:公共设施:公共厕所",
        "type": 0,
        "location": {
            "lat": 39.70991,
            "lng": 76.172301
        },
        "ad_info": {
            "adcode": 653001,
            "province": "新疆维吾尔自治区",
            "city": "克孜勒苏柯尔克孜自治州",
            "district": "阿图什市"
        }
    },
    {
        "id": "1479871232671934172",
        "title": "公共厕所",
        "address": "新疆维吾尔自治区克孜勒苏柯尔克孜自治州乌恰县奋进路与幸福路交叉口东南方向1796米左右",
        "tel": "",
        "category": "基础设施:公共设施:公共厕所",
        "type": 0,
        "location": {
            "lat": 39.695662,
            "lng": 75.290727
        },
        "ad_info": {
            "adcode": 653024,
            "province": "新疆维吾尔自治区",
            "city": "克孜勒苏柯尔克孜自治州",
            "district": "乌恰县"
        }
    },
    {
        "id": "12413433860158215999",
        "title": "公共厕所",
        "address": "新疆维吾尔自治区克孜勒苏柯尔克孜自治州阿图什市团结路与阿孜汗路交叉口东南方向75米左右",
        "tel": "",
        "category": "基础设施:公共设施:公共厕所",
        "type": 0,
        "location": {
            "lat": 39.702775,
            "lng": 76.175651
        },
        "ad_info": {
            "adcode": 653001,
            "province": "新疆维吾尔自治区",
            "city": "克孜勒苏柯尔克孜自治州",
            "district": "阿图什市"
        }
    },
    {
        "id": "4685652778412444699",
        "title": "公共厕所",
        "address": "新疆维吾尔自治区克孜勒苏柯尔克孜自治州乌恰县G315与和谐大道交叉口正东方向277米左右",
        "tel": "",
        "category": "基础设施:公共设施:公共厕所",
        "type": 0,
        "location": {
            "lat": 39.762617,
            "lng": 75.596735
        },
        "ad_info": {
            "adcode": 653024,
            "province": "新疆维吾尔自治区",
            "city": "克孜勒苏柯尔克孜自治州",
            "district": "乌恰县"
        }
    },
    {
        "id": "16851921736503258705",
        "title": "公共厕所",
        "address": "新疆维吾尔自治区克孜勒苏柯尔克孜自治州阿克陶县北京北路与建设东路交叉口东南方向119米左右",
        "tel": "",
        "category": "基础设施:公共设施:公共厕所",
        "type": 0,
        "location": {
            "lat": 39.154251,
            "lng": 75.940111
        },
        "ad_info": {
            "adcode": 653022,
            "province": "新疆维吾尔自治区",
            "city": "克孜勒苏柯尔克孜自治州",
            "district": "阿克陶县"
        }
    },
    {
        "id": "4983791081499726260",
        "title": "公共厕所",
        "address": "新疆维吾尔自治区克孜勒苏柯尔克孜自治州阿合奇县G219与哈拉布拉克路交叉口东北方向688米左右",
        "tel": "",
        "category": "基础设施:公共设施:公共厕所",
        "type": 0,
        "location": {
            "lat": 40.790659,
            "lng": 77.590182
        },
        "ad_info": {
            "adcode": 653023,
            "province": "新疆维吾尔自治区",
            "city": "克孜勒苏柯尔克孜自治州",
            "district": "阿合奇县"
        }
    },
    {
        "id": "18155132963106614560",
        "title": "公共厕所",
        "address": "新疆维吾尔自治区克孜勒苏柯尔克孜自治州阿图什市阿吐段",
        "tel": "",
        "category": "基础设施:公共设施:公共厕所",
        "type": 0,
        "location": {
            "lat": 39.885326,
            "lng": 76.045911
        },
        "ad_info": {
            "adcode": 653001,
            "province": "新疆维吾尔自治区",
            "city": "克孜勒苏柯尔克孜自治州",
            "district": "阿图什市"
        }
    },
    {
        "id": "1886004490244354907",
        "title": "公共厕所",
        "address": "新疆维吾尔自治区克孜勒苏柯尔克孜自治州阿图什市G314与友谊路交叉口东北方向83米左右",
        "tel": "",
        "category": "基础设施:公共设施:公共厕所",
        "type": 0,
        "location": {
            "lat": 39.73107,
            "lng": 76.177378
        },
        "ad_info": {
            "adcode": 653001,
            "province": "新疆维吾尔自治区",
            "city": "克孜勒苏柯尔克孜自治州",
            "district": "阿图什市"
        }
    },
    {
        "id": "17686811376900309840",
        "title": "公共厕所",
        "address": "新疆维吾尔自治区克孜勒苏柯尔克孜自治州阿克陶县人民东路与人民西路交叉口西北方向44米左右",
        "tel": "",
        "category": "基础设施:公共设施:公共厕所",
        "type": 0,
        "location": {
            "lat": 39.146356,
            "lng": 75.944336
        },
        "ad_info": {
            "adcode": 653022,
            "province": "新疆维吾尔自治区",
            "city": "克孜勒苏柯尔克孜自治州",
            "district": "阿克陶县"
        }
    },
    {
        "id": "16469644631861670665",
        "title": "公共厕所",
        "address": "新疆维吾尔自治区克孜勒苏柯尔克孜自治州阿克陶县北京北路与幸福东路交叉口东北方向123米左右",
        "tel": "",
        "category": "基础设施:公共设施:公共厕所",
        "type": 0,
        "location": {
            "lat": 39.149182,
            "lng": 75.943872
        },
        "ad_info": {
            "adcode": 653022,
            "province": "新疆维吾尔自治区",
            "city": "克孜勒苏柯尔克孜自治州",
            "district": "阿克陶县"
        }
    },
    {
        "id": "4933193202948629893",
        "title": "公共厕所",
        "address": "新疆维吾尔自治区克孜勒苏柯尔克孜自治州阿克陶县人民东路江西二大道生态公园",
        "tel": "",
        "category": "基础设施:公共设施:公共厕所",
        "type": 0,
        "location": {
            "lat": 39.160828,
            "lng": 75.970272
        },
        "ad_info": {
            "adcode": 653022,
            "province": "新疆维吾尔自治区",
            "city": "克孜勒苏柯尔克孜自治州",
            "district": "阿克陶县"
        }
    },
    {
        "id": "5927987859039912681",
        "title": "公共厕所",
        "address": "新疆维吾尔自治区克孜勒苏柯尔克孜自治州阿图什市心愿美食旅游园西北侧180米",
        "tel": "",
        "category": "基础设施:公共设施:公共厕所",
        "type": 0,
        "location": {
            "lat": 39.737169,
            "lng": 76.123213
        },
        "ad_info": {
            "adcode": 653001,
            "province": "新疆维吾尔自治区",
            "city": "克孜勒苏柯尔克孜自治州",
            "district": "阿图什市"
        }
    },
    {
        "id": "10966118358464042934",
        "title": "厕所",
        "address": "新疆维吾尔自治区克孜勒苏柯尔克孜自治州阿克陶县光明东路与昆仑路交叉口东北方向17米左右",
        "tel": "",
        "category": "基础设施:公共设施:公共厕所",
        "type": 0,
        "location": {
            "lat": 39.160374,
            "lng": 75.974053
        },
        "ad_info": {
            "adcode": 653022,
            "province": "新疆维吾尔自治区",
            "city": "克孜勒苏柯尔克孜自治州",
            "district": "阿克陶县"
        }
    },
    {
        "id": "6642629792160248791",
        "title": "公共厕所",
        "address": "新疆维吾尔自治区克孜勒苏柯尔克孜自治州阿克陶县314国道",
        "tel": "",
        "category": "基础设施:公共设施:公共厕所",
        "type": 0,
        "location": {
            "lat": 39.009254,
            "lng": 75.55969
        },
        "ad_info": {
            "adcode": 653022,
            "province": "新疆维吾尔自治区",
            "city": "克孜勒苏柯尔克孜自治州",
            "district": "阿克陶县"
        }
    },
    {
        "id": "15839444341980140376",
        "title": "公共厕所",
        "address": "新疆维吾尔自治区克孜勒苏柯尔克孜自治州阿克陶县昆仑路与江西大道交叉口正东方向41米左右",
        "tel": "",
        "category": "基础设施:公共设施:公共厕所",
        "type": 0,
        "location": {
            "lat": 39.163017,
            "lng": 75.972458
        },
        "ad_info": {
            "adcode": 653022,
            "province": "新疆维吾尔自治区",
            "city": "克孜勒苏柯尔克孜自治州",
            "district": "阿克陶县"
        }
    },
    {
        "id": "14474255270079947756",
        "title": "公共厕所",
        "address": "新疆维吾尔自治区克孜勒苏柯尔克孜自治州阿克陶县克孜勒陶乡艾杰克村",
        "tel": "",
        "category": "基础设施:公共设施:公共厕所",
        "type": 0,
        "location": {
            "lat": 38.920813,
            "lng": 75.254593
        },
        "ad_info": {
            "adcode": 653022,
            "province": "新疆维吾尔自治区",
            "city": "克孜勒苏柯尔克孜自治州",
            "district": "阿克陶县"
        }
    },
    {
        "id": "936013164639783546",
        "title": "公共厕所",
        "address": "新疆维吾尔自治区克孜勒苏柯尔克孜自治州阿克陶县幸福西路大清真寺旁",
        "tel": "",
        "category": "基础设施:公共设施:公共厕所",
        "type": 0,
        "location": {
            "lat": 39.147002,
            "lng": 75.938118
        },
        "ad_info": {
            "adcode": 653022,
            "province": "新疆维吾尔自治区",
            "city": "克孜勒苏柯尔克孜自治州",
            "district": "阿克陶县"
        }
    },
    {
        "id": "935446311406093585",
        "title": "公共厕所",
        "address": "新疆维吾尔自治区克孜勒苏柯尔克孜自治州阿图什市306省道西50米",
        "tel": "",
        "category": "基础设施:公共设施:公共厕所",
        "type": 0,
        "location": {
            "lat": 40.1786,
            "lng": 76.847875
        },
        "ad_info": {
            "adcode": 653001,
            "province": "新疆维吾尔自治区",
            "city": "克孜勒苏柯尔克孜自治州",
            "district": "阿图什市"
        }
    },
    {
        "id": "15905251141354590398",
        "title": "公共厕所",
        "address": "新疆维吾尔自治区克孜勒苏柯尔克孜自治州阿克陶县人民东路与公格尔北路交叉口西南方向269米左右",
        "tel": "",
        "category": "基础设施:公共设施:公共厕所",
        "type": 0,
        "location": {
            "lat": 39.147896,
            "lng": 75.948528
        },
        "ad_info": {
            "adcode": 653022,
            "province": "新疆维吾尔自治区",
            "city": "克孜勒苏柯尔克孜自治州",
            "district": "阿克陶县"
        }
    },
    {
        "id": "10830443941690935897",
        "title": "公共厕所",
        "address": "新疆维吾尔自治区克孜勒苏柯尔克孜自治州阿克陶县北京北路与团结北路交叉口正南方向256米左右",
        "tel": "",
        "category": "基础设施:公共设施:公共厕所",
        "type": 0,
        "location": {
            "lat": 39.150819,
            "lng": 75.940493
        },
        "ad_info": {
            "adcode": 653022,
            "province": "新疆维吾尔自治区",
            "city": "克孜勒苏柯尔克孜自治州",
            "district": "阿克陶县"
        }
    },
    {
        "id": "4076057038497023215",
        "title": "公共厕所",
        "address": "新疆维吾尔自治区克孜勒苏柯尔克孜自治州阿图什市213省道西50米",
        "tel": "",
        "category": "基础设施:公共设施:公共厕所",
        "type": 0,
        "location": {
            "lat": 39.776362,
            "lng": 76.633192
        },
        "ad_info": {
            "adcode": 653001,
            "province": "新疆维吾尔自治区",
            "city": "克孜勒苏柯尔克孜自治州",
            "district": "阿图什市"
        }
    },
    {
        "id": "10402499455452946484",
        "title": "公共厕所",
        "address": "新疆维吾尔自治区克孜勒苏柯尔克孜自治州阿图什市314国道南100米",
        "tel": "",
        "category": "基础设施:公共设施:公共厕所",
        "type": 0,
        "location": {
            "lat": 39.844029,
            "lng": 76.643802
        },
        "ad_info": {
            "adcode": 653001,
            "province": "新疆维吾尔自治区",
            "city": "克孜勒苏柯尔克孜自治州",
            "district": "阿图什市"
        }
    },
    {
        "id": "10031779296621497133",
        "title": "公共厕所",
        "address": "新疆维吾尔自治区克孜勒苏柯尔克孜自治州阿克陶县G314与康乌段交叉口正南方向1232米左右",
        "tel": "",
        "category": "基础设施:公共设施:公共厕所",
        "type": 0,
        "location": {
            "lat": 39.224843,
            "lng": 75.560402
        },
        "ad_info": {
            "adcode": 653022,
            "province": "新疆维吾尔自治区",
            "city": "克孜勒苏柯尔克孜自治州",
            "district": "阿克陶县"
        }
    },
    {
        "id": "5621730000684101344",
        "title": "幸福路公共厕所",
        "address": "新疆维吾尔自治区克孜勒苏柯尔克孜自治州阿图什市吾斯塘路西2院",
        "tel": "",
        "category": "基础设施:公共设施:公共厕所",
        "type": 0,
        "location": {
            "lat": 39.711453,
            "lng": 76.171219
        },
        "ad_info": {
            "adcode": 653001,
            "province": "新疆维吾尔自治区",
            "city": "克孜勒苏柯尔克孜自治州",
            "district": "阿图什市"
        }
    },
    {
        "id": "7729385172034558354",
        "title": "公共厕所",
        "address": "新疆维吾尔自治区克孜勒苏柯尔克孜自治州阿克陶县公格尔北路与幸福东路交叉口正北方向71米左右",
        "tel": "",
        "category": "基础设施:公共设施:公共厕所",
        "type": 0,
        "location": {
            "lat": 39.15201,
            "lng": 75.94885
        },
        "ad_info": {
            "adcode": 653022,
            "province": "新疆维吾尔自治区",
            "city": "克孜勒苏柯尔克孜自治州",
            "district": "阿克陶县"
        }
    },
    {
        "id": "5028666499869522238",
        "title": "公共厕所",
        "address": "新疆维吾尔自治区克孜勒苏柯尔克孜自治州阿图什市人民路与帕米尔路交叉口正南方向71米左右",
        "tel": "",
        "category": "基础设施:公共设施:公共厕所",
        "type": 0,
        "location": {
            "lat": 39.720465,
            "lng": 76.175166
        },
        "ad_info": {
            "adcode": 653001,
            "province": "新疆维吾尔自治区",
            "city": "克孜勒苏柯尔克孜自治州",
            "district": "阿图什市"
        }
    },
    {
        "id": "13963476298744414355",
        "title": "苏巴什服务区旅游公共厕所",
        "address": "新疆维吾尔自治区克孜勒苏柯尔克孜自治州阿克陶县苏巴什服务区",
        "tel": "",
        "category": "基础设施:公共设施:公共厕所",
        "type": 0,
        "location": {
            "lat": 38.412373,
            "lng": 75.04274
        },
        "ad_info": {
            "adcode": 653022,
            "province": "新疆维吾尔自治区",
            "city": "克孜勒苏柯尔克孜自治州",
            "district": "阿克陶县"
        }
    },
    {
        "id": "14202374034917208405",
        "title": "公共厕所",
        "address": "新疆维吾尔自治区克孜勒苏柯尔克孜自治州阿图什市友谊路与建设路交叉口东南方向172米左右",
        "tel": "",
        "category": "基础设施:公共设施:公共厕所",
        "type": 0,
        "location": {
            "lat": 39.715197,
            "lng": 76.186259
        },
        "ad_info": {
            "adcode": 653001,
            "province": "新疆维吾尔自治区",
            "city": "克孜勒苏柯尔克孜自治州",
            "district": "阿图什市"
        }
    },
    {
        "id": "3162079056214013886",
        "title": "克州奥依塔克冰川公园旅游公共厕所",
        "address": "新疆维吾尔自治区克孜勒苏柯尔克孜自治州阿克陶县G314与中巴友谊雪山路交叉口西北方向148米左右",
        "tel": "",
        "category": "基础设施:公共设施:公共厕所",
        "type": 0,
        "location": {
            "lat": 38.980147,
            "lng": 75.523393
        },
        "ad_info": {
            "adcode": 653022,
            "province": "新疆维吾尔自治区",
            "city": "克孜勒苏柯尔克孜自治州",
            "district": "阿克陶县"
        }
    },
    {
        "id": "7301136985051293207",
        "title": "公共厕所",
        "address": "新疆维吾尔自治区克孜勒苏柯尔克孜自治州阿图什市友谊路与天山路交叉口正西方向30米左右",
        "tel": "",
        "category": "基础设施:公共设施:公共厕所",
        "type": 0,
        "location": {
            "lat": 39.723082,
            "lng": 76.181031
        },
        "ad_info": {
            "adcode": 653001,
            "province": "新疆维吾尔自治区",
            "city": "克孜勒苏柯尔克孜自治州",
            "district": "阿图什市"
        }
    },
    {
        "id": "11387109078168067425",
        "title": "游客中心公共厕所",
        "address": "新疆维吾尔自治区克孜勒苏柯尔克孜自治州阿克陶县奥依",
        "tel": "",
        "category": "基础设施:公共设施:公共厕所",
        "type": 0,
        "location": {
            "lat": 39.011116,
            "lng": 75.558703
        },
        "ad_info": {
            "adcode": 653022,
            "province": "新疆维吾尔自治区",
            "city": "克孜勒苏柯尔克孜自治州",
            "district": "阿克陶县"
        }
    },
    {
        "id": "12469290029886756198",
        "title": "白山湖湿地公园移动旅游厕所",
        "address": "新疆维吾尔自治区克孜勒苏柯尔克孜自治州阿克陶县帕米尔路与幸福东路交叉口西北方向262米左右",
        "tel": "",
        "category": "基础设施:公共设施:公共厕所",
        "type": 0,
        "location": {
            "lat": 39.165405,
            "lng": 75.964431
        },
        "ad_info": {
            "adcode": 653022,
            "province": "新疆维吾尔自治区",
            "city": "克孜勒苏柯尔克孜自治州",
            "district": "阿克陶县"
        }
    },
    {
        "id": "6062560663821119325",
        "title": "公共厕所",
        "address": "新疆维吾尔自治区克孜勒苏柯尔克孜自治州阿克陶县G314与X391交叉口正北方向1883米左右",
        "tel": "18709081108",
        "category": "基础设施:公共设施:公共厕所",
        "type": 0,
        "location": {
            "lat": 39.13619,
            "lng": 75.586708
        },
        "ad_info": {
            "adcode": 653022,
            "province": "新疆维吾尔自治区",
            "city": "克孜勒苏柯尔克孜自治州",
            "district": "阿克陶县"
        }
    },
    {
        "id": "4317748796299175532",
        "title": "便民厕所",
        "address": "新疆维吾尔自治区克孜勒苏柯尔克孜自治州阿克陶县光明东路与白山路交叉口东北方向18米左右",
        "tel": "",
        "category": "基础设施:公共设施:公共厕所",
        "type": 0,
        "location": {
            "lat": 39.155652,
            "lng": 75.966912
        },
        "ad_info": {
            "adcode": 653022,
            "province": "新疆维吾尔自治区",
            "city": "克孜勒苏柯尔克孜自治州",
            "district": "阿克陶县"
        }
    },
    {
        "id": "687547253394501471",
        "title": "乌恰服务区第一公共厕所",
        "address": "新疆维吾尔自治区克孜勒苏柯尔克孜自治州乌恰县G3013吐伊高速附近",
        "tel": "",
        "category": "基础设施:公共设施:公共厕所",
        "type": 0,
        "location": {
            "lat": 39.681652,
            "lng": 75.332603
        },
        "ad_info": {
            "adcode": 653024,
            "province": "新疆维吾尔自治区",
            "city": "克孜勒苏柯尔克孜自治州",
            "district": "乌恰县"
        }
    },
    {
        "id": "3331632120995229744",
        "title": "阿图什服务区公共厕所",
        "address": "新疆维吾尔自治区克孜勒苏柯尔克孜自治州阿图什市G314与欧吐拉八羌桥交叉口东南方向1726米左右",
        "tel": "",
        "category": "基础设施:公共设施:公共厕所",
        "type": 0,
        "location": {
            "lat": 39.812893,
            "lng": 76.491915
        },
        "ad_info": {
            "adcode": 653001,
            "province": "新疆维吾尔自治区",
            "city": "克孜勒苏柯尔克孜自治州",
            "district": "阿图什市"
        }
    },
    {
        "id": "16298519379870494735",
        "title": "公共厕所",
        "address": "新疆维吾尔自治区克孜勒苏柯尔克孜自治州阿克陶县G314与中巴友谊雪山路交叉口西南方向181米左右",
        "tel": "",
        "category": "基础设施:公共设施:公共厕所",
        "type": 0,
        "location": {
            "lat": 38.977806,
            "lng": 75.523414
        },
        "ad_info": {
            "adcode": 653022,
            "province": "新疆维吾尔自治区",
            "city": "克孜勒苏柯尔克孜自治州",
            "district": "阿克陶县"
        }
    },
    {
        "id": "10884677081951135753",
        "title": "乌恰服务区公共厕所",
        "address": "新疆维吾尔自治区克孜勒苏柯尔克孜自治州乌恰县G3013阿乌高速与乌恰服务区交叉口西340米",
        "tel": "",
        "category": "基础设施:公共设施:公共厕所",
        "type": 0,
        "location": {
            "lat": 39.679677,
            "lng": 75.331237
        },
        "ad_info": {
            "adcode": 653024,
            "province": "新疆维吾尔自治区",
            "city": "克孜勒苏柯尔克孜自治州",
            "district": "乌恰县"
        }
    },
    {
        "id": "18194250513393901267",
        "title": "阿图什服务区第一公共厕所",
        "address": "新疆维吾尔自治区克孜勒苏柯尔克孜自治州阿图什市G314与欧吐拉八羌桥交叉口正东方向1694米左右",
        "tel": "",
        "category": "基础设施:公共设施:公共厕所",
        "type": 0,
        "location": {
            "lat": 39.816084,
            "lng": 76.493053
        },
        "ad_info": {
            "adcode": 653001,
            "province": "新疆维吾尔自治区",
            "city": "克孜勒苏柯尔克孜自治州",
            "district": "阿图什市"
        }
    },
    {
        "id": "8243070978711791228",
        "title": "乌恰服务区第二公共厕所",
        "address": "新疆维吾尔自治区克孜勒苏柯尔克孜自治州乌恰县G3013阿乌高速与乌恰服务区交叉口西北440米",
        "tel": "",
        "category": "基础设施:公共设施:公共厕所",
        "type": 0,
        "location": {
            "lat": 39.681577,
            "lng": 75.331176
        },
        "ad_info": {
            "adcode": 653024,
            "province": "新疆维吾尔自治区",
            "city": "克孜勒苏柯尔克孜自治州",
            "district": "乌恰县"
        }
    }
]