[
    {
        "id": "15741625091863023307",
        "title": "公共厕所",
        "address": "新疆维吾尔自治区克拉玛依市克拉玛依区展会路与新兴路交叉口东北方向522米左右",
        "tel": "",
        "category": "基础设施:公共设施:公共厕所",
        "type": 0,
        "location": {
            "lat": 45.560139,
            "lng": 84.920077
        },
        "ad_info": {
            "adcode": 650203,
            "province": "新疆维吾尔自治区",
            "city": "克拉玛依市",
            "district": "克拉玛依区"
        }
    },
    {
        "id": "11160452639152293891",
        "title": "公共厕所",
        "address": "新疆维吾尔自治区克拉玛依市克拉玛依区清园路与白桦路交叉口西南方向159米左右",
        "tel": "",
        "category": "基础设施:公共设施:公共厕所",
        "type": 0,
        "location": {
            "lat": 45.582032,
            "lng": 84.909525
        },
        "ad_info": {
            "adcode": 650203,
            "province": "新疆维吾尔自治区",
            "city": "克拉玛依市",
            "district": "克拉玛依区"
        }
    },
    {
        "id": "16258678054472034644",
        "title": "公共卫生间",
        "address": "新疆维吾尔自治区克拉玛依市克拉玛依区昆仑路7号",
        "tel": "",
        "category": "基础设施:公共设施:公共厕所",
        "type": 0,
        "location": {
            "lat": 45.589564,
            "lng": 84.871385
        },
        "ad_info": {
            "adcode": 650203,
            "province": "新疆维吾尔自治区",
            "city": "克拉玛依市",
            "district": "克拉玛依区"
        }
    },
    {
        "id": "17957416551435217010",
        "title": "公共厕所(一三六团十连)",
        "address": "新疆维吾尔自治区克拉玛依市克拉玛依区",
        "tel": "",
        "category": "基础设施:公共设施:公共厕所",
        "type": 0,
        "location": {
            "lat": 45.198064,
            "lng": 85.143837
        },
        "ad_info": {
            "adcode": 650203,
            "province": "新疆维吾尔自治区",
            "city": "克拉玛依市",
            "district": "克拉玛依区"
        }
    },
    {
        "id": "15257769086099436081",
        "title": "公共厕所",
        "address": "新疆维吾尔自治区克拉玛依市克拉玛依区人民路与准噶尔路交叉口正东方向103米左右",
        "tel": "",
        "category": "基础设施:公共设施:公共厕所",
        "type": 0,
        "location": {
            "lat": 45.60002,
            "lng": 84.874998
        },
        "ad_info": {
            "adcode": 650203,
            "province": "新疆维吾尔自治区",
            "city": "克拉玛依市",
            "district": "克拉玛依区"
        }
    },
    {
        "id": "13728651395216562371",
        "title": "公共厕所",
        "address": "新疆维吾尔自治区克拉玛依市克拉玛依区星河路与林园路交叉口正北方向225米左右",
        "tel": "",
        "category": "基础设施:公共设施:公共厕所",
        "type": 0,
        "location": {
            "lat": 45.608277,
            "lng": 84.875155
        },
        "ad_info": {
            "adcode": 650203,
            "province": "新疆维吾尔自治区",
            "city": "克拉玛依市",
            "district": "克拉玛依区"
        }
    },
    {
        "id": "4505798071723025641",
        "title": "公共厕所",
        "address": "新疆维吾尔自治区克拉玛依市克拉玛依区吉祥路与如意路交叉口西南方向393米左右",
        "tel": "",
        "category": "基础设施:公共设施:公共厕所",
        "type": 0,
        "location": {
            "lat": 45.57388,
            "lng": 84.916766
        },
        "ad_info": {
            "adcode": 650203,
            "province": "新疆维吾尔自治区",
            "city": "克拉玛依市",
            "district": "克拉玛依区"
        }
    },
    {
        "id": "14838122025808287172",
        "title": "公共厕所",
        "address": "新疆维吾尔自治区克拉玛依市克拉玛依区南新路与胜利路交叉口西北方向355米左右",
        "tel": "",
        "category": "基础设施:公共设施:公共厕所",
        "type": 0,
        "location": {
            "lat": 45.583942,
            "lng": 84.886389
        },
        "ad_info": {
            "adcode": 650203,
            "province": "新疆维吾尔自治区",
            "city": "克拉玛依市",
            "district": "克拉玛依区"
        }
    },
    {
        "id": "16723235510548284232",
        "title": "公共厕所",
        "address": "新疆维吾尔自治区克拉玛依市克拉玛依区城西路与昆仑路交叉口正南方向195米左右",
        "tel": "",
        "category": "基础设施:公共设施:公共厕所",
        "type": 0,
        "location": {
            "lat": 45.583441,
            "lng": 84.850023
        },
        "ad_info": {
            "adcode": 650203,
            "province": "新疆维吾尔自治区",
            "city": "克拉玛依市",
            "district": "克拉玛依区"
        }
    },
    {
        "id": "14108618921810633804",
        "title": "公共厕所",
        "address": "新疆维吾尔自治区克拉玛依市克拉玛依区迎宾大道117号",
        "tel": "",
        "category": "基础设施:公共设施:公共厕所",
        "type": 0,
        "location": {
            "lat": 45.570081,
            "lng": 84.889108
        },
        "ad_info": {
            "adcode": 650203,
            "province": "新疆维吾尔自治区",
            "city": "克拉玛依市",
            "district": "克拉玛依区"
        }
    },
    {
        "id": "3019671519097966111",
        "title": "公共厕所",
        "address": "新疆维吾尔自治区克拉玛依市克拉玛依区友谊路与迎宾大道交叉口正北方向92米左右",
        "tel": "",
        "category": "基础设施:公共设施:公共厕所",
        "type": 0,
        "location": {
            "lat": 45.579247,
            "lng": 84.880392
        },
        "ad_info": {
            "adcode": 650203,
            "province": "新疆维吾尔自治区",
            "city": "克拉玛依市",
            "district": "克拉玛依区"
        }
    },
    {
        "id": "13664822646485960652",
        "title": "公共厕所",
        "address": "新疆维吾尔自治区克拉玛依市克拉玛依区前进路4号",
        "tel": "",
        "category": "基础设施:公共设施:公共厕所",
        "type": 0,
        "location": {
            "lat": 45.59118,
            "lng": 84.880873
        },
        "ad_info": {
            "adcode": 650203,
            "province": "新疆维吾尔自治区",
            "city": "克拉玛依市",
            "district": "克拉玛依区"
        }
    },
    {
        "id": "13260864028815330155",
        "title": "公共厕所",
        "address": "新疆维吾尔自治区克拉玛依市克拉玛依区准噶尔路与滨河北路交叉口西南方向95米左右",
        "tel": "",
        "category": "基础设施:公共设施:公共厕所",
        "type": 0,
        "location": {
            "lat": 45.604517,
            "lng": 84.901983
        },
        "ad_info": {
            "adcode": 650203,
            "province": "新疆维吾尔自治区",
            "city": "克拉玛依市",
            "district": "克拉玛依区"
        }
    },
    {
        "id": "6854368708164680521",
        "title": "公共厕所",
        "address": "新疆维吾尔自治区克拉玛依市克拉玛依区南新路与油建南路交叉口东北方向139米左右",
        "tel": "",
        "category": "基础设施:公共设施:公共厕所",
        "type": 0,
        "location": {
            "lat": 45.574386,
            "lng": 84.87676
        },
        "ad_info": {
            "adcode": 650203,
            "province": "新疆维吾尔自治区",
            "city": "克拉玛依市",
            "district": "克拉玛依区"
        }
    },
    {
        "id": "825987944918069472",
        "title": "公共厕所",
        "address": "新疆维吾尔自治区克拉玛依市克拉玛依区幸福路与西环路交叉口正北方向236米左右",
        "tel": "",
        "category": "基础设施:公共设施:公共厕所",
        "type": 0,
        "location": {
            "lat": 45.582058,
            "lng": 84.856184
        },
        "ad_info": {
            "adcode": 650203,
            "province": "新疆维吾尔自治区",
            "city": "克拉玛依市",
            "district": "克拉玛依区"
        }
    },
    {
        "id": "15749115378369147306",
        "title": "公共厕所",
        "address": "新疆维吾尔自治区克拉玛依市克拉玛依区克拉玛依文化街与林园路交叉口东南方向30米左右",
        "tel": "",
        "category": "基础设施:公共设施:公共厕所",
        "type": 0,
        "location": {
            "lat": 45.603101,
            "lng": 84.857401
        },
        "ad_info": {
            "adcode": 650203,
            "province": "新疆维吾尔自治区",
            "city": "克拉玛依市",
            "district": "克拉玛依区"
        }
    },
    {
        "id": "15230755376976074991",
        "title": "公共厕所",
        "address": "新疆维吾尔自治区克拉玛依市克拉玛依区胜利路58号",
        "tel": "",
        "category": "基础设施:公共设施:公共厕所",
        "type": 0,
        "location": {
            "lat": 45.589331,
            "lng": 84.884109
        },
        "ad_info": {
            "adcode": 650203,
            "province": "新疆维吾尔自治区",
            "city": "克拉玛依市",
            "district": "克拉玛依区"
        }
    },
    {
        "id": "10250742825801578819",
        "title": "公共厕所",
        "address": "新疆维吾尔自治区克拉玛依市克拉玛依区人民路与红旗路交叉口东北方向62米左右",
        "tel": "",
        "category": "基础设施:公共设施:公共厕所",
        "type": 0,
        "location": {
            "lat": 45.59814,
            "lng": 84.875117
        },
        "ad_info": {
            "adcode": 650203,
            "province": "新疆维吾尔自治区",
            "city": "克拉玛依市",
            "district": "克拉玛依区"
        }
    },
    {
        "id": "3298668569374467346",
        "title": "公共厕所",
        "address": "新疆维吾尔自治区克拉玛依市克拉玛依区东环路与文泽路交叉口西南方向246米左右",
        "tel": "",
        "category": "基础设施:公共设施:公共厕所",
        "type": 0,
        "location": {
            "lat": 45.551497,
            "lng": 84.924595
        },
        "ad_info": {
            "adcode": 650203,
            "province": "新疆维吾尔自治区",
            "city": "克拉玛依市",
            "district": "克拉玛依区"
        }
    },
    {
        "id": "16461989069469326903",
        "title": "公共厕所",
        "address": "新疆维吾尔自治区克拉玛依市克拉玛依区昆仑路与油建北路交叉口正南方向54米左右",
        "tel": "",
        "category": "基础设施:公共设施:公共厕所",
        "type": 0,
        "location": {
            "lat": 45.587308,
            "lng": 84.863225
        },
        "ad_info": {
            "adcode": 650203,
            "province": "新疆维吾尔自治区",
            "city": "克拉玛依市",
            "district": "克拉玛依区"
        }
    },
    {
        "id": "3476414403830385422",
        "title": "公共厕所",
        "address": "新疆维吾尔自治区克拉玛依市克拉玛依区友谊路与天山路交叉口正南方向126米左右",
        "tel": "",
        "category": "基础设施:公共设施:公共厕所",
        "type": 0,
        "location": {
            "lat": 45.60171,
            "lng": 84.866693
        },
        "ad_info": {
            "adcode": 650203,
            "province": "新疆维吾尔自治区",
            "city": "克拉玛依市",
            "district": "克拉玛依区"
        }
    },
    {
        "id": "16707987998959819451",
        "title": "公共厕所",
        "address": "新疆维吾尔自治区克拉玛依市克拉玛依区阿山路41号",
        "tel": "",
        "category": "基础设施:公共设施:公共厕所",
        "type": 0,
        "location": {
            "lat": 45.596038,
            "lng": 84.883074
        },
        "ad_info": {
            "adcode": 650203,
            "province": "新疆维吾尔自治区",
            "city": "克拉玛依市",
            "district": "克拉玛依区"
        }
    },
    {
        "id": "17322792910050727467",
        "title": "公共厕所",
        "address": "新疆维吾尔自治区克拉玛依市克拉玛依区滨河北路与迎宾路辅路交叉口北80米",
        "tel": "",
        "category": "基础设施:公共设施:公共厕所",
        "type": 0,
        "location": {
            "lat": 45.582836,
            "lng": 84.87646
        },
        "ad_info": {
            "adcode": 650203,
            "province": "新疆维吾尔自治区",
            "city": "克拉玛依市",
            "district": "克拉玛依区"
        }
    },
    {
        "id": "15275744800439211114",
        "title": "公共厕所",
        "address": "新疆维吾尔自治区克拉玛依市克拉玛依区友谊路辅路与文化街交叉口正东方向100米左右",
        "tel": "",
        "category": "基础设施:公共设施:公共厕所",
        "type": 0,
        "location": {
            "lat": 45.60482,
            "lng": 84.867399
        },
        "ad_info": {
            "adcode": 650203,
            "province": "新疆维吾尔自治区",
            "city": "克拉玛依市",
            "district": "克拉玛依区"
        }
    },
    {
        "id": "18184439611982267394",
        "title": "公共厕所",
        "address": "新疆维吾尔自治区克拉玛依市克拉玛依区纬七路与经二街交叉口东南方向173米左右",
        "tel": "",
        "category": "基础设施:公共设施:公共厕所",
        "type": 0,
        "location": {
            "lat": 45.55468,
            "lng": 84.887868
        },
        "ad_info": {
            "adcode": 650203,
            "province": "新疆维吾尔自治区",
            "city": "克拉玛依市",
            "district": "克拉玛依区"
        }
    },
    {
        "id": "5219546178317487602",
        "title": "公共厕所",
        "address": "新疆维吾尔自治区克拉玛依市克拉玛依区鸿雁路51号古田南小区",
        "tel": "",
        "category": "基础设施:公共设施:公共厕所",
        "type": 0,
        "location": {
            "lat": 45.593861,
            "lng": 84.854951
        },
        "ad_info": {
            "adcode": 650203,
            "province": "新疆维吾尔自治区",
            "city": "克拉玛依市",
            "district": "克拉玛依区"
        }
    },
    {
        "id": "13726263608281991029",
        "title": "公共厕所",
        "address": "新疆维吾尔自治区克拉玛依市克拉玛依区红光路与鸿雁路交叉口正北方向49米左右",
        "tel": "",
        "category": "基础设施:公共设施:公共厕所",
        "type": 0,
        "location": {
            "lat": 45.595493,
            "lng": 84.856209
        },
        "ad_info": {
            "adcode": 650203,
            "province": "新疆维吾尔自治区",
            "city": "克拉玛依市",
            "district": "克拉玛依区"
        }
    },
    {
        "id": "11039764408842959655",
        "title": "公共厕所",
        "address": "新疆维吾尔自治区克拉玛依市乌尔禾区湖滨西路与龙脊路交叉口西南方向23米左右",
        "tel": "",
        "category": "基础设施:公共设施:公共厕所",
        "type": 0,
        "location": {
            "lat": 46.09088,
            "lng": 85.696913
        },
        "ad_info": {
            "adcode": 650205,
            "province": "新疆维吾尔自治区",
            "city": "克拉玛依市",
            "district": "乌尔禾区"
        }
    },
    {
        "id": "11862306441405642469",
        "title": "公共厕所",
        "address": "新疆维吾尔自治区克拉玛依市克拉玛依区昆仑路与滨河南路交叉口西南方向232米左右",
        "tel": "",
        "category": "基础设施:公共设施:公共厕所",
        "type": 0,
        "location": {
            "lat": 45.59433,
            "lng": 84.906321
        },
        "ad_info": {
            "adcode": 650203,
            "province": "新疆维吾尔自治区",
            "city": "克拉玛依市",
            "district": "克拉玛依区"
        }
    },
    {
        "id": "10917912297675418522",
        "title": "公共厕所",
        "address": "新疆维吾尔自治区克拉玛依市克拉玛依区滨河北路与玉田路交叉口正南方向150米左右",
        "tel": "",
        "category": "基础设施:公共设施:公共厕所",
        "type": 0,
        "location": {
            "lat": 45.576557,
            "lng": 84.862907
        },
        "ad_info": {
            "adcode": 650203,
            "province": "新疆维吾尔自治区",
            "city": "克拉玛依市",
            "district": "克拉玛依区"
        }
    },
    {
        "id": "8983695936129911559",
        "title": "公共厕所",
        "address": "新疆维吾尔自治区克拉玛依市克拉玛依区G217与振兴西路交叉口正北方向419米左右",
        "tel": "",
        "category": "基础设施:公共设施:公共厕所",
        "type": 0,
        "location": {
            "lat": 44.873636,
            "lng": 84.78406
        },
        "ad_info": {
            "adcode": 650203,
            "province": "新疆维吾尔自治区",
            "city": "克拉玛依市",
            "district": "克拉玛依区"
        }
    },
    {
        "id": "17541553963708617633",
        "title": "公共厕所",
        "address": "新疆维吾尔自治区克拉玛依市克拉玛依区南新路与胜利路交叉口正东方向282米左右",
        "tel": "",
        "category": "基础设施:公共设施:公共厕所",
        "type": 0,
        "location": {
            "lat": 45.582601,
            "lng": 84.893228
        },
        "ad_info": {
            "adcode": 650203,
            "province": "新疆维吾尔自治区",
            "city": "克拉玛依市",
            "district": "克拉玛依区"
        }
    },
    {
        "id": "17355615516149923931",
        "title": "公共厕所",
        "address": "新疆维吾尔自治区克拉玛依市克拉玛依区鸿雁路8号",
        "tel": "",
        "category": "基础设施:公共设施:公共厕所",
        "type": 0,
        "location": {
            "lat": 45.596813,
            "lng": 84.866485
        },
        "ad_info": {
            "adcode": 650203,
            "province": "新疆维吾尔自治区",
            "city": "克拉玛依市",
            "district": "克拉玛依区"
        }
    },
    {
        "id": "5837725042470470272",
        "title": "公共厕所",
        "address": "新疆维吾尔自治区克拉玛依市克拉玛依区友谊路与永红路交叉口东北方向121米左右",
        "tel": "",
        "category": "基础设施:公共设施:公共厕所",
        "type": 0,
        "location": {
            "lat": 45.593256,
            "lng": 84.871853
        },
        "ad_info": {
            "adcode": 650203,
            "province": "新疆维吾尔自治区",
            "city": "克拉玛依市",
            "district": "克拉玛依区"
        }
    },
    {
        "id": "8621034056017607675",
        "title": "公共厕所",
        "address": "新疆维吾尔自治区克拉玛依市克拉玛依区油建北路与鸿雁路交叉口正北方向135米左右",
        "tel": "",
        "category": "基础设施:公共设施:公共厕所",
        "type": 0,
        "location": {
            "lat": 45.597014,
            "lng": 84.859455
        },
        "ad_info": {
            "adcode": 650203,
            "province": "新疆维吾尔自治区",
            "city": "克拉玛依市",
            "district": "克拉玛依区"
        }
    },
    {
        "id": "17576071293299427432",
        "title": "公共厕所",
        "address": "新疆维吾尔自治区克拉玛依市克拉玛依区碧水路与苗园路交叉口东南方向86米左右",
        "tel": "",
        "category": "基础设施:公共设施:公共厕所",
        "type": 0,
        "location": {
            "lat": 45.56738,
            "lng": 84.875149
        },
        "ad_info": {
            "adcode": 650203,
            "province": "新疆维吾尔自治区",
            "city": "克拉玛依市",
            "district": "克拉玛依区"
        }
    },
    {
        "id": "18326498366666219321",
        "title": "公共厕所",
        "address": "新疆维吾尔自治区克拉玛依市克拉玛依区油建南路与苗园路交叉口东北方向90米左右",
        "tel": "",
        "category": "基础设施:公共设施:公共厕所",
        "type": 0,
        "location": {
            "lat": 45.571534,
            "lng": 84.87989
        },
        "ad_info": {
            "adcode": 650203,
            "province": "新疆维吾尔自治区",
            "city": "克拉玛依市",
            "district": "克拉玛依区"
        }
    },
    {
        "id": "15639101348340539662",
        "title": "公共厕所",
        "address": "新疆维吾尔自治区克拉玛依市克拉玛依区友谊路与滨河北路交叉口西南方向397米左右",
        "tel": "",
        "category": "基础设施:公共设施:公共厕所",
        "type": 0,
        "location": {
            "lat": 45.580897,
            "lng": 84.873504
        },
        "ad_info": {
            "adcode": 650203,
            "province": "新疆维吾尔自治区",
            "city": "克拉玛依市",
            "district": "克拉玛依区"
        }
    },
    {
        "id": "10388260332329014917",
        "title": "公共厕所",
        "address": "新疆维吾尔自治区克拉玛依市克拉玛依区滨河北路与玉田路交叉口西南方向183米左右",
        "tel": "",
        "category": "基础设施:公共设施:公共厕所",
        "type": 0,
        "location": {
            "lat": 45.576952,
            "lng": 84.860367
        },
        "ad_info": {
            "adcode": 650203,
            "province": "新疆维吾尔自治区",
            "city": "克拉玛依市",
            "district": "克拉玛依区"
        }
    },
    {
        "id": "17654571809463584544",
        "title": "公共厕所",
        "address": "新疆维吾尔自治区克拉玛依市克拉玛依区塔河路与文化街交叉口东北方向123米左右",
        "tel": "",
        "category": "基础设施:公共设施:公共厕所",
        "type": 0,
        "location": {
            "lat": 45.60443,
            "lng": 84.86272
        },
        "ad_info": {
            "adcode": 650203,
            "province": "新疆维吾尔自治区",
            "city": "克拉玛依市",
            "district": "克拉玛依区"
        }
    },
    {
        "id": "14362375312506982820",
        "title": "公共厕所",
        "address": "新疆维吾尔自治区克拉玛依市克拉玛依区准噶尔路与滨河北路交叉口正西方向350米左右",
        "tel": "",
        "category": "基础设施:公共设施:公共厕所",
        "type": 0,
        "location": {
            "lat": 45.604739,
            "lng": 84.898042
        },
        "ad_info": {
            "adcode": 650203,
            "province": "新疆维吾尔自治区",
            "city": "克拉玛依市",
            "district": "克拉玛依区"
        }
    },
    {
        "id": "12748614950574375210",
        "title": "公共厕所",
        "address": "新疆维吾尔自治区克拉玛依市克拉玛依区塔岔口互通立交与奎阿高速交叉口西北方向84米左右",
        "tel": "",
        "category": "基础设施:公共设施:公共厕所",
        "type": 0,
        "location": {
            "lat": 45.294739,
            "lng": 84.782155
        },
        "ad_info": {
            "adcode": 650203,
            "province": "新疆维吾尔自治区",
            "city": "克拉玛依市",
            "district": "克拉玛依区"
        }
    },
    {
        "id": "15443400442704794105",
        "title": "公共厕所",
        "address": "新疆维吾尔自治区克拉玛依市克拉玛依区准噶尔路54号",
        "tel": "",
        "category": "基础设施:公共设施:公共厕所",
        "type": 0,
        "location": {
            "lat": 45.602791,
            "lng": 84.887489
        },
        "ad_info": {
            "adcode": 650203,
            "province": "新疆维吾尔自治区",
            "city": "克拉玛依市",
            "district": "克拉玛依区"
        }
    },
    {
        "id": "6824214980771680268",
        "title": "公共厕所",
        "address": "新疆维吾尔自治区克拉玛依市克拉玛依区双龙路与金龙路交叉口正南方向156米左右",
        "tel": "",
        "category": "基础设施:公共设施:公共厕所",
        "type": 0,
        "location": {
            "lat": 45.575275,
            "lng": 84.982862
        },
        "ad_info": {
            "adcode": 650203,
            "province": "新疆维吾尔自治区",
            "city": "克拉玛依市",
            "district": "克拉玛依区"
        }
    },
    {
        "id": "5037137340108102883",
        "title": "公共厕所",
        "address": "新疆维吾尔自治区克拉玛依市克拉玛依区永盛路与金辉路交叉口正西方向50米左右",
        "tel": "",
        "category": "基础设施:公共设施:公共厕所",
        "type": 0,
        "location": {
            "lat": 45.583028,
            "lng": 84.9894
        },
        "ad_info": {
            "adcode": 650203,
            "province": "新疆维吾尔自治区",
            "city": "克拉玛依市",
            "district": "克拉玛依区"
        }
    },
    {
        "id": "5217223743790248706",
        "title": "公共厕所",
        "address": "新疆维吾尔自治区克拉玛依市克拉玛依区油建北路与西霞路交叉口正南方向241米左右",
        "tel": "",
        "category": "基础设施:公共设施:公共厕所",
        "type": 0,
        "location": {
            "lat": 45.611274,
            "lng": 84.85335
        },
        "ad_info": {
            "adcode": 650203,
            "province": "新疆维吾尔自治区",
            "city": "克拉玛依市",
            "district": "克拉玛依区"
        }
    },
    {
        "id": "17632109341522340730",
        "title": "公共厕所",
        "address": "新疆维吾尔自治区克拉玛依市克拉玛依区塔河路98号",
        "tel": "",
        "category": "基础设施:公共设施:公共厕所",
        "type": 0,
        "location": {
            "lat": 45.60436,
            "lng": 84.862372
        },
        "ad_info": {
            "adcode": 650203,
            "province": "新疆维吾尔自治区",
            "city": "克拉玛依市",
            "district": "克拉玛依区"
        }
    },
    {
        "id": "4532910276455396469",
        "title": "公共厕所",
        "address": "新疆维吾尔自治区克拉玛依市克拉玛依区Y030与振兴东路交叉口正北方向1639米左右",
        "tel": "",
        "category": "基础设施:公共设施:公共厕所",
        "type": 0,
        "location": {
            "lat": 44.884088,
            "lng": 84.799891
        },
        "ad_info": {
            "adcode": 650203,
            "province": "新疆维吾尔自治区",
            "city": "克拉玛依市",
            "district": "克拉玛依区"
        }
    },
    {
        "id": "12920021967226051215",
        "title": "公共厕所",
        "address": "新疆维吾尔自治区克拉玛依市克拉玛依区红星商业街与红星路交叉口正北方向121米左右",
        "tel": "",
        "category": "基础设施:公共设施:公共厕所",
        "type": 0,
        "location": {
            "lat": 45.607274,
            "lng": 84.868305
        },
        "ad_info": {
            "adcode": 650203,
            "province": "新疆维吾尔自治区",
            "city": "克拉玛依市",
            "district": "克拉玛依区"
        }
    },
    {
        "id": "13350252716239398298",
        "title": "公共厕所(XJ-KL-0083)",
        "address": "新疆维吾尔自治区克拉玛依市乌尔禾区安阳路与经一路交叉口正西方向76米左右",
        "tel": "",
        "category": "基础设施:公共设施:公共厕所",
        "type": 0,
        "location": {
            "lat": 45.910708,
            "lng": 85.406329
        },
        "ad_info": {
            "adcode": 650205,
            "province": "新疆维吾尔自治区",
            "city": "克拉玛依市",
            "district": "乌尔禾区"
        }
    },
    {
        "id": "3851075926353163402",
        "title": "公共厕所",
        "address": "新疆维吾尔自治区克拉玛依市克拉玛依区西北路与西环路交叉口正南方向104米左右",
        "tel": "",
        "category": "基础设施:公共设施:公共厕所",
        "type": 0,
        "location": {
            "lat": 45.602113,
            "lng": 84.848266
        },
        "ad_info": {
            "adcode": 650203,
            "province": "新疆维吾尔自治区",
            "city": "克拉玛依市",
            "district": "克拉玛依区"
        }
    },
    {
        "id": "3615869116772635797",
        "title": "公共厕所",
        "address": "新疆维吾尔自治区克拉玛依市乌尔禾区G217与龙脊路交叉口东北方向753米左右",
        "tel": "",
        "category": "基础设施:公共设施:公共厕所",
        "type": 0,
        "location": {
            "lat": 46.144917,
            "lng": 85.749066
        },
        "ad_info": {
            "adcode": 650205,
            "province": "新疆维吾尔自治区",
            "city": "克拉玛依市",
            "district": "乌尔禾区"
        }
    },
    {
        "id": "14175996236611308416",
        "title": "公共厕所",
        "address": "新疆维吾尔自治区克拉玛依市克拉玛依区天山路与胜利路交叉口西南方向29米左右",
        "tel": "",
        "category": "基础设施:公共设施:公共厕所",
        "type": 0,
        "location": {
            "lat": 45.603842,
            "lng": 84.878132
        },
        "ad_info": {
            "adcode": 650203,
            "province": "新疆维吾尔自治区",
            "city": "克拉玛依市",
            "district": "克拉玛依区"
        }
    },
    {
        "id": "6179689866358069161",
        "title": "公共厕所",
        "address": "新疆维吾尔自治区克拉玛依市克拉玛依区农业综合开发区社区卫生服务站北侧70米",
        "tel": "",
        "category": "基础设施:公共设施:公共厕所",
        "type": 0,
        "location": {
            "lat": 45.506343,
            "lng": 84.972011
        },
        "ad_info": {
            "adcode": 650203,
            "province": "新疆维吾尔自治区",
            "city": "克拉玛依市",
            "district": "克拉玛依区"
        }
    },
    {
        "id": "2512011726769819053",
        "title": "公共厕所",
        "address": "新疆维吾尔自治区克拉玛依市克拉玛依区迎宾路辅路与滨河南路交叉口东南220米",
        "tel": "",
        "category": "基础设施:公共设施:公共厕所",
        "type": 0,
        "location": {
            "lat": 45.579373,
            "lng": 84.878531
        },
        "ad_info": {
            "adcode": 650203,
            "province": "新疆维吾尔自治区",
            "city": "克拉玛依市",
            "district": "克拉玛依区"
        }
    },
    {
        "id": "3596448395020907582",
        "title": "公共厕所",
        "address": "新疆维吾尔自治区克拉玛依市克拉玛依区西环路与银河路交叉口正西方向231米左右",
        "tel": "",
        "category": "基础设施:公共设施:公共厕所",
        "type": 0,
        "location": {
            "lat": 45.611098,
            "lng": 84.841977
        },
        "ad_info": {
            "adcode": 650203,
            "province": "新疆维吾尔自治区",
            "city": "克拉玛依市",
            "district": "克拉玛依区"
        }
    },
    {
        "id": "7996808170312250917",
        "title": "公共厕所",
        "address": "新疆维吾尔自治区克拉玛依市白碱滩区三平路与振兴路交叉口东北方向48米左右",
        "tel": "",
        "category": "基础设施:公共设施:公共厕所",
        "type": 0,
        "location": {
            "lat": 45.623165,
            "lng": 85.055948
        },
        "ad_info": {
            "adcode": 650204,
            "province": "新疆维吾尔自治区",
            "city": "克拉玛依市",
            "district": "白碱滩区"
        }
    },
    {
        "id": "7298877228428678768",
        "title": "公共厕所",
        "address": "新疆维吾尔自治区克拉玛依市克拉玛依区友谊路与滨河北路交叉口西南方向93米左右",
        "tel": "",
        "category": "基础设施:公共设施:公共厕所",
        "type": 0,
        "location": {
            "lat": 45.582397,
            "lng": 84.876835
        },
        "ad_info": {
            "adcode": 650203,
            "province": "新疆维吾尔自治区",
            "city": "克拉玛依市",
            "district": "克拉玛依区"
        }
    },
    {
        "id": "12715713624492847836",
        "title": "公共厕所",
        "address": "新疆维吾尔自治区克拉玛依市克拉玛依区光明西路与塔河路交叉口正南方向64米左右",
        "tel": "",
        "category": "基础设施:公共设施:公共厕所",
        "type": 0,
        "location": {
            "lat": 45.593163,
            "lng": 84.865105
        },
        "ad_info": {
            "adcode": 650203,
            "province": "新疆维吾尔自治区",
            "city": "克拉玛依市",
            "district": "克拉玛依区"
        }
    },
    {
        "id": "13486312191684019793",
        "title": "公共厕所",
        "address": "新疆维吾尔自治区克拉玛依市克拉玛依区碧水路与苗园路交叉口正南方向79米左右",
        "tel": "",
        "category": "基础设施:公共设施:公共厕所",
        "type": 0,
        "location": {
            "lat": 45.567368,
            "lng": 84.874728
        },
        "ad_info": {
            "adcode": 650203,
            "province": "新疆维吾尔自治区",
            "city": "克拉玛依市",
            "district": "克拉玛依区"
        }
    },
    {
        "id": "5931773708907030636",
        "title": "公共厕所",
        "address": "新疆维吾尔自治区克拉玛依市乌尔禾区启明西街与石缘路交叉口正西方向201米左右",
        "tel": "",
        "category": "基础设施:公共设施:公共厕所",
        "type": 0,
        "location": {
            "lat": 46.093893,
            "lng": 85.69502
        },
        "ad_info": {
            "adcode": 650205,
            "province": "新疆维吾尔自治区",
            "city": "克拉玛依市",
            "district": "乌尔禾区"
        }
    },
    {
        "id": "12361151549423657932",
        "title": "公共厕所",
        "address": "新疆维吾尔自治区克拉玛依市克拉玛依区幸福路与西环路交叉口正北方向265米左右",
        "tel": "",
        "category": "基础设施:公共设施:公共厕所",
        "type": 0,
        "location": {
            "lat": 45.582318,
            "lng": 84.856091
        },
        "ad_info": {
            "adcode": 650203,
            "province": "新疆维吾尔自治区",
            "city": "克拉玛依市",
            "district": "克拉玛依区"
        }
    },
    {
        "id": "11082722730731805106",
        "title": "公共厕所",
        "address": "新疆维吾尔自治区克拉玛依市乌尔禾区库克赛路(白杨河峡谷景区西北侧约200米)",
        "tel": "",
        "category": "基础设施:公共设施:公共厕所",
        "type": 0,
        "location": {
            "lat": 46.13176,
            "lng": 85.480172
        },
        "ad_info": {
            "adcode": 650205,
            "province": "新疆维吾尔自治区",
            "city": "克拉玛依市",
            "district": "乌尔禾区"
        }
    },
    {
        "id": "52415465645794000",
        "title": "公共厕所",
        "address": "新疆维吾尔自治区克拉玛依市克拉玛依区友谊路与文化路交叉口正西方向31米左右",
        "tel": "",
        "category": "基础设施:公共设施:公共厕所",
        "type": 0,
        "location": {
            "lat": 45.609738,
            "lng": 84.863193
        },
        "ad_info": {
            "adcode": 650203,
            "province": "新疆维吾尔自治区",
            "city": "克拉玛依市",
            "district": "克拉玛依区"
        }
    },
    {
        "id": "1270340888998902245",
        "title": "公共厕所",
        "address": "新疆维吾尔自治区克拉玛依市克拉玛依区休闲路与阳光路交叉口正南方向68米左右",
        "tel": "",
        "category": "基础设施:公共设施:公共厕所",
        "type": 0,
        "location": {
            "lat": 45.170927,
            "lng": 85.053233
        },
        "ad_info": {
            "adcode": 650203,
            "province": "新疆维吾尔自治区",
            "city": "克拉玛依市",
            "district": "克拉玛依区"
        }
    },
    {
        "id": "1821405517800165201",
        "title": "公共厕所",
        "address": "新疆维吾尔自治区克拉玛依市白碱滩区跃中路与青年路交叉口正西方向103米左右",
        "tel": "",
        "category": "基础设施:公共设施:公共厕所",
        "type": 0,
        "location": {
            "lat": 45.684045,
            "lng": 85.117688
        },
        "ad_info": {
            "adcode": 650204,
            "province": "新疆维吾尔自治区",
            "city": "克拉玛依市",
            "district": "白碱滩区"
        }
    },
    {
        "id": "15672611495903113834",
        "title": "公共厕所",
        "address": "新疆维吾尔自治区克拉玛依市白碱滩区中兴路与中北路交叉口西南方向109米左右",
        "tel": "",
        "category": "基础设施:公共设施:公共厕所",
        "type": 0,
        "location": {
            "lat": 45.685507,
            "lng": 85.123907
        },
        "ad_info": {
            "adcode": 650204,
            "province": "新疆维吾尔自治区",
            "city": "克拉玛依市",
            "district": "白碱滩区"
        }
    },
    {
        "id": "17767730260856236683",
        "title": "公共厕所",
        "address": "新疆维吾尔自治区克拉玛依市克拉玛依区永盛路与金辉路交叉口正西方向24米左右",
        "tel": "",
        "category": "基础设施:公共设施:公共厕所",
        "type": 0,
        "location": {
            "lat": 45.583069,
            "lng": 84.989735
        },
        "ad_info": {
            "adcode": 650203,
            "province": "新疆维吾尔自治区",
            "city": "克拉玛依市",
            "district": "克拉玛依区"
        }
    },
    {
        "id": "4866377632360644352",
        "title": "公共厕所",
        "address": "新疆维吾尔自治区克拉玛依市克拉玛依区天山路与星河路交叉口正南方向163米左右",
        "tel": "",
        "category": "基础设施:公共设施:公共厕所",
        "type": 0,
        "location": {
            "lat": 45.602328,
            "lng": 84.876969
        },
        "ad_info": {
            "adcode": 650203,
            "province": "新疆维吾尔自治区",
            "city": "克拉玛依市",
            "district": "克拉玛依区"
        }
    },
    {
        "id": "15939656267621878316",
        "title": "公共厕所",
        "address": "新疆维吾尔自治区克拉玛依市克拉玛依区红星商业街与红星路交叉口正西方向127米左右",
        "tel": "",
        "category": "基础设施:公共设施:公共厕所",
        "type": 0,
        "location": {
            "lat": 45.606198,
            "lng": 84.866785
        },
        "ad_info": {
            "adcode": 650203,
            "province": "新疆维吾尔自治区",
            "city": "克拉玛依市",
            "district": "克拉玛依区"
        }
    },
    {
        "id": "17755880326960747783",
        "title": "公共厕所",
        "address": "新疆维吾尔自治区克拉玛依市白碱滩区建业路与迎春路交叉口西北方向23米左右",
        "tel": "",
        "category": "基础设施:公共设施:公共厕所",
        "type": 0,
        "location": {
            "lat": 45.691406,
            "lng": 85.112044
        },
        "ad_info": {
            "adcode": 650204,
            "province": "新疆维吾尔自治区",
            "city": "克拉玛依市",
            "district": "白碱滩区"
        }
    },
    {
        "id": "11565904109278031943",
        "title": "公共厕所",
        "address": "新疆维吾尔自治区克拉玛依市白碱滩区中兴路与泰安路交叉口东北方向46米左右",
        "tel": "",
        "category": "基础设施:公共设施:公共厕所",
        "type": 0,
        "location": {
            "lat": 45.685374,
            "lng": 85.122075
        },
        "ad_info": {
            "adcode": 650204,
            "province": "新疆维吾尔自治区",
            "city": "克拉玛依市",
            "district": "白碱滩区"
        }
    },
    {
        "id": "11017508545968884751",
        "title": "公共厕所",
        "address": "新疆维吾尔自治区克拉玛依市乌尔禾区柳树街副5号",
        "tel": "",
        "category": "基础设施:公共设施:公共厕所",
        "type": 0,
        "location": {
            "lat": 46.088662,
            "lng": 85.6965
        },
        "ad_info": {
            "adcode": 650205,
            "province": "新疆维吾尔自治区",
            "city": "克拉玛依市",
            "district": "乌尔禾区"
        }
    },
    {
        "id": "12481983521962797070",
        "title": "公共厕所",
        "address": "新疆维吾尔自治区克拉玛依市白碱滩区中兴路与泰安路交叉口东北方向61米左右",
        "tel": "",
        "category": "基础设施:公共设施:公共厕所",
        "type": 0,
        "location": {
            "lat": 45.68561,
            "lng": 85.12194
        },
        "ad_info": {
            "adcode": 650204,
            "province": "新疆维吾尔自治区",
            "city": "克拉玛依市",
            "district": "白碱滩区"
        }
    },
    {
        "id": "17989063433956088175",
        "title": "公共厕所",
        "address": "新疆维吾尔自治区克拉玛依市克拉玛依区田园南路与集市路交叉口东北方向158米左右",
        "tel": "",
        "category": "基础设施:公共设施:公共厕所",
        "type": 0,
        "location": {
            "lat": 45.58432,
            "lng": 85.000139
        },
        "ad_info": {
            "adcode": 650203,
            "province": "新疆维吾尔自治区",
            "city": "克拉玛依市",
            "district": "克拉玛依区"
        }
    },
    {
        "id": "1926514807797895801",
        "title": "公共厕所",
        "address": "新疆维吾尔自治区克拉玛依市白碱滩区依提帕克路与北兴路交叉口西南方向34米左右",
        "tel": "",
        "category": "基础设施:公共设施:公共厕所",
        "type": 0,
        "location": {
            "lat": 45.690678,
            "lng": 85.13184
        },
        "ad_info": {
            "adcode": 650204,
            "province": "新疆维吾尔自治区",
            "city": "克拉玛依市",
            "district": "白碱滩区"
        }
    },
    {
        "id": "14611957873401710914",
        "title": "公共厕所",
        "address": "新疆维吾尔自治区克拉玛依市白碱滩区迎春路与门户路交叉口西北方向70米左右",
        "tel": "",
        "category": "基础设施:公共设施:公共厕所",
        "type": 0,
        "location": {
            "lat": 45.676932,
            "lng": 85.112168
        },
        "ad_info": {
            "adcode": 650204,
            "province": "新疆维吾尔自治区",
            "city": "克拉玛依市",
            "district": "白碱滩区"
        }
    },
    {
        "id": "4274614781908984167",
        "title": "公共厕所",
        "address": "新疆维吾尔自治区克拉玛依市克拉玛依区兴农路与平北六路交叉口正北方向29米左右",
        "tel": "",
        "category": "基础设施:公共设施:公共厕所",
        "type": 0,
        "location": {
            "lat": 45.581016,
            "lng": 84.998682
        },
        "ad_info": {
            "adcode": 650203,
            "province": "新疆维吾尔自治区",
            "city": "克拉玛依市",
            "district": "克拉玛依区"
        }
    },
    {
        "id": "10717998053159541333",
        "title": "公共厕所",
        "address": "新疆维吾尔自治区克拉玛依市克拉玛依区天山路与油建北路交叉口正西方向216米左右",
        "tel": "",
        "category": "基础设施:公共设施:公共厕所",
        "type": 0,
        "location": {
            "lat": 45.59972,
            "lng": 84.855733
        },
        "ad_info": {
            "adcode": 650203,
            "province": "新疆维吾尔自治区",
            "city": "克拉玛依市",
            "district": "克拉玛依区"
        }
    },
    {
        "id": "17801175027932160394",
        "title": "公共厕所",
        "address": "新疆维吾尔自治区克拉玛依市白碱滩区晨光街与永新路交叉口正北方向270米左右",
        "tel": "",
        "category": "基础设施:公共设施:公共厕所",
        "type": 0,
        "location": {
            "lat": 45.630216,
            "lng": 85.061059
        },
        "ad_info": {
            "adcode": 650204,
            "province": "新疆维吾尔自治区",
            "city": "克拉玛依市",
            "district": "白碱滩区"
        }
    },
    {
        "id": "2081763061507836081",
        "title": "公共厕所",
        "address": "新疆维吾尔自治区克拉玛依市白碱滩区晨光街与永新路交叉口东北方向195米左右",
        "tel": "",
        "category": "基础设施:公共设施:公共厕所",
        "type": 0,
        "location": {
            "lat": 45.628731,
            "lng": 85.062884
        },
        "ad_info": {
            "adcode": 650204,
            "province": "新疆维吾尔自治区",
            "city": "克拉玛依市",
            "district": "白碱滩区"
        }
    },
    {
        "id": "9505409881009232164",
        "title": "公共厕所",
        "address": "新疆维吾尔自治区克拉玛依市白碱滩区北亭路与望亭路交叉口东北方向70米左右",
        "tel": "",
        "category": "基础设施:公共设施:公共厕所",
        "type": 0,
        "location": {
            "lat": 45.693689,
            "lng": 85.12939
        },
        "ad_info": {
            "adcode": 650204,
            "province": "新疆维吾尔自治区",
            "city": "克拉玛依市",
            "district": "白碱滩区"
        }
    },
    {
        "id": "1753800482060600155",
        "title": "公共厕所",
        "address": "新疆维吾尔自治区克拉玛依市乌尔禾区龙脊路新疆新捷CNG加气站",
        "tel": "",
        "category": "基础设施:公共设施:公共厕所",
        "type": 0,
        "location": {
            "lat": 46.099771,
            "lng": 85.698211
        },
        "ad_info": {
            "adcode": 650205,
            "province": "新疆维吾尔自治区",
            "city": "克拉玛依市",
            "district": "乌尔禾区"
        }
    },
    {
        "id": "15353783482409792670",
        "title": "公共厕所",
        "address": "新疆维吾尔自治区克拉玛依市白碱滩区康平路与振兴路交叉口东北方向148米左右",
        "tel": "",
        "category": "基础设施:公共设施:公共厕所",
        "type": 0,
        "location": {
            "lat": 45.624963,
            "lng": 85.056114
        },
        "ad_info": {
            "adcode": 650204,
            "province": "新疆维吾尔自治区",
            "city": "克拉玛依市",
            "district": "白碱滩区"
        }
    },
    {
        "id": "686267911884195647",
        "title": "公共厕所",
        "address": "新疆维吾尔自治区克拉玛依市乌尔禾区龙脊路与龙腾西路交叉口正北方向361米左右",
        "tel": "",
        "category": "基础设施:公共设施:公共厕所",
        "type": 0,
        "location": {
            "lat": 46.101821,
            "lng": 85.698434
        },
        "ad_info": {
            "adcode": 650205,
            "province": "新疆维吾尔自治区",
            "city": "克拉玛依市",
            "district": "乌尔禾区"
        }
    },
    {
        "id": "4471659678170745400",
        "title": "公共厕所",
        "address": "新疆维吾尔自治区克拉玛依市乌尔禾区G217与玉溪路交叉口正东方向133米左右",
        "tel": "",
        "category": "基础设施:公共设施:公共厕所",
        "type": 0,
        "location": {
            "lat": 45.916432,
            "lng": 85.420862
        },
        "ad_info": {
            "adcode": 650205,
            "province": "新疆维吾尔自治区",
            "city": "克拉玛依市",
            "district": "乌尔禾区"
        }
    },
    {
        "id": "5143268097440866471",
        "title": "公共厕所",
        "address": "新疆维吾尔自治区克拉玛依市白碱滩区嘉新宾馆隔壁",
        "tel": "",
        "category": "基础设施:公共设施:公共厕所",
        "type": 0,
        "location": {
            "lat": 45.680811,
            "lng": 85.12196
        },
        "ad_info": {
            "adcode": 650204,
            "province": "新疆维吾尔自治区",
            "city": "克拉玛依市",
            "district": "白碱滩区"
        }
    },
    {
        "id": "8413567771782086181",
        "title": "公共厕所",
        "address": "新疆维吾尔自治区克拉玛依市独山子区杭州路99号",
        "tel": "",
        "category": "基础设施:公共设施:公共厕所",
        "type": 0,
        "location": {
            "lat": 44.328195,
            "lng": 84.910964
        },
        "ad_info": {
            "adcode": 650202,
            "province": "新疆维吾尔自治区",
            "city": "克拉玛依市",
            "district": "独山子区"
        }
    },
    {
        "id": "7444584112381261306",
        "title": "公共厕所",
        "address": "新疆维吾尔自治区克拉玛依市独山子区安庆路20号",
        "tel": "",
        "category": "基础设施:公共设施:公共厕所",
        "type": 0,
        "location": {
            "lat": 44.326327,
            "lng": 84.868365
        },
        "ad_info": {
            "adcode": 650202,
            "province": "新疆维吾尔自治区",
            "city": "克拉玛依市",
            "district": "独山子区"
        }
    },
    {
        "id": "10094555823943682375",
        "title": "公共厕所",
        "address": "新疆维吾尔自治区克拉玛依市独山子区准南路与安庆路交叉口正西方向67米左右",
        "tel": "",
        "category": "基础设施:公共设施:公共厕所",
        "type": 0,
        "location": {
            "lat": 44.323993,
            "lng": 84.868024
        },
        "ad_info": {
            "adcode": 650202,
            "province": "新疆维吾尔自治区",
            "city": "克拉玛依市",
            "district": "独山子区"
        }
    },
    {
        "id": "16095420776726778802",
        "title": "公共厕所",
        "address": "新疆维吾尔自治区克拉玛依市独山子区伊宁路与武昌路市场交叉口西北20米",
        "tel": "",
        "category": "基础设施:公共设施:公共厕所",
        "type": 0,
        "location": {
            "lat": 44.328373,
            "lng": 84.870625
        },
        "ad_info": {
            "adcode": 650202,
            "province": "新疆维吾尔自治区",
            "city": "克拉玛依市",
            "district": "独山子区"
        }
    },
    {
        "id": "15187691058836451045",
        "title": "公共厕所",
        "address": "新疆维吾尔自治区克拉玛依市白碱滩区三平路与五新路交叉口正西方向137米左右",
        "tel": "",
        "category": "基础设施:公共设施:公共厕所",
        "type": 0,
        "location": {
            "lat": 45.621275,
            "lng": 85.051944
        },
        "ad_info": {
            "adcode": 650204,
            "province": "新疆维吾尔自治区",
            "city": "克拉玛依市",
            "district": "白碱滩区"
        }
    },
    {
        "id": "3954516620625181960",
        "title": "公共厕所",
        "address": "新疆维吾尔自治区克拉玛依市独山子区西宁路市场",
        "tel": "",
        "category": "基础设施:公共设施:公共厕所",
        "type": 0,
        "location": {
            "lat": 44.325929,
            "lng": 84.887938
        },
        "ad_info": {
            "adcode": 650202,
            "province": "新疆维吾尔自治区",
            "city": "克拉玛依市",
            "district": "独山子区"
        }
    },
    {
        "id": "1024821614260993293",
        "title": "公共厕所",
        "address": "新疆维吾尔自治区克拉玛依市独山子区南环路与油城路交叉口正西方向312米左右",
        "tel": "",
        "category": "基础设施:公共设施:公共厕所",
        "type": 0,
        "location": {
            "lat": 44.31268,
            "lng": 84.853635
        },
        "ad_info": {
            "adcode": 650202,
            "province": "新疆维吾尔自治区",
            "city": "克拉玛依市",
            "district": "独山子区"
        }
    },
    {
        "id": "7823435070179258304",
        "title": "公共厕所",
        "address": "新疆维吾尔自治区克拉玛依市独山子区盘锦路与西宁路交叉口正西方向174米左右",
        "tel": "",
        "category": "基础设施:公共设施:公共厕所",
        "type": 0,
        "location": {
            "lat": 44.331621,
            "lng": 84.922409
        },
        "ad_info": {
            "adcode": 650202,
            "province": "新疆维吾尔自治区",
            "city": "克拉玛依市",
            "district": "独山子区"
        }
    },
    {
        "id": "13268660264516218558",
        "title": "公共厕所",
        "address": "新疆维吾尔自治区克拉玛依市独山子区北京路与韶山路交叉口西南方向64米左右",
        "tel": "",
        "category": "基础设施:公共设施:公共厕所",
        "type": 0,
        "location": {
            "lat": 44.337924,
            "lng": 84.873354
        },
        "ad_info": {
            "adcode": 650202,
            "province": "新疆维吾尔自治区",
            "city": "克拉玛依市",
            "district": "独山子区"
        }
    },
    {
        "id": "15992904526318631773",
        "title": "公共厕所",
        "address": "新疆维吾尔自治区克拉玛依市独山子区成都路与金山路交叉口正西方向23米左右",
        "tel": "",
        "category": "基础设施:公共设施:公共厕所",
        "type": 0,
        "location": {
            "lat": 44.328688,
            "lng": 84.86093
        },
        "ad_info": {
            "adcode": 650202,
            "province": "新疆维吾尔自治区",
            "city": "克拉玛依市",
            "district": "独山子区"
        }
    },
    {
        "id": "2857738832762816605",
        "title": "汉博产业园公共卫生间",
        "address": "新疆维吾尔自治区克拉玛依市克拉玛依区人民路与幸福路交叉口西北方向292米左右",
        "tel": "",
        "category": "基础设施:公共设施:公共厕所",
        "type": 0,
        "location": {
            "lat": 45.58756,
            "lng": 84.876439
        },
        "ad_info": {
            "adcode": 650203,
            "province": "新疆维吾尔自治区",
            "city": "克拉玛依市",
            "district": "克拉玛依区"
        }
    },
    {
        "id": "9744102263045516287",
        "title": "公共厕所",
        "address": "新疆维吾尔自治区克拉玛依市独山子区德信LNGCNG加气站东南侧150米",
        "tel": "",
        "category": "基础设施:公共设施:公共厕所",
        "type": 0,
        "location": {
            "lat": 44.384782,
            "lng": 84.958164
        },
        "ad_info": {
            "adcode": 650202,
            "province": "新疆维吾尔自治区",
            "city": "克拉玛依市",
            "district": "独山子区"
        }
    },
    {
        "id": "533973852737194575",
        "title": "公共厕所",
        "address": "新疆维吾尔自治区克拉玛依市独山子区红星商店公厕",
        "tel": "",
        "category": "基础设施:公共设施:公共厕所",
        "type": 0,
        "location": {
            "lat": 44.326772,
            "lng": 84.861274
        },
        "ad_info": {
            "adcode": 650202,
            "province": "新疆维吾尔自治区",
            "city": "克拉玛依市",
            "district": "独山子区"
        }
    },
    {
        "id": "993318368052413743",
        "title": "公共厕所",
        "address": "新疆维吾尔自治区克拉玛依市独山子区南京路丙1号",
        "tel": "",
        "category": "基础设施:公共设施:公共厕所",
        "type": 0,
        "location": {
            "lat": 44.322758,
            "lng": 84.896919
        },
        "ad_info": {
            "adcode": 650202,
            "province": "新疆维吾尔自治区",
            "city": "克拉玛依市",
            "district": "独山子区"
        }
    },
    {
        "id": "160661529287748847",
        "title": "艾里克湖渔庄公共厕所",
        "address": "新疆维吾尔自治区克拉玛依市乌尔禾区",
        "tel": "",
        "category": "基础设施:公共设施:公共厕所",
        "type": 0,
        "location": {
            "lat": 45.966616,
            "lng": 85.851676
        },
        "ad_info": {
            "adcode": 650205,
            "province": "新疆维吾尔自治区",
            "city": "克拉玛依市",
            "district": "乌尔禾区"
        }
    },
    {
        "id": "13934577056102771079",
        "title": "公共厕所",
        "address": "新疆维吾尔自治区克拉玛依市独山子区南环路与油城路交叉口正南方向199米左右",
        "tel": "",
        "category": "基础设施:公共设施:公共厕所",
        "type": 0,
        "location": {
            "lat": 44.311589,
            "lng": 84.856776
        },
        "ad_info": {
            "adcode": 650202,
            "province": "新疆维吾尔自治区",
            "city": "克拉玛依市",
            "district": "独山子区"
        }
    },
    {
        "id": "9465606197216318065",
        "title": "克拉玛依沃沃大酒店-洗手间",
        "address": "新疆维吾尔自治区克拉玛依市克拉玛依区前进路与昆仑路交叉口正西方向107米左右",
        "tel": "",
        "category": "基础设施:公共设施:公共厕所",
        "type": 0,
        "location": {
            "lat": 45.590793,
            "lng": 84.878752
        },
        "ad_info": {
            "adcode": 650203,
            "province": "新疆维吾尔自治区",
            "city": "克拉玛依市",
            "district": "克拉玛依区"
        }
    },
    {
        "id": "2201477349943491611",
        "title": "小拐服务区公共厕所",
        "address": "新疆维吾尔自治区克拉玛依市克拉玛依区201省道东50米",
        "tel": "",
        "category": "基础设施:公共设施:公共厕所",
        "type": 0,
        "location": {
            "lat": 45.181074,
            "lng": 85.090952
        },
        "ad_info": {
            "adcode": 650203,
            "province": "新疆维吾尔自治区",
            "city": "克拉玛依市",
            "district": "克拉玛依区"
        }
    },
    {
        "id": "6381431173974524645",
        "title": "五五新镇服务区第二公共厕所",
        "address": "新疆维吾尔自治区克拉玛依市克拉玛依区纬二路与西环路交叉口正西方向114米左右",
        "tel": "",
        "category": "基础设施:公共设施:公共厕所",
        "type": 0,
        "location": {
            "lat": 44.804153,
            "lng": 84.861967
        },
        "ad_info": {
            "adcode": 650203,
            "province": "新疆维吾尔自治区",
            "city": "克拉玛依市",
            "district": "克拉玛依区"
        }
    },
    {
        "id": "9395256813396780329",
        "title": "特拉斯真空环保公厕",
        "address": "新疆维吾尔自治区克拉玛依市乌尔禾区乌尔禾区中心管护站旁",
        "tel": "",
        "category": "基础设施:公共设施:公共厕所",
        "type": 0,
        "location": {
            "lat": 46.126747,
            "lng": 85.656466
        },
        "ad_info": {
            "adcode": 650205,
            "province": "新疆维吾尔自治区",
            "city": "克拉玛依市",
            "district": "乌尔禾区"
        }
    },
    {
        "id": "3038299023796891210",
        "title": "百口泉服务区公共厕所",
        "address": "新疆维吾尔自治区克拉玛依市乌尔禾区百口泉服务区西北40米",
        "tel": "",
        "category": "基础设施:公共设施:公共厕所",
        "type": 0,
        "location": {
            "lat": 45.925548,
            "lng": 85.309903
        },
        "ad_info": {
            "adcode": 650205,
            "province": "新疆维吾尔自治区",
            "city": "克拉玛依市",
            "district": "乌尔禾区"
        }
    },
    {
        "id": "7268626511643444350",
        "title": "乌尔禾服务区公共厕所",
        "address": "新疆维吾尔自治区克拉玛依市乌尔禾区北侧",
        "tel": "",
        "category": "基础设施:公共设施:公共厕所",
        "type": 0,
        "location": {
            "lat": 46.168849,
            "lng": 85.649558
        },
        "ad_info": {
            "adcode": 650205,
            "province": "新疆维吾尔自治区",
            "city": "克拉玛依市",
            "district": "乌尔禾区"
        }
    },
    {
        "id": "13193131326278648677",
        "title": "217国道旅游公共厕所",
        "address": "新疆维吾尔自治区克拉玛依市乌尔禾区库克赛路与龙腾路交叉口西北方向665米左右",
        "tel": "",
        "category": "基础设施:公共设施:公共厕所",
        "type": 0,
        "location": {
            "lat": 46.111642,
            "lng": 85.639342
        },
        "ad_info": {
            "adcode": 650205,
            "province": "新疆维吾尔自治区",
            "city": "克拉玛依市",
            "district": "乌尔禾区"
        }
    },
    {
        "id": "17898369685732827846",
        "title": "克南服务区公共厕所",
        "address": "新疆维吾尔自治区克拉玛依市克拉玛依区G3014奎阿高速附近",
        "tel": "",
        "category": "基础设施:公共设施:公共厕所",
        "type": 0,
        "location": {
            "lat": 45.467836,
            "lng": 84.760565
        },
        "ad_info": {
            "adcode": 650203,
            "province": "新疆维吾尔自治区",
            "city": "克拉玛依市",
            "district": "克拉玛依区"
        }
    },
    {
        "id": "9751804383264379811",
        "title": "独山子区十一区商业街公共厕所",
        "address": "新疆维吾尔自治区克拉玛依市独山子区南京路十一区商业街",
        "tel": "",
        "category": "基础设施:公共设施:公共厕所",
        "type": 0,
        "location": {
            "lat": 44.326978,
            "lng": 84.895989
        },
        "ad_info": {
            "adcode": 650202,
            "province": "新疆维吾尔自治区",
            "city": "克拉玛依市",
            "district": "独山子区"
        }
    },
    {
        "id": "14686127442363126198",
        "title": "乌尔禾服务区公共厕所",
        "address": "新疆维吾尔自治区克拉玛依市乌尔禾区奎阿高速乌尔禾服务区",
        "tel": "",
        "category": "基础设施:公共设施:公共厕所",
        "type": 0,
        "location": {
            "lat": 46.166526,
            "lng": 85.65089
        },
        "ad_info": {
            "adcode": 650205,
            "province": "新疆维吾尔自治区",
            "city": "克拉玛依市",
            "district": "乌尔禾区"
        }
    },
    {
        "id": "4153153347502994005",
        "title": "克南服务区第一公共厕所",
        "address": "新疆维吾尔自治区克拉玛依市克拉玛依区G3014奎阿高速附近",
        "tel": "",
        "category": "基础设施:公共设施:公共厕所",
        "type": 0,
        "location": {
            "lat": 45.46615,
            "lng": 84.763386
        },
        "ad_info": {
            "adcode": 650203,
            "province": "新疆维吾尔自治区",
            "city": "克拉玛依市",
            "district": "克拉玛依区"
        }
    },
    {
        "id": "11691186776579574133",
        "title": "无障碍公共厕所",
        "address": "新疆维吾尔自治区克拉玛依市独山子区准南路与南昌路交叉口西北方向41米左右",
        "tel": "",
        "category": "基础设施:公共设施:公共厕所",
        "type": 0,
        "location": {
            "lat": 44.325429,
            "lng": 84.874506
        },
        "ad_info": {
            "adcode": 650202,
            "province": "新疆维吾尔自治区",
            "city": "克拉玛依市",
            "district": "独山子区"
        }
    },
    {
        "id": "2967806104060562641",
        "title": "百口泉服务区公共厕所",
        "address": "新疆维吾尔自治区克拉玛依市乌尔禾区G3014奎阿高速附近",
        "tel": "",
        "category": "基础设施:公共设施:公共厕所",
        "type": 0,
        "location": {
            "lat": 45.923805,
            "lng": 85.313012
        },
        "ad_info": {
            "adcode": 650205,
            "province": "新疆维吾尔自治区",
            "city": "克拉玛依市",
            "district": "乌尔禾区"
        }
    },
    {
        "id": "1997152255508402212",
        "title": "无障碍公共厕所",
        "address": "新疆维吾尔自治区克拉玛依市独山子区大庆西路与武昌路市场交叉口西北方向38米左右",
        "tel": "",
        "category": "基础设施:公共设施:公共厕所",
        "type": 0,
        "location": {
            "lat": 44.326354,
            "lng": 84.871293
        },
        "ad_info": {
            "adcode": 650202,
            "province": "新疆维吾尔自治区",
            "city": "克拉玛依市",
            "district": "独山子区"
        }
    },
    {
        "id": "11402933165196249420",
        "title": "环保公共厕所",
        "address": "新疆维吾尔自治区克拉玛依市独山子区准南路与南昌路交叉口西北方向20米左右",
        "tel": "",
        "category": "基础设施:公共设施:公共厕所",
        "type": 0,
        "location": {
            "lat": 44.325295,
            "lng": 84.874695
        },
        "ad_info": {
            "adcode": 650202,
            "province": "新疆维吾尔自治区",
            "city": "克拉玛依市",
            "district": "独山子区"
        }
    },
    {
        "id": "2756765480615562977",
        "title": "克拉玛依玛依塔柯酒店-洗手间",
        "address": "新疆维吾尔自治区克拉玛依市独山子区大庆东路11号",
        "tel": "",
        "category": "基础设施:公共设施:公共厕所",
        "type": 0,
        "location": {
            "lat": 44.329037,
            "lng": 84.890628
        },
        "ad_info": {
            "adcode": 650202,
            "province": "新疆维吾尔自治区",
            "city": "克拉玛依市",
            "district": "独山子区"
        }
    },
    {
        "id": "18353791871930980584",
        "title": "公共厕所",
        "address": "新疆维吾尔自治区克拉玛依市克拉玛依区蓝天一路5号",
        "tel": "",
        "category": "基础设施:公共设施:公共厕所",
        "type": 0,
        "location": {
            "lat": 45.47697,
            "lng": 84.975793
        },
        "ad_info": {
            "adcode": 650203,
            "province": "新疆维吾尔自治区",
            "city": "克拉玛依市",
            "district": "克拉玛依区"
        }
    },
    {
        "id": "826582487640788270",
        "title": "公共厕所",
        "address": "新疆维吾尔自治区克拉玛依市克拉玛依区西环路35号",
        "tel": "",
        "category": "基础设施:公共设施:公共厕所",
        "type": 0,
        "location": {
            "lat": 45.596354,
            "lng": 84.851185
        },
        "ad_info": {
            "adcode": 650203,
            "province": "新疆维吾尔自治区",
            "city": "克拉玛依市",
            "district": "克拉玛依区"
        }
    },
    {
        "id": "13409705477860043960",
        "title": "公共厕所",
        "address": "新疆维吾尔自治区克拉玛依市克拉玛依区清园路与白桦路交叉口正北方向116米左右",
        "tel": "",
        "category": "基础设施:公共设施:公共厕所",
        "type": 0,
        "location": {
            "lat": 45.583988,
            "lng": 84.910559
        },
        "ad_info": {
            "adcode": 650203,
            "province": "新疆维吾尔自治区",
            "city": "克拉玛依市",
            "district": "克拉玛依区"
        }
    },
    {
        "id": "12930337861049499472",
        "title": "公共厕所",
        "address": "新疆维吾尔自治区克拉玛依市克拉玛依区光明西路与油建北路交叉口正南方向47米左右",
        "tel": "",
        "category": "基础设施:公共设施:公共厕所",
        "type": 0,
        "location": {
            "lat": 45.592628,
            "lng": 84.86094
        },
        "ad_info": {
            "adcode": 650203,
            "province": "新疆维吾尔自治区",
            "city": "克拉玛依市",
            "district": "克拉玛依区"
        }
    },
    {
        "id": "9554213192139782506",
        "title": "公共厕所",
        "address": "新疆维吾尔自治区克拉玛依市白碱滩区中兴路54号",
        "tel": "",
        "category": "基础设施:公共设施:公共厕所",
        "type": 0,
        "location": {
            "lat": 45.691511,
            "lng": 85.138349
        },
        "ad_info": {
            "adcode": 650204,
            "province": "新疆维吾尔自治区",
            "city": "克拉玛依市",
            "district": "白碱滩区"
        }
    },
    {
        "id": "8383336138487599807",
        "title": "公共厕所",
        "address": "新疆维吾尔自治区克拉玛依市克拉玛依区G217与经二街交叉口西南方向698米左右",
        "tel": "",
        "category": "基础设施:公共设施:公共厕所",
        "type": 0,
        "location": {
            "lat": 45.518153,
            "lng": 84.911687
        },
        "ad_info": {
            "adcode": 650203,
            "province": "新疆维吾尔自治区",
            "city": "克拉玛依市",
            "district": "克拉玛依区"
        }
    },
    {
        "id": "15231142502574501001",
        "title": "公共厕所",
        "address": "新疆维吾尔自治区克拉玛依市克拉玛依区塔河路152号",
        "tel": "",
        "category": "基础设施:公共设施:公共厕所",
        "type": 0,
        "location": {
            "lat": 45.613693,
            "lng": 84.857895
        },
        "ad_info": {
            "adcode": 650203,
            "province": "新疆维吾尔自治区",
            "city": "克拉玛依市",
            "district": "克拉玛依区"
        }
    },
    {
        "id": "18096275530570102630",
        "title": "公共厕所(健康路)",
        "address": "新疆维吾尔自治区克拉玛依市克拉玛依区健康路与团结路交叉口西南方向20米左右",
        "tel": "",
        "category": "基础设施:公共设施:公共厕所",
        "type": 0,
        "location": {
            "lat": 45.168743,
            "lng": 85.054781
        },
        "ad_info": {
            "adcode": 650203,
            "province": "新疆维吾尔自治区",
            "city": "克拉玛依市",
            "district": "克拉玛依区"
        }
    },
    {
        "id": "3680778306322398036",
        "title": "公共厕所",
        "address": "新疆维吾尔自治区克拉玛依市克拉玛依区天山路与油建北路交叉口正北方向49米左右",
        "tel": "",
        "category": "基础设施:公共设施:公共厕所",
        "type": 0,
        "location": {
            "lat": 45.600837,
            "lng": 84.858428
        },
        "ad_info": {
            "adcode": 650203,
            "province": "新疆维吾尔自治区",
            "city": "克拉玛依市",
            "district": "克拉玛依区"
        }
    },
    {
        "id": "16911114132429458664",
        "title": "公共厕所",
        "address": "新疆维吾尔自治区克拉玛依市克拉玛依区G217与健康西路交叉口正南方向341米左右",
        "tel": "",
        "category": "基础设施:公共设施:公共厕所",
        "type": 0,
        "location": {
            "lat": 44.856067,
            "lng": 84.791242
        },
        "ad_info": {
            "adcode": 650203,
            "province": "新疆维吾尔自治区",
            "city": "克拉玛依市",
            "district": "克拉玛依区"
        }
    },
    {
        "id": "15043896779801065319",
        "title": "公共厕所",
        "address": "新疆维吾尔自治区克拉玛依市白碱滩区G217与三平路交叉口西南方向488米左右",
        "tel": "",
        "category": "基础设施:公共设施:公共厕所",
        "type": 0,
        "location": {
            "lat": 45.611824,
            "lng": 85.034247
        },
        "ad_info": {
            "adcode": 650204,
            "province": "新疆维吾尔自治区",
            "city": "克拉玛依市",
            "district": "白碱滩区"
        }
    },
    {
        "id": "16717584303398443765",
        "title": "公共厕所",
        "address": "新疆维吾尔自治区克拉玛依市克拉玛依区双子路",
        "tel": "",
        "category": "基础设施:公共设施:公共厕所",
        "type": 0,
        "location": {
            "lat": 45.584288,
            "lng": 84.877945
        },
        "ad_info": {
            "adcode": 650203,
            "province": "新疆维吾尔自治区",
            "city": "克拉玛依市",
            "district": "克拉玛依区"
        }
    },
    {
        "id": "9057988320346481035",
        "title": "公共厕所",
        "address": "新疆维吾尔自治区克拉玛依市独山子区南京路与长岭路交叉口东北方向169米左右",
        "tel": "",
        "category": "基础设施:公共设施:公共厕所",
        "type": 0,
        "location": {
            "lat": 44.338055,
            "lng": 84.893343
        },
        "ad_info": {
            "adcode": 650202,
            "province": "新疆维吾尔自治区",
            "city": "克拉玛依市",
            "district": "独山子区"
        }
    },
    {
        "id": "6060693670902335598",
        "title": "公共厕所",
        "address": "新疆维吾尔自治区克拉玛依市白碱滩区迎春路与门户路交叉口正北方向95米左右",
        "tel": "",
        "category": "基础设施:公共设施:公共厕所",
        "type": 0,
        "location": {
            "lat": 45.677176,
            "lng": 85.113075
        },
        "ad_info": {
            "adcode": 650204,
            "province": "新疆维吾尔自治区",
            "city": "克拉玛依市",
            "district": "白碱滩区"
        }
    },
    {
        "id": "15152352601970415050",
        "title": "公共厕所",
        "address": "新疆维吾尔自治区克拉玛依市克拉玛依区塔山路与塔河路交叉口正西方向145米左右",
        "tel": "",
        "category": "基础设施:公共设施:公共厕所",
        "type": 0,
        "location": {
            "lat": 45.60741,
            "lng": 84.85807
        },
        "ad_info": {
            "adcode": 650203,
            "province": "新疆维吾尔自治区",
            "city": "克拉玛依市",
            "district": "克拉玛依区"
        }
    },
    {
        "id": "9459923643452123802",
        "title": "公共厕所",
        "address": "新疆维吾尔自治区克拉玛依市白碱滩区三平路与园平路交叉口西南方向101米左右",
        "tel": "",
        "category": "基础设施:公共设施:公共厕所",
        "type": 0,
        "location": {
            "lat": 45.623631,
            "lng": 85.057001
        },
        "ad_info": {
            "adcode": 650204,
            "province": "新疆维吾尔自治区",
            "city": "克拉玛依市",
            "district": "白碱滩区"
        }
    },
    {
        "id": "4543660776140505204",
        "title": "公共厕所",
        "address": "新疆维吾尔自治区克拉玛依市白碱滩区三平路29号",
        "tel": "",
        "category": "基础设施:公共设施:公共厕所",
        "type": 0,
        "location": {
            "lat": 45.622067,
            "lng": 85.056647
        },
        "ad_info": {
            "adcode": 650204,
            "province": "新疆维吾尔自治区",
            "city": "克拉玛依市",
            "district": "白碱滩区"
        }
    },
    {
        "id": "13003796359286634150",
        "title": "公共厕所",
        "address": "新疆维吾尔自治区克拉玛依市克拉玛依区鸿雁路33号",
        "tel": "",
        "category": "基础设施:公共设施:公共厕所",
        "type": 0,
        "location": {
            "lat": 45.595446,
            "lng": 84.856592
        },
        "ad_info": {
            "adcode": 650203,
            "province": "新疆维吾尔自治区",
            "city": "克拉玛依市",
            "district": "克拉玛依区"
        }
    },
    {
        "id": "2607198943868983604",
        "title": "公共厕所",
        "address": "新疆维吾尔自治区克拉玛依市独山子区南海路与阿勒泰路交叉口东南方向146米左右",
        "tel": "",
        "category": "基础设施:公共设施:公共厕所",
        "type": 0,
        "location": {
            "lat": 44.319436,
            "lng": 84.861881
        },
        "ad_info": {
            "adcode": 650202,
            "province": "新疆维吾尔自治区",
            "city": "克拉玛依市",
            "district": "独山子区"
        }
    },
    {
        "id": "2824139708881197406",
        "title": "公共厕所",
        "address": "新疆维吾尔自治区克拉玛依市克拉玛依区昆仑路与白桦路交叉口西北方向149米左右",
        "tel": "",
        "category": "基础设施:公共设施:公共厕所",
        "type": 0,
        "location": {
            "lat": 45.595248,
            "lng": 84.896267
        },
        "ad_info": {
            "adcode": 650203,
            "province": "新疆维吾尔自治区",
            "city": "克拉玛依市",
            "district": "克拉玛依区"
        }
    },
    {
        "id": "5630243838473477995",
        "title": "公共厕所",
        "address": "新疆维吾尔自治区克拉玛依市克拉玛依区北极路与玉盘路交叉口正北方向64米左右",
        "tel": "",
        "category": "基础设施:公共设施:公共厕所",
        "type": 0,
        "location": {
            "lat": 45.616534,
            "lng": 84.853109
        },
        "ad_info": {
            "adcode": 650203,
            "province": "新疆维吾尔自治区",
            "city": "克拉玛依市",
            "district": "克拉玛依区"
        }
    },
    {
        "id": "6319517226025311082",
        "title": "公共厕所",
        "address": "新疆维吾尔自治区克拉玛依市克拉玛依区天山路与油建北路交叉口正南方向185米左右",
        "tel": "",
        "category": "基础设施:公共设施:公共厕所",
        "type": 0,
        "location": {
            "lat": 45.598781,
            "lng": 84.857716
        },
        "ad_info": {
            "adcode": 650203,
            "province": "新疆维吾尔自治区",
            "city": "克拉玛依市",
            "district": "克拉玛依区"
        }
    },
    {
        "id": "3939391177670037907",
        "title": "克南服务区第二公共厕所",
        "address": "新疆维吾尔自治区克拉玛依市克拉玛依区G3014奎阿高速附近",
        "tel": "",
        "category": "基础设施:公共设施:公共厕所",
        "type": 0,
        "location": {
            "lat": 45.467826,
            "lng": 84.764657
        },
        "ad_info": {
            "adcode": 650203,
            "province": "新疆维吾尔自治区",
            "city": "克拉玛依市",
            "district": "克拉玛依区"
        }
    }
]