[
    {
        "id": "6406059872385123506",
        "title": "公共厕所",
        "address": "贵州省六盘水市水城区金山路与龙泉路交叉口正北方向23米左右",
        "tel": "",
        "category": "基础设施:公共设施:公共厕所",
        "type": 0,
        "location": {
            "lat": 26.540203,
            "lng": 104.957616
        },
        "ad_info": {
            "adcode": 520204,
            "province": "贵州省",
            "city": "六盘水市",
            "district": "水城区"
        }
    },
    {
        "id": "5473193822493339384",
        "title": "公共厕所",
        "address": "贵州省六盘水市水城区文苑路104号",
        "tel": "",
        "category": "基础设施:公共设施:公共厕所",
        "type": 0,
        "location": {
            "lat": 26.544716,
            "lng": 104.957494
        },
        "ad_info": {
            "adcode": 520204,
            "province": "贵州省",
            "city": "六盘水市",
            "district": "水城区"
        }
    },
    {
        "id": "9528444865739864037",
        "title": "公共厕所",
        "address": "贵州省六盘水市水城区文苑路天羿栖凤苑",
        "tel": "",
        "category": "基础设施:公共设施:公共厕所",
        "type": 0,
        "location": {
            "lat": 26.544417,
            "lng": 104.959153
        },
        "ad_info": {
            "adcode": 520204,
            "province": "贵州省",
            "city": "六盘水市",
            "district": "水城区"
        }
    },
    {
        "id": "11820368534805733656",
        "title": "公共厕所",
        "address": "贵州省六盘水市水城区兴园路与红桥大道交叉口东南方向1138米左右",
        "tel": "",
        "category": "基础设施:公共设施:公共厕所",
        "type": 0,
        "location": {
            "lat": 26.52732,
            "lng": 104.926187
        },
        "ad_info": {
            "adcode": 520204,
            "province": "贵州省",
            "city": "六盘水市",
            "district": "水城区"
        }
    },
    {
        "id": "13403206843763618311",
        "title": "公共厕所",
        "address": "贵州省六盘水市水城区瑞安巷与钟山大道交叉口西南方向82米左右",
        "tel": "",
        "category": "基础设施:公共设施:公共厕所",
        "type": 0,
        "location": {
            "lat": 26.555729,
            "lng": 104.928459
        },
        "ad_info": {
            "adcode": 520204,
            "province": "贵州省",
            "city": "六盘水市",
            "district": "水城区"
        }
    },
    {
        "id": "8107981023712941061",
        "title": "公共厕所",
        "address": "贵州省六盘水市水城区S212与致富路交叉口正东方向149米左右",
        "tel": "",
        "category": "基础设施:公共设施:公共厕所",
        "type": 0,
        "location": {
            "lat": 26.263548,
            "lng": 104.6643
        },
        "ad_info": {
            "adcode": 520204,
            "province": "贵州省",
            "city": "六盘水市",
            "district": "水城区"
        }
    },
    {
        "id": "17109588096136693382",
        "title": "公共厕所",
        "address": "贵州省六盘水市水城区新街乡中转站",
        "tel": "",
        "category": "基础设施:公共设施:公共厕所",
        "type": 0,
        "location": {
            "lat": 26.226459,
            "lng": 104.758736
        },
        "ad_info": {
            "adcode": 520204,
            "province": "贵州省",
            "city": "六盘水市",
            "district": "水城区"
        }
    },
    {
        "id": "15416572292072812426",
        "title": "公共厕所",
        "address": "贵州省六盘水市六枝特区人民路70-86号",
        "tel": "",
        "category": "基础设施:公共设施:公共厕所",
        "type": 0,
        "location": {
            "lat": 26.20727,
            "lng": 105.476351
        },
        "ad_info": {
            "adcode": 520203,
            "province": "贵州省",
            "city": "六盘水市",
            "district": "六枝特区"
        }
    },
    {
        "id": "13175731243379456184",
        "title": "公共厕所",
        "address": "贵州省六盘水市水城区新玉路与玉钱大道交叉口正西方向108米左右",
        "tel": "",
        "category": "基础设施:公共设施:公共厕所",
        "type": 0,
        "location": {
            "lat": 26.537182,
            "lng": 104.786961
        },
        "ad_info": {
            "adcode": 520204,
            "province": "贵州省",
            "city": "六盘水市",
            "district": "水城区"
        }
    },
    {
        "id": "16018811285973809861",
        "title": "公共厕所",
        "address": "贵州省六盘水市钟山区水城百货大楼(民族路西)",
        "tel": "",
        "category": "基础设施:公共设施:公共厕所",
        "type": 0,
        "location": {
            "lat": 26.596503,
            "lng": 104.827962
        },
        "ad_info": {
            "adcode": 520201,
            "province": "贵州省",
            "city": "六盘水市",
            "district": "钟山区"
        }
    },
    {
        "id": "724959109458684739",
        "title": "公共厕所",
        "address": "贵州省六盘水市水城区G246",
        "tel": "",
        "category": "基础设施:公共设施:公共厕所",
        "type": 0,
        "location": {
            "lat": 26.607263,
            "lng": 105.120399
        },
        "ad_info": {
            "adcode": 520204,
            "province": "贵州省",
            "city": "六盘水市",
            "district": "水城区"
        }
    },
    {
        "id": "11786060557792233824",
        "title": "公共厕所",
        "address": "贵州省六盘水市盘州市林开巷与银杏大道交叉口西南方向30米左右",
        "tel": "",
        "category": "基础设施:公共设施:公共厕所",
        "type": 0,
        "location": {
            "lat": 25.711501,
            "lng": 104.467253
        },
        "ad_info": {
            "adcode": 520281,
            "province": "贵州省",
            "city": "六盘水市",
            "district": "盘州市"
        }
    },
    {
        "id": "15296830923070565687",
        "title": "公共厕所",
        "address": "贵州省六盘水市钟山区凤凰路凉都水岸",
        "tel": "",
        "category": "基础设施:公共设施:公共厕所",
        "type": 0,
        "location": {
            "lat": 26.577446,
            "lng": 104.867557
        },
        "ad_info": {
            "adcode": 520201,
            "province": "贵州省",
            "city": "六盘水市",
            "district": "钟山区"
        }
    },
    {
        "id": "8226301738543267674",
        "title": "公共厕所",
        "address": "贵州省六盘水市钟山区人民中路12号-附15号",
        "tel": "",
        "category": "基础设施:公共设施:公共厕所",
        "type": 0,
        "location": {
            "lat": 26.589689,
            "lng": 104.842296
        },
        "ad_info": {
            "adcode": 520201,
            "province": "贵州省",
            "city": "六盘水市",
            "district": "钟山区"
        }
    },
    {
        "id": "5575292948001736773",
        "title": "公共厕所",
        "address": "贵州省六盘水市钟山区杉田路与钟山大道交叉口东北方向37米左右",
        "tel": "",
        "category": "基础设施:公共设施:公共厕所",
        "type": 0,
        "location": {
            "lat": 26.562462,
            "lng": 104.909271
        },
        "ad_info": {
            "adcode": 520201,
            "province": "贵州省",
            "city": "六盘水市",
            "district": "钟山区"
        }
    },
    {
        "id": "1958754235865487899",
        "title": "公共厕所",
        "address": "贵州省六盘水市钟山区水西北路与汪水路交叉口正南方向66米左右",
        "tel": "",
        "category": "基础设施:公共设施:公共厕所",
        "type": 0,
        "location": {
            "lat": 26.592058,
            "lng": 104.85258
        },
        "ad_info": {
            "adcode": 520201,
            "province": "贵州省",
            "city": "六盘水市",
            "district": "钟山区"
        }
    },
    {
        "id": "14444813480034013785",
        "title": "公共厕所",
        "address": "贵州省六盘水市钟山区凉逸路与市场路交叉口西北方向37米左右",
        "tel": "",
        "category": "基础设施:公共设施:公共厕所",
        "type": 0,
        "location": {
            "lat": 26.582605,
            "lng": 104.848988
        },
        "ad_info": {
            "adcode": 520201,
            "province": "贵州省",
            "city": "六盘水市",
            "district": "钟山区"
        }
    },
    {
        "id": "2740633774225993238",
        "title": "公共厕所",
        "address": "贵州省六盘水市钟山区钟山大道与钟山苑步行街交叉口东南方向115米左右",
        "tel": "",
        "category": "基础设施:公共设施:公共厕所",
        "type": 0,
        "location": {
            "lat": 26.593407,
            "lng": 104.831126
        },
        "ad_info": {
            "adcode": 520201,
            "province": "贵州省",
            "city": "六盘水市",
            "district": "钟山区"
        }
    },
    {
        "id": "11450233960923877530",
        "title": "公共厕所",
        "address": "贵州省六盘水市钟山区齐心巷与齐心街交叉口正西方向82米左右",
        "tel": "",
        "category": "基础设施:公共设施:公共厕所",
        "type": 0,
        "location": {
            "lat": 26.584081,
            "lng": 104.853922
        },
        "ad_info": {
            "adcode": 520201,
            "province": "贵州省",
            "city": "六盘水市",
            "district": "钟山区"
        }
    },
    {
        "id": "5271300434053109169",
        "title": "公共厕所",
        "address": "贵州省六盘水市盘州市开拓路与星云中路步行街交叉口正南方向78米左右",
        "tel": "",
        "category": "基础设施:公共设施:公共厕所",
        "type": 0,
        "location": {
            "lat": 25.707416,
            "lng": 104.46744
        },
        "ad_info": {
            "adcode": 520281,
            "province": "贵州省",
            "city": "六盘水市",
            "district": "盘州市"
        }
    },
    {
        "id": "15070314482411116143",
        "title": "公共厕所",
        "address": "贵州省六盘水市六枝特区桃园巷与那平路交叉口正南方向209米左右",
        "tel": "",
        "category": "基础设施:公共设施:公共厕所",
        "type": 0,
        "location": {
            "lat": 26.207796,
            "lng": 105.474115
        },
        "ad_info": {
            "adcode": 520203,
            "province": "贵州省",
            "city": "六盘水市",
            "district": "六枝特区"
        }
    },
    {
        "id": "3134313510606465663",
        "title": "公共厕所",
        "address": "贵州省六盘水市钟山区新生南路与钟山大道交叉口西北方向107米左右",
        "tel": "",
        "category": "基础设施:公共设施:公共厕所",
        "type": 0,
        "location": {
            "lat": 26.565721,
            "lng": 104.887901
        },
        "ad_info": {
            "adcode": 520201,
            "province": "贵州省",
            "city": "六盘水市",
            "district": "钟山区"
        }
    },
    {
        "id": "15098909270213839484",
        "title": "公共厕所",
        "address": "贵州省六盘水市钟山区交通南路与凉都大道交叉口东南方向159米左右",
        "tel": "",
        "category": "基础设施:公共设施:公共厕所",
        "type": 0,
        "location": {
            "lat": 26.581485,
            "lng": 104.845762
        },
        "ad_info": {
            "adcode": 520201,
            "province": "贵州省",
            "city": "六盘水市",
            "district": "钟山区"
        }
    },
    {
        "id": "11609895874433409458",
        "title": "公共厕所",
        "address": "贵州省六盘水市钟山区人民中路507号",
        "tel": "",
        "category": "基础设施:公共设施:公共厕所",
        "type": 0,
        "location": {
            "lat": 26.576063,
            "lng": 104.882355
        },
        "ad_info": {
            "adcode": 520201,
            "province": "贵州省",
            "city": "六盘水市",
            "district": "钟山区"
        }
    },
    {
        "id": "5157617174592318927",
        "title": "5号公共厕所",
        "address": "贵州省六盘水市水城区佳苑路与金山北巷交叉口东北方向50米左右",
        "tel": "",
        "category": "基础设施:公共设施:公共厕所",
        "type": 0,
        "location": {
            "lat": 26.541913,
            "lng": 104.955849
        },
        "ad_info": {
            "adcode": 520204,
            "province": "贵州省",
            "city": "六盘水市",
            "district": "水城区"
        }
    },
    {
        "id": "14875036165693363399",
        "title": "公共厕所",
        "address": "贵州省六盘水市盘州市丹霞北路与团结西路交叉口东南方向31米左右",
        "tel": "",
        "category": "基础设施:公共设施:公共厕所",
        "type": 0,
        "location": {
            "lat": 25.709305,
            "lng": 104.46642
        },
        "ad_info": {
            "adcode": 520281,
            "province": "贵州省",
            "city": "六盘水市",
            "district": "盘州市"
        }
    },
    {
        "id": "12880734004422934431",
        "title": "公共厕所",
        "address": "贵州省六盘水市钟山区人民路与凤凰路交叉口正南方向86米左右",
        "tel": "",
        "category": "基础设施:公共设施:公共厕所",
        "type": 0,
        "location": {
            "lat": 26.581249,
            "lng": 104.872467
        },
        "ad_info": {
            "adcode": 520201,
            "province": "贵州省",
            "city": "六盘水市",
            "district": "钟山区"
        }
    },
    {
        "id": "1281416532359519342",
        "title": "公共厕所",
        "address": "贵州省六盘水市钟山区丽江路与荷泉路交叉口西南方向94米左右",
        "tel": "",
        "category": "基础设施:公共设施:公共厕所",
        "type": 0,
        "location": {
            "lat": 26.581162,
            "lng": 104.867186
        },
        "ad_info": {
            "adcode": 520201,
            "province": "贵州省",
            "city": "六盘水市",
            "district": "钟山区"
        }
    },
    {
        "id": "1749693239432757951",
        "title": "公共厕所",
        "address": "贵州省六盘水市六枝特区九龙路与补林路交叉口正北方向184米左右",
        "tel": "",
        "category": "基础设施:公共设施:公共厕所",
        "type": 0,
        "location": {
            "lat": 26.225321,
            "lng": 105.464996
        },
        "ad_info": {
            "adcode": 520203,
            "province": "贵州省",
            "city": "六盘水市",
            "district": "六枝特区"
        }
    },
    {
        "id": "8257368654113999305",
        "title": "公共厕所",
        "address": "贵州省六盘水市钟山区城南路与钟山大道交叉口正东方向183米左右",
        "tel": "",
        "category": "基础设施:公共设施:公共厕所",
        "type": 0,
        "location": {
            "lat": 26.571745,
            "lng": 104.878303
        },
        "ad_info": {
            "adcode": 520201,
            "province": "贵州省",
            "city": "六盘水市",
            "district": "钟山区"
        }
    },
    {
        "id": "660055115438491861",
        "title": "公共厕所",
        "address": "贵州省六盘水市水城区水城大道与腾庆路交叉口正西方向21米左右",
        "tel": "",
        "category": "基础设施:公共设施:公共厕所",
        "type": 0,
        "location": {
            "lat": 26.544118,
            "lng": 104.955412
        },
        "ad_info": {
            "adcode": 520204,
            "province": "贵州省",
            "city": "六盘水市",
            "district": "水城区"
        }
    },
    {
        "id": "13196070269391945837",
        "title": "公共厕所",
        "address": "贵州省六盘水市六枝特区平寨镇那平路桃花公园老路口",
        "tel": "",
        "category": "基础设施:公共设施:公共厕所",
        "type": 0,
        "location": {
            "lat": 26.210889,
            "lng": 105.476234
        },
        "ad_info": {
            "adcode": 520203,
            "province": "贵州省",
            "city": "六盘水市",
            "district": "六枝特区"
        }
    },
    {
        "id": "9428518172421172184",
        "title": "公共厕所",
        "address": "贵州省六盘水市钟山区巴西南路5号",
        "tel": "",
        "category": "基础设施:公共设施:公共厕所",
        "type": 0,
        "location": {
            "lat": 26.572262,
            "lng": 104.887648
        },
        "ad_info": {
            "adcode": 520201,
            "province": "贵州省",
            "city": "六盘水市",
            "district": "钟山区"
        }
    },
    {
        "id": "14893828136168062714",
        "title": "公共厕所",
        "address": "贵州省六盘水市钟山区红桥大道与青山路交叉口正北方向254米左右",
        "tel": "",
        "category": "基础设施:公共设施:公共厕所",
        "type": 0,
        "location": {
            "lat": 26.546364,
            "lng": 104.888358
        },
        "ad_info": {
            "adcode": 520201,
            "province": "贵州省",
            "city": "六盘水市",
            "district": "钟山区"
        }
    },
    {
        "id": "7991809147834123330",
        "title": "公共厕所",
        "address": "贵州省六盘水市盘州市兴盘路与盘州大道交叉口正西方向369米左右",
        "tel": "",
        "category": "基础设施:公共设施:公共厕所",
        "type": 0,
        "location": {
            "lat": 25.767092,
            "lng": 104.534221
        },
        "ad_info": {
            "adcode": 520281,
            "province": "贵州省",
            "city": "六盘水市",
            "district": "盘州市"
        }
    },
    {
        "id": "2966445210028863383",
        "title": "公共厕所",
        "address": "贵州省六盘水市水城区和谐一巷与和谐路交叉口东北方向34米左右",
        "tel": "",
        "category": "基础设施:公共设施:公共厕所",
        "type": 0,
        "location": {
            "lat": 26.541267,
            "lng": 104.961881
        },
        "ad_info": {
            "adcode": 520204,
            "province": "贵州省",
            "city": "六盘水市",
            "district": "水城区"
        }
    },
    {
        "id": "1554999949656927583",
        "title": "公共厕所",
        "address": "贵州省六盘水市钟山区人民中路与人民路交叉口正南方向179米左右",
        "tel": "",
        "category": "基础设施:公共设施:公共厕所",
        "type": 0,
        "location": {
            "lat": 26.563893,
            "lng": 104.912902
        },
        "ad_info": {
            "adcode": 520201,
            "province": "贵州省",
            "city": "六盘水市",
            "district": "钟山区"
        }
    },
    {
        "id": "3116278677969804343",
        "title": "公共厕所",
        "address": "贵州省六盘水市钟山区交通北路与人民路交叉口西北方向62米左右",
        "tel": "",
        "category": "基础设施:公共设施:公共厕所",
        "type": 0,
        "location": {
            "lat": 26.588971,
            "lng": 104.846886
        },
        "ad_info": {
            "adcode": 520201,
            "province": "贵州省",
            "city": "六盘水市",
            "district": "钟山区"
        }
    },
    {
        "id": "18369986628135126108",
        "title": "公共厕所",
        "address": "贵州省六盘水市六枝特区后山路与胜利路交叉口正北方向217米左右",
        "tel": "",
        "category": "基础设施:公共设施:公共厕所",
        "type": 0,
        "location": {
            "lat": 26.201888,
            "lng": 105.482769
        },
        "ad_info": {
            "adcode": 520203,
            "province": "贵州省",
            "city": "六盘水市",
            "district": "六枝特区"
        }
    },
    {
        "id": "6495505020528719098",
        "title": "公共厕所",
        "address": "贵州省六盘水市钟山区钟山大道与钢城大道交叉口西北方向180米左右",
        "tel": "",
        "category": "基础设施:公共设施:公共厕所",
        "type": 0,
        "location": {
            "lat": 26.567421,
            "lng": 104.884468
        },
        "ad_info": {
            "adcode": 520201,
            "province": "贵州省",
            "city": "六盘水市",
            "district": "钟山区"
        }
    },
    {
        "id": "3094762177881738465",
        "title": "公共厕所",
        "address": "贵州省六盘水市钟山区官林路165号农贸市场",
        "tel": "",
        "category": "基础设施:公共设施:公共厕所",
        "type": 0,
        "location": {
            "lat": 26.578578,
            "lng": 104.878028
        },
        "ad_info": {
            "adcode": 520201,
            "province": "贵州省",
            "city": "六盘水市",
            "district": "钟山区"
        }
    },
    {
        "id": "11918864042731311361",
        "title": "公共厕所",
        "address": "贵州省六盘水市钟山区公园路与向阳南路交叉口西南方向87米左右",
        "tel": "",
        "category": "基础设施:公共设施:公共厕所",
        "type": 0,
        "location": {
            "lat": 26.587568,
            "lng": 104.828977
        },
        "ad_info": {
            "adcode": 520201,
            "province": "贵州省",
            "city": "六盘水市",
            "district": "钟山区"
        }
    },
    {
        "id": "5892739527088338256",
        "title": "公共厕所",
        "address": "贵州省六盘水市钟山区人民路与转运二巷交叉口西北方向34米左右",
        "tel": "",
        "category": "基础设施:公共设施:公共厕所",
        "type": 0,
        "location": {
            "lat": 26.58855,
            "lng": 104.847923
        },
        "ad_info": {
            "adcode": 520201,
            "province": "贵州省",
            "city": "六盘水市",
            "district": "钟山区"
        }
    },
    {
        "id": "11807450628907053957",
        "title": "公共厕所",
        "address": "贵州省六盘水市钟山区八一路与文锦路交叉口西南方向452米左右",
        "tel": "",
        "category": "基础设施:公共设施:公共厕所",
        "type": 0,
        "location": {
            "lat": 26.578884,
            "lng": 104.829127
        },
        "ad_info": {
            "adcode": 520201,
            "province": "贵州省",
            "city": "六盘水市",
            "district": "钟山区"
        }
    },
    {
        "id": "15689601118845056399",
        "title": "公共厕所",
        "address": "贵州省六盘水市钟山区人民中路167号",
        "tel": "",
        "category": "基础设施:公共设施:公共厕所",
        "type": 0,
        "location": {
            "lat": 26.587588,
            "lng": 104.859486
        },
        "ad_info": {
            "adcode": 520201,
            "province": "贵州省",
            "city": "六盘水市",
            "district": "钟山区"
        }
    },
    {
        "id": "13895836504391516947",
        "title": "公共厕所",
        "address": "贵州省六盘水市盘州市矿欣路与胜境大道交叉口东北方向57米左右",
        "tel": "",
        "category": "基础设施:公共设施:公共厕所",
        "type": 0,
        "location": {
            "lat": 25.658227,
            "lng": 104.408427
        },
        "ad_info": {
            "adcode": 520281,
            "province": "贵州省",
            "city": "六盘水市",
            "district": "盘州市"
        }
    },
    {
        "id": "12960218962607930386",
        "title": "公共厕所",
        "address": "贵州省六盘水市钟山区人民路与盐务巷交叉口东南方向40米左右",
        "tel": "",
        "category": "基础设施:公共设施:公共厕所",
        "type": 0,
        "location": {
            "lat": 26.566872,
            "lng": 104.898914
        },
        "ad_info": {
            "adcode": 520201,
            "province": "贵州省",
            "city": "六盘水市",
            "district": "钟山区"
        }
    },
    {
        "id": "17348166248162971330",
        "title": "公共厕所",
        "address": "贵州省六盘水市钟山区凉都大道与大连路交叉口正南方向40米左右",
        "tel": "",
        "category": "基础设施:公共设施:公共厕所",
        "type": 0,
        "location": {
            "lat": 26.579484,
            "lng": 104.851533
        },
        "ad_info": {
            "adcode": 520201,
            "province": "贵州省",
            "city": "六盘水市",
            "district": "钟山区"
        }
    },
    {
        "id": "210386044158605095",
        "title": "7号公共厕所",
        "address": "贵州省六盘水市水城区和平巷与盘海路交叉口东南方向83米左右",
        "tel": "",
        "category": "基础设施:公共设施:公共厕所",
        "type": 0,
        "location": {
            "lat": 26.550726,
            "lng": 104.943596
        },
        "ad_info": {
            "adcode": 520204,
            "province": "贵州省",
            "city": "六盘水市",
            "district": "水城区"
        }
    },
    {
        "id": "7119920213898535683",
        "title": "公共厕所",
        "address": "贵州省六盘水市钟山区人民路与水西北路交叉口正南方向43米左右",
        "tel": "",
        "category": "基础设施:公共设施:公共厕所",
        "type": 0,
        "location": {
            "lat": 26.589558,
            "lng": 104.844079
        },
        "ad_info": {
            "adcode": 520201,
            "province": "贵州省",
            "city": "六盘水市",
            "district": "钟山区"
        }
    },
    {
        "id": "8925834866159639085",
        "title": "公共厕所",
        "address": "贵州省六盘水市钟山区东风东路与东风路交叉口东南方向170米左右",
        "tel": "",
        "category": "基础设施:公共设施:公共厕所",
        "type": 0,
        "location": {
            "lat": 26.59203,
            "lng": 104.848769
        },
        "ad_info": {
            "adcode": 520201,
            "province": "贵州省",
            "city": "六盘水市",
            "district": "钟山区"
        }
    },
    {
        "id": "209269342574707421",
        "title": "公共厕所",
        "address": "贵州省六盘水市盘州市G246与X210交叉口正东方向1143米左右",
        "tel": "",
        "category": "基础设施:公共设施:公共厕所",
        "type": 0,
        "location": {
            "lat": 25.541192,
            "lng": 104.678568
        },
        "ad_info": {
            "adcode": 520281,
            "province": "贵州省",
            "city": "六盘水市",
            "district": "盘州市"
        }
    },
    {
        "id": "18190254128016262389",
        "title": "公共厕所",
        "address": "贵州省六盘水市盘州市鸡场坪镇鸡场坪客运站内",
        "tel": "",
        "category": "基础设施:公共设施:公共厕所",
        "type": 0,
        "location": {
            "lat": 25.962475,
            "lng": 104.635215
        },
        "ad_info": {
            "adcode": 520281,
            "province": "贵州省",
            "city": "六盘水市",
            "district": "盘州市"
        }
    },
    {
        "id": "7473455867123911930",
        "title": "公共厕所",
        "address": "贵州省六盘水市钟山区山城路与水西南路交叉口西北方向109米左右",
        "tel": "",
        "category": "基础设施:公共设施:公共厕所",
        "type": 0,
        "location": {
            "lat": 26.580072,
            "lng": 104.839131
        },
        "ad_info": {
            "adcode": 520201,
            "province": "贵州省",
            "city": "六盘水市",
            "district": "钟山区"
        }
    },
    {
        "id": "2934122750169539722",
        "title": "公共厕所",
        "address": "贵州省六盘水市盘州市盘江东路与盘江大道交叉口正西方向313米左右",
        "tel": "",
        "category": "基础设施:公共设施:公共厕所",
        "type": 0,
        "location": {
            "lat": 25.730465,
            "lng": 104.485593
        },
        "ad_info": {
            "adcode": 520281,
            "province": "贵州省",
            "city": "六盘水市",
            "district": "盘州市"
        }
    },
    {
        "id": "17022660005214069058",
        "title": "公共厕所",
        "address": "贵州省六盘水市钟山区羊汤锅一条街人民西路",
        "tel": "",
        "category": "基础设施:公共设施:公共厕所",
        "type": 0,
        "location": {
            "lat": 26.611394,
            "lng": 104.797122
        },
        "ad_info": {
            "adcode": 520201,
            "province": "贵州省",
            "city": "六盘水市",
            "district": "钟山区"
        }
    },
    {
        "id": "6286418796933565168",
        "title": "公共厕所",
        "address": "贵州省六盘水市钟山区水西北路与汪水路交叉口西北方向125米左右",
        "tel": "",
        "category": "基础设施:公共设施:公共厕所",
        "type": 0,
        "location": {
            "lat": 26.593667,
            "lng": 104.851868
        },
        "ad_info": {
            "adcode": 520201,
            "province": "贵州省",
            "city": "六盘水市",
            "district": "钟山区"
        }
    },
    {
        "id": "8932225364387985362",
        "title": "公共厕所",
        "address": "贵州省六盘水市盘州市S212与西红路交叉口西南方向345米左右",
        "tel": "",
        "category": "基础设施:公共设施:公共厕所",
        "type": 0,
        "location": {
            "lat": 25.902779,
            "lng": 104.506345
        },
        "ad_info": {
            "adcode": 520281,
            "province": "贵州省",
            "city": "六盘水市",
            "district": "盘州市"
        }
    },
    {
        "id": "5770705451104492511",
        "title": "公共厕所",
        "address": "贵州省六盘水市钟山区官厅东路与官厅路交叉口东南方向45米左右",
        "tel": "",
        "category": "基础设施:公共设施:公共厕所",
        "type": 0,
        "location": {
            "lat": 26.573972,
            "lng": 104.880546
        },
        "ad_info": {
            "adcode": 520201,
            "province": "贵州省",
            "city": "六盘水市",
            "district": "钟山区"
        }
    },
    {
        "id": "4890945689195134552",
        "title": "公共厕所",
        "address": "贵州省六盘水市六枝特区中国移动东北侧80米",
        "tel": "",
        "category": "基础设施:公共设施:公共厕所",
        "type": 0,
        "location": {
            "lat": 26.117948,
            "lng": 105.520865
        },
        "ad_info": {
            "adcode": 520203,
            "province": "贵州省",
            "city": "六盘水市",
            "district": "六枝特区"
        }
    },
    {
        "id": "3618234326842182729",
        "title": "公共厕所",
        "address": "贵州省六盘水市钟山区教杉路与钟山大道交叉口正南方向142米左右",
        "tel": "",
        "category": "基础设施:公共设施:公共厕所",
        "type": 0,
        "location": {
            "lat": 26.559741,
            "lng": 104.900297
        },
        "ad_info": {
            "adcode": 520201,
            "province": "贵州省",
            "city": "六盘水市",
            "district": "钟山区"
        }
    },
    {
        "id": "3807275912976351178",
        "title": "公共厕所",
        "address": "贵州省六盘水市钟山区东风东路与东风路交叉口东北方向126米左右",
        "tel": "",
        "category": "基础设施:公共设施:公共厕所",
        "type": 0,
        "location": {
            "lat": 26.593655,
            "lng": 104.848105
        },
        "ad_info": {
            "adcode": 520201,
            "province": "贵州省",
            "city": "六盘水市",
            "district": "钟山区"
        }
    },
    {
        "id": "14113635174979177900",
        "title": "公共厕所",
        "address": "贵州省六盘水市盘州市S212与沈江路交叉口东北方向187米左右",
        "tel": "",
        "category": "基础设施:公共设施:公共厕所",
        "type": 0,
        "location": {
            "lat": 25.902447,
            "lng": 104.504378
        },
        "ad_info": {
            "adcode": 520281,
            "province": "贵州省",
            "city": "六盘水市",
            "district": "盘州市"
        }
    },
    {
        "id": "9773808566176107418",
        "title": "公共厕所",
        "address": "贵州省六盘水市钟山区建设路与民族路交叉口西北方向179米左右",
        "tel": "",
        "category": "基础设施:公共设施:公共厕所",
        "type": 0,
        "location": {
            "lat": 26.598684,
            "lng": 104.827714
        },
        "ad_info": {
            "adcode": 520201,
            "province": "贵州省",
            "city": "六盘水市",
            "district": "钟山区"
        }
    },
    {
        "id": "4122269646565237446",
        "title": "公共厕所",
        "address": "贵州省六盘水市钟山区C107与X232交叉口东北方向50米",
        "tel": "",
        "category": "基础设施:公共设施:公共厕所",
        "type": 0,
        "location": {
            "lat": 26.615646,
            "lng": 104.943983
        },
        "ad_info": {
            "adcode": 520201,
            "province": "贵州省",
            "city": "六盘水市",
            "district": "钟山区"
        }
    },
    {
        "id": "10486776936052052000",
        "title": "公共厕所",
        "address": "贵州省六盘水市盘州市兴盘路与盘州大道交叉口正北方向1253米左右",
        "tel": "",
        "category": "基础设施:公共设施:公共厕所",
        "type": 0,
        "location": {
            "lat": 25.752418,
            "lng": 104.480851
        },
        "ad_info": {
            "adcode": 520281,
            "province": "贵州省",
            "city": "六盘水市",
            "district": "盘州市"
        }
    },
    {
        "id": "17944354788534066894",
        "title": "公共厕所",
        "address": "贵州省六盘水市钟山区人民路与金桥路交叉口东南方向121米左右",
        "tel": "",
        "category": "基础设施:公共设施:公共厕所",
        "type": 0,
        "location": {
            "lat": 26.584568,
            "lng": 104.865744
        },
        "ad_info": {
            "adcode": 520201,
            "province": "贵州省",
            "city": "六盘水市",
            "district": "钟山区"
        }
    },
    {
        "id": "8137385137056497134",
        "title": "公共厕所",
        "address": "贵州省六盘水市盘州市632县道与251县道交叉口东南320米",
        "tel": "",
        "category": "基础设施:公共设施:公共厕所",
        "type": 0,
        "location": {
            "lat": 25.367942,
            "lng": 104.887024
        },
        "ad_info": {
            "adcode": 520281,
            "province": "贵州省",
            "city": "六盘水市",
            "district": "盘州市"
        }
    },
    {
        "id": "13480891236251780569",
        "title": "公共厕所",
        "address": "贵州省六盘水市水城区井海路与钟山大道交叉口西北方向45米左右",
        "tel": "",
        "category": "基础设施:公共设施:公共厕所",
        "type": 0,
        "location": {
            "lat": 26.548675,
            "lng": 104.94394
        },
        "ad_info": {
            "adcode": 520204,
            "province": "贵州省",
            "city": "六盘水市",
            "district": "水城区"
        }
    },
    {
        "id": "6867287673694217946",
        "title": "公共厕所",
        "address": "贵州省六盘水市钟山区人民中路凤池园(东南角)",
        "tel": "",
        "category": "基础设施:公共设施:公共厕所",
        "type": 0,
        "location": {
            "lat": 26.575843,
            "lng": 104.877499
        },
        "ad_info": {
            "adcode": 520201,
            "province": "贵州省",
            "city": "六盘水市",
            "district": "钟山区"
        }
    },
    {
        "id": "8829180073967445403",
        "title": "公共厕所",
        "address": "贵州省六盘水市钟山区工农路与源月駦言卂街交叉口西北方向48米左右",
        "tel": "",
        "category": "基础设施:公共设施:公共厕所",
        "type": 0,
        "location": {
            "lat": 26.580871,
            "lng": 104.904307
        },
        "ad_info": {
            "adcode": 520201,
            "province": "贵州省",
            "city": "六盘水市",
            "district": "钟山区"
        }
    },
    {
        "id": "11070630459214875568",
        "title": "公共厕所",
        "address": "贵州省六盘水市盘州市胜境大道1120号",
        "tel": "",
        "category": "基础设施:公共设施:公共厕所",
        "type": 0,
        "location": {
            "lat": 25.674608,
            "lng": 104.45173
        },
        "ad_info": {
            "adcode": 520281,
            "province": "贵州省",
            "city": "六盘水市",
            "district": "盘州市"
        }
    },
    {
        "id": "6155078322487763133",
        "title": "公共厕所",
        "address": "贵州省六盘水市钟山区明湖路南150米明湖国家湿地公园(师范学院)",
        "tel": "",
        "category": "基础设施:公共设施:公共厕所",
        "type": 0,
        "location": {
            "lat": 26.57798,
            "lng": 104.81563
        },
        "ad_info": {
            "adcode": 520201,
            "province": "贵州省",
            "city": "六盘水市",
            "district": "钟山区"
        }
    },
    {
        "id": "2245874660815368125",
        "title": "公共厕所",
        "address": "贵州省六盘水市钟山区东风东路与龙塘街交叉口西北方向80米左右",
        "tel": "",
        "category": "基础设施:公共设施:公共厕所",
        "type": 0,
        "location": {
            "lat": 26.59475,
            "lng": 104.84927
        },
        "ad_info": {
            "adcode": 520201,
            "province": "贵州省",
            "city": "六盘水市",
            "district": "钟山区"
        }
    },
    {
        "id": "9692032925817158661",
        "title": "公共厕所",
        "address": "贵州省六盘水市钟山区秀山路与西山路交叉口正北方向130米左右",
        "tel": "",
        "category": "基础设施:公共设施:公共厕所",
        "type": 0,
        "location": {
            "lat": 26.608383,
            "lng": 104.798254
        },
        "ad_info": {
            "adcode": 520201,
            "province": "贵州省",
            "city": "六盘水市",
            "district": "钟山区"
        }
    },
    {
        "id": "3030526088160552125",
        "title": "公共厕所",
        "address": "贵州省六盘水市钟山区凤凰大道与山城路交叉口西南方向113米左右",
        "tel": "",
        "category": "基础设施:公共设施:公共厕所",
        "type": 0,
        "location": {
            "lat": 26.576404,
            "lng": 104.83427
        },
        "ad_info": {
            "adcode": 520201,
            "province": "贵州省",
            "city": "六盘水市",
            "district": "钟山区"
        }
    },
    {
        "id": "11830082586248836482",
        "title": "公共厕所",
        "address": "贵州省六盘水市钟山区人民路与秀山路交叉口东南方向155米左右",
        "tel": "",
        "category": "基础设施:公共设施:公共厕所",
        "type": 0,
        "location": {
            "lat": 26.610019,
            "lng": 104.801344
        },
        "ad_info": {
            "adcode": 520201,
            "province": "贵州省",
            "city": "六盘水市",
            "district": "钟山区"
        }
    },
    {
        "id": "6754234439574232398",
        "title": "公共厕所",
        "address": "贵州省六盘水市钟山区人民路与水东路交叉口东南方向84米左右",
        "tel": "",
        "category": "基础设施:公共设施:公共厕所",
        "type": 0,
        "location": {
            "lat": 26.567582,
            "lng": 104.895373
        },
        "ad_info": {
            "adcode": 520201,
            "province": "贵州省",
            "city": "六盘水市",
            "district": "钟山区"
        }
    },
    {
        "id": "768816642486823239",
        "title": "公共厕所",
        "address": "贵州省六盘水市钟山区十七中门口49号",
        "tel": "",
        "category": "基础设施:公共设施:公共厕所",
        "type": 0,
        "location": {
            "lat": 26.58527,
            "lng": 104.82771
        },
        "ad_info": {
            "adcode": 520201,
            "province": "贵州省",
            "city": "六盘水市",
            "district": "钟山区"
        }
    },
    {
        "id": "17829178475416260747",
        "title": "公共厕所",
        "address": "贵州省六盘水市钟山区凉逸巷与市场路交叉口正西方向207米左右",
        "tel": "",
        "category": "基础设施:公共设施:公共厕所",
        "type": 0,
        "location": {
            "lat": 26.581721,
            "lng": 104.847007
        },
        "ad_info": {
            "adcode": 520201,
            "province": "贵州省",
            "city": "六盘水市",
            "district": "钟山区"
        }
    },
    {
        "id": "16336044696900721814",
        "title": "公共厕所",
        "address": "贵州省六盘水市钟山区S212与汪水路交叉口东北方向662米左右",
        "tel": "",
        "category": "基础设施:公共设施:公共厕所",
        "type": 0,
        "location": {
            "lat": 26.618238,
            "lng": 104.861702
        },
        "ad_info": {
            "adcode": 520201,
            "province": "贵州省",
            "city": "六盘水市",
            "district": "钟山区"
        }
    },
    {
        "id": "3529132219504457660",
        "title": "公共厕所",
        "address": "贵州省六盘水市钟山区建设路与文化北路交叉口东北方向126米左右",
        "tel": "",
        "category": "基础设施:公共设施:公共厕所",
        "type": 0,
        "location": {
            "lat": 26.596382,
            "lng": 104.832275
        },
        "ad_info": {
            "adcode": 520201,
            "province": "贵州省",
            "city": "六盘水市",
            "district": "钟山区"
        }
    },
    {
        "id": "9395145939196192745",
        "title": "公共厕所",
        "address": "贵州省六盘水市钟山区玉顶小学西侧130米",
        "tel": "",
        "category": "基础设施:公共设施:公共厕所",
        "type": 0,
        "location": {
            "lat": 26.58402,
            "lng": 104.962113
        },
        "ad_info": {
            "adcode": 520201,
            "province": "贵州省",
            "city": "六盘水市",
            "district": "钟山区"
        }
    },
    {
        "id": "6823326327217599298",
        "title": "公共厕所",
        "address": "贵州省六盘水市盘州市Y099与羊柏公路交叉口正东方向69米左右",
        "tel": "",
        "category": "基础设施:公共设施:公共厕所",
        "type": 0,
        "location": {
            "lat": 25.998822,
            "lng": 104.562901
        },
        "ad_info": {
            "adcode": 520281,
            "province": "贵州省",
            "city": "六盘水市",
            "district": "盘州市"
        }
    },
    {
        "id": "13807951143776231622",
        "title": "公共厕所",
        "address": "贵州省六盘水市盘州市S212与西红路交叉口正北方向1353米左右",
        "tel": "",
        "category": "基础设施:公共设施:公共厕所",
        "type": 0,
        "location": {
            "lat": 25.917167,
            "lng": 104.503413
        },
        "ad_info": {
            "adcode": 520281,
            "province": "贵州省",
            "city": "六盘水市",
            "district": "盘州市"
        }
    },
    {
        "id": "4539327189047681723",
        "title": "公共厕所",
        "address": "贵州省六盘水市钟山区凉都大道与红园路交叉口正北方向73米左右",
        "tel": "",
        "category": "基础设施:公共设施:公共厕所",
        "type": 0,
        "location": {
            "lat": 26.541086,
            "lng": 104.905234
        },
        "ad_info": {
            "adcode": 520201,
            "province": "贵州省",
            "city": "六盘水市",
            "district": "钟山区"
        }
    },
    {
        "id": "14869446540467466013",
        "title": "公共厕所",
        "address": "贵州省六盘水市钟山区大河堡凉都花海大酒店东南侧190米",
        "tel": "",
        "category": "基础设施:公共设施:公共厕所",
        "type": 0,
        "location": {
            "lat": 26.68869,
            "lng": 104.848539
        },
        "ad_info": {
            "adcode": 520201,
            "province": "贵州省",
            "city": "六盘水市",
            "district": "钟山区"
        }
    },
    {
        "id": "5305875314733055876",
        "title": "11号公共厕所",
        "address": "贵州省六盘水市水城区新河巷与桂箐巷交叉口正北方向27米左右",
        "tel": "",
        "category": "基础设施:公共设施:公共厕所",
        "type": 0,
        "location": {
            "lat": 26.539359,
            "lng": 104.953461
        },
        "ad_info": {
            "adcode": 520204,
            "province": "贵州省",
            "city": "六盘水市",
            "district": "水城区"
        }
    },
    {
        "id": "10661106309634480288",
        "title": "六盘水服务区公共厕所",
        "address": "贵州省六盘水市水城区六盘水服务区电动汽车充电站东侧130米",
        "tel": "",
        "category": "基础设施:公共设施:公共厕所",
        "type": 0,
        "location": {
            "lat": 26.515473,
            "lng": 104.934719
        },
        "ad_info": {
            "adcode": 520204,
            "province": "贵州省",
            "city": "六盘水市",
            "district": "水城区"
        }
    },
    {
        "id": "6735426221925135922",
        "title": "人民广场公共厕所",
        "address": "贵州省六盘水市钟山区大连路电信大楼公交站(人民广场附近)",
        "tel": "",
        "category": "基础设施:公共设施:公共厕所",
        "type": 0,
        "location": {
            "lat": 26.582595,
            "lng": 104.85165
        },
        "ad_info": {
            "adcode": 520201,
            "province": "贵州省",
            "city": "六盘水市",
            "district": "钟山区"
        }
    },
    {
        "id": "10293750394045021117",
        "title": "公共厕所",
        "address": "贵州省六盘水市盘州市惠湖巷与胜境大道交叉口正南方向80米左右",
        "tel": "",
        "category": "基础设施:公共设施:公共厕所",
        "type": 0,
        "location": {
            "lat": 25.699297,
            "lng": 104.470273
        },
        "ad_info": {
            "adcode": 520281,
            "province": "贵州省",
            "city": "六盘水市",
            "district": "盘州市"
        }
    },
    {
        "id": "3145863040969044781",
        "title": "时代假日酒店-洗手间",
        "address": "贵州省六盘水市钟山区钟山中路66号(与富康路交汇处)",
        "tel": "",
        "category": "基础设施:公共设施:公共厕所",
        "type": 0,
        "location": {
            "lat": 26.581554,
            "lng": 104.857892
        },
        "ad_info": {
            "adcode": 520201,
            "province": "贵州省",
            "city": "六盘水市",
            "district": "钟山区"
        }
    },
    {
        "id": "5893330128308069659",
        "title": "无障碍公共厕所",
        "address": "贵州省六盘水市钟山区凉都大道与青山路交叉口正东方向103米左右",
        "tel": "",
        "category": "基础设施:公共设施:公共厕所",
        "type": 0,
        "location": {
            "lat": 26.546791,
            "lng": 104.891877
        },
        "ad_info": {
            "adcode": 520201,
            "province": "贵州省",
            "city": "六盘水市",
            "district": "钟山区"
        }
    },
    {
        "id": "15945725275688132773",
        "title": "无障碍公共厕所",
        "address": "贵州省六盘水市钟山区凤池路60号",
        "tel": "",
        "category": "基础设施:公共设施:公共厕所",
        "type": 0,
        "location": {
            "lat": 26.578369,
            "lng": 104.872894
        },
        "ad_info": {
            "adcode": 520201,
            "province": "贵州省",
            "city": "六盘水市",
            "district": "钟山区"
        }
    },
    {
        "id": "772099758708520627",
        "title": "凤池园公共厕所",
        "address": "贵州省六盘水市钟山区钟山大道中段578号",
        "tel": "",
        "category": "基础设施:公共设施:公共厕所",
        "type": 0,
        "location": {
            "lat": 26.575009,
            "lng": 104.874742
        },
        "ad_info": {
            "adcode": 520201,
            "province": "贵州省",
            "city": "六盘水市",
            "district": "钟山区"
        }
    },
    {
        "id": "3159697876086520702",
        "title": "无障碍公共厕所",
        "address": "贵州省六盘水市钟山区公园路与发扬路交叉口西南方向121米左右",
        "tel": "",
        "category": "基础设施:公共设施:公共厕所",
        "type": 0,
        "location": {
            "lat": 26.593215,
            "lng": 104.821113
        },
        "ad_info": {
            "adcode": 520201,
            "province": "贵州省",
            "city": "六盘水市",
            "district": "钟山区"
        }
    },
    {
        "id": "18385264702667931268",
        "title": "公共厕所",
        "address": "贵州省六盘水市钟山区明湖路与钟山大道辅路交叉口西南100米",
        "tel": "",
        "category": "基础设施:公共设施:公共厕所",
        "type": 0,
        "location": {
            "lat": 26.589631,
            "lng": 104.83483
        },
        "ad_info": {
            "adcode": 520201,
            "province": "贵州省",
            "city": "六盘水市",
            "district": "钟山区"
        }
    },
    {
        "id": "16791106509090571135",
        "title": "七指峰广场-公共厕所",
        "address": "贵州省六盘水市盘州市G246与X210交叉口正东方向126米左右",
        "tel": "",
        "category": "基础设施:公共设施:公共厕所",
        "type": 0,
        "location": {
            "lat": 25.538382,
            "lng": 104.668931
        },
        "ad_info": {
            "adcode": 520281,
            "province": "贵州省",
            "city": "六盘水市",
            "district": "盘州市"
        }
    },
    {
        "id": "14864565858463986992",
        "title": "公共厕所",
        "address": "贵州省六盘水市钟山区交通南路15号",
        "tel": "",
        "category": "基础设施:公共设施:公共厕所",
        "type": 0,
        "location": {
            "lat": 26.584921,
            "lng": 104.84543
        },
        "ad_info": {
            "adcode": 520201,
            "province": "贵州省",
            "city": "六盘水市",
            "district": "钟山区"
        }
    },
    {
        "id": "9005131118794577766",
        "title": "无障碍公共厕所",
        "address": "贵州省六盘水市盘州市兴旺路与杜鹃西路交叉口东南方向44米左右",
        "tel": "",
        "category": "基础设施:公共设施:公共厕所",
        "type": 0,
        "location": {
            "lat": 25.705407,
            "lng": 104.46454
        },
        "ad_info": {
            "adcode": 520281,
            "province": "贵州省",
            "city": "六盘水市",
            "district": "盘州市"
        }
    },
    {
        "id": "10158018916887099594",
        "title": "公共厕所",
        "address": "贵州省六盘水市钟山区泰瑞步行街与钟山大道交叉口正西方向91米左右",
        "tel": "",
        "category": "基础设施:公共设施:公共厕所",
        "type": 0,
        "location": {
            "lat": 26.58282,
            "lng": 104.85301
        },
        "ad_info": {
            "adcode": 520201,
            "province": "贵州省",
            "city": "六盘水市",
            "district": "钟山区"
        }
    },
    {
        "id": "6710935356183527881",
        "title": "公共厕所",
        "address": "贵州省六盘水市钟山区城南路与钟山大道交叉口正东方向69米左右",
        "tel": "",
        "category": "基础设施:公共设施:公共厕所",
        "type": 0,
        "location": {
            "lat": 26.571179,
            "lng": 104.877223
        },
        "ad_info": {
            "adcode": 520201,
            "province": "贵州省",
            "city": "六盘水市",
            "district": "钟山区"
        }
    },
    {
        "id": "16111079450159784036",
        "title": "红果服务区公共厕所",
        "address": "贵州省六盘水市盘州市G60沪昆高速与红果服务区交叉口西南180米",
        "tel": "",
        "category": "基础设施:公共设施:公共厕所",
        "type": 0,
        "location": {
            "lat": 25.735521,
            "lng": 104.456189
        },
        "ad_info": {
            "adcode": 520281,
            "province": "贵州省",
            "city": "六盘水市",
            "district": "盘州市"
        }
    },
    {
        "id": "3150004954490646789",
        "title": "公共厕所",
        "address": "贵州省六盘水市钟山区怡康路与政通路交叉口西北方向35米左右",
        "tel": "",
        "category": "基础设施:公共设施:公共厕所",
        "type": 0,
        "location": {
            "lat": 26.577095,
            "lng": 104.840667
        },
        "ad_info": {
            "adcode": 520201,
            "province": "贵州省",
            "city": "六盘水市",
            "district": "钟山区"
        }
    },
    {
        "id": "11671562446916132451",
        "title": "无障碍公共厕所",
        "address": "贵州省六盘水市盘州市凤鸣中路与鸿雁路交叉口西北方向29米左右",
        "tel": "",
        "category": "基础设施:公共设施:公共厕所",
        "type": 0,
        "location": {
            "lat": 25.703372,
            "lng": 104.471451
        },
        "ad_info": {
            "adcode": 520281,
            "province": "贵州省",
            "city": "六盘水市",
            "district": "盘州市"
        }
    },
    {
        "id": "1229047276387465679",
        "title": "公共厕所",
        "address": "贵州省六盘水市钟山区南二环路与水西南路交叉口东南方向234米左右",
        "tel": "",
        "category": "基础设施:公共设施:公共厕所",
        "type": 0,
        "location": {
            "lat": 26.569641,
            "lng": 104.838761
        },
        "ad_info": {
            "adcode": 520201,
            "province": "贵州省",
            "city": "六盘水市",
            "district": "钟山区"
        }
    },
    {
        "id": "4862566712781077646",
        "title": "刘官服务区公共厕所",
        "address": "贵州省六盘水市盘州市沪昆高速刘官服务区",
        "tel": "",
        "category": "基础设施:公共设施:公共厕所",
        "type": 0,
        "location": {
            "lat": 25.797432,
            "lng": 104.766414
        },
        "ad_info": {
            "adcode": 520281,
            "province": "贵州省",
            "city": "六盘水市",
            "district": "盘州市"
        }
    },
    {
        "id": "11673497468117894925",
        "title": "公共厕所",
        "address": "贵州省六盘水市钟山区人民路与明湖路交叉口西北140米",
        "tel": "",
        "category": "基础设施:公共设施:公共厕所",
        "type": 0,
        "location": {
            "lat": 26.592699,
            "lng": 104.838528
        },
        "ad_info": {
            "adcode": 520201,
            "province": "贵州省",
            "city": "六盘水市",
            "district": "钟山区"
        }
    },
    {
        "id": "13527455966984093749",
        "title": "公共厕所",
        "address": "贵州省六盘水市钟山区建设路建设小区路口",
        "tel": "",
        "category": "基础设施:公共设施:公共厕所",
        "type": 0,
        "location": {
            "lat": 26.596352,
            "lng": 104.830213
        },
        "ad_info": {
            "adcode": 520201,
            "province": "贵州省",
            "city": "六盘水市",
            "district": "钟山区"
        }
    },
    {
        "id": "15817274815029730048",
        "title": "岩脚服务区公共厕所",
        "address": "贵州省六盘水市六枝特区G7611都香高速出口与G7611都香高速交叉口西北160米",
        "tel": "",
        "category": "基础设施:公共设施:公共厕所",
        "type": 0,
        "location": {
            "lat": 26.330379,
            "lng": 105.378344
        },
        "ad_info": {
            "adcode": 520203,
            "province": "贵州省",
            "city": "六盘水市",
            "district": "六枝特区"
        }
    },
    {
        "id": "15606814983888489153",
        "title": "公共厕所",
        "address": "贵州省六盘水市钟山区乌蒙山路与明湖路交叉口东北方向212米左右",
        "tel": "",
        "category": "基础设施:公共设施:公共厕所",
        "type": 0,
        "location": {
            "lat": 26.580029,
            "lng": 104.822072
        },
        "ad_info": {
            "adcode": 520201,
            "province": "贵州省",
            "city": "六盘水市",
            "district": "钟山区"
        }
    },
    {
        "id": "6489115721915301567",
        "title": "公共厕所",
        "address": "贵州省六盘水市钟山区明湖路花鸟市场",
        "tel": "",
        "category": "基础设施:公共设施:公共厕所",
        "type": 0,
        "location": {
            "lat": 26.591289,
            "lng": 104.831357
        },
        "ad_info": {
            "adcode": 520201,
            "province": "贵州省",
            "city": "六盘水市",
            "district": "钟山区"
        }
    },
    {
        "id": "16074542966005468393",
        "title": "公共厕所",
        "address": "贵州省六盘水市钟山区向阳南路与幸福巷交叉口正南方向83米左右",
        "tel": "",
        "category": "基础设施:公共设施:公共厕所",
        "type": 0,
        "location": {
            "lat": 26.589911,
            "lng": 104.83011
        },
        "ad_info": {
            "adcode": 520201,
            "province": "贵州省",
            "city": "六盘水市",
            "district": "钟山区"
        }
    },
    {
        "id": "6961505002962721958",
        "title": "6号无障碍公共厕所",
        "address": "贵州省六盘水市盘州市小广场6号",
        "tel": "",
        "category": "基础设施:公共设施:公共厕所",
        "type": 0,
        "location": {
            "lat": 25.709381,
            "lng": 104.470307
        },
        "ad_info": {
            "adcode": 520281,
            "province": "贵州省",
            "city": "六盘水市",
            "district": "盘州市"
        }
    },
    {
        "id": "4128232047232869477",
        "title": "岩脚服务区公共厕所",
        "address": "贵州省六盘水市六枝特区纳晴高速与都香高速交叉口西北方向1794米左右",
        "tel": "",
        "category": "基础设施:公共设施:公共厕所",
        "type": 0,
        "location": {
            "lat": 26.328855,
            "lng": 105.380196
        },
        "ad_info": {
            "adcode": 520203,
            "province": "贵州省",
            "city": "六盘水市",
            "district": "六枝特区"
        }
    },
    {
        "id": "920530992963172338",
        "title": "无障碍公共厕所",
        "address": "贵州省六盘水市钟山区花渔路与钟山大道交叉口正西方向22米左右",
        "tel": "",
        "category": "基础设施:公共设施:公共厕所",
        "type": 0,
        "location": {
            "lat": 26.598008,
            "lng": 104.82356
        },
        "ad_info": {
            "adcode": 520201,
            "province": "贵州省",
            "city": "六盘水市",
            "district": "钟山区"
        }
    },
    {
        "id": "6945167806836958602",
        "title": "无障碍公共厕所",
        "address": "贵州省六盘水市钟山区水西南路与水西路交叉口西南方向124米左右",
        "tel": "",
        "category": "基础设施:公共设施:公共厕所",
        "type": 0,
        "location": {
            "lat": 26.586471,
            "lng": 104.840422
        },
        "ad_info": {
            "adcode": 520201,
            "province": "贵州省",
            "city": "六盘水市",
            "district": "钟山区"
        }
    },
    {
        "id": "1744901852868346100",
        "title": "无障碍公共厕所",
        "address": "贵州省六盘水市钟山区向阳北路与建设路交叉口正西方向49米左右",
        "tel": "",
        "category": "基础设施:公共设施:公共厕所",
        "type": 0,
        "location": {
            "lat": 26.5944,
            "lng": 104.83291
        },
        "ad_info": {
            "adcode": 520201,
            "province": "贵州省",
            "city": "六盘水市",
            "district": "钟山区"
        }
    },
    {
        "id": "14032941204333984162",
        "title": "公共厕所",
        "address": "贵州省六盘水市盘州市通达路与银杏大道交叉口东北方向138米左右",
        "tel": "",
        "category": "基础设施:公共设施:公共厕所",
        "type": 0,
        "location": {
            "lat": 25.714757,
            "lng": 104.471503
        },
        "ad_info": {
            "adcode": 520281,
            "province": "贵州省",
            "city": "六盘水市",
            "district": "盘州市"
        }
    },
    {
        "id": "18414289555532028659",
        "title": "公共厕所",
        "address": "贵州省六盘水市水城区蟠龙镇卫生院南侧200米",
        "tel": "",
        "category": "基础设施:公共设施:公共厕所",
        "type": 0,
        "location": {
            "lat": 26.345321,
            "lng": 105.11067
        },
        "ad_info": {
            "adcode": 520204,
            "province": "贵州省",
            "city": "六盘水市",
            "district": "水城区"
        }
    },
    {
        "id": "15662048439580530484",
        "title": "六枝特区第五小学桂厕轩",
        "address": "贵州省六盘水市六枝特区自主预约考试服务处东侧170米",
        "tel": "",
        "category": "基础设施:公共设施:公共厕所",
        "type": 0,
        "location": {
            "lat": 26.19769,
            "lng": 105.471965
        },
        "ad_info": {
            "adcode": 520203,
            "province": "贵州省",
            "city": "六盘水市",
            "district": "六枝特区"
        }
    },
    {
        "id": "3672091883057845880",
        "title": "公共厕所",
        "address": "贵州省六盘水市水城区水纳路与煤化工大道交叉口正东方向379米左右",
        "tel": "",
        "category": "基础设施:公共设施:公共厕所",
        "type": 0,
        "location": {
            "lat": 26.53117,
            "lng": 105.048587
        },
        "ad_info": {
            "adcode": 520204,
            "province": "贵州省",
            "city": "六盘水市",
            "district": "水城区"
        }
    },
    {
        "id": "11796743885671554064",
        "title": "公共厕所",
        "address": "贵州省六盘水市钟山区都香高速",
        "tel": "",
        "category": "基础设施:公共设施:公共厕所",
        "type": 0,
        "location": {
            "lat": 26.59918,
            "lng": 104.944621
        },
        "ad_info": {
            "adcode": 520201,
            "province": "贵州省",
            "city": "六盘水市",
            "district": "钟山区"
        }
    },
    {
        "id": "15948494242495578216",
        "title": "公共厕所",
        "address": "贵州省六盘水市水城区水纳路与煤化工大道交叉口正北方向296米左右",
        "tel": "",
        "category": "基础设施:公共设施:公共厕所",
        "type": 0,
        "location": {
            "lat": 26.532896,
            "lng": 105.044107
        },
        "ad_info": {
            "adcode": 520204,
            "province": "贵州省",
            "city": "六盘水市",
            "district": "水城区"
        }
    },
    {
        "id": "16304704816544353827",
        "title": "公共厕所",
        "address": "贵州省六盘水市钟山区冶金北路与合金路交叉口东北方向274米左右",
        "tel": "",
        "category": "基础设施:公共设施:公共厕所",
        "type": 0,
        "location": {
            "lat": 26.596076,
            "lng": 104.888874
        },
        "ad_info": {
            "adcode": 520201,
            "province": "贵州省",
            "city": "六盘水市",
            "district": "钟山区"
        }
    },
    {
        "id": "7168827350308271073",
        "title": "公共厕所",
        "address": "贵州省六盘水市盘州市盘州路与紫荆路交叉口正南方向231米左右",
        "tel": "",
        "category": "基础设施:公共设施:公共厕所",
        "type": 0,
        "location": {
            "lat": 25.70137,
            "lng": 104.46511
        },
        "ad_info": {
            "adcode": 520281,
            "province": "贵州省",
            "city": "六盘水市",
            "district": "盘州市"
        }
    },
    {
        "id": "5643870900509634843",
        "title": "公共厕所",
        "address": "贵州省六盘水市钟山区德阳路与钟山大道交叉口西南方向59米左右",
        "tel": "",
        "category": "基础设施:公共设施:公共厕所",
        "type": 0,
        "location": {
            "lat": 26.605518,
            "lng": 104.80399
        },
        "ad_info": {
            "adcode": 520201,
            "province": "贵州省",
            "city": "六盘水市",
            "district": "钟山区"
        }
    },
    {
        "id": "18383400546695919300",
        "title": "公共厕所",
        "address": "贵州省六盘水市水城区S217与玉马路交叉口东北方向125米左右",
        "tel": "",
        "category": "基础设施:公共设施:公共厕所",
        "type": 0,
        "location": {
            "lat": 26.467865,
            "lng": 104.816771
        },
        "ad_info": {
            "adcode": 520204,
            "province": "贵州省",
            "city": "六盘水市",
            "district": "水城区"
        }
    },
    {
        "id": "17688296046012037164",
        "title": "公共厕所",
        "address": "贵州省六盘水市钟山区X232与巴西中路交叉口东南方向78米左右",
        "tel": "",
        "category": "基础设施:公共设施:公共厕所",
        "type": 0,
        "location": {
            "lat": 26.590739,
            "lng": 104.906877
        },
        "ad_info": {
            "adcode": 520201,
            "province": "贵州省",
            "city": "六盘水市",
            "district": "钟山区"
        }
    },
    {
        "id": "9804929266519771842",
        "title": "公共厕所",
        "address": "贵州省六盘水市盘州市矿欣路与青色路交叉口东北方向1483米左右",
        "tel": "",
        "category": "基础设施:公共设施:公共厕所",
        "type": 0,
        "location": {
            "lat": 25.661803,
            "lng": 104.422907
        },
        "ad_info": {
            "adcode": 520281,
            "province": "贵州省",
            "city": "六盘水市",
            "district": "盘州市"
        }
    },
    {
        "id": "13648386426849811921",
        "title": "鸡场坪服务区第二公共厕所",
        "address": "贵州省六盘水市盘州市鸡场坪服务区与S77水兴高速交叉口东南120米",
        "tel": "",
        "category": "基础设施:公共设施:公共厕所",
        "type": 0,
        "location": {
            "lat": 25.984166,
            "lng": 104.62139
        },
        "ad_info": {
            "adcode": 520281,
            "province": "贵州省",
            "city": "六盘水市",
            "district": "盘州市"
        }
    },
    {
        "id": "1779978541964460567",
        "title": "公共厕所",
        "address": "贵州省六盘水市钟山区鹤翔路白鹤公园(东南角)",
        "tel": "",
        "category": "基础设施:公共设施:公共厕所",
        "type": 0,
        "location": {
            "lat": 26.600157,
            "lng": 104.818527
        },
        "ad_info": {
            "adcode": 520201,
            "province": "贵州省",
            "city": "六盘水市",
            "district": "钟山区"
        }
    },
    {
        "id": "7586168709392191693",
        "title": "公共厕所",
        "address": "贵州省六盘水市钟山区人民路与凉都大道交叉口东北方向352米左右",
        "tel": "",
        "category": "基础设施:公共设施:公共厕所",
        "type": 0,
        "location": {
            "lat": 26.60948,
            "lng": 104.789786
        },
        "ad_info": {
            "adcode": 520201,
            "province": "贵州省",
            "city": "六盘水市",
            "district": "钟山区"
        }
    },
    {
        "id": "14943844882968004595",
        "title": "发耳服务区第三公共厕所",
        "address": "贵州省六盘水市水城区发耳服务区与S77水兴高速交叉口东北140米",
        "tel": "",
        "category": "基础设施:公共设施:公共厕所",
        "type": 0,
        "location": {
            "lat": 26.291135,
            "lng": 104.77481
        },
        "ad_info": {
            "adcode": 520204,
            "province": "贵州省",
            "city": "六盘水市",
            "district": "水城区"
        }
    },
    {
        "id": "7592248991478613662",
        "title": "刘官服务区公共厕所",
        "address": "贵州省六盘水市盘州市G320与X230交叉口东南方向1587米左右",
        "tel": "",
        "category": "基础设施:公共设施:公共厕所",
        "type": 0,
        "location": {
            "lat": 25.797597,
            "lng": 104.771413
        },
        "ad_info": {
            "adcode": 520281,
            "province": "贵州省",
            "city": "六盘水市",
            "district": "盘州市"
        }
    },
    {
        "id": "3671471936395783477",
        "title": "丹霞服务区公共厕所",
        "address": "贵州省六盘水市盘州市S77水兴高速与丹霞服务区交叉口北220米",
        "tel": "",
        "category": "基础设施:公共设施:公共厕所",
        "type": 0,
        "location": {
            "lat": 25.67517,
            "lng": 104.582007
        },
        "ad_info": {
            "adcode": 520281,
            "province": "贵州省",
            "city": "六盘水市",
            "district": "盘州市"
        }
    },
    {
        "id": "2205453693718281732",
        "title": "公共厕所",
        "address": "贵州省六盘水市钟山区X232与响三路交叉口正南方向422米左右",
        "tel": "",
        "category": "基础设施:公共设施:公共厕所",
        "type": 0,
        "location": {
            "lat": 26.594039,
            "lng": 104.909696
        },
        "ad_info": {
            "adcode": 520201,
            "province": "贵州省",
            "city": "六盘水市",
            "district": "钟山区"
        }
    },
    {
        "id": "16140753238408119525",
        "title": "公共厕所",
        "address": "贵州省六盘水市盘州市昌涛牛肉馆北侧60米",
        "tel": "",
        "category": "基础设施:公共设施:公共厕所",
        "type": 0,
        "location": {
            "lat": 25.812799,
            "lng": 104.684725
        },
        "ad_info": {
            "adcode": 520281,
            "province": "贵州省",
            "city": "六盘水市",
            "district": "盘州市"
        }
    },
    {
        "id": "11290989675888949680",
        "title": "公共厕所",
        "address": "贵州省六盘水市盘州市",
        "tel": "",
        "category": "基础设施:公共设施:公共厕所",
        "type": 0,
        "location": {
            "lat": 25.617056,
            "lng": 104.553404
        },
        "ad_info": {
            "adcode": 520281,
            "province": "贵州省",
            "city": "六盘水市",
            "district": "盘州市"
        }
    },
    {
        "id": "1909046922824954692",
        "title": "公共厕所",
        "address": "贵州省六盘水市水城区水城益民医院西南侧200米",
        "tel": "",
        "category": "基础设施:公共设施:公共厕所",
        "type": 0,
        "location": {
            "lat": 26.163934,
            "lng": 104.728149
        },
        "ad_info": {
            "adcode": 520204,
            "province": "贵州省",
            "city": "六盘水市",
            "district": "水城区"
        }
    },
    {
        "id": "3988021697925732852",
        "title": "公共厕所",
        "address": "贵州省六盘水市水城区永安路与营昌路交叉口正西方向189米左右",
        "tel": "",
        "category": "基础设施:公共设施:公共厕所",
        "type": 0,
        "location": {
            "lat": 26.300579,
            "lng": 104.768282
        },
        "ad_info": {
            "adcode": 520204,
            "province": "贵州省",
            "city": "六盘水市",
            "district": "水城区"
        }
    },
    {
        "id": "17010817725212632088",
        "title": "公共厕所",
        "address": "贵州省六盘水市水城区S212与营昌路交叉口西南方向54米左右",
        "tel": "",
        "category": "基础设施:公共设施:公共厕所",
        "type": 0,
        "location": {
            "lat": 26.296367,
            "lng": 104.746891
        },
        "ad_info": {
            "adcode": 520204,
            "province": "贵州省",
            "city": "六盘水市",
            "district": "水城区"
        }
    },
    {
        "id": "14753692082232172209",
        "title": "公共厕所",
        "address": "贵州省六盘水市盘州市人民东路与解放南路交叉口东南方向20米左右",
        "tel": "",
        "category": "基础设施:公共设施:公共厕所",
        "type": 0,
        "location": {
            "lat": 25.780653,
            "lng": 104.655374
        },
        "ad_info": {
            "adcode": 520281,
            "province": "贵州省",
            "city": "六盘水市",
            "district": "盘州市"
        }
    },
    {
        "id": "7822935009663136932",
        "title": "公共厕所",
        "address": "贵州省六盘水市钟山区文星巷与水西南路交叉口东南方向76米左右",
        "tel": "",
        "category": "基础设施:公共设施:公共厕所",
        "type": 0,
        "location": {
            "lat": 26.577566,
            "lng": 104.840165
        },
        "ad_info": {
            "adcode": 520201,
            "province": "贵州省",
            "city": "六盘水市",
            "district": "钟山区"
        }
    },
    {
        "id": "9855244302899920074",
        "title": "公共厕所",
        "address": "贵州省六盘水市盘州市幸福路与羊柏公路交叉口东南方向385米左右",
        "tel": "",
        "category": "基础设施:公共设施:公共厕所",
        "type": 0,
        "location": {
            "lat": 25.97124,
            "lng": 104.769158
        },
        "ad_info": {
            "adcode": 520281,
            "province": "贵州省",
            "city": "六盘水市",
            "district": "盘州市"
        }
    },
    {
        "id": "3187785257710637642",
        "title": "公共厕所",
        "address": "贵州省六盘水市钟山区德南街花渔新区",
        "tel": "",
        "category": "基础设施:公共设施:公共厕所",
        "type": 0,
        "location": {
            "lat": 26.596228,
            "lng": 104.819788
        },
        "ad_info": {
            "adcode": 520201,
            "province": "贵州省",
            "city": "六盘水市",
            "district": "钟山区"
        }
    },
    {
        "id": "14317600865154086229",
        "title": "公共厕所",
        "address": "贵州省六盘水市钟山区安心路与工农路交叉口西南方向255米左右",
        "tel": "",
        "category": "基础设施:公共设施:公共厕所",
        "type": 0,
        "location": {
            "lat": 26.581056,
            "lng": 104.900305
        },
        "ad_info": {
            "adcode": 520201,
            "province": "贵州省",
            "city": "六盘水市",
            "district": "钟山区"
        }
    },
    {
        "id": "7654398711778678805",
        "title": "公共厕所",
        "address": "贵州省六盘水市钟山区人民路与马姚路交叉口东北方向476米左右",
        "tel": "",
        "category": "基础设施:公共设施:公共厕所",
        "type": 0,
        "location": {
            "lat": 26.614337,
            "lng": 104.788885
        },
        "ad_info": {
            "adcode": 520201,
            "province": "贵州省",
            "city": "六盘水市",
            "district": "钟山区"
        }
    },
    {
        "id": "8007439429239037352",
        "title": "公共厕所",
        "address": "贵州省六盘水市钟山区平安路与幸福路交叉口西北方向261米左右",
        "tel": "",
        "category": "基础设施:公共设施:公共厕所",
        "type": 0,
        "location": {
            "lat": 26.615034,
            "lng": 104.778295
        },
        "ad_info": {
            "adcode": 520201,
            "province": "贵州省",
            "city": "六盘水市",
            "district": "钟山区"
        }
    },
    {
        "id": "13455083888507251631",
        "title": "公共厕所",
        "address": "贵州省六盘水市水城区水纳路与老鹰山中路交叉口正北方向248米左右",
        "tel": "",
        "category": "基础设施:公共设施:公共厕所",
        "type": 0,
        "location": {
            "lat": 26.561015,
            "lng": 105.027239
        },
        "ad_info": {
            "adcode": 520204,
            "province": "贵州省",
            "city": "六盘水市",
            "district": "水城区"
        }
    },
    {
        "id": "18199227682853068351",
        "title": "妥乐古银杏景区公共厕所",
        "address": "贵州省六盘水市盘州市",
        "tel": "",
        "category": "基础设施:公共设施:公共厕所",
        "type": 0,
        "location": {
            "lat": 25.62184,
            "lng": 104.550479
        },
        "ad_info": {
            "adcode": 520281,
            "province": "贵州省",
            "city": "六盘水市",
            "district": "盘州市"
        }
    },
    {
        "id": "12121602347051083280",
        "title": "公共厕所",
        "address": "贵州省六盘水市钟山区水西南路与裕民巷交叉口正西方向25米左右",
        "tel": "",
        "category": "基础设施:公共设施:公共厕所",
        "type": 0,
        "location": {
            "lat": 26.578585,
            "lng": 104.839495
        },
        "ad_info": {
            "adcode": 520201,
            "province": "贵州省",
            "city": "六盘水市",
            "district": "钟山区"
        }
    },
    {
        "id": "1430528512222271426",
        "title": "无障碍公共厕所",
        "address": "贵州省六盘水市钟山区双拥雕塑(明湖路与246国道交叉口)东南方向348米左右",
        "tel": "",
        "category": "基础设施:公共设施:公共厕所",
        "type": 0,
        "location": {
            "lat": 26.580329,
            "lng": 104.812336
        },
        "ad_info": {
            "adcode": 520201,
            "province": "贵州省",
            "city": "六盘水市",
            "district": "钟山区"
        }
    },
    {
        "id": "8998665617876545488",
        "title": "公共厕所",
        "address": "贵州省六盘水市盘州市富国路与盘州大道交叉口正北方向170米左右",
        "tel": "",
        "category": "基础设施:公共设施:公共厕所",
        "type": 0,
        "location": {
            "lat": 25.763593,
            "lng": 104.528625
        },
        "ad_info": {
            "adcode": 520281,
            "province": "贵州省",
            "city": "六盘水市",
            "district": "盘州市"
        }
    },
    {
        "id": "8610692231805591613",
        "title": "公共厕所",
        "address": "贵州省六盘水市水城区水城大道与金山巷交叉口正东方向61米左右",
        "tel": "",
        "category": "基础设施:公共设施:公共厕所",
        "type": 0,
        "location": {
            "lat": 26.543357,
            "lng": 104.956147
        },
        "ad_info": {
            "adcode": 520204,
            "province": "贵州省",
            "city": "六盘水市",
            "district": "水城区"
        }
    },
    {
        "id": "14577773702260547654",
        "title": "公共厕所",
        "address": "贵州省六盘水市钟山区S212与横一路交叉口西北方向255米左右",
        "tel": "",
        "category": "基础设施:公共设施:公共厕所",
        "type": 0,
        "location": {
            "lat": 26.747199,
            "lng": 104.659629
        },
        "ad_info": {
            "adcode": 520201,
            "province": "贵州省",
            "city": "六盘水市",
            "district": "钟山区"
        }
    },
    {
        "id": "12564116723277528837",
        "title": "公共厕所",
        "address": "贵州省六盘水市钟山区德宇街与德馨南路交叉口西南方向78米左右",
        "tel": "",
        "category": "基础设施:公共设施:公共厕所",
        "type": 0,
        "location": {
            "lat": 26.6022,
            "lng": 104.811639
        },
        "ad_info": {
            "adcode": 520201,
            "province": "贵州省",
            "city": "六盘水市",
            "district": "钟山区"
        }
    },
    {
        "id": "10462477572618953643",
        "title": "发耳服务区公共厕所",
        "address": "贵州省六盘水市水城区永安路与营昌路交叉口东南方向1110米左右",
        "tel": "",
        "category": "基础设施:公共设施:公共厕所",
        "type": 0,
        "location": {
            "lat": 26.291558,
            "lng": 104.776031
        },
        "ad_info": {
            "adcode": 520204,
            "province": "贵州省",
            "city": "六盘水市",
            "district": "水城区"
        }
    },
    {
        "id": "12946759514402987395",
        "title": "公共厕所",
        "address": "贵州省六盘水市钟山区乾元路与凉都大道交叉口正北方向111米左右",
        "tel": "",
        "category": "基础设施:公共设施:公共厕所",
        "type": 0,
        "location": {
            "lat": 26.542793,
            "lng": 104.902581
        },
        "ad_info": {
            "adcode": 520201,
            "province": "贵州省",
            "city": "六盘水市",
            "district": "钟山区"
        }
    },
    {
        "id": "3790762123172300717",
        "title": "公共厕所",
        "address": "贵州省六盘水市水城区X244与发贵路交叉口正西方向868米左右",
        "tel": "",
        "category": "基础设施:公共设施:公共厕所",
        "type": 0,
        "location": {
            "lat": 26.25955,
            "lng": 104.652465
        },
        "ad_info": {
            "adcode": 520204,
            "province": "贵州省",
            "city": "六盘水市",
            "district": "水城区"
        }
    },
    {
        "id": "4126142288353486166",
        "title": "公共厕所",
        "address": "贵州省六盘水市钟山区六盘水绕城高速与都香高速交叉口正北方向1980米左右",
        "tel": "",
        "category": "基础设施:公共设施:公共厕所",
        "type": 0,
        "location": {
            "lat": 26.659385,
            "lng": 104.75322
        },
        "ad_info": {
            "adcode": 520201,
            "province": "贵州省",
            "city": "六盘水市",
            "district": "钟山区"
        }
    },
    {
        "id": "8428574426704654411",
        "title": "红果服务区公共厕所",
        "address": "贵州省六盘水市盘州市红果服务区与G60沪昆高速交叉口西200米",
        "tel": "",
        "category": "基础设施:公共设施:公共厕所",
        "type": 0,
        "location": {
            "lat": 25.736891,
            "lng": 104.455459
        },
        "ad_info": {
            "adcode": 520281,
            "province": "贵州省",
            "city": "六盘水市",
            "district": "盘州市"
        }
    },
    {
        "id": "5522216708036254271",
        "title": "无障碍公共厕所",
        "address": "贵州省六盘水市钟山区汪水路与青园路交叉口东北方向259米左右",
        "tel": "",
        "category": "基础设施:公共设施:公共厕所",
        "type": 0,
        "location": {
            "lat": 26.603118,
            "lng": 104.853996
        },
        "ad_info": {
            "adcode": 520201,
            "province": "贵州省",
            "city": "六盘水市",
            "district": "钟山区"
        }
    },
    {
        "id": "5407019939035190321",
        "title": "公共厕所",
        "address": "贵州省六盘水市盘州市振兴路与羊柏公路交叉口东北方向7米左右",
        "tel": "",
        "category": "基础设施:公共设施:公共厕所",
        "type": 0,
        "location": {
            "lat": 26.035511,
            "lng": 104.62518
        },
        "ad_info": {
            "adcode": 520281,
            "province": "贵州省",
            "city": "六盘水市",
            "district": "盘州市"
        }
    },
    {
        "id": "11004044300593540751",
        "title": "公共厕所",
        "address": "贵州省六盘水市钟山区安心路与巴西中路交叉口西北方向183米左右",
        "tel": "",
        "category": "基础设施:公共设施:公共厕所",
        "type": 0,
        "location": {
            "lat": 26.592635,
            "lng": 104.90398
        },
        "ad_info": {
            "adcode": 520201,
            "province": "贵州省",
            "city": "六盘水市",
            "district": "钟山区"
        }
    },
    {
        "id": "8349480234099196954",
        "title": "公共厕所",
        "address": "贵州省六盘水市盘州市平田路与松山路交叉口正东方向26米左右",
        "tel": "",
        "category": "基础设施:公共设施:公共厕所",
        "type": 0,
        "location": {
            "lat": 25.467063,
            "lng": 104.586155
        },
        "ad_info": {
            "adcode": 520281,
            "province": "贵州省",
            "city": "六盘水市",
            "district": "盘州市"
        }
    },
    {
        "id": "9525812744176380643",
        "title": "公共厕所",
        "address": "贵州省六盘水市钟山区龙井巷与龙井路交叉口东北方向150米左右",
        "tel": "",
        "category": "基础设施:公共设施:公共厕所",
        "type": 0,
        "location": {
            "lat": 26.579954,
            "lng": 104.845716
        },
        "ad_info": {
            "adcode": 520201,
            "province": "贵州省",
            "city": "六盘水市",
            "district": "钟山区"
        }
    },
    {
        "id": "1709280646247469370",
        "title": "公共厕所",
        "address": "贵州省六盘水市钟山区凤翔路与大连路交叉口正东方向34米左右",
        "tel": "",
        "category": "基础设施:公共设施:公共厕所",
        "type": 0,
        "location": {
            "lat": 26.567028,
            "lng": 104.846353
        },
        "ad_info": {
            "adcode": 520201,
            "province": "贵州省",
            "city": "六盘水市",
            "district": "钟山区"
        }
    },
    {
        "id": "6511158337729215592",
        "title": "两江公园公共厕所",
        "address": "贵州省六盘水市水城区水城大道清源汽车贸易有限公司西侧30米",
        "tel": "",
        "category": "基础设施:公共设施:公共厕所",
        "type": 0,
        "location": {
            "lat": 26.52963,
            "lng": 104.957439
        },
        "ad_info": {
            "adcode": 520204,
            "province": "贵州省",
            "city": "六盘水市",
            "district": "水城区"
        }
    },
    {
        "id": "13714430147567259978",
        "title": "公共厕所",
        "address": "贵州省六盘水市钟山区人民路与康乐北路交叉口正东方向55米左右",
        "tel": "",
        "category": "基础设施:公共设施:公共厕所",
        "type": 0,
        "location": {
            "lat": 26.601418,
            "lng": 104.827276
        },
        "ad_info": {
            "adcode": 520201,
            "province": "贵州省",
            "city": "六盘水市",
            "district": "钟山区"
        }
    },
    {
        "id": "9847602487187898565",
        "title": "公共厕所",
        "address": "贵州省六盘水市钟山区八一路与山城路交叉口正西方向92米左右",
        "tel": "",
        "category": "基础设施:公共设施:公共厕所",
        "type": 0,
        "location": {
            "lat": 26.579032,
            "lng": 104.835161
        },
        "ad_info": {
            "adcode": 520201,
            "province": "贵州省",
            "city": "六盘水市",
            "district": "钟山区"
        }
    },
    {
        "id": "18400400456609382807",
        "title": "公共厕所",
        "address": "贵州省六盘水市盘州市S212与小云尚桥交叉口西南方向288米左右",
        "tel": "",
        "category": "基础设施:公共设施:公共厕所",
        "type": 0,
        "location": {
            "lat": 26.057613,
            "lng": 104.509811
        },
        "ad_info": {
            "adcode": 520281,
            "province": "贵州省",
            "city": "六盘水市",
            "district": "盘州市"
        }
    },
    {
        "id": "9403685079751351684",
        "title": "公共厕所",
        "address": "贵州省六盘水市六枝特区九龙路与六定路交叉口东北方向191米左右",
        "tel": "",
        "category": "基础设施:公共设施:公共厕所",
        "type": 0,
        "location": {
            "lat": 26.2365,
            "lng": 105.451275
        },
        "ad_info": {
            "adcode": 520203,
            "province": "贵州省",
            "city": "六盘水市",
            "district": "六枝特区"
        }
    },
    {
        "id": "4543116263508813943",
        "title": "公共厕所",
        "address": "贵州省六盘水市六枝特区交通东路d1-7号",
        "tel": "",
        "category": "基础设施:公共设施:公共厕所",
        "type": 0,
        "location": {
            "lat": 26.198433,
            "lng": 105.496125
        },
        "ad_info": {
            "adcode": 520203,
            "province": "贵州省",
            "city": "六盘水市",
            "district": "六枝特区"
        }
    },
    {
        "id": "3884509000377001470",
        "title": "8号公共厕所",
        "address": "贵州省六盘水市水城区小山路与金山北巷交叉口西北方向31米左右",
        "tel": "",
        "category": "基础设施:公共设施:公共厕所",
        "type": 0,
        "location": {
            "lat": 26.541414,
            "lng": 104.958499
        },
        "ad_info": {
            "adcode": 520204,
            "province": "贵州省",
            "city": "六盘水市",
            "district": "水城区"
        }
    },
    {
        "id": "2824911962186434519",
        "title": "公共厕所",
        "address": "贵州省六盘水市盘州市G320与平关中桥交叉口西南方向246米左右",
        "tel": "",
        "category": "基础设施:公共设施:公共厕所",
        "type": 0,
        "location": {
            "lat": 25.642976,
            "lng": 104.344943
        },
        "ad_info": {
            "adcode": 520281,
            "province": "贵州省",
            "city": "六盘水市",
            "district": "盘州市"
        }
    },
    {
        "id": "10203553640742582855",
        "title": "公共厕所",
        "address": "贵州省六盘水市钟山区人民西路153号",
        "tel": "",
        "category": "基础设施:公共设施:公共厕所",
        "type": 0,
        "location": {
            "lat": 26.600021,
            "lng": 104.828528
        },
        "ad_info": {
            "adcode": 520201,
            "province": "贵州省",
            "city": "六盘水市",
            "district": "钟山区"
        }
    },
    {
        "id": "9840513304024340842",
        "title": "公共厕所",
        "address": "贵州省六盘水市钟山区德月北路与德月南路交叉口西北方向96米左右",
        "tel": "",
        "category": "基础设施:公共设施:公共厕所",
        "type": 0,
        "location": {
            "lat": 26.605596,
            "lng": 104.806666
        },
        "ad_info": {
            "adcode": 520201,
            "province": "贵州省",
            "city": "六盘水市",
            "district": "钟山区"
        }
    },
    {
        "id": "17503197111557671650",
        "title": "野玉海火把广场旁公共厕所",
        "address": "贵州省六盘水市水城区S217与玉钱大道交叉口东南方向583米左右",
        "tel": "",
        "category": "基础设施:公共设施:公共厕所",
        "type": 0,
        "location": {
            "lat": 26.448262,
            "lng": 104.785037
        },
        "ad_info": {
            "adcode": 520204,
            "province": "贵州省",
            "city": "六盘水市",
            "district": "水城区"
        }
    },
    {
        "id": "15290556849627961552",
        "title": "公共厕所",
        "address": "贵州省六盘水市钟山区六盘水绕城高速与月照机场互通交叉口东北方向1034米左右",
        "tel": "",
        "category": "基础设施:公共设施:公共厕所",
        "type": 0,
        "location": {
            "lat": 26.583835,
            "lng": 104.963795
        },
        "ad_info": {
            "adcode": 520201,
            "province": "贵州省",
            "city": "六盘水市",
            "district": "钟山区"
        }
    },
    {
        "id": "17091252557901214204",
        "title": "公共厕所",
        "address": "贵州省六盘水市钟山区康一巷与康乐南路交叉口正北方向122米左右",
        "tel": "",
        "category": "基础设施:公共设施:公共厕所",
        "type": 0,
        "location": {
            "lat": 26.595886,
            "lng": 104.825541
        },
        "ad_info": {
            "adcode": 520201,
            "province": "贵州省",
            "city": "六盘水市",
            "district": "钟山区"
        }
    },
    {
        "id": "18190727941172543663",
        "title": "公共厕所",
        "address": "贵州省六盘水市钟山区零零一乡道凉都儿童乐园",
        "tel": "",
        "category": "基础设施:公共设施:公共厕所",
        "type": 0,
        "location": {
            "lat": 26.609735,
            "lng": 104.785482
        },
        "ad_info": {
            "adcode": 520201,
            "province": "贵州省",
            "city": "六盘水市",
            "district": "钟山区"
        }
    },
    {
        "id": "9054225499386342035",
        "title": "鸡场坪服务区第一公共厕所",
        "address": "贵州省六盘水市盘州市S77水兴高速与鸡场坪服务区交叉口东南280米",
        "tel": "",
        "category": "基础设施:公共设施:公共厕所",
        "type": 0,
        "location": {
            "lat": 25.983436,
            "lng": 104.622599
        },
        "ad_info": {
            "adcode": 520281,
            "province": "贵州省",
            "city": "六盘水市",
            "district": "盘州市"
        }
    },
    {
        "id": "4095450806920807439",
        "title": "公共厕所",
        "address": "贵州省六盘水市盘州市S212与西红路交叉口东南方向799米左右",
        "tel": "",
        "category": "基础设施:公共设施:公共厕所",
        "type": 0,
        "location": {
            "lat": 25.90221,
            "lng": 104.514827
        },
        "ad_info": {
            "adcode": 520281,
            "province": "贵州省",
            "city": "六盘水市",
            "district": "盘州市"
        }
    },
    {
        "id": "14095555860358148884",
        "title": "公共厕所",
        "address": "贵州省六盘水市水城区水黄公路",
        "tel": "",
        "category": "基础设施:公共设施:公共厕所",
        "type": 0,
        "location": {
            "lat": 26.432702,
            "lng": 105.087183
        },
        "ad_info": {
            "adcode": 520204,
            "province": "贵州省",
            "city": "六盘水市",
            "district": "水城区"
        }
    },
    {
        "id": "16178705551640345337",
        "title": "公共厕所",
        "address": "贵州省六盘水市钟山区军民巷与民生路交叉口正西方向213米左右",
        "tel": "",
        "category": "基础设施:公共设施:公共厕所",
        "type": 0,
        "location": {
            "lat": 26.560005,
            "lng": 104.890537
        },
        "ad_info": {
            "adcode": 520201,
            "province": "贵州省",
            "city": "六盘水市",
            "district": "钟山区"
        }
    },
    {
        "id": "7315793666175855637",
        "title": "公共厕所",
        "address": "贵州省六盘水市钟山区六盘水师范学院龙山校区体育场旁边",
        "tel": "",
        "category": "基础设施:公共设施:公共厕所",
        "type": 0,
        "location": {
            "lat": 26.570288,
            "lng": 104.82264
        },
        "ad_info": {
            "adcode": 520201,
            "province": "贵州省",
            "city": "六盘水市",
            "district": "钟山区"
        }
    },
    {
        "id": "12223845284648435345",
        "title": "公共厕所",
        "address": "贵州省六盘水市六枝特区老虎岩山体公园东南侧50米",
        "tel": "",
        "category": "基础设施:公共设施:公共厕所",
        "type": 0,
        "location": {
            "lat": 26.090933,
            "lng": 105.276639
        },
        "ad_info": {
            "adcode": 520203,
            "province": "贵州省",
            "city": "六盘水市",
            "district": "六枝特区"
        }
    },
    {
        "id": "17099935091078415722",
        "title": "公共厕所",
        "address": "贵州省六盘水市钟山区巴西中路与桃林路交叉口东北方向117米左右",
        "tel": "",
        "category": "基础设施:公共设施:公共厕所",
        "type": 0,
        "location": {
            "lat": 26.578832,
            "lng": 104.889781
        },
        "ad_info": {
            "adcode": 520201,
            "province": "贵州省",
            "city": "六盘水市",
            "district": "钟山区"
        }
    },
    {
        "id": "3991921390814340282",
        "title": "公共厕所",
        "address": "贵州省六盘水市六枝特区后山路与迎宾大道交叉口东北方向199米左右",
        "tel": "",
        "category": "基础设施:公共设施:公共厕所",
        "type": 0,
        "location": {
            "lat": 26.195363,
            "lng": 105.490002
        },
        "ad_info": {
            "adcode": 520203,
            "province": "贵州省",
            "city": "六盘水市",
            "district": "六枝特区"
        }
    },
    {
        "id": "2499186184740919325",
        "title": "公共厕所",
        "address": "贵州省六盘水市盘州市铁桥路与银杏大道交叉口正西方向274米左右",
        "tel": "",
        "category": "基础设施:公共设施:公共厕所",
        "type": 0,
        "location": {
            "lat": 25.714232,
            "lng": 104.467483
        },
        "ad_info": {
            "adcode": 520281,
            "province": "贵州省",
            "city": "六盘水市",
            "district": "盘州市"
        }
    },
    {
        "id": "4039279846083227770",
        "title": "德坞服务区公共厕所",
        "address": "贵州省六盘水市钟山区六盘水绕城高速与六盘水西互通交叉口正东方向278米左右",
        "tel": "",
        "category": "基础设施:公共设施:公共厕所",
        "type": 0,
        "location": {
            "lat": 26.647383,
            "lng": 104.806814
        },
        "ad_info": {
            "adcode": 520201,
            "province": "贵州省",
            "city": "六盘水市",
            "district": "钟山区"
        }
    },
    {
        "id": "1385356587025909633",
        "title": "鸡场坪服务区第二公共厕所",
        "address": "贵州省六盘水市盘州市工业路与首黔大道交叉口正西方向483米左右",
        "tel": "",
        "category": "基础设施:公共设施:公共厕所",
        "type": 0,
        "location": {
            "lat": 25.981587,
            "lng": 104.621507
        },
        "ad_info": {
            "adcode": 520281,
            "province": "贵州省",
            "city": "六盘水市",
            "district": "盘州市"
        }
    },
    {
        "id": "6375167620789724591",
        "title": "公共厕所",
        "address": "贵州省六盘水市盘州市兴盘路与红腾路交叉口正东方向131米左右",
        "tel": "",
        "category": "基础设施:公共设施:公共厕所",
        "type": 0,
        "location": {
            "lat": 25.765852,
            "lng": 104.5236
        },
        "ad_info": {
            "adcode": 520281,
            "province": "贵州省",
            "city": "六盘水市",
            "district": "盘州市"
        }
    },
    {
        "id": "5281186096821978403",
        "title": "鸡场坪服务区第二公共厕所",
        "address": "贵州省六盘水市盘州市工业路与首黔大道交叉口西北方向474米左右",
        "tel": "",
        "category": "基础设施:公共设施:公共厕所",
        "type": 0,
        "location": {
            "lat": 25.983956,
            "lng": 104.622535
        },
        "ad_info": {
            "adcode": 520281,
            "province": "贵州省",
            "city": "六盘水市",
            "district": "盘州市"
        }
    },
    {
        "id": "16344140234391015168",
        "title": "公共厕所",
        "address": "贵州省六盘水市水城区以朵大道与水城大道交叉口西北方向354米左右",
        "tel": "",
        "category": "基础设施:公共设施:公共厕所",
        "type": 0,
        "location": {
            "lat": 26.526173,
            "lng": 104.961
        },
        "ad_info": {
            "adcode": 520204,
            "province": "贵州省",
            "city": "六盘水市",
            "district": "水城区"
        }
    },
    {
        "id": "8078680043579956500",
        "title": "公共厕所",
        "address": "贵州省六盘水市水城区新前路与新玉路交叉口东北方向393米左右",
        "tel": "",
        "category": "基础设施:公共设施:公共厕所",
        "type": 0,
        "location": {
            "lat": 26.544415,
            "lng": 104.792336
        },
        "ad_info": {
            "adcode": 520204,
            "province": "贵州省",
            "city": "六盘水市",
            "district": "水城区"
        }
    },
    {
        "id": "13097477512129088652",
        "title": "公共厕所",
        "address": "贵州省六盘水市盘州市洒基镇平安路中国邮政旁(洒基镇医院旁)",
        "tel": "",
        "category": "基础设施:公共设施:公共厕所",
        "type": 0,
        "location": {
            "lat": 26.066744,
            "lng": 104.54937
        },
        "ad_info": {
            "adcode": 520281,
            "province": "贵州省",
            "city": "六盘水市",
            "district": "盘州市"
        }
    },
    {
        "id": "17019599688834817970",
        "title": "公共厕所",
        "address": "贵州省六盘水市盘州市响水路与旭东大道交叉口西北方向254米左右",
        "tel": "",
        "category": "基础设施:公共设施:公共厕所",
        "type": 0,
        "location": {
            "lat": 25.731594,
            "lng": 104.494601
        },
        "ad_info": {
            "adcode": 520281,
            "province": "贵州省",
            "city": "六盘水市",
            "district": "盘州市"
        }
    },
    {
        "id": "12043706252743662182",
        "title": "公共厕所",
        "address": "贵州省六盘水市钟山区凉都大道与麒麟路交叉口西北方向177米左右",
        "tel": "",
        "category": "基础设施:公共设施:公共厕所",
        "type": 0,
        "location": {
            "lat": 26.579004,
            "lng": 104.858962
        },
        "ad_info": {
            "adcode": 520201,
            "province": "贵州省",
            "city": "六盘水市",
            "district": "钟山区"
        }
    },
    {
        "id": "17091252557901214204",
        "title": "公共厕所",
        "address": "贵州省六盘水市钟山区康一巷与康乐南路交叉口正北方向122米左右",
        "tel": "",
        "category": "基础设施:公共设施:公共厕所",
        "type": 0,
        "location": {
            "lat": 26.595886,
            "lng": 104.825541
        },
        "ad_info": {
            "adcode": 520201,
            "province": "贵州省",
            "city": "六盘水市",
            "district": "钟山区"
        }
    },
    {
        "id": "18190727941172543663",
        "title": "公共厕所",
        "address": "贵州省六盘水市钟山区零零一乡道凉都儿童乐园",
        "tel": "",
        "category": "基础设施:公共设施:公共厕所",
        "type": 0,
        "location": {
            "lat": 26.609735,
            "lng": 104.785482
        },
        "ad_info": {
            "adcode": 520201,
            "province": "贵州省",
            "city": "六盘水市",
            "district": "钟山区"
        }
    },
    {
        "id": "9054225499386342035",
        "title": "鸡场坪服务区第一公共厕所",
        "address": "贵州省六盘水市盘州市S77水兴高速与鸡场坪服务区交叉口东南280米",
        "tel": "",
        "category": "基础设施:公共设施:公共厕所",
        "type": 0,
        "location": {
            "lat": 25.983436,
            "lng": 104.622599
        },
        "ad_info": {
            "adcode": 520281,
            "province": "贵州省",
            "city": "六盘水市",
            "district": "盘州市"
        }
    },
    {
        "id": "4095450806920807439",
        "title": "公共厕所",
        "address": "贵州省六盘水市盘州市S212与西红路交叉口东南方向799米左右",
        "tel": "",
        "category": "基础设施:公共设施:公共厕所",
        "type": 0,
        "location": {
            "lat": 25.90221,
            "lng": 104.514827
        },
        "ad_info": {
            "adcode": 520281,
            "province": "贵州省",
            "city": "六盘水市",
            "district": "盘州市"
        }
    },
    {
        "id": "14095555860358148884",
        "title": "公共厕所",
        "address": "贵州省六盘水市水城区水黄公路",
        "tel": "",
        "category": "基础设施:公共设施:公共厕所",
        "type": 0,
        "location": {
            "lat": 26.432702,
            "lng": 105.087183
        },
        "ad_info": {
            "adcode": 520204,
            "province": "贵州省",
            "city": "六盘水市",
            "district": "水城区"
        }
    },
    {
        "id": "16178705551640345337",
        "title": "公共厕所",
        "address": "贵州省六盘水市钟山区军民巷与民生路交叉口正西方向213米左右",
        "tel": "",
        "category": "基础设施:公共设施:公共厕所",
        "type": 0,
        "location": {
            "lat": 26.560005,
            "lng": 104.890537
        },
        "ad_info": {
            "adcode": 520201,
            "province": "贵州省",
            "city": "六盘水市",
            "district": "钟山区"
        }
    },
    {
        "id": "7315793666175855637",
        "title": "公共厕所",
        "address": "贵州省六盘水市钟山区六盘水师范学院龙山校区体育场旁边",
        "tel": "",
        "category": "基础设施:公共设施:公共厕所",
        "type": 0,
        "location": {
            "lat": 26.570288,
            "lng": 104.82264
        },
        "ad_info": {
            "adcode": 520201,
            "province": "贵州省",
            "city": "六盘水市",
            "district": "钟山区"
        }
    },
    {
        "id": "12223845284648435345",
        "title": "公共厕所",
        "address": "贵州省六盘水市六枝特区老虎岩山体公园东南侧50米",
        "tel": "",
        "category": "基础设施:公共设施:公共厕所",
        "type": 0,
        "location": {
            "lat": 26.090933,
            "lng": 105.276639
        },
        "ad_info": {
            "adcode": 520203,
            "province": "贵州省",
            "city": "六盘水市",
            "district": "六枝特区"
        }
    },
    {
        "id": "17099935091078415722",
        "title": "公共厕所",
        "address": "贵州省六盘水市钟山区巴西中路与桃林路交叉口东北方向117米左右",
        "tel": "",
        "category": "基础设施:公共设施:公共厕所",
        "type": 0,
        "location": {
            "lat": 26.578832,
            "lng": 104.889781
        },
        "ad_info": {
            "adcode": 520201,
            "province": "贵州省",
            "city": "六盘水市",
            "district": "钟山区"
        }
    },
    {
        "id": "3991921390814340282",
        "title": "公共厕所",
        "address": "贵州省六盘水市六枝特区后山路与迎宾大道交叉口东北方向199米左右",
        "tel": "",
        "category": "基础设施:公共设施:公共厕所",
        "type": 0,
        "location": {
            "lat": 26.195363,
            "lng": 105.490002
        },
        "ad_info": {
            "adcode": 520203,
            "province": "贵州省",
            "city": "六盘水市",
            "district": "六枝特区"
        }
    },
    {
        "id": "2499186184740919325",
        "title": "公共厕所",
        "address": "贵州省六盘水市盘州市铁桥路与银杏大道交叉口正西方向274米左右",
        "tel": "",
        "category": "基础设施:公共设施:公共厕所",
        "type": 0,
        "location": {
            "lat": 25.714232,
            "lng": 104.467483
        },
        "ad_info": {
            "adcode": 520281,
            "province": "贵州省",
            "city": "六盘水市",
            "district": "盘州市"
        }
    },
    {
        "id": "4039279846083227770",
        "title": "德坞服务区公共厕所",
        "address": "贵州省六盘水市钟山区六盘水绕城高速与六盘水西互通交叉口正东方向278米左右",
        "tel": "",
        "category": "基础设施:公共设施:公共厕所",
        "type": 0,
        "location": {
            "lat": 26.647383,
            "lng": 104.806814
        },
        "ad_info": {
            "adcode": 520201,
            "province": "贵州省",
            "city": "六盘水市",
            "district": "钟山区"
        }
    },
    {
        "id": "1385356587025909633",
        "title": "鸡场坪服务区第二公共厕所",
        "address": "贵州省六盘水市盘州市工业路与首黔大道交叉口正西方向483米左右",
        "tel": "",
        "category": "基础设施:公共设施:公共厕所",
        "type": 0,
        "location": {
            "lat": 25.981587,
            "lng": 104.621507
        },
        "ad_info": {
            "adcode": 520281,
            "province": "贵州省",
            "city": "六盘水市",
            "district": "盘州市"
        }
    },
    {
        "id": "6375167620789724591",
        "title": "公共厕所",
        "address": "贵州省六盘水市盘州市兴盘路与红腾路交叉口正东方向131米左右",
        "tel": "",
        "category": "基础设施:公共设施:公共厕所",
        "type": 0,
        "location": {
            "lat": 25.765852,
            "lng": 104.5236
        },
        "ad_info": {
            "adcode": 520281,
            "province": "贵州省",
            "city": "六盘水市",
            "district": "盘州市"
        }
    },
    {
        "id": "5281186096821978403",
        "title": "鸡场坪服务区第二公共厕所",
        "address": "贵州省六盘水市盘州市工业路与首黔大道交叉口西北方向474米左右",
        "tel": "",
        "category": "基础设施:公共设施:公共厕所",
        "type": 0,
        "location": {
            "lat": 25.983956,
            "lng": 104.622535
        },
        "ad_info": {
            "adcode": 520281,
            "province": "贵州省",
            "city": "六盘水市",
            "district": "盘州市"
        }
    },
    {
        "id": "16344140234391015168",
        "title": "公共厕所",
        "address": "贵州省六盘水市水城区以朵大道与水城大道交叉口西北方向354米左右",
        "tel": "",
        "category": "基础设施:公共设施:公共厕所",
        "type": 0,
        "location": {
            "lat": 26.526173,
            "lng": 104.961
        },
        "ad_info": {
            "adcode": 520204,
            "province": "贵州省",
            "city": "六盘水市",
            "district": "水城区"
        }
    },
    {
        "id": "8078680043579956500",
        "title": "公共厕所",
        "address": "贵州省六盘水市水城区新前路与新玉路交叉口东北方向393米左右",
        "tel": "",
        "category": "基础设施:公共设施:公共厕所",
        "type": 0,
        "location": {
            "lat": 26.544415,
            "lng": 104.792336
        },
        "ad_info": {
            "adcode": 520204,
            "province": "贵州省",
            "city": "六盘水市",
            "district": "水城区"
        }
    },
    {
        "id": "13097477512129088652",
        "title": "公共厕所",
        "address": "贵州省六盘水市盘州市洒基镇平安路中国邮政旁(洒基镇医院旁)",
        "tel": "",
        "category": "基础设施:公共设施:公共厕所",
        "type": 0,
        "location": {
            "lat": 26.066744,
            "lng": 104.54937
        },
        "ad_info": {
            "adcode": 520281,
            "province": "贵州省",
            "city": "六盘水市",
            "district": "盘州市"
        }
    },
    {
        "id": "17019599688834817970",
        "title": "公共厕所",
        "address": "贵州省六盘水市盘州市响水路与旭东大道交叉口西北方向254米左右",
        "tel": "",
        "category": "基础设施:公共设施:公共厕所",
        "type": 0,
        "location": {
            "lat": 25.731594,
            "lng": 104.494601
        },
        "ad_info": {
            "adcode": 520281,
            "province": "贵州省",
            "city": "六盘水市",
            "district": "盘州市"
        }
    },
    {
        "id": "12043706252743662182",
        "title": "公共厕所",
        "address": "贵州省六盘水市钟山区凉都大道与麒麟路交叉口西北方向177米左右",
        "tel": "",
        "category": "基础设施:公共设施:公共厕所",
        "type": 0,
        "location": {
            "lat": 26.579004,
            "lng": 104.858962
        },
        "ad_info": {
            "adcode": 520201,
            "province": "贵州省",
            "city": "六盘水市",
            "district": "钟山区"
        }
    },
    {
        "id": "17091252557901214204",
        "title": "公共厕所",
        "address": "贵州省六盘水市钟山区康一巷与康乐南路交叉口正北方向122米左右",
        "tel": "",
        "category": "基础设施:公共设施:公共厕所",
        "type": 0,
        "location": {
            "lat": 26.595886,
            "lng": 104.825541
        },
        "ad_info": {
            "adcode": 520201,
            "province": "贵州省",
            "city": "六盘水市",
            "district": "钟山区"
        }
    },
    {
        "id": "18190727941172543663",
        "title": "公共厕所",
        "address": "贵州省六盘水市钟山区零零一乡道凉都儿童乐园",
        "tel": "",
        "category": "基础设施:公共设施:公共厕所",
        "type": 0,
        "location": {
            "lat": 26.609735,
            "lng": 104.785482
        },
        "ad_info": {
            "adcode": 520201,
            "province": "贵州省",
            "city": "六盘水市",
            "district": "钟山区"
        }
    },
    {
        "id": "9054225499386342035",
        "title": "鸡场坪服务区第一公共厕所",
        "address": "贵州省六盘水市盘州市S77水兴高速与鸡场坪服务区交叉口东南280米",
        "tel": "",
        "category": "基础设施:公共设施:公共厕所",
        "type": 0,
        "location": {
            "lat": 25.983436,
            "lng": 104.622599
        },
        "ad_info": {
            "adcode": 520281,
            "province": "贵州省",
            "city": "六盘水市",
            "district": "盘州市"
        }
    },
    {
        "id": "4095450806920807439",
        "title": "公共厕所",
        "address": "贵州省六盘水市盘州市S212与西红路交叉口东南方向799米左右",
        "tel": "",
        "category": "基础设施:公共设施:公共厕所",
        "type": 0,
        "location": {
            "lat": 25.90221,
            "lng": 104.514827
        },
        "ad_info": {
            "adcode": 520281,
            "province": "贵州省",
            "city": "六盘水市",
            "district": "盘州市"
        }
    },
    {
        "id": "14095555860358148884",
        "title": "公共厕所",
        "address": "贵州省六盘水市水城区水黄公路",
        "tel": "",
        "category": "基础设施:公共设施:公共厕所",
        "type": 0,
        "location": {
            "lat": 26.432702,
            "lng": 105.087183
        },
        "ad_info": {
            "adcode": 520204,
            "province": "贵州省",
            "city": "六盘水市",
            "district": "水城区"
        }
    },
    {
        "id": "16178705551640345337",
        "title": "公共厕所",
        "address": "贵州省六盘水市钟山区军民巷与民生路交叉口正西方向213米左右",
        "tel": "",
        "category": "基础设施:公共设施:公共厕所",
        "type": 0,
        "location": {
            "lat": 26.560005,
            "lng": 104.890537
        },
        "ad_info": {
            "adcode": 520201,
            "province": "贵州省",
            "city": "六盘水市",
            "district": "钟山区"
        }
    },
    {
        "id": "7315793666175855637",
        "title": "公共厕所",
        "address": "贵州省六盘水市钟山区六盘水师范学院龙山校区体育场旁边",
        "tel": "",
        "category": "基础设施:公共设施:公共厕所",
        "type": 0,
        "location": {
            "lat": 26.570288,
            "lng": 104.82264
        },
        "ad_info": {
            "adcode": 520201,
            "province": "贵州省",
            "city": "六盘水市",
            "district": "钟山区"
        }
    },
    {
        "id": "12223845284648435345",
        "title": "公共厕所",
        "address": "贵州省六盘水市六枝特区老虎岩山体公园东南侧50米",
        "tel": "",
        "category": "基础设施:公共设施:公共厕所",
        "type": 0,
        "location": {
            "lat": 26.090933,
            "lng": 105.276639
        },
        "ad_info": {
            "adcode": 520203,
            "province": "贵州省",
            "city": "六盘水市",
            "district": "六枝特区"
        }
    },
    {
        "id": "17099935091078415722",
        "title": "公共厕所",
        "address": "贵州省六盘水市钟山区巴西中路与桃林路交叉口东北方向117米左右",
        "tel": "",
        "category": "基础设施:公共设施:公共厕所",
        "type": 0,
        "location": {
            "lat": 26.578832,
            "lng": 104.889781
        },
        "ad_info": {
            "adcode": 520201,
            "province": "贵州省",
            "city": "六盘水市",
            "district": "钟山区"
        }
    },
    {
        "id": "3991921390814340282",
        "title": "公共厕所",
        "address": "贵州省六盘水市六枝特区后山路与迎宾大道交叉口东北方向199米左右",
        "tel": "",
        "category": "基础设施:公共设施:公共厕所",
        "type": 0,
        "location": {
            "lat": 26.195363,
            "lng": 105.490002
        },
        "ad_info": {
            "adcode": 520203,
            "province": "贵州省",
            "city": "六盘水市",
            "district": "六枝特区"
        }
    },
    {
        "id": "2499186184740919325",
        "title": "公共厕所",
        "address": "贵州省六盘水市盘州市铁桥路与银杏大道交叉口正西方向274米左右",
        "tel": "",
        "category": "基础设施:公共设施:公共厕所",
        "type": 0,
        "location": {
            "lat": 25.714232,
            "lng": 104.467483
        },
        "ad_info": {
            "adcode": 520281,
            "province": "贵州省",
            "city": "六盘水市",
            "district": "盘州市"
        }
    },
    {
        "id": "4039279846083227770",
        "title": "德坞服务区公共厕所",
        "address": "贵州省六盘水市钟山区六盘水绕城高速与六盘水西互通交叉口正东方向278米左右",
        "tel": "",
        "category": "基础设施:公共设施:公共厕所",
        "type": 0,
        "location": {
            "lat": 26.647383,
            "lng": 104.806814
        },
        "ad_info": {
            "adcode": 520201,
            "province": "贵州省",
            "city": "六盘水市",
            "district": "钟山区"
        }
    },
    {
        "id": "1385356587025909633",
        "title": "鸡场坪服务区第二公共厕所",
        "address": "贵州省六盘水市盘州市工业路与首黔大道交叉口正西方向483米左右",
        "tel": "",
        "category": "基础设施:公共设施:公共厕所",
        "type": 0,
        "location": {
            "lat": 25.981587,
            "lng": 104.621507
        },
        "ad_info": {
            "adcode": 520281,
            "province": "贵州省",
            "city": "六盘水市",
            "district": "盘州市"
        }
    },
    {
        "id": "6375167620789724591",
        "title": "公共厕所",
        "address": "贵州省六盘水市盘州市兴盘路与红腾路交叉口正东方向131米左右",
        "tel": "",
        "category": "基础设施:公共设施:公共厕所",
        "type": 0,
        "location": {
            "lat": 25.765852,
            "lng": 104.5236
        },
        "ad_info": {
            "adcode": 520281,
            "province": "贵州省",
            "city": "六盘水市",
            "district": "盘州市"
        }
    },
    {
        "id": "5281186096821978403",
        "title": "鸡场坪服务区第二公共厕所",
        "address": "贵州省六盘水市盘州市工业路与首黔大道交叉口西北方向474米左右",
        "tel": "",
        "category": "基础设施:公共设施:公共厕所",
        "type": 0,
        "location": {
            "lat": 25.983956,
            "lng": 104.622535
        },
        "ad_info": {
            "adcode": 520281,
            "province": "贵州省",
            "city": "六盘水市",
            "district": "盘州市"
        }
    },
    {
        "id": "16344140234391015168",
        "title": "公共厕所",
        "address": "贵州省六盘水市水城区以朵大道与水城大道交叉口西北方向354米左右",
        "tel": "",
        "category": "基础设施:公共设施:公共厕所",
        "type": 0,
        "location": {
            "lat": 26.526173,
            "lng": 104.961
        },
        "ad_info": {
            "adcode": 520204,
            "province": "贵州省",
            "city": "六盘水市",
            "district": "水城区"
        }
    },
    {
        "id": "8078680043579956500",
        "title": "公共厕所",
        "address": "贵州省六盘水市水城区新前路与新玉路交叉口东北方向393米左右",
        "tel": "",
        "category": "基础设施:公共设施:公共厕所",
        "type": 0,
        "location": {
            "lat": 26.544415,
            "lng": 104.792336
        },
        "ad_info": {
            "adcode": 520204,
            "province": "贵州省",
            "city": "六盘水市",
            "district": "水城区"
        }
    },
    {
        "id": "13097477512129088652",
        "title": "公共厕所",
        "address": "贵州省六盘水市盘州市洒基镇平安路中国邮政旁(洒基镇医院旁)",
        "tel": "",
        "category": "基础设施:公共设施:公共厕所",
        "type": 0,
        "location": {
            "lat": 26.066744,
            "lng": 104.54937
        },
        "ad_info": {
            "adcode": 520281,
            "province": "贵州省",
            "city": "六盘水市",
            "district": "盘州市"
        }
    },
    {
        "id": "17019599688834817970",
        "title": "公共厕所",
        "address": "贵州省六盘水市盘州市响水路与旭东大道交叉口西北方向254米左右",
        "tel": "",
        "category": "基础设施:公共设施:公共厕所",
        "type": 0,
        "location": {
            "lat": 25.731594,
            "lng": 104.494601
        },
        "ad_info": {
            "adcode": 520281,
            "province": "贵州省",
            "city": "六盘水市",
            "district": "盘州市"
        }
    },
    {
        "id": "12043706252743662182",
        "title": "公共厕所",
        "address": "贵州省六盘水市钟山区凉都大道与麒麟路交叉口西北方向177米左右",
        "tel": "",
        "category": "基础设施:公共设施:公共厕所",
        "type": 0,
        "location": {
            "lat": 26.579004,
            "lng": 104.858962
        },
        "ad_info": {
            "adcode": 520201,
            "province": "贵州省",
            "city": "六盘水市",
            "district": "钟山区"
        }
    },
    {
        "id": "17091252557901214204",
        "title": "公共厕所",
        "address": "贵州省六盘水市钟山区康一巷与康乐南路交叉口正北方向122米左右",
        "tel": "",
        "category": "基础设施:公共设施:公共厕所",
        "type": 0,
        "location": {
            "lat": 26.595886,
            "lng": 104.825541
        },
        "ad_info": {
            "adcode": 520201,
            "province": "贵州省",
            "city": "六盘水市",
            "district": "钟山区"
        }
    },
    {
        "id": "18190727941172543663",
        "title": "公共厕所",
        "address": "贵州省六盘水市钟山区零零一乡道凉都儿童乐园",
        "tel": "",
        "category": "基础设施:公共设施:公共厕所",
        "type": 0,
        "location": {
            "lat": 26.609735,
            "lng": 104.785482
        },
        "ad_info": {
            "adcode": 520201,
            "province": "贵州省",
            "city": "六盘水市",
            "district": "钟山区"
        }
    },
    {
        "id": "9054225499386342035",
        "title": "鸡场坪服务区第一公共厕所",
        "address": "贵州省六盘水市盘州市S77水兴高速与鸡场坪服务区交叉口东南280米",
        "tel": "",
        "category": "基础设施:公共设施:公共厕所",
        "type": 0,
        "location": {
            "lat": 25.983436,
            "lng": 104.622599
        },
        "ad_info": {
            "adcode": 520281,
            "province": "贵州省",
            "city": "六盘水市",
            "district": "盘州市"
        }
    },
    {
        "id": "4095450806920807439",
        "title": "公共厕所",
        "address": "贵州省六盘水市盘州市S212与西红路交叉口东南方向799米左右",
        "tel": "",
        "category": "基础设施:公共设施:公共厕所",
        "type": 0,
        "location": {
            "lat": 25.90221,
            "lng": 104.514827
        },
        "ad_info": {
            "adcode": 520281,
            "province": "贵州省",
            "city": "六盘水市",
            "district": "盘州市"
        }
    },
    {
        "id": "14095555860358148884",
        "title": "公共厕所",
        "address": "贵州省六盘水市水城区水黄公路",
        "tel": "",
        "category": "基础设施:公共设施:公共厕所",
        "type": 0,
        "location": {
            "lat": 26.432702,
            "lng": 105.087183
        },
        "ad_info": {
            "adcode": 520204,
            "province": "贵州省",
            "city": "六盘水市",
            "district": "水城区"
        }
    },
    {
        "id": "16178705551640345337",
        "title": "公共厕所",
        "address": "贵州省六盘水市钟山区军民巷与民生路交叉口正西方向213米左右",
        "tel": "",
        "category": "基础设施:公共设施:公共厕所",
        "type": 0,
        "location": {
            "lat": 26.560005,
            "lng": 104.890537
        },
        "ad_info": {
            "adcode": 520201,
            "province": "贵州省",
            "city": "六盘水市",
            "district": "钟山区"
        }
    },
    {
        "id": "7315793666175855637",
        "title": "公共厕所",
        "address": "贵州省六盘水市钟山区六盘水师范学院龙山校区体育场旁边",
        "tel": "",
        "category": "基础设施:公共设施:公共厕所",
        "type": 0,
        "location": {
            "lat": 26.570288,
            "lng": 104.82264
        },
        "ad_info": {
            "adcode": 520201,
            "province": "贵州省",
            "city": "六盘水市",
            "district": "钟山区"
        }
    },
    {
        "id": "12223845284648435345",
        "title": "公共厕所",
        "address": "贵州省六盘水市六枝特区老虎岩山体公园东南侧50米",
        "tel": "",
        "category": "基础设施:公共设施:公共厕所",
        "type": 0,
        "location": {
            "lat": 26.090933,
            "lng": 105.276639
        },
        "ad_info": {
            "adcode": 520203,
            "province": "贵州省",
            "city": "六盘水市",
            "district": "六枝特区"
        }
    },
    {
        "id": "17099935091078415722",
        "title": "公共厕所",
        "address": "贵州省六盘水市钟山区巴西中路与桃林路交叉口东北方向117米左右",
        "tel": "",
        "category": "基础设施:公共设施:公共厕所",
        "type": 0,
        "location": {
            "lat": 26.578832,
            "lng": 104.889781
        },
        "ad_info": {
            "adcode": 520201,
            "province": "贵州省",
            "city": "六盘水市",
            "district": "钟山区"
        }
    },
    {
        "id": "3991921390814340282",
        "title": "公共厕所",
        "address": "贵州省六盘水市六枝特区后山路与迎宾大道交叉口东北方向199米左右",
        "tel": "",
        "category": "基础设施:公共设施:公共厕所",
        "type": 0,
        "location": {
            "lat": 26.195363,
            "lng": 105.490002
        },
        "ad_info": {
            "adcode": 520203,
            "province": "贵州省",
            "city": "六盘水市",
            "district": "六枝特区"
        }
    },
    {
        "id": "2499186184740919325",
        "title": "公共厕所",
        "address": "贵州省六盘水市盘州市铁桥路与银杏大道交叉口正西方向274米左右",
        "tel": "",
        "category": "基础设施:公共设施:公共厕所",
        "type": 0,
        "location": {
            "lat": 25.714232,
            "lng": 104.467483
        },
        "ad_info": {
            "adcode": 520281,
            "province": "贵州省",
            "city": "六盘水市",
            "district": "盘州市"
        }
    },
    {
        "id": "4039279846083227770",
        "title": "德坞服务区公共厕所",
        "address": "贵州省六盘水市钟山区六盘水绕城高速与六盘水西互通交叉口正东方向278米左右",
        "tel": "",
        "category": "基础设施:公共设施:公共厕所",
        "type": 0,
        "location": {
            "lat": 26.647383,
            "lng": 104.806814
        },
        "ad_info": {
            "adcode": 520201,
            "province": "贵州省",
            "city": "六盘水市",
            "district": "钟山区"
        }
    },
    {
        "id": "1385356587025909633",
        "title": "鸡场坪服务区第二公共厕所",
        "address": "贵州省六盘水市盘州市工业路与首黔大道交叉口正西方向483米左右",
        "tel": "",
        "category": "基础设施:公共设施:公共厕所",
        "type": 0,
        "location": {
            "lat": 25.981587,
            "lng": 104.621507
        },
        "ad_info": {
            "adcode": 520281,
            "province": "贵州省",
            "city": "六盘水市",
            "district": "盘州市"
        }
    },
    {
        "id": "6375167620789724591",
        "title": "公共厕所",
        "address": "贵州省六盘水市盘州市兴盘路与红腾路交叉口正东方向131米左右",
        "tel": "",
        "category": "基础设施:公共设施:公共厕所",
        "type": 0,
        "location": {
            "lat": 25.765852,
            "lng": 104.5236
        },
        "ad_info": {
            "adcode": 520281,
            "province": "贵州省",
            "city": "六盘水市",
            "district": "盘州市"
        }
    },
    {
        "id": "5281186096821978403",
        "title": "鸡场坪服务区第二公共厕所",
        "address": "贵州省六盘水市盘州市工业路与首黔大道交叉口西北方向474米左右",
        "tel": "",
        "category": "基础设施:公共设施:公共厕所",
        "type": 0,
        "location": {
            "lat": 25.983956,
            "lng": 104.622535
        },
        "ad_info": {
            "adcode": 520281,
            "province": "贵州省",
            "city": "六盘水市",
            "district": "盘州市"
        }
    },
    {
        "id": "16344140234391015168",
        "title": "公共厕所",
        "address": "贵州省六盘水市水城区以朵大道与水城大道交叉口西北方向354米左右",
        "tel": "",
        "category": "基础设施:公共设施:公共厕所",
        "type": 0,
        "location": {
            "lat": 26.526173,
            "lng": 104.961
        },
        "ad_info": {
            "adcode": 520204,
            "province": "贵州省",
            "city": "六盘水市",
            "district": "水城区"
        }
    },
    {
        "id": "8078680043579956500",
        "title": "公共厕所",
        "address": "贵州省六盘水市水城区新前路与新玉路交叉口东北方向393米左右",
        "tel": "",
        "category": "基础设施:公共设施:公共厕所",
        "type": 0,
        "location": {
            "lat": 26.544415,
            "lng": 104.792336
        },
        "ad_info": {
            "adcode": 520204,
            "province": "贵州省",
            "city": "六盘水市",
            "district": "水城区"
        }
    },
    {
        "id": "13097477512129088652",
        "title": "公共厕所",
        "address": "贵州省六盘水市盘州市洒基镇平安路中国邮政旁(洒基镇医院旁)",
        "tel": "",
        "category": "基础设施:公共设施:公共厕所",
        "type": 0,
        "location": {
            "lat": 26.066744,
            "lng": 104.54937
        },
        "ad_info": {
            "adcode": 520281,
            "province": "贵州省",
            "city": "六盘水市",
            "district": "盘州市"
        }
    },
    {
        "id": "17019599688834817970",
        "title": "公共厕所",
        "address": "贵州省六盘水市盘州市响水路与旭东大道交叉口西北方向254米左右",
        "tel": "",
        "category": "基础设施:公共设施:公共厕所",
        "type": 0,
        "location": {
            "lat": 25.731594,
            "lng": 104.494601
        },
        "ad_info": {
            "adcode": 520281,
            "province": "贵州省",
            "city": "六盘水市",
            "district": "盘州市"
        }
    },
    {
        "id": "12043706252743662182",
        "title": "公共厕所",
        "address": "贵州省六盘水市钟山区凉都大道与麒麟路交叉口西北方向177米左右",
        "tel": "",
        "category": "基础设施:公共设施:公共厕所",
        "type": 0,
        "location": {
            "lat": 26.579004,
            "lng": 104.858962
        },
        "ad_info": {
            "adcode": 520201,
            "province": "贵州省",
            "city": "六盘水市",
            "district": "钟山区"
        }
    },
    {
        "id": "17091252557901214204",
        "title": "公共厕所",
        "address": "贵州省六盘水市钟山区康一巷与康乐南路交叉口正北方向122米左右",
        "tel": "",
        "category": "基础设施:公共设施:公共厕所",
        "type": 0,
        "location": {
            "lat": 26.595886,
            "lng": 104.825541
        },
        "ad_info": {
            "adcode": 520201,
            "province": "贵州省",
            "city": "六盘水市",
            "district": "钟山区"
        }
    },
    {
        "id": "18190727941172543663",
        "title": "公共厕所",
        "address": "贵州省六盘水市钟山区零零一乡道凉都儿童乐园",
        "tel": "",
        "category": "基础设施:公共设施:公共厕所",
        "type": 0,
        "location": {
            "lat": 26.609735,
            "lng": 104.785482
        },
        "ad_info": {
            "adcode": 520201,
            "province": "贵州省",
            "city": "六盘水市",
            "district": "钟山区"
        }
    },
    {
        "id": "9054225499386342035",
        "title": "鸡场坪服务区第一公共厕所",
        "address": "贵州省六盘水市盘州市S77水兴高速与鸡场坪服务区交叉口东南280米",
        "tel": "",
        "category": "基础设施:公共设施:公共厕所",
        "type": 0,
        "location": {
            "lat": 25.983436,
            "lng": 104.622599
        },
        "ad_info": {
            "adcode": 520281,
            "province": "贵州省",
            "city": "六盘水市",
            "district": "盘州市"
        }
    },
    {
        "id": "4095450806920807439",
        "title": "公共厕所",
        "address": "贵州省六盘水市盘州市S212与西红路交叉口东南方向799米左右",
        "tel": "",
        "category": "基础设施:公共设施:公共厕所",
        "type": 0,
        "location": {
            "lat": 25.90221,
            "lng": 104.514827
        },
        "ad_info": {
            "adcode": 520281,
            "province": "贵州省",
            "city": "六盘水市",
            "district": "盘州市"
        }
    },
    {
        "id": "14095555860358148884",
        "title": "公共厕所",
        "address": "贵州省六盘水市水城区水黄公路",
        "tel": "",
        "category": "基础设施:公共设施:公共厕所",
        "type": 0,
        "location": {
            "lat": 26.432702,
            "lng": 105.087183
        },
        "ad_info": {
            "adcode": 520204,
            "province": "贵州省",
            "city": "六盘水市",
            "district": "水城区"
        }
    },
    {
        "id": "16178705551640345337",
        "title": "公共厕所",
        "address": "贵州省六盘水市钟山区军民巷与民生路交叉口正西方向213米左右",
        "tel": "",
        "category": "基础设施:公共设施:公共厕所",
        "type": 0,
        "location": {
            "lat": 26.560005,
            "lng": 104.890537
        },
        "ad_info": {
            "adcode": 520201,
            "province": "贵州省",
            "city": "六盘水市",
            "district": "钟山区"
        }
    },
    {
        "id": "7315793666175855637",
        "title": "公共厕所",
        "address": "贵州省六盘水市钟山区六盘水师范学院龙山校区体育场旁边",
        "tel": "",
        "category": "基础设施:公共设施:公共厕所",
        "type": 0,
        "location": {
            "lat": 26.570288,
            "lng": 104.82264
        },
        "ad_info": {
            "adcode": 520201,
            "province": "贵州省",
            "city": "六盘水市",
            "district": "钟山区"
        }
    },
    {
        "id": "12223845284648435345",
        "title": "公共厕所",
        "address": "贵州省六盘水市六枝特区老虎岩山体公园东南侧50米",
        "tel": "",
        "category": "基础设施:公共设施:公共厕所",
        "type": 0,
        "location": {
            "lat": 26.090933,
            "lng": 105.276639
        },
        "ad_info": {
            "adcode": 520203,
            "province": "贵州省",
            "city": "六盘水市",
            "district": "六枝特区"
        }
    },
    {
        "id": "17099935091078415722",
        "title": "公共厕所",
        "address": "贵州省六盘水市钟山区巴西中路与桃林路交叉口东北方向117米左右",
        "tel": "",
        "category": "基础设施:公共设施:公共厕所",
        "type": 0,
        "location": {
            "lat": 26.578832,
            "lng": 104.889781
        },
        "ad_info": {
            "adcode": 520201,
            "province": "贵州省",
            "city": "六盘水市",
            "district": "钟山区"
        }
    },
    {
        "id": "3991921390814340282",
        "title": "公共厕所",
        "address": "贵州省六盘水市六枝特区后山路与迎宾大道交叉口东北方向199米左右",
        "tel": "",
        "category": "基础设施:公共设施:公共厕所",
        "type": 0,
        "location": {
            "lat": 26.195363,
            "lng": 105.490002
        },
        "ad_info": {
            "adcode": 520203,
            "province": "贵州省",
            "city": "六盘水市",
            "district": "六枝特区"
        }
    },
    {
        "id": "2499186184740919325",
        "title": "公共厕所",
        "address": "贵州省六盘水市盘州市铁桥路与银杏大道交叉口正西方向274米左右",
        "tel": "",
        "category": "基础设施:公共设施:公共厕所",
        "type": 0,
        "location": {
            "lat": 25.714232,
            "lng": 104.467483
        },
        "ad_info": {
            "adcode": 520281,
            "province": "贵州省",
            "city": "六盘水市",
            "district": "盘州市"
        }
    },
    {
        "id": "4039279846083227770",
        "title": "德坞服务区公共厕所",
        "address": "贵州省六盘水市钟山区六盘水绕城高速与六盘水西互通交叉口正东方向278米左右",
        "tel": "",
        "category": "基础设施:公共设施:公共厕所",
        "type": 0,
        "location": {
            "lat": 26.647383,
            "lng": 104.806814
        },
        "ad_info": {
            "adcode": 520201,
            "province": "贵州省",
            "city": "六盘水市",
            "district": "钟山区"
        }
    },
    {
        "id": "1385356587025909633",
        "title": "鸡场坪服务区第二公共厕所",
        "address": "贵州省六盘水市盘州市工业路与首黔大道交叉口正西方向483米左右",
        "tel": "",
        "category": "基础设施:公共设施:公共厕所",
        "type": 0,
        "location": {
            "lat": 25.981587,
            "lng": 104.621507
        },
        "ad_info": {
            "adcode": 520281,
            "province": "贵州省",
            "city": "六盘水市",
            "district": "盘州市"
        }
    },
    {
        "id": "6375167620789724591",
        "title": "公共厕所",
        "address": "贵州省六盘水市盘州市兴盘路与红腾路交叉口正东方向131米左右",
        "tel": "",
        "category": "基础设施:公共设施:公共厕所",
        "type": 0,
        "location": {
            "lat": 25.765852,
            "lng": 104.5236
        },
        "ad_info": {
            "adcode": 520281,
            "province": "贵州省",
            "city": "六盘水市",
            "district": "盘州市"
        }
    },
    {
        "id": "5281186096821978403",
        "title": "鸡场坪服务区第二公共厕所",
        "address": "贵州省六盘水市盘州市工业路与首黔大道交叉口西北方向474米左右",
        "tel": "",
        "category": "基础设施:公共设施:公共厕所",
        "type": 0,
        "location": {
            "lat": 25.983956,
            "lng": 104.622535
        },
        "ad_info": {
            "adcode": 520281,
            "province": "贵州省",
            "city": "六盘水市",
            "district": "盘州市"
        }
    },
    {
        "id": "16344140234391015168",
        "title": "公共厕所",
        "address": "贵州省六盘水市水城区以朵大道与水城大道交叉口西北方向354米左右",
        "tel": "",
        "category": "基础设施:公共设施:公共厕所",
        "type": 0,
        "location": {
            "lat": 26.526173,
            "lng": 104.961
        },
        "ad_info": {
            "adcode": 520204,
            "province": "贵州省",
            "city": "六盘水市",
            "district": "水城区"
        }
    },
    {
        "id": "8078680043579956500",
        "title": "公共厕所",
        "address": "贵州省六盘水市水城区新前路与新玉路交叉口东北方向393米左右",
        "tel": "",
        "category": "基础设施:公共设施:公共厕所",
        "type": 0,
        "location": {
            "lat": 26.544415,
            "lng": 104.792336
        },
        "ad_info": {
            "adcode": 520204,
            "province": "贵州省",
            "city": "六盘水市",
            "district": "水城区"
        }
    },
    {
        "id": "13097477512129088652",
        "title": "公共厕所",
        "address": "贵州省六盘水市盘州市洒基镇平安路中国邮政旁(洒基镇医院旁)",
        "tel": "",
        "category": "基础设施:公共设施:公共厕所",
        "type": 0,
        "location": {
            "lat": 26.066744,
            "lng": 104.54937
        },
        "ad_info": {
            "adcode": 520281,
            "province": "贵州省",
            "city": "六盘水市",
            "district": "盘州市"
        }
    },
    {
        "id": "17019599688834817970",
        "title": "公共厕所",
        "address": "贵州省六盘水市盘州市响水路与旭东大道交叉口西北方向254米左右",
        "tel": "",
        "category": "基础设施:公共设施:公共厕所",
        "type": 0,
        "location": {
            "lat": 25.731594,
            "lng": 104.494601
        },
        "ad_info": {
            "adcode": 520281,
            "province": "贵州省",
            "city": "六盘水市",
            "district": "盘州市"
        }
    },
    {
        "id": "12043706252743662182",
        "title": "公共厕所",
        "address": "贵州省六盘水市钟山区凉都大道与麒麟路交叉口西北方向177米左右",
        "tel": "",
        "category": "基础设施:公共设施:公共厕所",
        "type": 0,
        "location": {
            "lat": 26.579004,
            "lng": 104.858962
        },
        "ad_info": {
            "adcode": 520201,
            "province": "贵州省",
            "city": "六盘水市",
            "district": "钟山区"
        }
    },
    {
        "id": "17091252557901214204",
        "title": "公共厕所",
        "address": "贵州省六盘水市钟山区康一巷与康乐南路交叉口正北方向122米左右",
        "tel": "",
        "category": "基础设施:公共设施:公共厕所",
        "type": 0,
        "location": {
            "lat": 26.595886,
            "lng": 104.825541
        },
        "ad_info": {
            "adcode": 520201,
            "province": "贵州省",
            "city": "六盘水市",
            "district": "钟山区"
        }
    },
    {
        "id": "18190727941172543663",
        "title": "公共厕所",
        "address": "贵州省六盘水市钟山区零零一乡道凉都儿童乐园",
        "tel": "",
        "category": "基础设施:公共设施:公共厕所",
        "type": 0,
        "location": {
            "lat": 26.609735,
            "lng": 104.785482
        },
        "ad_info": {
            "adcode": 520201,
            "province": "贵州省",
            "city": "六盘水市",
            "district": "钟山区"
        }
    },
    {
        "id": "9054225499386342035",
        "title": "鸡场坪服务区第一公共厕所",
        "address": "贵州省六盘水市盘州市S77水兴高速与鸡场坪服务区交叉口东南280米",
        "tel": "",
        "category": "基础设施:公共设施:公共厕所",
        "type": 0,
        "location": {
            "lat": 25.983436,
            "lng": 104.622599
        },
        "ad_info": {
            "adcode": 520281,
            "province": "贵州省",
            "city": "六盘水市",
            "district": "盘州市"
        }
    },
    {
        "id": "4095450806920807439",
        "title": "公共厕所",
        "address": "贵州省六盘水市盘州市S212与西红路交叉口东南方向799米左右",
        "tel": "",
        "category": "基础设施:公共设施:公共厕所",
        "type": 0,
        "location": {
            "lat": 25.90221,
            "lng": 104.514827
        },
        "ad_info": {
            "adcode": 520281,
            "province": "贵州省",
            "city": "六盘水市",
            "district": "盘州市"
        }
    },
    {
        "id": "14095555860358148884",
        "title": "公共厕所",
        "address": "贵州省六盘水市水城区水黄公路",
        "tel": "",
        "category": "基础设施:公共设施:公共厕所",
        "type": 0,
        "location": {
            "lat": 26.432702,
            "lng": 105.087183
        },
        "ad_info": {
            "adcode": 520204,
            "province": "贵州省",
            "city": "六盘水市",
            "district": "水城区"
        }
    },
    {
        "id": "16178705551640345337",
        "title": "公共厕所",
        "address": "贵州省六盘水市钟山区军民巷与民生路交叉口正西方向213米左右",
        "tel": "",
        "category": "基础设施:公共设施:公共厕所",
        "type": 0,
        "location": {
            "lat": 26.560005,
            "lng": 104.890537
        },
        "ad_info": {
            "adcode": 520201,
            "province": "贵州省",
            "city": "六盘水市",
            "district": "钟山区"
        }
    },
    {
        "id": "7315793666175855637",
        "title": "公共厕所",
        "address": "贵州省六盘水市钟山区六盘水师范学院龙山校区体育场旁边",
        "tel": "",
        "category": "基础设施:公共设施:公共厕所",
        "type": 0,
        "location": {
            "lat": 26.570288,
            "lng": 104.82264
        },
        "ad_info": {
            "adcode": 520201,
            "province": "贵州省",
            "city": "六盘水市",
            "district": "钟山区"
        }
    },
    {
        "id": "12223845284648435345",
        "title": "公共厕所",
        "address": "贵州省六盘水市六枝特区老虎岩山体公园东南侧50米",
        "tel": "",
        "category": "基础设施:公共设施:公共厕所",
        "type": 0,
        "location": {
            "lat": 26.090933,
            "lng": 105.276639
        },
        "ad_info": {
            "adcode": 520203,
            "province": "贵州省",
            "city": "六盘水市",
            "district": "六枝特区"
        }
    },
    {
        "id": "17099935091078415722",
        "title": "公共厕所",
        "address": "贵州省六盘水市钟山区巴西中路与桃林路交叉口东北方向117米左右",
        "tel": "",
        "category": "基础设施:公共设施:公共厕所",
        "type": 0,
        "location": {
            "lat": 26.578832,
            "lng": 104.889781
        },
        "ad_info": {
            "adcode": 520201,
            "province": "贵州省",
            "city": "六盘水市",
            "district": "钟山区"
        }
    },
    {
        "id": "3991921390814340282",
        "title": "公共厕所",
        "address": "贵州省六盘水市六枝特区后山路与迎宾大道交叉口东北方向199米左右",
        "tel": "",
        "category": "基础设施:公共设施:公共厕所",
        "type": 0,
        "location": {
            "lat": 26.195363,
            "lng": 105.490002
        },
        "ad_info": {
            "adcode": 520203,
            "province": "贵州省",
            "city": "六盘水市",
            "district": "六枝特区"
        }
    },
    {
        "id": "2499186184740919325",
        "title": "公共厕所",
        "address": "贵州省六盘水市盘州市铁桥路与银杏大道交叉口正西方向274米左右",
        "tel": "",
        "category": "基础设施:公共设施:公共厕所",
        "type": 0,
        "location": {
            "lat": 25.714232,
            "lng": 104.467483
        },
        "ad_info": {
            "adcode": 520281,
            "province": "贵州省",
            "city": "六盘水市",
            "district": "盘州市"
        }
    },
    {
        "id": "4039279846083227770",
        "title": "德坞服务区公共厕所",
        "address": "贵州省六盘水市钟山区六盘水绕城高速与六盘水西互通交叉口正东方向278米左右",
        "tel": "",
        "category": "基础设施:公共设施:公共厕所",
        "type": 0,
        "location": {
            "lat": 26.647383,
            "lng": 104.806814
        },
        "ad_info": {
            "adcode": 520201,
            "province": "贵州省",
            "city": "六盘水市",
            "district": "钟山区"
        }
    },
    {
        "id": "1385356587025909633",
        "title": "鸡场坪服务区第二公共厕所",
        "address": "贵州省六盘水市盘州市工业路与首黔大道交叉口正西方向483米左右",
        "tel": "",
        "category": "基础设施:公共设施:公共厕所",
        "type": 0,
        "location": {
            "lat": 25.981587,
            "lng": 104.621507
        },
        "ad_info": {
            "adcode": 520281,
            "province": "贵州省",
            "city": "六盘水市",
            "district": "盘州市"
        }
    },
    {
        "id": "6375167620789724591",
        "title": "公共厕所",
        "address": "贵州省六盘水市盘州市兴盘路与红腾路交叉口正东方向131米左右",
        "tel": "",
        "category": "基础设施:公共设施:公共厕所",
        "type": 0,
        "location": {
            "lat": 25.765852,
            "lng": 104.5236
        },
        "ad_info": {
            "adcode": 520281,
            "province": "贵州省",
            "city": "六盘水市",
            "district": "盘州市"
        }
    },
    {
        "id": "5281186096821978403",
        "title": "鸡场坪服务区第二公共厕所",
        "address": "贵州省六盘水市盘州市工业路与首黔大道交叉口西北方向474米左右",
        "tel": "",
        "category": "基础设施:公共设施:公共厕所",
        "type": 0,
        "location": {
            "lat": 25.983956,
            "lng": 104.622535
        },
        "ad_info": {
            "adcode": 520281,
            "province": "贵州省",
            "city": "六盘水市",
            "district": "盘州市"
        }
    },
    {
        "id": "16344140234391015168",
        "title": "公共厕所",
        "address": "贵州省六盘水市水城区以朵大道与水城大道交叉口西北方向354米左右",
        "tel": "",
        "category": "基础设施:公共设施:公共厕所",
        "type": 0,
        "location": {
            "lat": 26.526173,
            "lng": 104.961
        },
        "ad_info": {
            "adcode": 520204,
            "province": "贵州省",
            "city": "六盘水市",
            "district": "水城区"
        }
    },
    {
        "id": "8078680043579956500",
        "title": "公共厕所",
        "address": "贵州省六盘水市水城区新前路与新玉路交叉口东北方向393米左右",
        "tel": "",
        "category": "基础设施:公共设施:公共厕所",
        "type": 0,
        "location": {
            "lat": 26.544415,
            "lng": 104.792336
        },
        "ad_info": {
            "adcode": 520204,
            "province": "贵州省",
            "city": "六盘水市",
            "district": "水城区"
        }
    },
    {
        "id": "13097477512129088652",
        "title": "公共厕所",
        "address": "贵州省六盘水市盘州市洒基镇平安路中国邮政旁(洒基镇医院旁)",
        "tel": "",
        "category": "基础设施:公共设施:公共厕所",
        "type": 0,
        "location": {
            "lat": 26.066744,
            "lng": 104.54937
        },
        "ad_info": {
            "adcode": 520281,
            "province": "贵州省",
            "city": "六盘水市",
            "district": "盘州市"
        }
    },
    {
        "id": "17019599688834817970",
        "title": "公共厕所",
        "address": "贵州省六盘水市盘州市响水路与旭东大道交叉口西北方向254米左右",
        "tel": "",
        "category": "基础设施:公共设施:公共厕所",
        "type": 0,
        "location": {
            "lat": 25.731594,
            "lng": 104.494601
        },
        "ad_info": {
            "adcode": 520281,
            "province": "贵州省",
            "city": "六盘水市",
            "district": "盘州市"
        }
    },
    {
        "id": "12043706252743662182",
        "title": "公共厕所",
        "address": "贵州省六盘水市钟山区凉都大道与麒麟路交叉口西北方向177米左右",
        "tel": "",
        "category": "基础设施:公共设施:公共厕所",
        "type": 0,
        "location": {
            "lat": 26.579004,
            "lng": 104.858962
        },
        "ad_info": {
            "adcode": 520201,
            "province": "贵州省",
            "city": "六盘水市",
            "district": "钟山区"
        }
    },
    {
        "id": "17091252557901214204",
        "title": "公共厕所",
        "address": "贵州省六盘水市钟山区康一巷与康乐南路交叉口正北方向122米左右",
        "tel": "",
        "category": "基础设施:公共设施:公共厕所",
        "type": 0,
        "location": {
            "lat": 26.595886,
            "lng": 104.825541
        },
        "ad_info": {
            "adcode": 520201,
            "province": "贵州省",
            "city": "六盘水市",
            "district": "钟山区"
        }
    },
    {
        "id": "18190727941172543663",
        "title": "公共厕所",
        "address": "贵州省六盘水市钟山区零零一乡道凉都儿童乐园",
        "tel": "",
        "category": "基础设施:公共设施:公共厕所",
        "type": 0,
        "location": {
            "lat": 26.609735,
            "lng": 104.785482
        },
        "ad_info": {
            "adcode": 520201,
            "province": "贵州省",
            "city": "六盘水市",
            "district": "钟山区"
        }
    },
    {
        "id": "9054225499386342035",
        "title": "鸡场坪服务区第一公共厕所",
        "address": "贵州省六盘水市盘州市S77水兴高速与鸡场坪服务区交叉口东南280米",
        "tel": "",
        "category": "基础设施:公共设施:公共厕所",
        "type": 0,
        "location": {
            "lat": 25.983436,
            "lng": 104.622599
        },
        "ad_info": {
            "adcode": 520281,
            "province": "贵州省",
            "city": "六盘水市",
            "district": "盘州市"
        }
    },
    {
        "id": "4095450806920807439",
        "title": "公共厕所",
        "address": "贵州省六盘水市盘州市S212与西红路交叉口东南方向799米左右",
        "tel": "",
        "category": "基础设施:公共设施:公共厕所",
        "type": 0,
        "location": {
            "lat": 25.90221,
            "lng": 104.514827
        },
        "ad_info": {
            "adcode": 520281,
            "province": "贵州省",
            "city": "六盘水市",
            "district": "盘州市"
        }
    },
    {
        "id": "14095555860358148884",
        "title": "公共厕所",
        "address": "贵州省六盘水市水城区水黄公路",
        "tel": "",
        "category": "基础设施:公共设施:公共厕所",
        "type": 0,
        "location": {
            "lat": 26.432702,
            "lng": 105.087183
        },
        "ad_info": {
            "adcode": 520204,
            "province": "贵州省",
            "city": "六盘水市",
            "district": "水城区"
        }
    },
    {
        "id": "16178705551640345337",
        "title": "公共厕所",
        "address": "贵州省六盘水市钟山区军民巷与民生路交叉口正西方向213米左右",
        "tel": "",
        "category": "基础设施:公共设施:公共厕所",
        "type": 0,
        "location": {
            "lat": 26.560005,
            "lng": 104.890537
        },
        "ad_info": {
            "adcode": 520201,
            "province": "贵州省",
            "city": "六盘水市",
            "district": "钟山区"
        }
    },
    {
        "id": "7315793666175855637",
        "title": "公共厕所",
        "address": "贵州省六盘水市钟山区六盘水师范学院龙山校区体育场旁边",
        "tel": "",
        "category": "基础设施:公共设施:公共厕所",
        "type": 0,
        "location": {
            "lat": 26.570288,
            "lng": 104.82264
        },
        "ad_info": {
            "adcode": 520201,
            "province": "贵州省",
            "city": "六盘水市",
            "district": "钟山区"
        }
    },
    {
        "id": "12223845284648435345",
        "title": "公共厕所",
        "address": "贵州省六盘水市六枝特区老虎岩山体公园东南侧50米",
        "tel": "",
        "category": "基础设施:公共设施:公共厕所",
        "type": 0,
        "location": {
            "lat": 26.090933,
            "lng": 105.276639
        },
        "ad_info": {
            "adcode": 520203,
            "province": "贵州省",
            "city": "六盘水市",
            "district": "六枝特区"
        }
    },
    {
        "id": "17099935091078415722",
        "title": "公共厕所",
        "address": "贵州省六盘水市钟山区巴西中路与桃林路交叉口东北方向117米左右",
        "tel": "",
        "category": "基础设施:公共设施:公共厕所",
        "type": 0,
        "location": {
            "lat": 26.578832,
            "lng": 104.889781
        },
        "ad_info": {
            "adcode": 520201,
            "province": "贵州省",
            "city": "六盘水市",
            "district": "钟山区"
        }
    },
    {
        "id": "3991921390814340282",
        "title": "公共厕所",
        "address": "贵州省六盘水市六枝特区后山路与迎宾大道交叉口东北方向199米左右",
        "tel": "",
        "category": "基础设施:公共设施:公共厕所",
        "type": 0,
        "location": {
            "lat": 26.195363,
            "lng": 105.490002
        },
        "ad_info": {
            "adcode": 520203,
            "province": "贵州省",
            "city": "六盘水市",
            "district": "六枝特区"
        }
    },
    {
        "id": "2499186184740919325",
        "title": "公共厕所",
        "address": "贵州省六盘水市盘州市铁桥路与银杏大道交叉口正西方向274米左右",
        "tel": "",
        "category": "基础设施:公共设施:公共厕所",
        "type": 0,
        "location": {
            "lat": 25.714232,
            "lng": 104.467483
        },
        "ad_info": {
            "adcode": 520281,
            "province": "贵州省",
            "city": "六盘水市",
            "district": "盘州市"
        }
    },
    {
        "id": "4039279846083227770",
        "title": "德坞服务区公共厕所",
        "address": "贵州省六盘水市钟山区六盘水绕城高速与六盘水西互通交叉口正东方向278米左右",
        "tel": "",
        "category": "基础设施:公共设施:公共厕所",
        "type": 0,
        "location": {
            "lat": 26.647383,
            "lng": 104.806814
        },
        "ad_info": {
            "adcode": 520201,
            "province": "贵州省",
            "city": "六盘水市",
            "district": "钟山区"
        }
    },
    {
        "id": "1385356587025909633",
        "title": "鸡场坪服务区第二公共厕所",
        "address": "贵州省六盘水市盘州市工业路与首黔大道交叉口正西方向483米左右",
        "tel": "",
        "category": "基础设施:公共设施:公共厕所",
        "type": 0,
        "location": {
            "lat": 25.981587,
            "lng": 104.621507
        },
        "ad_info": {
            "adcode": 520281,
            "province": "贵州省",
            "city": "六盘水市",
            "district": "盘州市"
        }
    },
    {
        "id": "6375167620789724591",
        "title": "公共厕所",
        "address": "贵州省六盘水市盘州市兴盘路与红腾路交叉口正东方向131米左右",
        "tel": "",
        "category": "基础设施:公共设施:公共厕所",
        "type": 0,
        "location": {
            "lat": 25.765852,
            "lng": 104.5236
        },
        "ad_info": {
            "adcode": 520281,
            "province": "贵州省",
            "city": "六盘水市",
            "district": "盘州市"
        }
    },
    {
        "id": "5281186096821978403",
        "title": "鸡场坪服务区第二公共厕所",
        "address": "贵州省六盘水市盘州市工业路与首黔大道交叉口西北方向474米左右",
        "tel": "",
        "category": "基础设施:公共设施:公共厕所",
        "type": 0,
        "location": {
            "lat": 25.983956,
            "lng": 104.622535
        },
        "ad_info": {
            "adcode": 520281,
            "province": "贵州省",
            "city": "六盘水市",
            "district": "盘州市"
        }
    },
    {
        "id": "16344140234391015168",
        "title": "公共厕所",
        "address": "贵州省六盘水市水城区以朵大道与水城大道交叉口西北方向354米左右",
        "tel": "",
        "category": "基础设施:公共设施:公共厕所",
        "type": 0,
        "location": {
            "lat": 26.526173,
            "lng": 104.961
        },
        "ad_info": {
            "adcode": 520204,
            "province": "贵州省",
            "city": "六盘水市",
            "district": "水城区"
        }
    },
    {
        "id": "8078680043579956500",
        "title": "公共厕所",
        "address": "贵州省六盘水市水城区新前路与新玉路交叉口东北方向393米左右",
        "tel": "",
        "category": "基础设施:公共设施:公共厕所",
        "type": 0,
        "location": {
            "lat": 26.544415,
            "lng": 104.792336
        },
        "ad_info": {
            "adcode": 520204,
            "province": "贵州省",
            "city": "六盘水市",
            "district": "水城区"
        }
    },
    {
        "id": "13097477512129088652",
        "title": "公共厕所",
        "address": "贵州省六盘水市盘州市洒基镇平安路中国邮政旁(洒基镇医院旁)",
        "tel": "",
        "category": "基础设施:公共设施:公共厕所",
        "type": 0,
        "location": {
            "lat": 26.066744,
            "lng": 104.54937
        },
        "ad_info": {
            "adcode": 520281,
            "province": "贵州省",
            "city": "六盘水市",
            "district": "盘州市"
        }
    },
    {
        "id": "17019599688834817970",
        "title": "公共厕所",
        "address": "贵州省六盘水市盘州市响水路与旭东大道交叉口西北方向254米左右",
        "tel": "",
        "category": "基础设施:公共设施:公共厕所",
        "type": 0,
        "location": {
            "lat": 25.731594,
            "lng": 104.494601
        },
        "ad_info": {
            "adcode": 520281,
            "province": "贵州省",
            "city": "六盘水市",
            "district": "盘州市"
        }
    },
    {
        "id": "12043706252743662182",
        "title": "公共厕所",
        "address": "贵州省六盘水市钟山区凉都大道与麒麟路交叉口西北方向177米左右",
        "tel": "",
        "category": "基础设施:公共设施:公共厕所",
        "type": 0,
        "location": {
            "lat": 26.579004,
            "lng": 104.858962
        },
        "ad_info": {
            "adcode": 520201,
            "province": "贵州省",
            "city": "六盘水市",
            "district": "钟山区"
        }
    },
    {
        "id": "17091252557901214204",
        "title": "公共厕所",
        "address": "贵州省六盘水市钟山区康一巷与康乐南路交叉口正北方向122米左右",
        "tel": "",
        "category": "基础设施:公共设施:公共厕所",
        "type": 0,
        "location": {
            "lat": 26.595886,
            "lng": 104.825541
        },
        "ad_info": {
            "adcode": 520201,
            "province": "贵州省",
            "city": "六盘水市",
            "district": "钟山区"
        }
    },
    {
        "id": "18190727941172543663",
        "title": "公共厕所",
        "address": "贵州省六盘水市钟山区零零一乡道凉都儿童乐园",
        "tel": "",
        "category": "基础设施:公共设施:公共厕所",
        "type": 0,
        "location": {
            "lat": 26.609735,
            "lng": 104.785482
        },
        "ad_info": {
            "adcode": 520201,
            "province": "贵州省",
            "city": "六盘水市",
            "district": "钟山区"
        }
    },
    {
        "id": "9054225499386342035",
        "title": "鸡场坪服务区第一公共厕所",
        "address": "贵州省六盘水市盘州市S77水兴高速与鸡场坪服务区交叉口东南280米",
        "tel": "",
        "category": "基础设施:公共设施:公共厕所",
        "type": 0,
        "location": {
            "lat": 25.983436,
            "lng": 104.622599
        },
        "ad_info": {
            "adcode": 520281,
            "province": "贵州省",
            "city": "六盘水市",
            "district": "盘州市"
        }
    },
    {
        "id": "4095450806920807439",
        "title": "公共厕所",
        "address": "贵州省六盘水市盘州市S212与西红路交叉口东南方向799米左右",
        "tel": "",
        "category": "基础设施:公共设施:公共厕所",
        "type": 0,
        "location": {
            "lat": 25.90221,
            "lng": 104.514827
        },
        "ad_info": {
            "adcode": 520281,
            "province": "贵州省",
            "city": "六盘水市",
            "district": "盘州市"
        }
    },
    {
        "id": "14095555860358148884",
        "title": "公共厕所",
        "address": "贵州省六盘水市水城区水黄公路",
        "tel": "",
        "category": "基础设施:公共设施:公共厕所",
        "type": 0,
        "location": {
            "lat": 26.432702,
            "lng": 105.087183
        },
        "ad_info": {
            "adcode": 520204,
            "province": "贵州省",
            "city": "六盘水市",
            "district": "水城区"
        }
    },
    {
        "id": "16178705551640345337",
        "title": "公共厕所",
        "address": "贵州省六盘水市钟山区军民巷与民生路交叉口正西方向213米左右",
        "tel": "",
        "category": "基础设施:公共设施:公共厕所",
        "type": 0,
        "location": {
            "lat": 26.560005,
            "lng": 104.890537
        },
        "ad_info": {
            "adcode": 520201,
            "province": "贵州省",
            "city": "六盘水市",
            "district": "钟山区"
        }
    },
    {
        "id": "7315793666175855637",
        "title": "公共厕所",
        "address": "贵州省六盘水市钟山区六盘水师范学院龙山校区体育场旁边",
        "tel": "",
        "category": "基础设施:公共设施:公共厕所",
        "type": 0,
        "location": {
            "lat": 26.570288,
            "lng": 104.82264
        },
        "ad_info": {
            "adcode": 520201,
            "province": "贵州省",
            "city": "六盘水市",
            "district": "钟山区"
        }
    },
    {
        "id": "12223845284648435345",
        "title": "公共厕所",
        "address": "贵州省六盘水市六枝特区老虎岩山体公园东南侧50米",
        "tel": "",
        "category": "基础设施:公共设施:公共厕所",
        "type": 0,
        "location": {
            "lat": 26.090933,
            "lng": 105.276639
        },
        "ad_info": {
            "adcode": 520203,
            "province": "贵州省",
            "city": "六盘水市",
            "district": "六枝特区"
        }
    },
    {
        "id": "17099935091078415722",
        "title": "公共厕所",
        "address": "贵州省六盘水市钟山区巴西中路与桃林路交叉口东北方向117米左右",
        "tel": "",
        "category": "基础设施:公共设施:公共厕所",
        "type": 0,
        "location": {
            "lat": 26.578832,
            "lng": 104.889781
        },
        "ad_info": {
            "adcode": 520201,
            "province": "贵州省",
            "city": "六盘水市",
            "district": "钟山区"
        }
    },
    {
        "id": "3991921390814340282",
        "title": "公共厕所",
        "address": "贵州省六盘水市六枝特区后山路与迎宾大道交叉口东北方向199米左右",
        "tel": "",
        "category": "基础设施:公共设施:公共厕所",
        "type": 0,
        "location": {
            "lat": 26.195363,
            "lng": 105.490002
        },
        "ad_info": {
            "adcode": 520203,
            "province": "贵州省",
            "city": "六盘水市",
            "district": "六枝特区"
        }
    },
    {
        "id": "2499186184740919325",
        "title": "公共厕所",
        "address": "贵州省六盘水市盘州市铁桥路与银杏大道交叉口正西方向274米左右",
        "tel": "",
        "category": "基础设施:公共设施:公共厕所",
        "type": 0,
        "location": {
            "lat": 25.714232,
            "lng": 104.467483
        },
        "ad_info": {
            "adcode": 520281,
            "province": "贵州省",
            "city": "六盘水市",
            "district": "盘州市"
        }
    },
    {
        "id": "4039279846083227770",
        "title": "德坞服务区公共厕所",
        "address": "贵州省六盘水市钟山区六盘水绕城高速与六盘水西互通交叉口正东方向278米左右",
        "tel": "",
        "category": "基础设施:公共设施:公共厕所",
        "type": 0,
        "location": {
            "lat": 26.647383,
            "lng": 104.806814
        },
        "ad_info": {
            "adcode": 520201,
            "province": "贵州省",
            "city": "六盘水市",
            "district": "钟山区"
        }
    },
    {
        "id": "1385356587025909633",
        "title": "鸡场坪服务区第二公共厕所",
        "address": "贵州省六盘水市盘州市工业路与首黔大道交叉口正西方向483米左右",
        "tel": "",
        "category": "基础设施:公共设施:公共厕所",
        "type": 0,
        "location": {
            "lat": 25.981587,
            "lng": 104.621507
        },
        "ad_info": {
            "adcode": 520281,
            "province": "贵州省",
            "city": "六盘水市",
            "district": "盘州市"
        }
    },
    {
        "id": "6375167620789724591",
        "title": "公共厕所",
        "address": "贵州省六盘水市盘州市兴盘路与红腾路交叉口正东方向131米左右",
        "tel": "",
        "category": "基础设施:公共设施:公共厕所",
        "type": 0,
        "location": {
            "lat": 25.765852,
            "lng": 104.5236
        },
        "ad_info": {
            "adcode": 520281,
            "province": "贵州省",
            "city": "六盘水市",
            "district": "盘州市"
        }
    },
    {
        "id": "5281186096821978403",
        "title": "鸡场坪服务区第二公共厕所",
        "address": "贵州省六盘水市盘州市工业路与首黔大道交叉口西北方向474米左右",
        "tel": "",
        "category": "基础设施:公共设施:公共厕所",
        "type": 0,
        "location": {
            "lat": 25.983956,
            "lng": 104.622535
        },
        "ad_info": {
            "adcode": 520281,
            "province": "贵州省",
            "city": "六盘水市",
            "district": "盘州市"
        }
    },
    {
        "id": "16344140234391015168",
        "title": "公共厕所",
        "address": "贵州省六盘水市水城区以朵大道与水城大道交叉口西北方向354米左右",
        "tel": "",
        "category": "基础设施:公共设施:公共厕所",
        "type": 0,
        "location": {
            "lat": 26.526173,
            "lng": 104.961
        },
        "ad_info": {
            "adcode": 520204,
            "province": "贵州省",
            "city": "六盘水市",
            "district": "水城区"
        }
    },
    {
        "id": "8078680043579956500",
        "title": "公共厕所",
        "address": "贵州省六盘水市水城区新前路与新玉路交叉口东北方向393米左右",
        "tel": "",
        "category": "基础设施:公共设施:公共厕所",
        "type": 0,
        "location": {
            "lat": 26.544415,
            "lng": 104.792336
        },
        "ad_info": {
            "adcode": 520204,
            "province": "贵州省",
            "city": "六盘水市",
            "district": "水城区"
        }
    },
    {
        "id": "13097477512129088652",
        "title": "公共厕所",
        "address": "贵州省六盘水市盘州市洒基镇平安路中国邮政旁(洒基镇医院旁)",
        "tel": "",
        "category": "基础设施:公共设施:公共厕所",
        "type": 0,
        "location": {
            "lat": 26.066744,
            "lng": 104.54937
        },
        "ad_info": {
            "adcode": 520281,
            "province": "贵州省",
            "city": "六盘水市",
            "district": "盘州市"
        }
    },
    {
        "id": "17019599688834817970",
        "title": "公共厕所",
        "address": "贵州省六盘水市盘州市响水路与旭东大道交叉口西北方向254米左右",
        "tel": "",
        "category": "基础设施:公共设施:公共厕所",
        "type": 0,
        "location": {
            "lat": 25.731594,
            "lng": 104.494601
        },
        "ad_info": {
            "adcode": 520281,
            "province": "贵州省",
            "city": "六盘水市",
            "district": "盘州市"
        }
    },
    {
        "id": "12043706252743662182",
        "title": "公共厕所",
        "address": "贵州省六盘水市钟山区凉都大道与麒麟路交叉口西北方向177米左右",
        "tel": "",
        "category": "基础设施:公共设施:公共厕所",
        "type": 0,
        "location": {
            "lat": 26.579004,
            "lng": 104.858962
        },
        "ad_info": {
            "adcode": 520201,
            "province": "贵州省",
            "city": "六盘水市",
            "district": "钟山区"
        }
    }
]