[
    {
        "id": "6670749474536096342",
        "title": "公共厕所",
        "address": "内蒙古自治区兴安盟乌兰浩特市兴安盟体育中学西南侧170米",
        "tel": "",
        "category": "基础设施:公共设施:公共厕所",
        "type": 0,
        "location": {
            "lat": 46.083368,
            "lng": 122.025721
        },
        "ad_info": {
            "adcode": 152201,
            "province": "内蒙古自治区",
            "city": "兴安盟",
            "district": "乌兰浩特市"
        }
    },
    {
        "id": "17725721913494466629",
        "title": "公共厕所",
        "address": "内蒙古自治区兴安盟扎赉特旗乌塔其警体训练馆西南角",
        "tel": "",
        "category": "基础设施:公共设施:公共厕所",
        "type": 0,
        "location": {
            "lat": 46.765071,
            "lng": 123.441059
        },
        "ad_info": {
            "adcode": 152223,
            "province": "内蒙古自治区",
            "city": "兴安盟",
            "district": "扎赉特旗"
        }
    },
    {
        "id": "371592222908604972",
        "title": "公共厕所",
        "address": "内蒙古自治区兴安盟乌兰浩特市札萨克图西大街与醴泉大路交叉口正西方向204米左右",
        "tel": "",
        "category": "基础设施:公共设施:公共厕所",
        "type": 0,
        "location": {
            "lat": 46.087309,
            "lng": 122.027766
        },
        "ad_info": {
            "adcode": 152201,
            "province": "内蒙古自治区",
            "city": "兴安盟",
            "district": "乌兰浩特市"
        }
    },
    {
        "id": "13915671809857158449",
        "title": "公共厕所",
        "address": "内蒙古自治区兴安盟乌兰浩特市札萨克图西大街与环城西路交叉口西北方向333米左右",
        "tel": "",
        "category": "基础设施:公共设施:公共厕所",
        "type": 0,
        "location": {
            "lat": 46.087003,
            "lng": 122.008358
        },
        "ad_info": {
            "adcode": 152201,
            "province": "内蒙古自治区",
            "city": "兴安盟",
            "district": "乌兰浩特市"
        }
    },
    {
        "id": "7931206031141435067",
        "title": "公共厕所",
        "address": "内蒙古自治区兴安盟阿尔山市伊尔施街道边检站",
        "tel": "",
        "category": "基础设施:公共设施:公共厕所",
        "type": 0,
        "location": {
            "lat": 47.284279,
            "lng": 119.826088
        },
        "ad_info": {
            "adcode": 152202,
            "province": "内蒙古自治区",
            "city": "兴安盟",
            "district": "阿尔山市"
        }
    },
    {
        "id": "17852319393168704408",
        "title": "公共厕所",
        "address": "内蒙古自治区兴安盟乌兰浩特市罕山西大街乌兰浩特中心公园",
        "tel": "",
        "category": "基础设施:公共设施:公共厕所",
        "type": 0,
        "location": {
            "lat": 46.079914,
            "lng": 122.043011
        },
        "ad_info": {
            "adcode": 152201,
            "province": "内蒙古自治区",
            "city": "兴安盟",
            "district": "乌兰浩特市"
        }
    },
    {
        "id": "13085901323285286274",
        "title": "公共厕所",
        "address": "内蒙古自治区兴安盟乌兰浩特市兴安北大路与群联巷交叉口东南方向68米左右",
        "tel": "",
        "category": "基础设施:公共设施:公共厕所",
        "type": 0,
        "location": {
            "lat": 46.080162,
            "lng": 122.066079
        },
        "ad_info": {
            "adcode": 152201,
            "province": "内蒙古自治区",
            "city": "兴安盟",
            "district": "乌兰浩特市"
        }
    },
    {
        "id": "13863918624709896869",
        "title": "公共厕所",
        "address": "内蒙古自治区兴安盟乌兰浩特市新桥东大街与白音南路交叉口正北方向27米左右",
        "tel": "",
        "category": "基础设施:公共设施:公共厕所",
        "type": 0,
        "location": {
            "lat": 46.068372,
            "lng": 122.084901
        },
        "ad_info": {
            "adcode": 152201,
            "province": "内蒙古自治区",
            "city": "兴安盟",
            "district": "乌兰浩特市"
        }
    },
    {
        "id": "1233779174585622197",
        "title": "公共厕所",
        "address": "内蒙古自治区兴安盟扎赉特旗中心西街与光明南路交叉口正北方向190米左右",
        "tel": "",
        "category": "基础设施:公共设施:公共厕所",
        "type": 0,
        "location": {
            "lat": 46.721414,
            "lng": 122.903251
        },
        "ad_info": {
            "adcode": 152223,
            "province": "内蒙古自治区",
            "city": "兴安盟",
            "district": "扎赉特旗"
        }
    },
    {
        "id": "16500714422873285852",
        "title": "公共厕所",
        "address": "内蒙古自治区兴安盟乌兰浩特市兰西大街59-12号",
        "tel": "",
        "category": "基础设施:公共设施:公共厕所",
        "type": 0,
        "location": {
            "lat": 46.072079,
            "lng": 122.065098
        },
        "ad_info": {
            "adcode": 152201,
            "province": "内蒙古自治区",
            "city": "兴安盟",
            "district": "乌兰浩特市"
        }
    },
    {
        "id": "3622331730653955297",
        "title": "公共厕所",
        "address": "内蒙古自治区兴安盟乌兰浩特市赛罕路与都林街交叉口正北方向200米左右",
        "tel": "",
        "category": "基础设施:公共设施:公共厕所",
        "type": 0,
        "location": {
            "lat": 46.073104,
            "lng": 122.050834
        },
        "ad_info": {
            "adcode": 152201,
            "province": "内蒙古自治区",
            "city": "兴安盟",
            "district": "乌兰浩特市"
        }
    },
    {
        "id": "16289835588760889687",
        "title": "公共厕所",
        "address": "内蒙古自治区兴安盟突泉县友谊路与民主街交叉口西南方向229米左右",
        "tel": "",
        "category": "基础设施:公共设施:公共厕所",
        "type": 0,
        "location": {
            "lat": 45.376017,
            "lng": 121.581389
        },
        "ad_info": {
            "adcode": 152224,
            "province": "内蒙古自治区",
            "city": "兴安盟",
            "district": "突泉县"
        }
    },
    {
        "id": "14850234209179323010",
        "title": "公共厕所",
        "address": "内蒙古自治区兴安盟乌兰浩特市兴安南大路与胜利西街交叉口正南方向98米左右",
        "tel": "",
        "category": "基础设施:公共设施:公共厕所",
        "type": 0,
        "location": {
            "lat": 46.065339,
            "lng": 122.072331
        },
        "ad_info": {
            "adcode": 152201,
            "province": "内蒙古自治区",
            "city": "兴安盟",
            "district": "乌兰浩特市"
        }
    },
    {
        "id": "3684570582837544564",
        "title": "公共厕所",
        "address": "内蒙古自治区兴安盟扎赉特旗检苑小区东南侧160米",
        "tel": "",
        "category": "基础设施:公共设施:公共厕所",
        "type": 0,
        "location": {
            "lat": 46.729411,
            "lng": 122.876588
        },
        "ad_info": {
            "adcode": 152223,
            "province": "内蒙古自治区",
            "city": "兴安盟",
            "district": "扎赉特旗"
        }
    },
    {
        "id": "55874277317253002",
        "title": "公共厕所",
        "address": "内蒙古自治区兴安盟乌兰浩特市人民南路与胜利西街交叉口东北方向33米左右",
        "tel": "",
        "category": "基础设施:公共设施:公共厕所",
        "type": 0,
        "location": {
            "lat": 46.067982,
            "lng": 122.078022
        },
        "ad_info": {
            "adcode": 152201,
            "province": "内蒙古自治区",
            "city": "兴安盟",
            "district": "乌兰浩特市"
        }
    },
    {
        "id": "2623970696036935346",
        "title": "公共厕所",
        "address": "内蒙古自治区兴安盟乌兰浩特市北站路与物流四街交叉口西北方向50米左右",
        "tel": "",
        "category": "基础设施:公共设施:公共厕所",
        "type": 0,
        "location": {
            "lat": 46.106533,
            "lng": 122.009401
        },
        "ad_info": {
            "adcode": 152201,
            "province": "内蒙古自治区",
            "city": "兴安盟",
            "district": "乌兰浩特市"
        }
    },
    {
        "id": "663502905077250899",
        "title": "公共厕所",
        "address": "内蒙古自治区兴安盟乌兰浩特市乌兰东大街与和平路交叉口东南方向53米左右",
        "tel": "",
        "category": "基础设施:公共设施:公共厕所",
        "type": 0,
        "location": {
            "lat": 46.075673,
            "lng": 122.081841
        },
        "ad_info": {
            "adcode": 152201,
            "province": "内蒙古自治区",
            "city": "兴安盟",
            "district": "乌兰浩特市"
        }
    },
    {
        "id": "4567292433132366843",
        "title": "公共厕所",
        "address": "内蒙古自治区兴安盟乌兰浩特市兴安北大路与罕山西大街交叉口西北方向86米左右",
        "tel": "",
        "category": "基础设施:公共设施:公共厕所",
        "type": 0,
        "location": {
            "lat": 46.084352,
            "lng": 122.063278
        },
        "ad_info": {
            "adcode": 152201,
            "province": "内蒙古自治区",
            "city": "兴安盟",
            "district": "乌兰浩特市"
        }
    },
    {
        "id": "9263353153159930034",
        "title": "公共厕所",
        "address": "内蒙古自治区兴安盟乌兰浩特市向阳东街与永康路交叉口正南方向7米左右",
        "tel": "",
        "category": "基础设施:公共设施:公共厕所",
        "type": 0,
        "location": {
            "lat": 46.08243,
            "lng": 122.081939
        },
        "ad_info": {
            "adcode": 152201,
            "province": "内蒙古自治区",
            "city": "兴安盟",
            "district": "乌兰浩特市"
        }
    },
    {
        "id": "11063685634474720812",
        "title": "公共厕所",
        "address": "内蒙古自治区兴安盟乌兰浩特市新城北大路与泰宁大街交叉口西北方向792米左右",
        "tel": "",
        "category": "基础设施:公共设施:公共厕所",
        "type": 0,
        "location": {
            "lat": 46.12322,
            "lng": 122.081945
        },
        "ad_info": {
            "adcode": 152201,
            "province": "内蒙古自治区",
            "city": "兴安盟",
            "district": "乌兰浩特市"
        }
    },
    {
        "id": "418333486621079858",
        "title": "公共厕所",
        "address": "内蒙古自治区兴安盟乌兰浩特市查干街与查干西街交叉口西南方向96米左右",
        "tel": "",
        "category": "基础设施:公共设施:公共厕所",
        "type": 0,
        "location": {
            "lat": 46.07558,
            "lng": 122.05108
        },
        "ad_info": {
            "adcode": 152201,
            "province": "内蒙古自治区",
            "city": "兴安盟",
            "district": "乌兰浩特市"
        }
    },
    {
        "id": "10026381983998093073",
        "title": "公共厕所",
        "address": "内蒙古自治区兴安盟突泉县胜利街突泉县人民医院",
        "tel": "",
        "category": "基础设施:公共设施:公共厕所",
        "type": 0,
        "location": {
            "lat": 45.390748,
            "lng": 121.570473
        },
        "ad_info": {
            "adcode": 152224,
            "province": "内蒙古自治区",
            "city": "兴安盟",
            "district": "突泉县"
        }
    },
    {
        "id": "8104973993157925879",
        "title": "公共厕所",
        "address": "内蒙古自治区兴安盟乌兰浩特市春阳街与民和北路交叉口正南方向43米左右",
        "tel": "",
        "category": "基础设施:公共设施:公共厕所",
        "type": 0,
        "location": {
            "lat": 46.078259,
            "lng": 122.075944
        },
        "ad_info": {
            "adcode": 152201,
            "province": "内蒙古自治区",
            "city": "兴安盟",
            "district": "乌兰浩特市"
        }
    },
    {
        "id": "3228740023460344982",
        "title": "公共厕所",
        "address": "内蒙古自治区兴安盟乌兰浩特市向阳东街与育才北路交叉口正南方向188米左右",
        "tel": "",
        "category": "基础设施:公共设施:公共厕所",
        "type": 0,
        "location": {
            "lat": 46.081793,
            "lng": 122.086336
        },
        "ad_info": {
            "adcode": 152201,
            "province": "内蒙古自治区",
            "city": "兴安盟",
            "district": "乌兰浩特市"
        }
    },
    {
        "id": "705905366545886912",
        "title": "公共厕所",
        "address": "内蒙古自治区兴安盟突泉县住房和城乡建设局西北(民主街北)",
        "tel": "",
        "category": "基础设施:公共设施:公共厕所",
        "type": 0,
        "location": {
            "lat": 45.378529,
            "lng": 121.559355
        },
        "ad_info": {
            "adcode": 152224,
            "province": "内蒙古自治区",
            "city": "兴安盟",
            "district": "突泉县"
        }
    },
    {
        "id": "6084712409338459858",
        "title": "公共厕所",
        "address": "内蒙古自治区兴安盟乌兰浩特市科尔沁北大路与都林街交叉口西南方向323米左右",
        "tel": "",
        "category": "基础设施:公共设施:公共厕所",
        "type": 0,
        "location": {
            "lat": 46.068934,
            "lng": 122.044141
        },
        "ad_info": {
            "adcode": 152201,
            "province": "内蒙古自治区",
            "city": "兴安盟",
            "district": "乌兰浩特市"
        }
    },
    {
        "id": "3992910232250797903",
        "title": "公共厕所",
        "address": "内蒙古自治区兴安盟科尔沁右翼前旗札萨克图西街与步行街交叉口正北方向103米左右",
        "tel": "",
        "category": "基础设施:公共设施:公共厕所",
        "type": 0,
        "location": {
            "lat": 46.075754,
            "lng": 121.955656
        },
        "ad_info": {
            "adcode": 152221,
            "province": "内蒙古自治区",
            "city": "兴安盟",
            "district": "科尔沁右翼前旗"
        }
    },
    {
        "id": "15433676037541196665",
        "title": "公共厕所",
        "address": "内蒙古自治区兴安盟乌兰浩特市城郊办事处巴乌线红云花苑旁",
        "tel": "",
        "category": "基础设施:公共设施:公共厕所",
        "type": 0,
        "location": {
            "lat": 46.069399,
            "lng": 122.090984
        },
        "ad_info": {
            "adcode": 152201,
            "province": "内蒙古自治区",
            "city": "兴安盟",
            "district": "乌兰浩特市"
        }
    },
    {
        "id": "7818753967861094781",
        "title": "公共厕所",
        "address": "内蒙古自治区兴安盟乌兰浩特市向阳东街与洮河北路交叉口正西方向48米左右",
        "tel": "",
        "category": "基础设施:公共设施:公共厕所",
        "type": 0,
        "location": {
            "lat": 46.084118,
            "lng": 122.087616
        },
        "ad_info": {
            "adcode": 152201,
            "province": "内蒙古自治区",
            "city": "兴安盟",
            "district": "乌兰浩特市"
        }
    },
    {
        "id": "16066185139953584971",
        "title": "公共厕所",
        "address": "内蒙古自治区兴安盟乌兰浩特市五一北大路与长青街交叉口西南方向22米左右",
        "tel": "",
        "category": "基础设施:公共设施:公共厕所",
        "type": 0,
        "location": {
            "lat": 46.088699,
            "lng": 122.065129
        },
        "ad_info": {
            "adcode": 152201,
            "province": "内蒙古自治区",
            "city": "兴安盟",
            "district": "乌兰浩特市"
        }
    },
    {
        "id": "6534040077096920698",
        "title": "公共厕所",
        "address": "内蒙古自治区兴安盟乌兰浩特市新桥东大街与联军南路交叉口正东方向357米左右",
        "tel": "",
        "category": "基础设施:公共设施:公共厕所",
        "type": 0,
        "location": {
            "lat": 46.072446,
            "lng": 122.117338
        },
        "ad_info": {
            "adcode": 152201,
            "province": "内蒙古自治区",
            "city": "兴安盟",
            "district": "乌兰浩特市"
        }
    },
    {
        "id": "2258088965963198613",
        "title": "公共厕所",
        "address": "内蒙古自治区兴安盟乌兰浩特市爱国北大路与罕山东大街交叉口西北方向31米左右",
        "tel": "",
        "category": "基础设施:公共设施:公共厕所",
        "type": 0,
        "location": {
            "lat": 46.087588,
            "lng": 122.076592
        },
        "ad_info": {
            "adcode": 152201,
            "province": "内蒙古自治区",
            "city": "兴安盟",
            "district": "乌兰浩特市"
        }
    },
    {
        "id": "7453886627542938502",
        "title": "公共厕所",
        "address": "内蒙古自治区兴安盟科尔沁右翼中旗一路顺快餐店西侧100米",
        "tel": "",
        "category": "基础设施:公共设施:公共厕所",
        "type": 0,
        "location": {
            "lat": 45.548397,
            "lng": 120.59146
        },
        "ad_info": {
            "adcode": 152222,
            "province": "内蒙古自治区",
            "city": "兴安盟",
            "district": "科尔沁右翼中旗"
        }
    },
    {
        "id": "12101907461914090357",
        "title": "公共厕所",
        "address": "内蒙古自治区兴安盟乌兰浩特市都林街办事处科尔沁北路与新春巷交叉口东北方向120米",
        "tel": "",
        "category": "基础设施:公共设施:公共厕所",
        "type": 0,
        "location": {
            "lat": 46.067928,
            "lng": 122.052009
        },
        "ad_info": {
            "adcode": 152201,
            "province": "内蒙古自治区",
            "city": "兴安盟",
            "district": "乌兰浩特市"
        }
    },
    {
        "id": "4322894296964091537",
        "title": "卫生间",
        "address": "内蒙古自治区兴安盟阿尔山市口岸公路途程酒店东南方20米",
        "tel": "",
        "category": "基础设施:公共设施:公共厕所",
        "type": 0,
        "location": {
            "lat": 47.342478,
            "lng": 119.59196
        },
        "ad_info": {
            "adcode": 152202,
            "province": "内蒙古自治区",
            "city": "兴安盟",
            "district": "阿尔山市"
        }
    },
    {
        "id": "4883720217122379466",
        "title": "公共厕所",
        "address": "内蒙古自治区兴安盟乌兰浩特市五一南大路与劳动东街交叉口正南方向115米左右",
        "tel": "",
        "category": "基础设施:公共设施:公共厕所",
        "type": 0,
        "location": {
            "lat": 46.064883,
            "lng": 122.08123
        },
        "ad_info": {
            "adcode": 152201,
            "province": "内蒙古自治区",
            "city": "兴安盟",
            "district": "乌兰浩特市"
        }
    },
    {
        "id": "11757958808424656212",
        "title": "公共厕所",
        "address": "内蒙古自治区兴安盟乌兰浩特市神骏湾生态体验区南侧260米",
        "tel": "",
        "category": "基础设施:公共设施:公共厕所",
        "type": 0,
        "location": {
            "lat": 46.122251,
            "lng": 122.066742
        },
        "ad_info": {
            "adcode": 152201,
            "province": "内蒙古自治区",
            "city": "兴安盟",
            "district": "乌兰浩特市"
        }
    },
    {
        "id": "14721322400256441248",
        "title": "公共厕所",
        "address": "内蒙古自治区兴安盟乌兰浩特市G302与工业南大路交叉口东南方向161米左右",
        "tel": "",
        "category": "基础设施:公共设施:公共厕所",
        "type": 0,
        "location": {
            "lat": 46.070897,
            "lng": 122.134457
        },
        "ad_info": {
            "adcode": 152201,
            "province": "内蒙古自治区",
            "city": "兴安盟",
            "district": "乌兰浩特市"
        }
    },
    {
        "id": "6841832870731067884",
        "title": "公共厕所",
        "address": "内蒙古自治区兴安盟突泉县太和乡卫生院-预防接种门诊西南侧",
        "tel": "",
        "category": "基础设施:公共设施:公共厕所",
        "type": 0,
        "location": {
            "lat": 45.526784,
            "lng": 121.41047
        },
        "ad_info": {
            "adcode": 152224,
            "province": "内蒙古自治区",
            "city": "兴安盟",
            "district": "突泉县"
        }
    },
    {
        "id": "10719477165691518730",
        "title": "公共厕所",
        "address": "内蒙古自治区兴安盟科尔沁右翼中旗吐列毛杜大街与哈日努拉路交叉口正西方向47米左右",
        "tel": "",
        "category": "基础设施:公共设施:公共厕所",
        "type": 0,
        "location": {
            "lat": 45.057877,
            "lng": 121.463552
        },
        "ad_info": {
            "adcode": 152222,
            "province": "内蒙古自治区",
            "city": "兴安盟",
            "district": "科尔沁右翼中旗"
        }
    },
    {
        "id": "9693550111579728356",
        "title": "公共厕所",
        "address": "内蒙古自治区兴安盟乌兰浩特市代钦路与长青街交叉口正北方向290米左右",
        "tel": "",
        "category": "基础设施:公共设施:公共厕所",
        "type": 0,
        "location": {
            "lat": 46.092545,
            "lng": 122.072528
        },
        "ad_info": {
            "adcode": 152201,
            "province": "内蒙古自治区",
            "city": "兴安盟",
            "district": "乌兰浩特市"
        }
    },
    {
        "id": "2827213996143810335",
        "title": "公共厕所",
        "address": "内蒙古自治区兴安盟乌兰浩特市丝绸路与新桥西大街交叉口正西方向244米左右",
        "tel": "",
        "category": "基础设施:公共设施:公共厕所",
        "type": 0,
        "location": {
            "lat": 46.059067,
            "lng": 122.053908
        },
        "ad_info": {
            "adcode": 152201,
            "province": "内蒙古自治区",
            "city": "兴安盟",
            "district": "乌兰浩特市"
        }
    },
    {
        "id": "15671360529319660808",
        "title": "公共厕所",
        "address": "内蒙古自治区兴安盟乌兰浩特市新桥东大街与群利路交叉口西南方向28米左右",
        "tel": "",
        "category": "基础设施:公共设施:公共厕所",
        "type": 0,
        "location": {
            "lat": 46.068959,
            "lng": 122.089276
        },
        "ad_info": {
            "adcode": 152201,
            "province": "内蒙古自治区",
            "city": "兴安盟",
            "district": "乌兰浩特市"
        }
    },
    {
        "id": "12400297363168071946",
        "title": "公共厕所",
        "address": "内蒙古自治区兴安盟乌兰浩特市红联花园AB区北侧230米",
        "tel": "",
        "category": "基础设施:公共设施:公共厕所",
        "type": 0,
        "location": {
            "lat": 46.055837,
            "lng": 122.092826
        },
        "ad_info": {
            "adcode": 152201,
            "province": "内蒙古自治区",
            "city": "兴安盟",
            "district": "乌兰浩特市"
        }
    },
    {
        "id": "2909754311968057785",
        "title": "公共厕所",
        "address": "内蒙古自治区兴安盟乌兰浩特市劳动东街与爱国南大路交叉口东南方向119米左右",
        "tel": "",
        "category": "基础设施:公共设施:公共厕所",
        "type": 0,
        "location": {
            "lat": 46.06691,
            "lng": 122.088919
        },
        "ad_info": {
            "adcode": 152201,
            "province": "内蒙古自治区",
            "city": "兴安盟",
            "district": "乌兰浩特市"
        }
    },
    {
        "id": "16723621228661104188",
        "title": "公共厕所",
        "address": "内蒙古自治区兴安盟乌兰浩特市丝绸路与新桥西大街交叉口正东方向128米左右",
        "tel": "",
        "category": "基础设施:公共设施:公共厕所",
        "type": 0,
        "location": {
            "lat": 46.060254,
            "lng": 122.058419
        },
        "ad_info": {
            "adcode": 152201,
            "province": "内蒙古自治区",
            "city": "兴安盟",
            "district": "乌兰浩特市"
        }
    },
    {
        "id": "2283718138166354305",
        "title": "公共厕所",
        "address": "内蒙古自治区兴安盟乌兰浩特市金山小区4号楼东北(永康路东)",
        "tel": "",
        "category": "基础设施:公共设施:公共厕所",
        "type": 0,
        "location": {
            "lat": 46.08597,
            "lng": 122.080316
        },
        "ad_info": {
            "adcode": 152201,
            "province": "内蒙古自治区",
            "city": "兴安盟",
            "district": "乌兰浩特市"
        }
    },
    {
        "id": "6691589067479342675",
        "title": "公共厕所",
        "address": "内蒙古自治区兴安盟乌兰浩特市普惠东街与育才北路交叉口正东方向29米左右",
        "tel": "",
        "category": "基础设施:公共设施:公共厕所",
        "type": 0,
        "location": {
            "lat": 46.080059,
            "lng": 122.087725
        },
        "ad_info": {
            "adcode": 152201,
            "province": "内蒙古自治区",
            "city": "兴安盟",
            "district": "乌兰浩特市"
        }
    },
    {
        "id": "11387853904291774904",
        "title": "公共厕所",
        "address": "内蒙古自治区兴安盟科尔沁右翼中旗巴彦忙哈路与高力板大街交叉口正北方向135米左右",
        "tel": "",
        "category": "基础设施:公共设施:公共厕所",
        "type": 0,
        "location": {
            "lat": 45.049446,
            "lng": 121.465303
        },
        "ad_info": {
            "adcode": 152222,
            "province": "内蒙古自治区",
            "city": "兴安盟",
            "district": "科尔沁右翼中旗"
        }
    },
    {
        "id": "3306359053818920510",
        "title": "公共厕所",
        "address": "内蒙古自治区兴安盟乌兰浩特市创业路与红旗街交叉口西北方向199米左右",
        "tel": "",
        "category": "基础设施:公共设施:公共厕所",
        "type": 0,
        "location": {
            "lat": 46.050369,
            "lng": 122.146644
        },
        "ad_info": {
            "adcode": 152201,
            "province": "内蒙古自治区",
            "city": "兴安盟",
            "district": "乌兰浩特市"
        }
    },
    {
        "id": "1183246414530856021",
        "title": "公共厕所",
        "address": "内蒙古自治区兴安盟突泉县向阳路与康乐街交叉口正东方向350米左右",
        "tel": "",
        "category": "基础设施:公共设施:公共厕所",
        "type": 0,
        "location": {
            "lat": 45.375806,
            "lng": 121.576845
        },
        "ad_info": {
            "adcode": 152224,
            "province": "内蒙古自治区",
            "city": "兴安盟",
            "district": "突泉县"
        }
    },
    {
        "id": "17277091760446471142",
        "title": "公共厕所",
        "address": "内蒙古自治区兴安盟突泉县向阳路与康乐街交叉口正东方向284米左右",
        "tel": "",
        "category": "基础设施:公共设施:公共厕所",
        "type": 0,
        "location": {
            "lat": 45.376644,
            "lng": 121.575955
        },
        "ad_info": {
            "adcode": 152224,
            "province": "内蒙古自治区",
            "city": "兴安盟",
            "district": "突泉县"
        }
    },
    {
        "id": "13442032330299124608",
        "title": "公共厕所",
        "address": "内蒙古自治区兴安盟乌兰浩特市向阳东街与洮河北路交叉口正北方向201米左右",
        "tel": "",
        "category": "基础设施:公共设施:公共厕所",
        "type": 0,
        "location": {
            "lat": 46.085792,
            "lng": 122.087398
        },
        "ad_info": {
            "adcode": 152201,
            "province": "内蒙古自治区",
            "city": "兴安盟",
            "district": "乌兰浩特市"
        }
    },
    {
        "id": "7893119065882850086",
        "title": "公共厕所",
        "address": "内蒙古自治区兴安盟乌兰浩特市向阳东街与洮河北路交叉口西南方向27米左右",
        "tel": "",
        "category": "基础设施:公共设施:公共厕所",
        "type": 0,
        "location": {
            "lat": 46.083886,
            "lng": 122.088013
        },
        "ad_info": {
            "adcode": 152201,
            "province": "内蒙古自治区",
            "city": "兴安盟",
            "district": "乌兰浩特市"
        }
    },
    {
        "id": "69907542853763199",
        "title": "公共厕所",
        "address": "内蒙古自治区兴安盟突泉县新华路与民主街交叉口西南方向54米左右",
        "tel": "",
        "category": "基础设施:公共设施:公共厕所",
        "type": 0,
        "location": {
            "lat": 45.377805,
            "lng": 121.563434
        },
        "ad_info": {
            "adcode": 152224,
            "province": "内蒙古自治区",
            "city": "兴安盟",
            "district": "突泉县"
        }
    },
    {
        "id": "17761294510837283471",
        "title": "公共厕所",
        "address": "内蒙古自治区兴安盟乌兰浩特市科尔沁北大路与草原街交叉口西北方向55米左右",
        "tel": "",
        "category": "基础设施:公共设施:公共厕所",
        "type": 0,
        "location": {
            "lat": 46.065339,
            "lng": 122.052565
        },
        "ad_info": {
            "adcode": 152201,
            "province": "内蒙古自治区",
            "city": "兴安盟",
            "district": "乌兰浩特市"
        }
    },
    {
        "id": "10385521919072957685",
        "title": "公共卫生间",
        "address": "内蒙古自治区兴安盟乌兰浩特市胜洪小区大烟囱后面",
        "tel": "",
        "category": "基础设施:公共设施:公共厕所",
        "type": 0,
        "location": {
            "lat": 46.084918,
            "lng": 122.082381
        },
        "ad_info": {
            "adcode": 152201,
            "province": "内蒙古自治区",
            "city": "兴安盟",
            "district": "乌兰浩特市"
        }
    },
    {
        "id": "16587098859193078066",
        "title": "公共厕所",
        "address": "内蒙古自治区兴安盟乌兰浩特市丝绸路与工农街交叉口西南方向145米左右",
        "tel": "",
        "category": "基础设施:公共设施:公共厕所",
        "type": 0,
        "location": {
            "lat": 46.055495,
            "lng": 122.058309
        },
        "ad_info": {
            "adcode": 152201,
            "province": "内蒙古自治区",
            "city": "兴安盟",
            "district": "乌兰浩特市"
        }
    },
    {
        "id": "17139098780779868113",
        "title": "公共厕所",
        "address": "内蒙古自治区兴安盟扎赉特旗巴达尔胡镇",
        "tel": "",
        "category": "基础设施:公共设施:公共厕所",
        "type": 0,
        "location": {
            "lat": 46.756638,
            "lng": 122.266363
        },
        "ad_info": {
            "adcode": 152223,
            "province": "内蒙古自治区",
            "city": "兴安盟",
            "district": "扎赉特旗"
        }
    },
    {
        "id": "9233358961353085261",
        "title": "公共厕所",
        "address": "内蒙古自治区兴安盟突泉县光明街与新华路交叉口东南方向31米左右",
        "tel": "",
        "category": "基础设施:公共设施:公共厕所",
        "type": 0,
        "location": {
            "lat": 45.370744,
            "lng": 121.563655
        },
        "ad_info": {
            "adcode": 152224,
            "province": "内蒙古自治区",
            "city": "兴安盟",
            "district": "突泉县"
        }
    },
    {
        "id": "10334467259396399875",
        "title": "公共厕所",
        "address": "内蒙古自治区兴安盟乌兰浩特市丝绸路与工农街交叉口西北方向181米左右",
        "tel": "",
        "category": "基础设施:公共设施:公共厕所",
        "type": 0,
        "location": {
            "lat": 46.058015,
            "lng": 122.058566
        },
        "ad_info": {
            "adcode": 152201,
            "province": "内蒙古自治区",
            "city": "兴安盟",
            "district": "乌兰浩特市"
        }
    },
    {
        "id": "16172768965291925221",
        "title": "公共厕所",
        "address": "内蒙古自治区兴安盟突泉县华丰街与振兴路交叉口正北方向213米左右",
        "tel": "",
        "category": "基础设施:公共设施:公共厕所",
        "type": 0,
        "location": {
            "lat": 45.383587,
            "lng": 121.567257
        },
        "ad_info": {
            "adcode": 152224,
            "province": "内蒙古自治区",
            "city": "兴安盟",
            "district": "突泉县"
        }
    },
    {
        "id": "4235845715925273",
        "title": "公共厕所",
        "address": "内蒙古自治区兴安盟突泉县团结路与建设街交叉口正南方向86米左右",
        "tel": "",
        "category": "基础设施:公共设施:公共厕所",
        "type": 0,
        "location": {
            "lat": 45.38493,
            "lng": 121.559524
        },
        "ad_info": {
            "adcode": 152224,
            "province": "内蒙古自治区",
            "city": "兴安盟",
            "district": "突泉县"
        }
    },
    {
        "id": "14873201752697299812",
        "title": "公共厕所",
        "address": "内蒙古自治区兴安盟科尔沁右翼中旗哈日努拉路与巴仁哲里木大街交叉口正西方向476米左右",
        "tel": "",
        "category": "基础设施:公共设施:公共厕所",
        "type": 0,
        "location": {
            "lat": 45.060231,
            "lng": 121.458338
        },
        "ad_info": {
            "adcode": 152222,
            "province": "内蒙古自治区",
            "city": "兴安盟",
            "district": "科尔沁右翼中旗"
        }
    },
    {
        "id": "11875145830549023008",
        "title": "公共厕所",
        "address": "内蒙古自治区兴安盟扎赉特旗光明南路与音德尔南路交叉口西南方向39米左右",
        "tel": "",
        "category": "基础设施:公共设施:公共厕所",
        "type": 0,
        "location": {
            "lat": 46.713355,
            "lng": 122.910134
        },
        "ad_info": {
            "adcode": 152223,
            "province": "内蒙古自治区",
            "city": "兴安盟",
            "district": "扎赉特旗"
        }
    },
    {
        "id": "8838141779889934881",
        "title": "公共厕所",
        "address": "内蒙古自治区兴安盟科尔沁右翼前旗札萨克图西街与步行街交叉口正北方向120米左右",
        "tel": "",
        "category": "基础设施:公共设施:公共厕所",
        "type": 0,
        "location": {
            "lat": 46.075894,
            "lng": 121.956038
        },
        "ad_info": {
            "adcode": 152221,
            "province": "内蒙古自治区",
            "city": "兴安盟",
            "district": "科尔沁右翼前旗"
        }
    },
    {
        "id": "3341198878182462665",
        "title": "公共厕所",
        "address": "内蒙古自治区兴安盟突泉县401县道东50米",
        "tel": "",
        "category": "基础设施:公共设施:公共厕所",
        "type": 0,
        "location": {
            "lat": 45.39558,
            "lng": 121.547073
        },
        "ad_info": {
            "adcode": 152224,
            "province": "内蒙古自治区",
            "city": "兴安盟",
            "district": "突泉县"
        }
    },
    {
        "id": "13484748325971948546",
        "title": "公共厕所",
        "address": "内蒙古自治区兴安盟科尔沁右翼前旗札萨克图西街与步行街交叉口正北方向255米左右",
        "tel": "",
        "category": "基础设施:公共设施:公共厕所",
        "type": 0,
        "location": {
            "lat": 46.077118,
            "lng": 121.955714
        },
        "ad_info": {
            "adcode": 152221,
            "province": "内蒙古自治区",
            "city": "兴安盟",
            "district": "科尔沁右翼前旗"
        }
    },
    {
        "id": "158999729178460563",
        "title": "公共厕所(NM-XA-0211)",
        "address": "内蒙古自治区兴安盟突泉县柳树湾旅游度假村",
        "tel": "",
        "category": "基础设施:公共设施:公共厕所",
        "type": 0,
        "location": {
            "lat": 45.827865,
            "lng": 121.615792
        },
        "ad_info": {
            "adcode": 152224,
            "province": "内蒙古自治区",
            "city": "兴安盟",
            "district": "突泉县"
        }
    },
    {
        "id": "5171937068449226868",
        "title": "五一广场公共厕所",
        "address": "内蒙古自治区兴安盟乌兰浩特市富民北路与针织巷交叉口西北方向55米左右",
        "tel": "",
        "category": "基础设施:公共设施:公共厕所",
        "type": 0,
        "location": {
            "lat": 46.077495,
            "lng": 122.070012
        },
        "ad_info": {
            "adcode": 152201,
            "province": "内蒙古自治区",
            "city": "兴安盟",
            "district": "乌兰浩特市"
        }
    },
    {
        "id": "1238803674906895795",
        "title": "公共厕所",
        "address": "内蒙古自治区兴安盟科尔沁右翼前旗归流河北路与归流河南路交叉口东南方向821米左右",
        "tel": "",
        "category": "基础设施:公共设施:公共厕所",
        "type": 0,
        "location": {
            "lat": 46.046284,
            "lng": 122.038279
        },
        "ad_info": {
            "adcode": 152221,
            "province": "内蒙古自治区",
            "city": "兴安盟",
            "district": "科尔沁右翼前旗"
        }
    },
    {
        "id": "9974850533124330301",
        "title": "公共卫生间",
        "address": "内蒙古自治区兴安盟科尔沁右翼前旗阿力得尔中心卫生院西侧",
        "tel": "",
        "category": "基础设施:公共设施:公共厕所",
        "type": 0,
        "location": {
            "lat": 46.268044,
            "lng": 121.03382
        },
        "ad_info": {
            "adcode": 152221,
            "province": "内蒙古自治区",
            "city": "兴安盟",
            "district": "科尔沁右翼前旗"
        }
    },
    {
        "id": "18085806708725873404",
        "title": "公共厕所",
        "address": "内蒙古自治区兴安盟科尔沁右翼前旗友学街与友爱街交叉口正东方向739米左右",
        "tel": "",
        "category": "基础设施:公共设施:公共厕所",
        "type": 0,
        "location": {
            "lat": 46.063886,
            "lng": 121.930248
        },
        "ad_info": {
            "adcode": 152221,
            "province": "内蒙古自治区",
            "city": "兴安盟",
            "district": "科尔沁右翼前旗"
        }
    },
    {
        "id": "12227339496586068496",
        "title": "公共厕所",
        "address": "内蒙古自治区兴安盟科尔沁右翼前旗S203与好仁大桥交叉口正东方向1307米左右",
        "tel": "",
        "category": "基础设施:公共设施:公共厕所",
        "type": 0,
        "location": {
            "lat": 46.512505,
            "lng": 121.394469
        },
        "ad_info": {
            "adcode": 152221,
            "province": "内蒙古自治区",
            "city": "兴安盟",
            "district": "科尔沁右翼前旗"
        }
    },
    {
        "id": "13543798116238814293",
        "title": "公共厕所",
        "address": "内蒙古自治区兴安盟科尔沁右翼前旗G111与乌兰毛都北路交叉口正东方向91米左右",
        "tel": "",
        "category": "基础设施:公共设施:公共厕所",
        "type": 0,
        "location": {
            "lat": 46.085699,
            "lng": 121.953888
        },
        "ad_info": {
            "adcode": 152221,
            "province": "内蒙古自治区",
            "city": "兴安盟",
            "district": "科尔沁右翼前旗"
        }
    },
    {
        "id": "5808769443629550503",
        "title": "公共厕所",
        "address": "内蒙古自治区兴安盟科尔沁右翼前旗118村道北50米",
        "tel": "",
        "category": "基础设施:公共设施:公共厕所",
        "type": 0,
        "location": {
            "lat": 46.11568,
            "lng": 121.886453
        },
        "ad_info": {
            "adcode": 152221,
            "province": "内蒙古自治区",
            "city": "兴安盟",
            "district": "科尔沁右翼前旗"
        }
    },
    {
        "id": "10301133195281686652",
        "title": "青坊驿站",
        "address": "内蒙古自治区兴安盟阿尔山市温泉路14号",
        "tel": "",
        "category": "基础设施:公共设施:公共厕所",
        "type": 0,
        "location": {
            "lat": 47.168187,
            "lng": 119.941675
        },
        "ad_info": {
            "adcode": 152202,
            "province": "内蒙古自治区",
            "city": "兴安盟",
            "district": "阿尔山市"
        }
    },
    {
        "id": "5176223400836628101",
        "title": "阿尔山景区沿线杜拉尔桥头旅游厕所",
        "address": "内蒙古自治区兴安盟阿尔山市杜拉尔桥头防火检查站",
        "tel": "",
        "category": "基础设施:公共设施:公共厕所",
        "type": 0,
        "location": {
            "lat": 47.384149,
            "lng": 119.639129
        },
        "ad_info": {
            "adcode": 152202,
            "province": "内蒙古自治区",
            "city": "兴安盟",
            "district": "阿尔山市"
        }
    },
    {
        "id": "1298613379716441327",
        "title": "公共厕所",
        "address": "内蒙古自治区兴安盟科尔沁右翼前旗乌兰毛都北路与索伦街交叉口西北方向208米左右",
        "tel": "",
        "category": "基础设施:公共设施:公共厕所",
        "type": 0,
        "location": {
            "lat": 46.073991,
            "lng": 121.959626
        },
        "ad_info": {
            "adcode": 152221,
            "province": "内蒙古自治区",
            "city": "兴安盟",
            "district": "科尔沁右翼前旗"
        }
    },
    {
        "id": "13580560685692305028",
        "title": "公共厕所",
        "address": "内蒙古自治区兴安盟乌兰浩特市五一南大路与钢铁东大街交叉口西北方向119米左右",
        "tel": "",
        "category": "基础设施:公共设施:公共厕所",
        "type": 0,
        "location": {
            "lat": 46.057384,
            "lng": 122.085208
        },
        "ad_info": {
            "adcode": 152201,
            "province": "内蒙古自治区",
            "city": "兴安盟",
            "district": "乌兰浩特市"
        }
    },
    {
        "id": "16237773968531483775",
        "title": "公共厕所",
        "address": "内蒙古自治区兴安盟科尔沁右翼前旗G111与X419交叉口西南方向888米左右",
        "tel": "",
        "category": "基础设施:公共设施:公共厕所",
        "type": 0,
        "location": {
            "lat": 46.348423,
            "lng": 122.393048
        },
        "ad_info": {
            "adcode": 152221,
            "province": "内蒙古自治区",
            "city": "兴安盟",
            "district": "科尔沁右翼前旗"
        }
    },
    {
        "id": "10094801521983184813",
        "title": "无障碍公共厕所",
        "address": "内蒙古自治区兴安盟乌兰浩特市互助东街和平二小",
        "tel": "",
        "category": "基础设施:公共设施:公共厕所",
        "type": 0,
        "location": {
            "lat": 46.071767,
            "lng": 122.083848
        },
        "ad_info": {
            "adcode": 152201,
            "province": "内蒙古自治区",
            "city": "兴安盟",
            "district": "乌兰浩特市"
        }
    },
    {
        "id": "11509970581346831407",
        "title": "公共厕所",
        "address": "内蒙古自治区兴安盟突泉县华丰街与新华路交叉口正东方向18米左右",
        "tel": "",
        "category": "基础设施:公共设施:公共厕所",
        "type": 0,
        "location": {
            "lat": 45.381849,
            "lng": 121.564233
        },
        "ad_info": {
            "adcode": 152224,
            "province": "内蒙古自治区",
            "city": "兴安盟",
            "district": "突泉县"
        }
    },
    {
        "id": "15536877051327030663",
        "title": "公共厕所",
        "address": "内蒙古自治区兴安盟乌兰浩特市五一南大路与胜利东街交叉口西北方向47米左右",
        "tel": "",
        "category": "基础设施:公共设施:公共厕所",
        "type": 0,
        "location": {
            "lat": 46.068499,
            "lng": 122.079171
        },
        "ad_info": {
            "adcode": 152201,
            "province": "内蒙古自治区",
            "city": "兴安盟",
            "district": "乌兰浩特市"
        }
    },
    {
        "id": "13103150353939365804",
        "title": "公共厕所",
        "address": "内蒙古自治区兴安盟科尔沁右翼前旗G207与Y017交叉口东南方向893米左右",
        "tel": "",
        "category": "基础设施:公共设施:公共厕所",
        "type": 0,
        "location": {
            "lat": 46.204938,
            "lng": 121.731258
        },
        "ad_info": {
            "adcode": 152221,
            "province": "内蒙古自治区",
            "city": "兴安盟",
            "district": "科尔沁右翼前旗"
        }
    },
    {
        "id": "3974036720313004193",
        "title": "宝兴村公共厕所",
        "address": "内蒙古自治区兴安盟突泉县",
        "tel": "",
        "category": "基础设施:公共设施:公共厕所",
        "type": 0,
        "location": {
            "lat": 45.974039,
            "lng": 121.187292
        },
        "ad_info": {
            "adcode": 152224,
            "province": "内蒙古自治区",
            "city": "兴安盟",
            "district": "突泉县"
        }
    },
    {
        "id": "6143683688672641303",
        "title": "公共厕所",
        "address": "内蒙古自治区兴安盟乌兰浩特市劳动西街与文化南路交叉口正东方向184米左右",
        "tel": "",
        "category": "基础设施:公共设施:公共厕所",
        "type": 0,
        "location": {
            "lat": 46.064085,
            "lng": 122.078174
        },
        "ad_info": {
            "adcode": 152201,
            "province": "内蒙古自治区",
            "city": "兴安盟",
            "district": "乌兰浩特市"
        }
    },
    {
        "id": "1569396786348450712",
        "title": "宝石滑雪场公共厕所",
        "address": "内蒙古自治区兴安盟突泉县",
        "tel": "",
        "category": "基础设施:公共设施:公共厕所",
        "type": 0,
        "location": {
            "lat": 45.826727,
            "lng": 121.21023
        },
        "ad_info": {
            "adcode": 152224,
            "province": "内蒙古自治区",
            "city": "兴安盟",
            "district": "突泉县"
        }
    },
    {
        "id": "13407003473960697884",
        "title": "公共厕所",
        "address": "内蒙古自治区兴安盟乌兰浩特市吉庆路与庆丰街交叉口东南方向65米左右",
        "tel": "",
        "category": "基础设施:公共设施:公共厕所",
        "type": 0,
        "location": {
            "lat": 46.064291,
            "lng": 122.057679
        },
        "ad_info": {
            "adcode": 152201,
            "province": "内蒙古自治区",
            "city": "兴安盟",
            "district": "乌兰浩特市"
        }
    },
    {
        "id": "11649032252785213522",
        "title": "公共厕所",
        "address": "内蒙古自治区兴安盟乌兰浩特市幸福巷与罕山西大街交叉口东南方向57米左右",
        "tel": "",
        "category": "基础设施:公共设施:公共厕所",
        "type": 0,
        "location": {
            "lat": 46.082117,
            "lng": 122.054811
        },
        "ad_info": {
            "adcode": 152201,
            "province": "内蒙古自治区",
            "city": "兴安盟",
            "district": "乌兰浩特市"
        }
    },
    {
        "id": "17141907482371499852",
        "title": "公共厕所",
        "address": "内蒙古自治区兴安盟乌兰浩特市岭南街与爱国北大路交叉口正南方向126米左右",
        "tel": "",
        "category": "基础设施:公共设施:公共厕所",
        "type": 0,
        "location": {
            "lat": 46.083594,
            "lng": 122.07855
        },
        "ad_info": {
            "adcode": 152201,
            "province": "内蒙古自治区",
            "city": "兴安盟",
            "district": "乌兰浩特市"
        }
    },
    {
        "id": "8729180935908604666",
        "title": "旅游厕所",
        "address": "内蒙古自治区兴安盟科尔沁右翼中旗G111与巴乌线交叉口西南方向1493米左右",
        "tel": "",
        "category": "基础设施:公共设施:公共厕所",
        "type": 0,
        "location": {
            "lat": 45.219057,
            "lng": 121.519178
        },
        "ad_info": {
            "adcode": 152222,
            "province": "内蒙古自治区",
            "city": "兴安盟",
            "district": "科尔沁右翼中旗"
        }
    },
    {
        "id": "2382479658417641451",
        "title": "阿尔山海神圣泉旅游度假区公共厕所",
        "address": "内蒙古自治区兴安盟阿尔山市利民街阿尔山海神圣泉旅游度假区内",
        "tel": "",
        "category": "基础设施:公共设施:公共厕所",
        "type": 0,
        "location": {
            "lat": 47.173572,
            "lng": 119.942096
        },
        "ad_info": {
            "adcode": 152202,
            "province": "内蒙古自治区",
            "city": "兴安盟",
            "district": "阿尔山市"
        }
    },
    {
        "id": "5376063511722909579",
        "title": "公共厕所",
        "address": "内蒙古自治区兴安盟乌兰浩特市新桥西大街与科尔沁南路交叉口西南方向86米左右",
        "tel": "",
        "category": "基础设施:公共设施:公共厕所",
        "type": 0,
        "location": {
            "lat": 46.060625,
            "lng": 122.059236
        },
        "ad_info": {
            "adcode": 152201,
            "province": "内蒙古自治区",
            "city": "兴安盟",
            "district": "乌兰浩特市"
        }
    },
    {
        "id": "10568749167432577246",
        "title": "卫生间",
        "address": "内蒙古自治区兴安盟科尔沁右翼前旗阿力得尔中心卫生院西侧70米",
        "tel": "",
        "category": "基础设施:公共设施:公共厕所",
        "type": 0,
        "location": {
            "lat": 46.267818,
            "lng": 121.033453
        },
        "ad_info": {
            "adcode": 152221,
            "province": "内蒙古自治区",
            "city": "兴安盟",
            "district": "科尔沁右翼前旗"
        }
    },
    {
        "id": "876876284781626695",
        "title": "明星田园综合体景区网红驿站(公共厕所)",
        "address": "内蒙古自治区兴安盟突泉县",
        "tel": "",
        "category": "基础设施:公共设施:公共厕所",
        "type": 0,
        "location": {
            "lat": 45.566257,
            "lng": 121.72367
        },
        "ad_info": {
            "adcode": 152224,
            "province": "内蒙古自治区",
            "city": "兴安盟",
            "district": "突泉县"
        }
    },
    {
        "id": "4221387477800940027",
        "title": "宝乐村公共厕所",
        "address": "内蒙古自治区兴安盟突泉县X401",
        "tel": "",
        "category": "基础设施:公共设施:公共厕所",
        "type": 0,
        "location": {
            "lat": 45.849346,
            "lng": 121.169796
        },
        "ad_info": {
            "adcode": 152224,
            "province": "内蒙古自治区",
            "city": "兴安盟",
            "district": "突泉县"
        }
    },
    {
        "id": "18179714853377703761",
        "title": "坝下丛林公共厕所",
        "address": "内蒙古自治区兴安盟突泉县",
        "tel": "",
        "category": "基础设施:公共设施:公共厕所",
        "type": 0,
        "location": {
            "lat": 45.815322,
            "lng": 121.217756
        },
        "ad_info": {
            "adcode": 152224,
            "province": "内蒙古自治区",
            "city": "兴安盟",
            "district": "突泉县"
        }
    },
    {
        "id": "4703210977203415721",
        "title": "永安停车区公共厕所",
        "address": "内蒙古自治区兴安盟突泉县G5511集阿高速与永安停车区交叉口西北420米",
        "tel": "",
        "category": "基础设施:公共设施:公共厕所",
        "type": 0,
        "location": {
            "lat": 45.723055,
            "lng": 121.610606
        },
        "ad_info": {
            "adcode": 152224,
            "province": "内蒙古自治区",
            "city": "兴安盟",
            "district": "突泉县"
        }
    },
    {
        "id": "7724449899166955771",
        "title": "永安停车区公共厕所",
        "address": "内蒙古自治区兴安盟突泉县G5511集阿高速与永安停车区交叉口北300米",
        "tel": "",
        "category": "基础设施:公共设施:公共厕所",
        "type": 0,
        "location": {
            "lat": 45.722781,
            "lng": 121.612955
        },
        "ad_info": {
            "adcode": 152224,
            "province": "内蒙古自治区",
            "city": "兴安盟",
            "district": "突泉县"
        }
    },
    {
        "id": "12414302795051027935",
        "title": "宝城村内公共厕所",
        "address": "内蒙古自治区兴安盟突泉县",
        "tel": "",
        "category": "基础设施:公共设施:公共厕所",
        "type": 0,
        "location": {
            "lat": 45.799255,
            "lng": 121.240461
        },
        "ad_info": {
            "adcode": 152224,
            "province": "内蒙古自治区",
            "city": "兴安盟",
            "district": "突泉县"
        }
    },
    {
        "id": "17529631913619387744",
        "title": "宝城村主题公园公共厕所",
        "address": "内蒙古自治区兴安盟突泉县",
        "tel": "",
        "category": "基础设施:公共设施:公共厕所",
        "type": 0,
        "location": {
            "lat": 45.80052,
            "lng": 121.244151
        },
        "ad_info": {
            "adcode": 152224,
            "province": "内蒙古自治区",
            "city": "兴安盟",
            "district": "突泉县"
        }
    },
    {
        "id": "12825268144733236705",
        "title": "好力保农业产业园区公共厕所",
        "address": "内蒙古自治区兴安盟扎赉特旗巴江线与音江公路交叉口西南方向715米",
        "tel": "",
        "category": "基础设施:公共设施:公共厕所",
        "type": 0,
        "location": {
            "lat": 46.672802,
            "lng": 123.184995
        },
        "ad_info": {
            "adcode": 152223,
            "province": "内蒙古自治区",
            "city": "兴安盟",
            "district": "扎赉特旗"
        }
    },
    {
        "id": "11050346298424201759",
        "title": "大石寨服务区公共厕所",
        "address": "内蒙古自治区兴安盟科尔沁右翼前旗中国石油大石第二加油站东北",
        "tel": "",
        "category": "基础设施:公共设施:公共厕所",
        "type": 0,
        "location": {
            "lat": 46.268316,
            "lng": 121.377298
        },
        "ad_info": {
            "adcode": 152221,
            "province": "内蒙古自治区",
            "city": "兴安盟",
            "district": "科尔沁右翼前旗"
        }
    },
    {
        "id": "5576829678058552622",
        "title": "新林南服务区公共厕所",
        "address": "内蒙古自治区兴安盟扎赉特旗",
        "tel": "",
        "category": "基础设施:公共设施:公共厕所",
        "type": 0,
        "location": {
            "lat": 47.171761,
            "lng": 122.492258
        },
        "ad_info": {
            "adcode": 152223,
            "province": "内蒙古自治区",
            "city": "兴安盟",
            "district": "扎赉特旗"
        }
    },
    {
        "id": "8068164508869703709",
        "title": "乌兰哈达服务区公共厕所",
        "address": "内蒙古自治区兴安盟乌兰浩特市珲乌高速公路乌兰哈达服务区",
        "tel": "",
        "category": "基础设施:公共设施:公共厕所",
        "type": 0,
        "location": {
            "lat": 46.055947,
            "lng": 122.213301
        },
        "ad_info": {
            "adcode": 152201,
            "province": "内蒙古自治区",
            "city": "兴安盟",
            "district": "乌兰浩特市"
        }
    },
    {
        "id": "15276209755090099905",
        "title": "乌兰哈达服务区公共厕所",
        "address": "内蒙古自治区兴安盟乌兰浩特市乌兰浩特环线高速与珲乌高速交叉口西北方向1360米左右",
        "tel": "",
        "category": "基础设施:公共设施:公共厕所",
        "type": 0,
        "location": {
            "lat": 46.054137,
            "lng": 122.21252
        },
        "ad_info": {
            "adcode": 152201,
            "province": "内蒙古自治区",
            "city": "兴安盟",
            "district": "乌兰浩特市"
        }
    },
    {
        "id": "3597962156211605467",
        "title": "新林南服务区公共厕所",
        "address": "内蒙古自治区兴安盟扎赉特旗集阿高速",
        "tel": "",
        "category": "基础设施:公共设施:公共厕所",
        "type": 0,
        "location": {
            "lat": 47.171464,
            "lng": 122.496288
        },
        "ad_info": {
            "adcode": 152223,
            "province": "内蒙古自治区",
            "city": "兴安盟",
            "district": "扎赉特旗"
        }
    },
    {
        "id": "1522896103274500378",
        "title": "永合服务区公共厕所",
        "address": "内蒙古自治区兴安盟扎赉特旗永合服务区加油站南侧170米",
        "tel": "",
        "category": "基础设施:公共设施:公共厕所",
        "type": 0,
        "location": {
            "lat": 46.482208,
            "lng": 122.476287
        },
        "ad_info": {
            "adcode": 152223,
            "province": "内蒙古自治区",
            "city": "兴安盟",
            "district": "扎赉特旗"
        }
    },
    {
        "id": "3209007607592902954",
        "title": "宝范村公共厕所",
        "address": "内蒙古自治区兴安盟突泉县",
        "tel": "",
        "category": "基础设施:公共设施:公共厕所",
        "type": 0,
        "location": {
            "lat": 45.896711,
            "lng": 121.179845
        },
        "ad_info": {
            "adcode": 152224,
            "province": "内蒙古自治区",
            "city": "兴安盟",
            "district": "突泉县"
        }
    },
    {
        "id": "3376485154969437598",
        "title": "巴彦扎拉嘎停车区公共厕所",
        "address": "内蒙古自治区兴安盟扎赉特旗G5511集阿高速与巴彦扎拉嘎停车区交叉口西北440米",
        "tel": "",
        "category": "基础设施:公共设施:公共厕所",
        "type": 0,
        "location": {
            "lat": 46.820837,
            "lng": 122.680749
        },
        "ad_info": {
            "adcode": 152223,
            "province": "内蒙古自治区",
            "city": "兴安盟",
            "district": "扎赉特旗"
        }
    },
    {
        "id": "11431741115233543645",
        "title": "旅游公共厕所",
        "address": "内蒙古自治区兴安盟科尔沁右翼前旗巴音海日汗旅游度假村西侧",
        "tel": "",
        "category": "基础设施:公共设施:公共厕所",
        "type": 0,
        "location": {
            "lat": 46.416466,
            "lng": 120.45539
        },
        "ad_info": {
            "adcode": 152221,
            "province": "内蒙古自治区",
            "city": "兴安盟",
            "district": "科尔沁右翼前旗"
        }
    },
    {
        "id": "11876420927785076381",
        "title": "永合服务区公共厕所",
        "address": "内蒙古自治区兴安盟扎赉特旗中国石油永合服务区加油站北侧180米",
        "tel": "",
        "category": "基础设施:公共设施:公共厕所",
        "type": 0,
        "location": {
            "lat": 46.483404,
            "lng": 122.473441
        },
        "ad_info": {
            "adcode": 152223,
            "province": "内蒙古自治区",
            "city": "兴安盟",
            "district": "扎赉特旗"
        }
    },
    {
        "id": "3280650038263823167",
        "title": "新林南服务区公共厕所",
        "address": "内蒙古自治区兴安盟扎赉特旗G5511集阿高速附近",
        "tel": "",
        "category": "基础设施:公共设施:公共厕所",
        "type": 0,
        "location": {
            "lat": 47.172041,
            "lng": 122.491926
        },
        "ad_info": {
            "adcode": 152223,
            "province": "内蒙古自治区",
            "city": "兴安盟",
            "district": "扎赉特旗"
        }
    },
    {
        "id": "13934902236534124923",
        "title": "服务区公共厕所",
        "address": "内蒙古自治区兴安盟科尔沁右翼前旗中国石油服务区中国石油加油站西北",
        "tel": "",
        "category": "基础设施:公共设施:公共厕所",
        "type": 0,
        "location": {
            "lat": 46.154652,
            "lng": 120.808464
        },
        "ad_info": {
            "adcode": 152221,
            "province": "内蒙古自治区",
            "city": "兴安盟",
            "district": "科尔沁右翼前旗"
        }
    },
    {
        "id": "15450067746820909166",
        "title": "公共厕所",
        "address": "内蒙古自治区兴安盟科尔沁右翼中旗吐列毛杜大街与巴乌线交叉口正南方向116米左右",
        "tel": "",
        "category": "基础设施:公共设施:公共厕所",
        "type": 0,
        "location": {
            "lat": 45.053609,
            "lng": 121.510812
        },
        "ad_info": {
            "adcode": 152222,
            "province": "内蒙古自治区",
            "city": "兴安盟",
            "district": "科尔沁右翼中旗"
        }
    },
    {
        "id": "3193447028536304551",
        "title": "巴彦扎拉嘎停车区公共厕所",
        "address": "内蒙古自治区兴安盟扎赉特旗巴彦扎拉嘎停车区",
        "tel": "",
        "category": "基础设施:公共设施:公共厕所",
        "type": 0,
        "location": {
            "lat": 46.819027,
            "lng": 122.679047
        },
        "ad_info": {
            "adcode": 152223,
            "province": "内蒙古自治区",
            "city": "兴安盟",
            "district": "扎赉特旗"
        }
    },
    {
        "id": "14877091844744272791",
        "title": "突泉历史文化博物馆洗手间",
        "address": "内蒙古自治区兴安盟突泉县",
        "tel": "",
        "category": "基础设施:公共设施:公共厕所",
        "type": 0,
        "location": {
            "lat": 45.802187,
            "lng": 121.234199
        },
        "ad_info": {
            "adcode": 152224,
            "province": "内蒙古自治区",
            "city": "兴安盟",
            "district": "突泉县"
        }
    },
    {
        "id": "11392170988935584086",
        "title": "春州古城内公共厕所",
        "address": "内蒙古自治区兴安盟突泉县",
        "tel": "",
        "category": "基础设施:公共设施:公共厕所",
        "type": 0,
        "location": {
            "lat": 45.802174,
            "lng": 121.234201
        },
        "ad_info": {
            "adcode": 152224,
            "province": "内蒙古自治区",
            "city": "兴安盟",
            "district": "突泉县"
        }
    },
    {
        "id": "33226142866456306",
        "title": "公共厕所",
        "address": "内蒙古自治区兴安盟乌兰浩特市普惠东街与育才北路交叉口西北方向65米左右",
        "tel": "",
        "category": "基础设施:公共设施:公共厕所",
        "type": 0,
        "location": {
            "lat": 46.080662,
            "lng": 122.086991
        },
        "ad_info": {
            "adcode": 152201,
            "province": "内蒙古自治区",
            "city": "兴安盟",
            "district": "乌兰浩特市"
        }
    },
    {
        "id": "5416923685441239779",
        "title": "公共厕所",
        "address": "内蒙古自治区兴安盟阿尔山市玫瑰峰内",
        "tel": "",
        "category": "基础设施:公共设施:公共厕所",
        "type": 0,
        "location": {
            "lat": 47.318186,
            "lng": 119.772871
        },
        "ad_info": {
            "adcode": 152202,
            "province": "内蒙古自治区",
            "city": "兴安盟",
            "district": "阿尔山市"
        }
    },
    {
        "id": "15978078631273759482",
        "title": "公共厕所",
        "address": "内蒙古自治区兴安盟乌兰浩特市城郊办事处红胜村",
        "tel": "",
        "category": "基础设施:公共设施:公共厕所",
        "type": 0,
        "location": {
            "lat": 46.052697,
            "lng": 122.090408
        },
        "ad_info": {
            "adcode": 152201,
            "province": "内蒙古自治区",
            "city": "兴安盟",
            "district": "乌兰浩特市"
        }
    },
    {
        "id": "12214913102722159783",
        "title": "公共厕所",
        "address": "内蒙古自治区兴安盟突泉县建设街与新华路交叉口正东方向171米左右",
        "tel": "",
        "category": "基础设施:公共设施:公共厕所",
        "type": 0,
        "location": {
            "lat": 45.385357,
            "lng": 121.566183
        },
        "ad_info": {
            "adcode": 152224,
            "province": "内蒙古自治区",
            "city": "兴安盟",
            "district": "突泉县"
        }
    },
    {
        "id": "17182581409862912605",
        "title": "公共厕所",
        "address": "内蒙古自治区兴安盟乌兰浩特市庆丰街与科尔沁北大路交叉口东北方向71米左右",
        "tel": "",
        "category": "基础设施:公共设施:公共厕所",
        "type": 0,
        "location": {
            "lat": 46.063858,
            "lng": 122.055519
        },
        "ad_info": {
            "adcode": 152201,
            "province": "内蒙古自治区",
            "city": "兴安盟",
            "district": "乌兰浩特市"
        }
    },
    {
        "id": "15413652529029468405",
        "title": "公共厕所",
        "address": "内蒙古自治区兴安盟乌兰浩特市兴安北大路与札萨克图东大街交叉口正北方向509米左右",
        "tel": "",
        "category": "基础设施:公共设施:公共厕所",
        "type": 0,
        "location": {
            "lat": 46.101017,
            "lng": 122.059291
        },
        "ad_info": {
            "adcode": 152201,
            "province": "内蒙古自治区",
            "city": "兴安盟",
            "district": "乌兰浩特市"
        }
    },
    {
        "id": "1741899651178387449",
        "title": "无障碍公共厕所",
        "address": "内蒙古自治区兴安盟科尔沁右翼中旗图什业图大街与坤都冷北延路交叉口正西方向109米左右",
        "tel": "",
        "category": "基础设施:公共设施:公共厕所",
        "type": 0,
        "location": {
            "lat": 45.060439,
            "lng": 121.473143
        },
        "ad_info": {
            "adcode": 152222,
            "province": "内蒙古自治区",
            "city": "兴安盟",
            "district": "科尔沁右翼中旗"
        }
    },
    {
        "id": "11092177952765867094",
        "title": "公共厕所",
        "address": "内蒙古自治区兴安盟突泉县利民街与向阳路交叉口东北方向31米左右",
        "tel": "",
        "category": "基础设施:公共设施:公共厕所",
        "type": 0,
        "location": {
            "lat": 45.380014,
            "lng": 121.572844
        },
        "ad_info": {
            "adcode": 152224,
            "province": "内蒙古自治区",
            "city": "兴安盟",
            "district": "突泉县"
        }
    },
    {
        "id": "4674694053595586272",
        "title": "公共厕所",
        "address": "内蒙古自治区兴安盟突泉县康乐街与振兴路交叉口正南方向164米左右",
        "tel": "",
        "category": "基础设施:公共设施:公共厕所",
        "type": 0,
        "location": {
            "lat": 45.374754,
            "lng": 121.568162
        },
        "ad_info": {
            "adcode": 152224,
            "province": "内蒙古自治区",
            "city": "兴安盟",
            "district": "突泉县"
        }
    },
    {
        "id": "14582383525091577511",
        "title": "公共厕所",
        "address": "内蒙古自治区兴安盟乌兰浩特市五一办事处中国石化兴安北路加油站",
        "tel": "",
        "category": "基础设施:公共设施:公共厕所",
        "type": 0,
        "location": {
            "lat": 46.097992,
            "lng": 122.060175
        },
        "ad_info": {
            "adcode": 152201,
            "province": "内蒙古自治区",
            "city": "兴安盟",
            "district": "乌兰浩特市"
        }
    },
    {
        "id": "8032304640084394413",
        "title": "公共厕所",
        "address": "内蒙古自治区兴安盟乌兰浩特市安平街与工业北大路交叉口正西方向586米左右",
        "tel": "",
        "category": "基础设施:公共设施:公共厕所",
        "type": 0,
        "location": {
            "lat": 46.088595,
            "lng": 122.119743
        },
        "ad_info": {
            "adcode": 152201,
            "province": "内蒙古自治区",
            "city": "兴安盟",
            "district": "乌兰浩特市"
        }
    },
    {
        "id": "15531340355533265488",
        "title": "公共厕所",
        "address": "内蒙古自治区兴安盟科尔沁右翼前旗乌兰毛都南路与哈萨尔街交叉口正南方向465米左右",
        "tel": "",
        "category": "基础设施:公共设施:公共厕所",
        "type": 0,
        "location": {
            "lat": 46.059604,
            "lng": 121.969227
        },
        "ad_info": {
            "adcode": 152221,
            "province": "内蒙古自治区",
            "city": "兴安盟",
            "district": "科尔沁右翼前旗"
        }
    },
    {
        "id": "16093790122366332273",
        "title": "公共厕所",
        "address": "内蒙古自治区兴安盟突泉县华丰街与团结路交叉口正南方向99米左右",
        "tel": "",
        "category": "基础设施:公共设施:公共厕所",
        "type": 0,
        "location": {
            "lat": 45.381147,
            "lng": 121.559616
        },
        "ad_info": {
            "adcode": 152224,
            "province": "内蒙古自治区",
            "city": "兴安盟",
            "district": "突泉县"
        }
    },
    {
        "id": "9428529730967285587",
        "title": "公共厕所",
        "address": "内蒙古自治区兴安盟扎赉特旗乌兰东街与绰尔北路交叉口西南方向268米左右",
        "tel": "",
        "category": "基础设施:公共设施:公共厕所",
        "type": 0,
        "location": {
            "lat": 46.733877,
            "lng": 122.908267
        },
        "ad_info": {
            "adcode": 152223,
            "province": "内蒙古自治区",
            "city": "兴安盟",
            "district": "扎赉特旗"
        }
    },
    {
        "id": "15272600764705924972",
        "title": "公共厕所",
        "address": "内蒙古自治区兴安盟科尔沁右翼前旗天骄北路与天骄南路交叉口东北方向323米左右",
        "tel": "",
        "category": "基础设施:公共设施:公共厕所",
        "type": 0,
        "location": {
            "lat": 46.074908,
            "lng": 121.984432
        },
        "ad_info": {
            "adcode": 152221,
            "province": "内蒙古自治区",
            "city": "兴安盟",
            "district": "科尔沁右翼前旗"
        }
    },
    {
        "id": "2866908576773138417",
        "title": "公共厕所",
        "address": "内蒙古自治区兴安盟扎赉特旗S309与X417交叉口正东方向690米左右",
        "tel": "",
        "category": "基础设施:公共设施:公共厕所",
        "type": 0,
        "location": {
            "lat": 46.772357,
            "lng": 122.534068
        },
        "ad_info": {
            "adcode": 152223,
            "province": "内蒙古自治区",
            "city": "兴安盟",
            "district": "扎赉特旗"
        }
    },
    {
        "id": "4502884513442574980",
        "title": "公共厕所",
        "address": "内蒙古自治区兴安盟突泉县友谊路与民主街交叉口正西方向344米左右",
        "tel": "",
        "category": "基础设施:公共设施:公共厕所",
        "type": 0,
        "location": {
            "lat": 45.377233,
            "lng": 121.579039
        },
        "ad_info": {
            "adcode": 152224,
            "province": "内蒙古自治区",
            "city": "兴安盟",
            "district": "突泉县"
        }
    },
    {
        "id": "15207361474272889637",
        "title": "公共厕所",
        "address": "内蒙古自治区兴安盟科尔沁右翼前旗111国道附近",
        "tel": "",
        "category": "基础设施:公共设施:公共厕所",
        "type": 0,
        "location": {
            "lat": 46.337923,
            "lng": 122.382721
        },
        "ad_info": {
            "adcode": 152221,
            "province": "内蒙古自治区",
            "city": "兴安盟",
            "district": "科尔沁右翼前旗"
        }
    },
    {
        "id": "16811140085858232984",
        "title": "公共厕所",
        "address": "内蒙古自治区兴安盟乌兰浩特市丝绸路与工农街交叉口东南方向102米左右",
        "tel": "",
        "category": "基础设施:公共设施:公共厕所",
        "type": 0,
        "location": {
            "lat": 46.055769,
            "lng": 122.060263
        },
        "ad_info": {
            "adcode": 152201,
            "province": "内蒙古自治区",
            "city": "兴安盟",
            "district": "乌兰浩特市"
        }
    },
    {
        "id": "12102456353514869807",
        "title": "公共厕所",
        "address": "内蒙古自治区兴安盟乌兰浩特市五一南大路与红联东街交叉口正东方向211米左右",
        "tel": "",
        "category": "基础设施:公共设施:公共厕所",
        "type": 0,
        "location": {
            "lat": 46.05494,
            "lng": 122.089418
        },
        "ad_info": {
            "adcode": 152201,
            "province": "内蒙古自治区",
            "city": "兴安盟",
            "district": "乌兰浩特市"
        }
    },
    {
        "id": "15260988880432468982",
        "title": "公共厕所",
        "address": "内蒙古自治区兴安盟科尔沁右翼前旗牧民之家蒙餐东南侧190米",
        "tel": "",
        "category": "基础设施:公共设施:公共厕所",
        "type": 0,
        "location": {
            "lat": 46.5482,
            "lng": 121.333607
        },
        "ad_info": {
            "adcode": 152221,
            "province": "内蒙古自治区",
            "city": "兴安盟",
            "district": "科尔沁右翼前旗"
        }
    },
    {
        "id": "3292295771973583878",
        "title": "公共厕所",
        "address": "内蒙古自治区兴安盟乌兰浩特市五一北大路中国石油加油站(五一北路)",
        "tel": "",
        "category": "基础设施:公共设施:公共厕所",
        "type": 0,
        "location": {
            "lat": 46.081115,
            "lng": 122.072024
        },
        "ad_info": {
            "adcode": 152201,
            "province": "内蒙古自治区",
            "city": "兴安盟",
            "district": "乌兰浩特市"
        }
    },
    {
        "id": "8562275630418859370",
        "title": "公共厕所",
        "address": "内蒙古自治区兴安盟乌兰浩特市普惠东街与洮河北路交叉口正北方向85米左右",
        "tel": "",
        "category": "基础设施:公共设施:公共厕所",
        "type": 0,
        "location": {
            "lat": 46.081713,
            "lng": 122.089696
        },
        "ad_info": {
            "adcode": 152201,
            "province": "内蒙古自治区",
            "city": "兴安盟",
            "district": "乌兰浩特市"
        }
    },
    {
        "id": "1357290862688415461",
        "title": "公共厕所",
        "address": "内蒙古自治区兴安盟扎赉特旗山东西街与民族南路交叉口正南方向166米左右",
        "tel": "",
        "category": "基础设施:公共设施:公共厕所",
        "type": 0,
        "location": {
            "lat": 46.717226,
            "lng": 122.909372
        },
        "ad_info": {
            "adcode": 152223,
            "province": "内蒙古自治区",
            "city": "兴安盟",
            "district": "扎赉特旗"
        }
    },
    {
        "id": "1434521871767625350",
        "title": "公共厕所",
        "address": "内蒙古自治区兴安盟乌兰浩特市罕山西大街与铁都巷交叉口正南方向51米左右",
        "tel": "",
        "category": "基础设施:公共设施:公共厕所",
        "type": 0,
        "location": {
            "lat": 46.08133,
            "lng": 122.051712
        },
        "ad_info": {
            "adcode": 152201,
            "province": "内蒙古自治区",
            "city": "兴安盟",
            "district": "乌兰浩特市"
        }
    },
    {
        "id": "12373774386928733223",
        "title": "公共厕所",
        "address": "内蒙古自治区兴安盟乌兰浩特市吉庆路与新桥西大街交叉口西北方向73米左右",
        "tel": "",
        "category": "基础设施:公共设施:公共厕所",
        "type": 0,
        "location": {
            "lat": 46.061962,
            "lng": 122.06029
        },
        "ad_info": {
            "adcode": 152201,
            "province": "内蒙古自治区",
            "city": "兴安盟",
            "district": "乌兰浩特市"
        }
    },
    {
        "id": "4775118475787312",
        "title": "白音胡硕服务区公共厕所",
        "address": "内蒙古自治区兴安盟科尔沁右翼中旗白音胡硕服务区与G5511集阿高速交叉口西120米",
        "tel": "",
        "category": "基础设施:公共设施:公共厕所",
        "type": 0,
        "location": {
            "lat": 45.04809,
            "lng": 121.532646
        },
        "ad_info": {
            "adcode": 152222,
            "province": "内蒙古自治区",
            "city": "兴安盟",
            "district": "科尔沁右翼中旗"
        }
    },
    {
        "id": "12178494095958448333",
        "title": "服务区公共厕所",
        "address": "内蒙古自治区兴安盟扎赉特旗服务区与G5511集阿高速交叉口西南120米",
        "tel": "",
        "category": "基础设施:公共设施:公共厕所",
        "type": 0,
        "location": {
            "lat": 46.838805,
            "lng": 122.641326
        },
        "ad_info": {
            "adcode": 152223,
            "province": "内蒙古自治区",
            "city": "兴安盟",
            "district": "扎赉特旗"
        }
    },
    {
        "id": "14874451470553153588",
        "title": "大坝沟服务区公共厕所",
        "address": "内蒙古自治区兴安盟科尔沁右翼前旗集阿高速",
        "tel": "",
        "category": "基础设施:公共设施:公共厕所",
        "type": 0,
        "location": {
            "lat": 46.061593,
            "lng": 121.881098
        },
        "ad_info": {
            "adcode": 152221,
            "province": "内蒙古自治区",
            "city": "兴安盟",
            "district": "科尔沁右翼前旗"
        }
    }
]