[
    {
        "id": "14142097794347990588",
        "title": "公共厕所",
        "address": "四川省内江市东兴区五星路与玉峰路交叉口正东方向158米左右",
        "tel": "",
        "category": "基础设施:公共设施:公共厕所",
        "type": 0,
        "location": {
            "lat": 29.60567,
            "lng": 105.05263
        },
        "ad_info": {
            "adcode": 511011,
            "province": "四川省",
            "city": "内江市",
            "district": "东兴区"
        }
    },
    {
        "id": "18112939946846469103",
        "title": "公共厕所",
        "address": "四川省内江市隆昌市文兴街与石油路交叉口东南方向97米左右",
        "tel": "",
        "category": "基础设施:公共设施:公共厕所",
        "type": 0,
        "location": {
            "lat": 29.342891,
            "lng": 105.284079
        },
        "ad_info": {
            "adcode": 511083,
            "province": "四川省",
            "city": "内江市",
            "district": "隆昌市"
        }
    },
    {
        "id": "17146938728564503587",
        "title": "公共厕所",
        "address": "四川省内江市隆昌市上丰路与昌达街交叉口西南方向60米左右",
        "tel": "",
        "category": "基础设施:公共设施:公共厕所",
        "type": 0,
        "location": {
            "lat": 29.336169,
            "lng": 105.295838
        },
        "ad_info": {
            "adcode": 511083,
            "province": "四川省",
            "city": "内江市",
            "district": "隆昌市"
        }
    },
    {
        "id": "2341795338820837851",
        "title": "公共厕所",
        "address": "四川省内江市东兴区兴隆路113号",
        "tel": "",
        "category": "基础设施:公共设施:公共厕所",
        "type": 0,
        "location": {
            "lat": 29.597901,
            "lng": 105.066131
        },
        "ad_info": {
            "adcode": 511011,
            "province": "四川省",
            "city": "内江市",
            "district": "东兴区"
        }
    },
    {
        "id": "2741187568781036934",
        "title": "公共厕所",
        "address": "四川省内江市隆昌市大东街与顺河街交叉口西北方向44米左右",
        "tel": "",
        "category": "基础设施:公共设施:公共厕所",
        "type": 0,
        "location": {
            "lat": 29.339851,
            "lng": 105.288697
        },
        "ad_info": {
            "adcode": 511083,
            "province": "四川省",
            "city": "内江市",
            "district": "隆昌市"
        }
    },
    {
        "id": "12683045436168791614",
        "title": "公共厕所",
        "address": "四川省内江市东兴区广场街与红牌路交叉口东北方向45米左右",
        "tel": "",
        "category": "基础设施:公共设施:公共厕所",
        "type": 0,
        "location": {
            "lat": 29.59642,
            "lng": 105.074028
        },
        "ad_info": {
            "adcode": 511011,
            "province": "四川省",
            "city": "内江市",
            "district": "东兴区"
        }
    },
    {
        "id": "12477540243706178942",
        "title": "公共厕所",
        "address": "四川省内江市隆昌市中南街与文兴街交叉口正东方向58米左右",
        "tel": "",
        "category": "基础设施:公共设施:公共厕所",
        "type": 0,
        "location": {
            "lat": 29.338055,
            "lng": 105.285201
        },
        "ad_info": {
            "adcode": 511083,
            "province": "四川省",
            "city": "内江市",
            "district": "隆昌市"
        }
    },
    {
        "id": "16129761962555061511",
        "title": "公共厕所",
        "address": "四川省内江市东兴区北环路西段辅路与太白路交叉口西南方向81米左右",
        "tel": "",
        "category": "基础设施:公共设施:公共厕所",
        "type": 0,
        "location": {
            "lat": 29.608014,
            "lng": 105.062893
        },
        "ad_info": {
            "adcode": 511011,
            "province": "四川省",
            "city": "内江市",
            "district": "东兴区"
        }
    },
    {
        "id": "4338693115603544113",
        "title": "公共厕所",
        "address": "四川省内江市东兴区北环路与北环路西段交叉口东北方向132米左右",
        "tel": "",
        "category": "基础设施:公共设施:公共厕所",
        "type": 0,
        "location": {
            "lat": 29.609,
            "lng": 105.06853
        },
        "ad_info": {
            "adcode": 511011,
            "province": "四川省",
            "city": "内江市",
            "district": "东兴区"
        }
    },
    {
        "id": "17156492427794946433",
        "title": "公共厕所",
        "address": "四川省内江市隆昌市人民中路三段101号",
        "tel": "",
        "category": "基础设施:公共设施:公共厕所",
        "type": 0,
        "location": {
            "lat": 29.347814,
            "lng": 105.274448
        },
        "ad_info": {
            "adcode": 511083,
            "province": "四川省",
            "city": "内江市",
            "district": "隆昌市"
        }
    },
    {
        "id": "10312732546711778816",
        "title": "公共厕所",
        "address": "四川省内江市隆昌市古宇路与青年路交叉口正西方向127米左右",
        "tel": "",
        "category": "基础设施:公共设施:公共厕所",
        "type": 0,
        "location": {
            "lat": 29.336374,
            "lng": 105.283117
        },
        "ad_info": {
            "adcode": 511083,
            "province": "四川省",
            "city": "内江市",
            "district": "隆昌市"
        }
    },
    {
        "id": "18193644492352643147",
        "title": "公共厕所",
        "address": "四川省内江市隆昌市白塔路与飞泉横街交叉口正南方向177米左右",
        "tel": "",
        "category": "基础设施:公共设施:公共厕所",
        "type": 0,
        "location": {
            "lat": 29.328723,
            "lng": 105.294622
        },
        "ad_info": {
            "adcode": 511083,
            "province": "四川省",
            "city": "内江市",
            "district": "隆昌市"
        }
    },
    {
        "id": "1121995501205702589",
        "title": "公共厕所",
        "address": "四川省内江市隆昌市康复中路268号",
        "tel": "",
        "category": "基础设施:公共设施:公共厕所",
        "type": 0,
        "location": {
            "lat": 29.336838,
            "lng": 105.286219
        },
        "ad_info": {
            "adcode": 511083,
            "province": "四川省",
            "city": "内江市",
            "district": "隆昌市"
        }
    },
    {
        "id": "545224641145699228",
        "title": "公共厕所",
        "address": "四川省内江市东兴区东兴大道与东城路交叉口西北方向281米左右",
        "tel": "",
        "category": "基础设施:公共设施:公共厕所",
        "type": 0,
        "location": {
            "lat": 29.60884,
            "lng": 105.08388
        },
        "ad_info": {
            "adcode": 511011,
            "province": "四川省",
            "city": "内江市",
            "district": "东兴区"
        }
    },
    {
        "id": "7278634299640226095",
        "title": "公共厕所",
        "address": "四川省内江市隆昌市向阳路与恒隆路交叉口东北方向506米左右",
        "tel": "",
        "category": "基础设施:公共设施:公共厕所",
        "type": 0,
        "location": {
            "lat": 29.355441,
            "lng": 105.280485
        },
        "ad_info": {
            "adcode": 511083,
            "province": "四川省",
            "city": "内江市",
            "district": "隆昌市"
        }
    },
    {
        "id": "1242514694177212352",
        "title": "公共厕所",
        "address": "四川省内江市隆昌市古宇路与青年路交叉口东南方向9米左右",
        "tel": "",
        "category": "基础设施:公共设施:公共厕所",
        "type": 0,
        "location": {
            "lat": 29.336559,
            "lng": 105.284473
        },
        "ad_info": {
            "adcode": 511083,
            "province": "四川省",
            "city": "内江市",
            "district": "隆昌市"
        }
    },
    {
        "id": "1939250662719255853",
        "title": "公共厕所",
        "address": "四川省内江市隆昌市环城南路与自荣路交叉口正南方向548米左右",
        "tel": "",
        "category": "基础设施:公共设施:公共厕所",
        "type": 0,
        "location": {
            "lat": 29.333596,
            "lng": 105.264199
        },
        "ad_info": {
            "adcode": 511083,
            "province": "四川省",
            "city": "内江市",
            "district": "隆昌市"
        }
    },
    {
        "id": "5229336897903105898",
        "title": "公共厕所",
        "address": "四川省内江市东兴区东桐路与民族路交叉口正北方向485米左右",
        "tel": "",
        "category": "基础设施:公共设施:公共厕所",
        "type": 0,
        "location": {
            "lat": 29.584758,
            "lng": 105.051294
        },
        "ad_info": {
            "adcode": 511011,
            "province": "四川省",
            "city": "内江市",
            "district": "东兴区"
        }
    },
    {
        "id": "6915324969716553907",
        "title": "公共厕所",
        "address": "四川省内江市隆昌市山川高速出口",
        "tel": "",
        "category": "基础设施:公共设施:公共厕所",
        "type": 0,
        "location": {
            "lat": 29.30987,
            "lng": 105.289126
        },
        "ad_info": {
            "adcode": 511083,
            "province": "四川省",
            "city": "内江市",
            "district": "隆昌市"
        }
    },
    {
        "id": "511012728192074817",
        "title": "公共厕所",
        "address": "四川省内江市隆昌市兴隆路与白塔路辅路交叉口正东方向310米左右",
        "tel": "",
        "category": "基础设施:公共设施:公共厕所",
        "type": 0,
        "location": {
            "lat": 29.329837,
            "lng": 105.302418
        },
        "ad_info": {
            "adcode": 511083,
            "province": "四川省",
            "city": "内江市",
            "district": "隆昌市"
        }
    },
    {
        "id": "17567326824731776656",
        "title": "公共厕所",
        "address": "四川省内江市隆昌市迎祥镇吉祥路112号",
        "tel": "",
        "category": "基础设施:公共设施:公共厕所",
        "type": 0,
        "location": {
            "lat": 29.389995,
            "lng": 105.210211
        },
        "ad_info": {
            "adcode": 511083,
            "province": "四川省",
            "city": "内江市",
            "district": "隆昌市"
        }
    },
    {
        "id": "909741286929436560",
        "title": "公共厕所",
        "address": "四川省内江市隆昌市东新街与游园路交叉口东南方向179米左右",
        "tel": "",
        "category": "基础设施:公共设施:公共厕所",
        "type": 0,
        "location": {
            "lat": 29.340095,
            "lng": 105.291548
        },
        "ad_info": {
            "adcode": 511083,
            "province": "四川省",
            "city": "内江市",
            "district": "隆昌市"
        }
    },
    {
        "id": "13666318451314047158",
        "title": "公共厕所",
        "address": "四川省内江市隆昌市交通路与春光路交叉口正南方向91米左右",
        "tel": "",
        "category": "基础设施:公共设施:公共厕所",
        "type": 0,
        "location": {
            "lat": 29.343741,
            "lng": 105.291651
        },
        "ad_info": {
            "adcode": 511083,
            "province": "四川省",
            "city": "内江市",
            "district": "隆昌市"
        }
    },
    {
        "id": "7458401458768027851",
        "title": "公共厕所",
        "address": "四川省内江市隆昌市兴和巷与新华街交叉口西北方向108米左右",
        "tel": "",
        "category": "基础设施:公共设施:公共厕所",
        "type": 0,
        "location": {
            "lat": 29.338586,
            "lng": 105.291584
        },
        "ad_info": {
            "adcode": 511083,
            "province": "四川省",
            "city": "内江市",
            "district": "隆昌市"
        }
    },
    {
        "id": "9849398981875900078",
        "title": "公共厕所",
        "address": "四川省内江市市中区上南街与复兴巷交叉口东北方向43米左右",
        "tel": "",
        "category": "基础设施:公共设施:公共厕所",
        "type": 0,
        "location": {
            "lat": 29.583724,
            "lng": 105.066989
        },
        "ad_info": {
            "adcode": 511002,
            "province": "四川省",
            "city": "内江市",
            "district": "市中区"
        }
    },
    {
        "id": "883404813005758648",
        "title": "公共厕所",
        "address": "四川省内江市隆昌市大南街与新华街交叉口东北方向36米左右",
        "tel": "",
        "category": "基础设施:公共设施:公共厕所",
        "type": 0,
        "location": {
            "lat": 29.332762,
            "lng": 105.289903
        },
        "ad_info": {
            "adcode": 511083,
            "province": "四川省",
            "city": "内江市",
            "district": "隆昌市"
        }
    },
    {
        "id": "14895886836794848425",
        "title": "公共厕所",
        "address": "四川省内江市东兴区中兴路与平安路交叉口正北方向59米左右",
        "tel": "",
        "category": "基础设施:公共设施:公共厕所",
        "type": 0,
        "location": {
            "lat": 29.593237,
            "lng": 105.074208
        },
        "ad_info": {
            "adcode": 511011,
            "province": "四川省",
            "city": "内江市",
            "district": "东兴区"
        }
    },
    {
        "id": "1291590890195285042",
        "title": "公共厕所",
        "address": "四川省内江市隆昌市中南街与中心街交叉口西北方向73米左右",
        "tel": "",
        "category": "基础设施:公共设施:公共厕所",
        "type": 0,
        "location": {
            "lat": 29.33803,
            "lng": 105.28677
        },
        "ad_info": {
            "adcode": 511083,
            "province": "四川省",
            "city": "内江市",
            "district": "隆昌市"
        }
    },
    {
        "id": "10964974382318834016",
        "title": "公共厕所",
        "address": "四川省内江市东兴区幸福街与清流街交叉口西北方向1598米左右",
        "tel": "",
        "category": "基础设施:公共设施:公共厕所",
        "type": 0,
        "location": {
            "lat": 29.774335,
            "lng": 105.1513
        },
        "ad_info": {
            "adcode": 511011,
            "province": "四川省",
            "city": "内江市",
            "district": "东兴区"
        }
    },
    {
        "id": "15727060668034777420",
        "title": "公共厕所",
        "address": "四川省内江市东兴区江家街88号",
        "tel": "",
        "category": "基础设施:公共设施:公共厕所",
        "type": 0,
        "location": {
            "lat": 29.591287,
            "lng": 105.07515
        },
        "ad_info": {
            "adcode": 511011,
            "province": "四川省",
            "city": "内江市",
            "district": "东兴区"
        }
    },
    {
        "id": "956349598977025334",
        "title": "公共厕所",
        "address": "四川省内江市东兴区中兴路与农校街交叉口正北方向167米左右",
        "tel": "",
        "category": "基础设施:公共设施:公共厕所",
        "type": 0,
        "location": {
            "lat": 29.587416,
            "lng": 105.075958
        },
        "ad_info": {
            "adcode": 511011,
            "province": "四川省",
            "city": "内江市",
            "district": "东兴区"
        }
    },
    {
        "id": "2154043790213153819",
        "title": "公共厕所",
        "address": "四川省内江市市中区双洞路与甜城大道南段交叉口正东方向85米左右",
        "tel": "",
        "category": "基础设施:公共设施:公共厕所",
        "type": 0,
        "location": {
            "lat": 29.576684,
            "lng": 105.037617
        },
        "ad_info": {
            "adcode": 511002,
            "province": "四川省",
            "city": "内江市",
            "district": "市中区"
        }
    },
    {
        "id": "2668637538200512317",
        "title": "公共厕所",
        "address": "四川省内江市隆昌市跃进街1048号附1号",
        "tel": "",
        "category": "基础设施:公共设施:公共厕所",
        "type": 0,
        "location": {
            "lat": 29.355583,
            "lng": 105.280028
        },
        "ad_info": {
            "adcode": 511083,
            "province": "四川省",
            "city": "内江市",
            "district": "隆昌市"
        }
    },
    {
        "id": "1186041434070331337",
        "title": "公共厕所",
        "address": "四川省内江市隆昌市G321与通龙路交叉口正东方向295米左右",
        "tel": "",
        "category": "基础设施:公共设施:公共厕所",
        "type": 0,
        "location": {
            "lat": 29.384655,
            "lng": 105.22033
        },
        "ad_info": {
            "adcode": 511083,
            "province": "四川省",
            "city": "内江市",
            "district": "隆昌市"
        }
    },
    {
        "id": "3898046676844434441",
        "title": "公共厕所",
        "address": "四川省内江市东兴区兴盛路与红星路交叉口东北方向71米左右",
        "tel": "",
        "category": "基础设施:公共设施:公共厕所",
        "type": 0,
        "location": {
            "lat": 29.599841,
            "lng": 105.084592
        },
        "ad_info": {
            "adcode": 511011,
            "province": "四川省",
            "city": "内江市",
            "district": "东兴区"
        }
    },
    {
        "id": "14119013407974263623",
        "title": "公共厕所",
        "address": "四川省内江市隆昌市滨江路四段21号",
        "tel": "",
        "category": "基础设施:公共设施:公共厕所",
        "type": 0,
        "location": {
            "lat": 29.335862,
            "lng": 105.288143
        },
        "ad_info": {
            "adcode": 511083,
            "province": "四川省",
            "city": "内江市",
            "district": "隆昌市"
        }
    },
    {
        "id": "4443732014998715588",
        "title": "公共厕所",
        "address": "四川省内江市东兴区厦蓉高速与石桥南路交叉口正东方向31米左右",
        "tel": "",
        "category": "基础设施:公共设施:公共厕所",
        "type": 0,
        "location": {
            "lat": 29.496783,
            "lng": 105.092841
        },
        "ad_info": {
            "adcode": 511011,
            "province": "四川省",
            "city": "内江市",
            "district": "东兴区"
        }
    },
    {
        "id": "10879366836786457728",
        "title": "公共厕所",
        "address": "四川省内江市隆昌市成渝中路与成渝北路东街交叉口正南方向46米左右",
        "tel": "",
        "category": "基础设施:公共设施:公共厕所",
        "type": 0,
        "location": {
            "lat": 29.339585,
            "lng": 105.298025
        },
        "ad_info": {
            "adcode": 511083,
            "province": "四川省",
            "city": "内江市",
            "district": "隆昌市"
        }
    },
    {
        "id": "17203672017578557886",
        "title": "公共厕所",
        "address": "四川省内江市资中县东大道南二巷与桂花南街交叉口正北方向102米左右",
        "tel": "",
        "category": "基础设施:公共设施:公共厕所",
        "type": 0,
        "location": {
            "lat": 29.765215,
            "lng": 104.85253
        },
        "ad_info": {
            "adcode": 511025,
            "province": "四川省",
            "city": "内江市",
            "district": "资中县"
        }
    },
    {
        "id": "11669354852776711791",
        "title": "公共厕所",
        "address": "四川省内江市资中县后西街与鼓楼街交叉口东南方向33米左右",
        "tel": "",
        "category": "基础设施:公共设施:公共厕所",
        "type": 0,
        "location": {
            "lat": 29.776086,
            "lng": 104.85209
        },
        "ad_info": {
            "adcode": 511025,
            "province": "四川省",
            "city": "内江市",
            "district": "资中县"
        }
    },
    {
        "id": "13425316825335569796",
        "title": "公共厕所",
        "address": "四川省内江市市中区交通路与广场路交叉口正东方向141米左右",
        "tel": "",
        "category": "基础设施:公共设施:公共厕所",
        "type": 0,
        "location": {
            "lat": 29.57918,
            "lng": 105.068655
        },
        "ad_info": {
            "adcode": 511002,
            "province": "四川省",
            "city": "内江市",
            "district": "市中区"
        }
    },
    {
        "id": "9687814407121585173",
        "title": "公共厕所",
        "address": "四川省内江市东兴区凤窝街一巷5号",
        "tel": "",
        "category": "基础设施:公共设施:公共厕所",
        "type": 0,
        "location": {
            "lat": 29.590141,
            "lng": 105.073024
        },
        "ad_info": {
            "adcode": 511011,
            "province": "四川省",
            "city": "内江市",
            "district": "东兴区"
        }
    },
    {
        "id": "5256272344309580148",
        "title": "公共厕所",
        "address": "四川省内江市市中区环城路辅路与交通路交叉口东60米",
        "tel": "",
        "category": "基础设施:公共设施:公共厕所",
        "type": 0,
        "location": {
            "lat": 29.572116,
            "lng": 105.06869
        },
        "ad_info": {
            "adcode": 511002,
            "province": "四川省",
            "city": "内江市",
            "district": "市中区"
        }
    },
    {
        "id": "14273465194927820880",
        "title": "公共厕所",
        "address": "四川省内江市市中区东坝街与中央路交叉口东北方向29米左右",
        "tel": "",
        "category": "基础设施:公共设施:公共厕所",
        "type": 0,
        "location": {
            "lat": 29.587096,
            "lng": 105.067914
        },
        "ad_info": {
            "adcode": 511002,
            "province": "四川省",
            "city": "内江市",
            "district": "市中区"
        }
    },
    {
        "id": "10270176303145954974",
        "title": "公共厕所",
        "address": "四川省内江市资中县金山街与锦苑街交叉口正东方向22米左右",
        "tel": "",
        "category": "基础设施:公共设施:公共厕所",
        "type": 0,
        "location": {
            "lat": 29.767943,
            "lng": 104.849193
        },
        "ad_info": {
            "adcode": 511025,
            "province": "四川省",
            "city": "内江市",
            "district": "资中县"
        }
    },
    {
        "id": "3208663011314501016",
        "title": "公共厕所",
        "address": "四川省内江市市中区双洞路与玉溪路交叉口正西方向14米左右",
        "tel": "",
        "category": "基础设施:公共设施:公共厕所",
        "type": 0,
        "location": {
            "lat": 29.577843,
            "lng": 105.050625
        },
        "ad_info": {
            "adcode": 511002,
            "province": "四川省",
            "city": "内江市",
            "district": "市中区"
        }
    },
    {
        "id": "13554862356612993870",
        "title": "公共厕所",
        "address": "四川省内江市东兴区兴盛路西段与能力路交叉口正东方向90米左右",
        "tel": "",
        "category": "基础设施:公共设施:公共厕所",
        "type": 0,
        "location": {
            "lat": 29.600208,
            "lng": 105.071099
        },
        "ad_info": {
            "adcode": 511011,
            "province": "四川省",
            "city": "内江市",
            "district": "东兴区"
        }
    },
    {
        "id": "13409651718685582053",
        "title": "公共厕所",
        "address": "四川省内江市市中区人民街与兴隆街交叉口东南方向58米左右",
        "tel": "",
        "category": "基础设施:公共设施:公共厕所",
        "type": 0,
        "location": {
            "lat": 29.529628,
            "lng": 104.992522
        },
        "ad_info": {
            "adcode": 511002,
            "province": "四川省",
            "city": "内江市",
            "district": "市中区"
        }
    },
    {
        "id": "10898529505925565184",
        "title": "公共厕所",
        "address": "四川省内江市市中区松山南路与甜城大道中段交叉口西南方向139米左右",
        "tel": "",
        "category": "基础设施:公共设施:公共厕所",
        "type": 0,
        "location": {
            "lat": 29.578022,
            "lng": 105.032593
        },
        "ad_info": {
            "adcode": 511002,
            "province": "四川省",
            "city": "内江市",
            "district": "市中区"
        }
    },
    {
        "id": "10155055511331824915",
        "title": "清溪湿地公园公共厕所",
        "address": "四川省内江市东兴区清溪湿地公园(西北角)",
        "tel": "",
        "category": "基础设施:公共设施:公共厕所",
        "type": 0,
        "location": {
            "lat": 29.603308,
            "lng": 105.03474
        },
        "ad_info": {
            "adcode": 511011,
            "province": "四川省",
            "city": "内江市",
            "district": "东兴区"
        }
    },
    {
        "id": "9208534685108794629",
        "title": "公共厕所",
        "address": "四川省内江市东兴区胜利路与蟠龙路交叉口西南方向85米左右",
        "tel": "",
        "category": "基础设施:公共设施:公共厕所",
        "type": 0,
        "location": {
            "lat": 29.606232,
            "lng": 105.073581
        },
        "ad_info": {
            "adcode": 511011,
            "province": "四川省",
            "city": "内江市",
            "district": "东兴区"
        }
    },
    {
        "id": "15983428651488464968",
        "title": "公共厕所",
        "address": "四川省内江市资中县G321与球马路交叉口正西方向180米左右",
        "tel": "",
        "category": "基础设施:公共设施:公共厕所",
        "type": 0,
        "location": {
            "lat": 29.901338,
            "lng": 104.627296
        },
        "ad_info": {
            "adcode": 511025,
            "province": "四川省",
            "city": "内江市",
            "district": "资中县"
        }
    },
    {
        "id": "10514351807069700680",
        "title": "公共厕所",
        "address": "四川省内江市市中区民族路497号",
        "tel": "",
        "category": "基础设施:公共设施:公共厕所",
        "type": 0,
        "location": {
            "lat": 29.58279,
            "lng": 105.054757
        },
        "ad_info": {
            "adcode": 511002,
            "province": "四川省",
            "city": "内江市",
            "district": "市中区"
        }
    },
    {
        "id": "11291034364158932645",
        "title": "卫生间",
        "address": "四川省内江市隆昌市古宇路32号附3号",
        "tel": "",
        "category": "基础设施:公共设施:公共厕所",
        "type": 0,
        "location": {
            "lat": 29.336793,
            "lng": 105.283082
        },
        "ad_info": {
            "adcode": 511083,
            "province": "四川省",
            "city": "内江市",
            "district": "隆昌市"
        }
    },
    {
        "id": "4878925589629938092",
        "title": "公共厕所",
        "address": "四川省内江市市中区东桐路与民族路交叉口正西方向267米左右",
        "tel": "",
        "category": "基础设施:公共设施:公共厕所",
        "type": 0,
        "location": {
            "lat": 29.580748,
            "lng": 105.047179
        },
        "ad_info": {
            "adcode": 511002,
            "province": "四川省",
            "city": "内江市",
            "district": "市中区"
        }
    },
    {
        "id": "11533149479764897084",
        "title": "公共卫生间",
        "address": "四川省内江市市中区大洲路与民族路交叉口东北方向138米左右",
        "tel": "0832-2022038",
        "category": "基础设施:公共设施:公共厕所",
        "type": 0,
        "location": {
            "lat": 29.585948,
            "lng": 105.057667
        },
        "ad_info": {
            "adcode": 511002,
            "province": "四川省",
            "city": "内江市",
            "district": "市中区"
        }
    },
    {
        "id": "8024899806114452071",
        "title": "西林寺公共厕所",
        "address": "四川省内江市东兴区东桐路与五河路交叉口正西方向280米左右",
        "tel": "",
        "category": "基础设施:公共设施:公共厕所",
        "type": 0,
        "location": {
            "lat": 29.592673,
            "lng": 105.05985
        },
        "ad_info": {
            "adcode": 511011,
            "province": "四川省",
            "city": "内江市",
            "district": "东兴区"
        }
    },
    {
        "id": "17480362746003201941",
        "title": "公共厕所",
        "address": "四川省内江市资中县Y501与银杨街交叉口西北方向234米左右",
        "tel": "",
        "category": "基础设施:公共设施:公共厕所",
        "type": 0,
        "location": {
            "lat": 29.682436,
            "lng": 104.968696
        },
        "ad_info": {
            "adcode": 511025,
            "province": "四川省",
            "city": "内江市",
            "district": "资中县"
        }
    },
    {
        "id": "1428683417777232397",
        "title": "公共厕所",
        "address": "四川省内江市东兴区星桥街桐梓小区-1期",
        "tel": "",
        "category": "基础设施:公共设施:公共厕所",
        "type": 0,
        "location": {
            "lat": 29.5957,
            "lng": 105.05503
        },
        "ad_info": {
            "adcode": 511011,
            "province": "四川省",
            "city": "内江市",
            "district": "东兴区"
        }
    },
    {
        "id": "7792911426728106628",
        "title": "公共厕所",
        "address": "四川省内江市威远县威远大道婆城公园(东侧)",
        "tel": "",
        "category": "基础设施:公共设施:公共厕所",
        "type": 0,
        "location": {
            "lat": 29.536759,
            "lng": 104.670391
        },
        "ad_info": {
            "adcode": 511024,
            "province": "四川省",
            "city": "内江市",
            "district": "威远县"
        }
    },
    {
        "id": "14266995447452242040",
        "title": "公共厕所",
        "address": "四川省内江市东兴区兴盛路东段731号",
        "tel": "",
        "category": "基础设施:公共设施:公共厕所",
        "type": 0,
        "location": {
            "lat": 29.599003,
            "lng": 105.089324
        },
        "ad_info": {
            "adcode": 511011,
            "province": "四川省",
            "city": "内江市",
            "district": "东兴区"
        }
    },
    {
        "id": "9138087023605145692",
        "title": "公共厕所",
        "address": "四川省内江市资中县中和街与资威路交叉口正西方向53米左右",
        "tel": "",
        "category": "基础设施:公共设施:公共厕所",
        "type": 0,
        "location": {
            "lat": 29.661593,
            "lng": 104.792318
        },
        "ad_info": {
            "adcode": 511025,
            "province": "四川省",
            "city": "内江市",
            "district": "资中县"
        }
    },
    {
        "id": "5640880208766553886",
        "title": "铁站街公共厕所",
        "address": "四川省内江市市中区铁站街136号",
        "tel": "",
        "category": "基础设施:公共设施:公共厕所",
        "type": 0,
        "location": {
            "lat": 29.589181,
            "lng": 105.03739
        },
        "ad_info": {
            "adcode": 511002,
            "province": "四川省",
            "city": "内江市",
            "district": "市中区"
        }
    },
    {
        "id": "1328787654683693961",
        "title": "公共厕所",
        "address": "四川省内江市东兴区圣江路与铁站街东巷交叉口正东方向438米左右",
        "tel": "",
        "category": "基础设施:公共设施:公共厕所",
        "type": 0,
        "location": {
            "lat": 29.591251,
            "lng": 105.045938
        },
        "ad_info": {
            "adcode": 511011,
            "province": "四川省",
            "city": "内江市",
            "district": "东兴区"
        }
    },
    {
        "id": "3202955980785973589",
        "title": "公共厕所",
        "address": "四川省内江市东兴区兴隆路与星桥街交叉口东北方向46米左右",
        "tel": "",
        "category": "基础设施:公共设施:公共厕所",
        "type": 0,
        "location": {
            "lat": 29.596127,
            "lng": 105.065952
        },
        "ad_info": {
            "adcode": 511011,
            "province": "四川省",
            "city": "内江市",
            "district": "东兴区"
        }
    },
    {
        "id": "2896941058633110915",
        "title": "帝景公共厕所",
        "address": "四川省内江市市中区公园街与大梯巷交叉口正北方向93米左右",
        "tel": "",
        "category": "基础设施:公共设施:公共厕所",
        "type": 0,
        "location": {
            "lat": 29.583645,
            "lng": 105.06479
        },
        "ad_info": {
            "adcode": 511002,
            "province": "四川省",
            "city": "内江市",
            "district": "市中区"
        }
    },
    {
        "id": "17056163812946253937",
        "title": "师院公共厕所",
        "address": "四川省内江市东兴区东桐路与民族路交叉口东北方向402米左右",
        "tel": "",
        "category": "基础设施:公共设施:公共厕所",
        "type": 0,
        "location": {
            "lat": 29.583864,
            "lng": 105.051603
        },
        "ad_info": {
            "adcode": 511011,
            "province": "四川省",
            "city": "内江市",
            "district": "东兴区"
        }
    },
    {
        "id": "9196428547823483618",
        "title": "棉纺厂公共厕所",
        "address": "四川省内江市市中区六和春酒店傍",
        "tel": "",
        "category": "基础设施:公共设施:公共厕所",
        "type": 0,
        "location": {
            "lat": 29.587153,
            "lng": 105.043853
        },
        "ad_info": {
            "adcode": 511002,
            "province": "四川省",
            "city": "内江市",
            "district": "市中区"
        }
    },
    {
        "id": "5085023339807877232",
        "title": "大千路公共厕所",
        "address": "四川省内江市东兴区东桐路与大千路交叉口正东方向54米左右",
        "tel": "",
        "category": "基础设施:公共设施:公共厕所",
        "type": 0,
        "location": {
            "lat": 29.590749,
            "lng": 105.057039
        },
        "ad_info": {
            "adcode": 511011,
            "province": "四川省",
            "city": "内江市",
            "district": "东兴区"
        }
    },
    {
        "id": "6432997442023517318",
        "title": "隆桥驿高速出口公共厕所",
        "address": "四川省内江市隆昌市自荣路与金星村路交叉口正北方向1924米左右",
        "tel": "",
        "category": "基础设施:公共设施:公共厕所",
        "type": 0,
        "location": {
            "lat": 29.361118,
            "lng": 105.23464
        },
        "ad_info": {
            "adcode": 511083,
            "province": "四川省",
            "city": "内江市",
            "district": "隆昌市"
        }
    },
    {
        "id": "4344842148291527392",
        "title": "公共厕所",
        "address": "四川省内江市市中区南屏街与南屏街南巷交叉口东南方向83米左右",
        "tel": "",
        "category": "基础设施:公共设施:公共厕所",
        "type": 0,
        "location": {
            "lat": 29.569581,
            "lng": 105.055508
        },
        "ad_info": {
            "adcode": 511002,
            "province": "四川省",
            "city": "内江市",
            "district": "市中区"
        }
    },
    {
        "id": "7117889784158088856",
        "title": "体训公共厕所",
        "address": "四川省内江市市中区广场路102号",
        "tel": "",
        "category": "基础设施:公共设施:公共厕所",
        "type": 0,
        "location": {
            "lat": 29.580053,
            "lng": 105.065827
        },
        "ad_info": {
            "adcode": 511002,
            "province": "四川省",
            "city": "内江市",
            "district": "市中区"
        }
    },
    {
        "id": "9804480845631200777",
        "title": "师院公共厕所",
        "address": "四川省内江市东兴区大洲路与民族路交叉口正西方向382米左右",
        "tel": "0832-2054055",
        "category": "基础设施:公共设施:公共厕所",
        "type": 0,
        "location": {
            "lat": 29.584161,
            "lng": 105.051746
        },
        "ad_info": {
            "adcode": 511011,
            "province": "四川省",
            "city": "内江市",
            "district": "东兴区"
        }
    },
    {
        "id": "702718288492705266",
        "title": "内江服务区公共厕所",
        "address": "四川省内江市市中区厦蓉高速公路内江服务区加油站b旁",
        "tel": "",
        "category": "基础设施:公共设施:公共厕所",
        "type": 0,
        "location": {
            "lat": 29.58604,
            "lng": 105.02038
        },
        "ad_info": {
            "adcode": 511002,
            "province": "四川省",
            "city": "内江市",
            "district": "市中区"
        }
    },
    {
        "id": "10518445566614707526",
        "title": "邱家嘴公共厕所",
        "address": "四川省内江市市中区中国建设银行邱家嘴分理处(玉溪路)",
        "tel": "",
        "category": "基础设施:公共设施:公共厕所",
        "type": 0,
        "location": {
            "lat": 29.578575,
            "lng": 105.05248
        },
        "ad_info": {
            "adcode": 511002,
            "province": "四川省",
            "city": "内江市",
            "district": "市中区"
        }
    },
    {
        "id": "8014962073456169807",
        "title": "公共厕所",
        "address": "四川省内江市市中区内椑路与友丁路交叉口东南方向58米左右",
        "tel": "",
        "category": "基础设施:公共设施:公共厕所",
        "type": 0,
        "location": {
            "lat": 29.539134,
            "lng": 105.092629
        },
        "ad_info": {
            "adcode": 511002,
            "province": "四川省",
            "city": "内江市",
            "district": "市中区"
        }
    },
    {
        "id": "419452949688688349",
        "title": "公共厕所",
        "address": "四川省内江市市中区新华路与环城路交叉口正东方向42米左右",
        "tel": "",
        "category": "基础设施:公共设施:公共厕所",
        "type": 0,
        "location": {
            "lat": 29.574359,
            "lng": 105.058058
        },
        "ad_info": {
            "adcode": 511002,
            "province": "四川省",
            "city": "内江市",
            "district": "市中区"
        }
    },
    {
        "id": "10892093174910763852",
        "title": "甘泉寺公共厕所",
        "address": "四川省内江市市中区甘泉寺路15号",
        "tel": "",
        "category": "基础设施:公共设施:公共厕所",
        "type": 0,
        "location": {
            "lat": 29.581019,
            "lng": 105.062703
        },
        "ad_info": {
            "adcode": 511002,
            "province": "四川省",
            "city": "内江市",
            "district": "市中区"
        }
    },
    {
        "id": "8675254099039582213",
        "title": "公共厕所",
        "address": "四川省内江市威远县G247与正街交叉口西南方向1851米左右",
        "tel": "",
        "category": "基础设施:公共设施:公共厕所",
        "type": 0,
        "location": {
            "lat": 29.575449,
            "lng": 104.719469
        },
        "ad_info": {
            "adcode": 511024,
            "province": "四川省",
            "city": "内江市",
            "district": "威远县"
        }
    },
    {
        "id": "12633923798278565262",
        "title": "春岚公园公共厕所",
        "address": "四川省内江市资中县春岚北路春岚公园(东南角)",
        "tel": "",
        "category": "基础设施:公共设施:公共厕所",
        "type": 0,
        "location": {
            "lat": 29.761331,
            "lng": 104.860316
        },
        "ad_info": {
            "adcode": 511025,
            "province": "四川省",
            "city": "内江市",
            "district": "资中县"
        }
    },
    {
        "id": "7094015290607868637",
        "title": "交通路公共厕所",
        "address": "四川省内江市市中区内江市第一人民医院门诊部西北",
        "tel": "",
        "category": "基础设施:公共设施:公共厕所",
        "type": 0,
        "location": {
            "lat": 29.5799,
            "lng": 105.067682
        },
        "ad_info": {
            "adcode": 511002,
            "province": "四川省",
            "city": "内江市",
            "district": "市中区"
        }
    },
    {
        "id": "18312361437998568367",
        "title": "叠象街公共厕所",
        "address": "四川省内江市市中区叠象街与太平巷交叉口正南方向16米左右",
        "tel": "15082044870",
        "category": "基础设施:公共设施:公共厕所",
        "type": 0,
        "location": {
            "lat": 29.584271,
            "lng": 105.063739
        },
        "ad_info": {
            "adcode": 511002,
            "province": "四川省",
            "city": "内江市",
            "district": "市中区"
        }
    },
    {
        "id": "3240398095756001968",
        "title": "运输巷公共厕所",
        "address": "四川省内江市市中区中国工商银行内江文英支行南(廖家巷)",
        "tel": "",
        "category": "基础设施:公共设施:公共厕所",
        "type": 0,
        "location": {
            "lat": 29.584814,
            "lng": 105.067934
        },
        "ad_info": {
            "adcode": 511002,
            "province": "四川省",
            "city": "内江市",
            "district": "市中区"
        }
    },
    {
        "id": "7366619551425039909",
        "title": "公共厕所",
        "address": "四川省内江市市中区兰柳路与凌区街交叉口东南方向77米左右",
        "tel": "",
        "category": "基础设施:公共设施:公共厕所",
        "type": 0,
        "location": {
            "lat": 29.470643,
            "lng": 104.901821
        },
        "ad_info": {
            "adcode": 511002,
            "province": "四川省",
            "city": "内江市",
            "district": "市中区"
        }
    },
    {
        "id": "3730426718742258141",
        "title": "公共厕所",
        "address": "四川省内江市威远县",
        "tel": "",
        "category": "基础设施:公共设施:公共厕所",
        "type": 0,
        "location": {
            "lat": 29.62457,
            "lng": 104.706382
        },
        "ad_info": {
            "adcode": 511024,
            "province": "四川省",
            "city": "内江市",
            "district": "威远县"
        }
    },
    {
        "id": "15489248460235650752",
        "title": "公共厕所",
        "address": "四川省内江市威远县G247与交通街交叉口正北方向470米左右",
        "tel": "",
        "category": "基础设施:公共设施:公共厕所",
        "type": 0,
        "location": {
            "lat": 29.450832,
            "lng": 104.678914
        },
        "ad_info": {
            "adcode": 511024,
            "province": "四川省",
            "city": "内江市",
            "district": "威远县"
        }
    },
    {
        "id": "11730821665642264060",
        "title": "公共厕所",
        "address": "四川省内江市威远县四方新村东北侧250米",
        "tel": "",
        "category": "基础设施:公共设施:公共厕所",
        "type": 0,
        "location": {
            "lat": 29.425584,
            "lng": 104.69991
        },
        "ad_info": {
            "adcode": 511024,
            "province": "四川省",
            "city": "内江市",
            "district": "威远县"
        }
    },
    {
        "id": "8704092109988841061",
        "title": "公共厕所",
        "address": "四川省内江市威远县土店村威煤隧道威远黄荆沟客运站",
        "tel": "",
        "category": "基础设施:公共设施:公共厕所",
        "type": 0,
        "location": {
            "lat": 29.650571,
            "lng": 104.68695
        },
        "ad_info": {
            "adcode": 511024,
            "province": "四川省",
            "city": "内江市",
            "district": "威远县"
        }
    },
    {
        "id": "3477015217974781650",
        "title": "运输巷公共厕所",
        "address": "四川省内江市市中区东坝街9号",
        "tel": "",
        "category": "基础设施:公共设施:公共厕所",
        "type": 0,
        "location": {
            "lat": 29.587024,
            "lng": 105.068567
        },
        "ad_info": {
            "adcode": 511002,
            "province": "四川省",
            "city": "内江市",
            "district": "市中区"
        }
    },
    {
        "id": "10458780920860539382",
        "title": "公共厕所",
        "address": "四川省内江市威远县顺河街与上桥街交叉口东南180米",
        "tel": "",
        "category": "基础设施:公共设施:公共厕所",
        "type": 0,
        "location": {
            "lat": 29.695081,
            "lng": 104.333505
        },
        "ad_info": {
            "adcode": 511024,
            "province": "四川省",
            "city": "内江市",
            "district": "威远县"
        }
    },
    {
        "id": "3239838656914037100",
        "title": "公共厕所",
        "address": "四川省内江市威远县河北街与碗河路交叉口正南方向62米左右",
        "tel": "",
        "category": "基础设施:公共设施:公共厕所",
        "type": 0,
        "location": {
            "lat": 29.695533,
            "lng": 104.33225
        },
        "ad_info": {
            "adcode": 511024,
            "province": "四川省",
            "city": "内江市",
            "district": "威远县"
        }
    },
    {
        "id": "11687158010577383982",
        "title": "公共厕所",
        "address": "四川省内江市威远县威仁路附近",
        "tel": "",
        "category": "基础设施:公共设施:公共厕所",
        "type": 0,
        "location": {
            "lat": 29.649631,
            "lng": 104.396452
        },
        "ad_info": {
            "adcode": 511024,
            "province": "四川省",
            "city": "内江市",
            "district": "威远县"
        }
    },
    {
        "id": "9770459616129425395",
        "title": "棬子路公共厕所",
        "address": "四川省内江市市中区和平街与棬子路交叉口正东方向114米左右",
        "tel": "",
        "category": "基础设施:公共设施:公共厕所",
        "type": 0,
        "location": {
            "lat": 29.574097,
            "lng": 105.065823
        },
        "ad_info": {
            "adcode": 511002,
            "province": "四川省",
            "city": "内江市",
            "district": "市中区"
        }
    },
    {
        "id": "14590531007757346610",
        "title": "公共厕所",
        "address": "四川省内江市资中县板铺路",
        "tel": "",
        "category": "基础设施:公共设施:公共厕所",
        "type": 0,
        "location": {
            "lat": 29.726171,
            "lng": 104.76739
        },
        "ad_info": {
            "adcode": 511025,
            "province": "四川省",
            "city": "内江市",
            "district": "资中县"
        }
    },
    {
        "id": "13599961409952657338",
        "title": "内江服务区公共厕所",
        "address": "四川省内江市市中区交通乡曙光村厦蓉高速公路内江服务区",
        "tel": "",
        "category": "基础设施:公共设施:公共厕所",
        "type": 0,
        "location": {
            "lat": 29.585139,
            "lng": 105.020623
        },
        "ad_info": {
            "adcode": 511002,
            "province": "四川省",
            "city": "内江市",
            "district": "市中区"
        }
    },
    {
        "id": "1301782005933724119",
        "title": "市政府一巷公共厕所",
        "address": "四川省内江市市中区新华路西一巷10号",
        "tel": "",
        "category": "基础设施:公共设施:公共厕所",
        "type": 0,
        "location": {
            "lat": 29.580642,
            "lng": 105.058509
        },
        "ad_info": {
            "adcode": 511002,
            "province": "四川省",
            "city": "内江市",
            "district": "市中区"
        }
    },
    {
        "id": "3784327704486983317",
        "title": "公共厕所",
        "address": "四川省内江市威远县席草田街与席草田街东段交叉口西北方向66米左右",
        "tel": "",
        "category": "基础设施:公共设施:公共厕所",
        "type": 0,
        "location": {
            "lat": 29.522265,
            "lng": 104.666113
        },
        "ad_info": {
            "adcode": 511024,
            "province": "四川省",
            "city": "内江市",
            "district": "威远县"
        }
    },
    {
        "id": "13454086638806214242",
        "title": "环城路二巷4号公共厕所",
        "address": "四川省内江市市中区环城路与腾飞路交叉口东北方向97米左右",
        "tel": "",
        "category": "基础设施:公共设施:公共厕所",
        "type": 0,
        "location": {
            "lat": 29.574079,
            "lng": 105.062816
        },
        "ad_info": {
            "adcode": 511002,
            "province": "四川省",
            "city": "内江市",
            "district": "市中区"
        }
    },
    {
        "id": "2836171951080928542",
        "title": "玉王庙出口停车场公共厕所",
        "address": "四川省内江市市中区汉安大道西段与玉王庙立交桥交叉口东南方向134米左右",
        "tel": "",
        "category": "基础设施:公共设施:公共厕所",
        "type": 0,
        "location": {
            "lat": 29.603185,
            "lng": 105.004289
        },
        "ad_info": {
            "adcode": 511002,
            "province": "四川省",
            "city": "内江市",
            "district": "市中区"
        }
    },
    {
        "id": "8540484220044163128",
        "title": "甜城职工驿站民族路服务点公共厕所(工会驿站)",
        "address": "四川省内江市市中区民族路244号",
        "tel": "13659077237",
        "category": "基础设施:公共设施:公共厕所",
        "type": 0,
        "location": {
            "lat": 29.584483,
            "lng": 105.058338
        },
        "ad_info": {
            "adcode": 511002,
            "province": "四川省",
            "city": "内江市",
            "district": "市中区"
        }
    },
    {
        "id": "6422469474422392220",
        "title": "交通路388号公共厕所",
        "address": "四川省内江市市中区交通路与广场路交叉口正南方向123米左右",
        "tel": "",
        "category": "基础设施:公共设施:公共厕所",
        "type": 0,
        "location": {
            "lat": 29.578469,
            "lng": 105.067351
        },
        "ad_info": {
            "adcode": 511002,
            "province": "四川省",
            "city": "内江市",
            "district": "市中区"
        }
    },
    {
        "id": "14584080895466737816",
        "title": "四川省内江市威远城南总站公共厕所",
        "address": "四川省内江市威远县三河路与电信巷交叉口西北方向34米左右",
        "tel": "",
        "category": "基础设施:公共设施:公共厕所",
        "type": 0,
        "location": {
            "lat": 29.512939,
            "lng": 104.659687
        },
        "ad_info": {
            "adcode": 511024,
            "province": "四川省",
            "city": "内江市",
            "district": "威远县"
        }
    },
    {
        "id": "13301466154313838869",
        "title": "甜城职工驿站玉溪路公共厕所服务点(工会驿站)",
        "address": "四川省内江市市中区玉溪路300号",
        "tel": "18048719077",
        "category": "基础设施:公共设施:公共厕所",
        "type": 0,
        "location": {
            "lat": 29.581385,
            "lng": 105.055435
        },
        "ad_info": {
            "adcode": 511002,
            "province": "四川省",
            "city": "内江市",
            "district": "市中区"
        }
    },
    {
        "id": "15004891574458819482",
        "title": "狮子口公共厕所",
        "address": "四川省内江市资中县水南上街226号",
        "tel": "",
        "category": "基础设施:公共设施:公共厕所",
        "type": 0,
        "location": {
            "lat": 29.773558,
            "lng": 104.840804
        },
        "ad_info": {
            "adcode": 511025,
            "province": "四川省",
            "city": "内江市",
            "district": "资中县"
        }
    },
    {
        "id": "16592241760884409488",
        "title": "环城路三巷75号公共厕所",
        "address": "四川省内江市市中区环城路三巷与环城路交叉口西北方向117米左右",
        "tel": "",
        "category": "基础设施:公共设施:公共厕所",
        "type": 0,
        "location": {
            "lat": 29.57522,
            "lng": 105.063716
        },
        "ad_info": {
            "adcode": 511002,
            "province": "四川省",
            "city": "内江市",
            "district": "市中区"
        }
    },
    {
        "id": "10528616636213967477",
        "title": "湾漏棚公共厕所",
        "address": "四川省内江市资中县水南上街256号",
        "tel": "",
        "category": "基础设施:公共设施:公共厕所",
        "type": 0,
        "location": {
            "lat": 29.773714,
            "lng": 104.840238
        },
        "ad_info": {
            "adcode": 511025,
            "province": "四川省",
            "city": "内江市",
            "district": "资中县"
        }
    },
    {
        "id": "15774691685586011441",
        "title": "南街河边公共厕所",
        "address": "四川省内江市资中县滨江路南苑河边",
        "tel": "",
        "category": "基础设施:公共设施:公共厕所",
        "type": 0,
        "location": {
            "lat": 29.77327,
            "lng": 104.853974
        },
        "ad_info": {
            "adcode": 511025,
            "province": "四川省",
            "city": "内江市",
            "district": "资中县"
        }
    },
    {
        "id": "17782081777960344674",
        "title": "中心街公共厕所",
        "address": "四川省内江市威远县中心街与兰花街交叉口东南方向126米左右",
        "tel": "15378616662",
        "category": "基础设施:公共设施:公共厕所",
        "type": 0,
        "location": {
            "lat": 29.524899,
            "lng": 104.665346
        },
        "ad_info": {
            "adcode": 511024,
            "province": "四川省",
            "city": "内江市",
            "district": "威远县"
        }
    },
    {
        "id": "9917302943449701079",
        "title": "威远高笋塘公共厕所",
        "address": "四川省内江市威远县高升街高升花园",
        "tel": "",
        "category": "基础设施:公共设施:公共厕所",
        "type": 0,
        "location": {
            "lat": 29.519263,
            "lng": 104.661081
        },
        "ad_info": {
            "adcode": 511024,
            "province": "四川省",
            "city": "内江市",
            "district": "威远县"
        }
    },
    {
        "id": "8731693408195910557",
        "title": "重龙镇卫生院对面公共厕所",
        "address": "四川省内江市资中县板板楼巷与荷花池街交叉口正北方向70米左右",
        "tel": "",
        "category": "基础设施:公共设施:公共厕所",
        "type": 0,
        "location": {
            "lat": 29.778057,
            "lng": 104.85392
        },
        "ad_info": {
            "adcode": 511025,
            "province": "四川省",
            "city": "内江市",
            "district": "资中县"
        }
    },
    {
        "id": "6255689055575868308",
        "title": "东风路公共厕所",
        "address": "四川省内江市威远县东风路与公园路交叉口正南方向89米左右",
        "tel": "18080231959",
        "category": "基础设施:公共设施:公共厕所",
        "type": 0,
        "location": {
            "lat": 29.527853,
            "lng": 104.676116
        },
        "ad_info": {
            "adcode": 511024,
            "province": "四川省",
            "city": "内江市",
            "district": "威远县"
        }
    },
    {
        "id": "17826091819443230700",
        "title": "西二巷公共厕所",
        "address": "四川省内江市市中区新华路358号",
        "tel": "",
        "category": "基础设施:公共设施:公共厕所",
        "type": 0,
        "location": {
            "lat": 29.575782,
            "lng": 105.058751
        },
        "ad_info": {
            "adcode": 511002,
            "province": "四川省",
            "city": "内江市",
            "district": "市中区"
        }
    },
    {
        "id": "10258909442419277289",
        "title": "金海名园公共厕所",
        "address": "四川省内江市资中县东大道南三巷与桂花街交叉口正西方向133米左右",
        "tel": "",
        "category": "基础设施:公共设施:公共厕所",
        "type": 0,
        "location": {
            "lat": 29.764138,
            "lng": 104.854095
        },
        "ad_info": {
            "adcode": 511025,
            "province": "四川省",
            "city": "内江市",
            "district": "资中县"
        }
    },
    {
        "id": "17360291765563755248",
        "title": "威远县一小公共厕所",
        "address": "四川省内江市威远县二环路与长益路交叉口西南方向391米左右",
        "tel": "13990531776",
        "category": "基础设施:公共设施:公共厕所",
        "type": 0,
        "location": {
            "lat": 29.507536,
            "lng": 104.666046
        },
        "ad_info": {
            "adcode": 511024,
            "province": "四川省",
            "city": "内江市",
            "district": "威远县"
        }
    },
    {
        "id": "17791421717629124550",
        "title": "甜城职工驿站三八街服务点公共厕所(工会驿站)",
        "address": "四川省内江市市中区三八街24号",
        "tel": "13388360242",
        "category": "基础设施:公共设施:公共厕所",
        "type": 0,
        "location": {
            "lat": 29.585027,
            "lng": 105.069908
        },
        "ad_info": {
            "adcode": 511002,
            "province": "四川省",
            "city": "内江市",
            "district": "市中区"
        }
    },
    {
        "id": "9238981007744093983",
        "title": "甜城职工驿站八小服务点公共厕所(工会驿站)",
        "address": "四川省内江市市中区桊子路159号1栋",
        "tel": "18980203122",
        "category": "基础设施:公共设施:公共厕所",
        "type": 0,
        "location": {
            "lat": 29.574689,
            "lng": 105.068116
        },
        "ad_info": {
            "adcode": 511002,
            "province": "四川省",
            "city": "内江市",
            "district": "市中区"
        }
    },
    {
        "id": "11854672908662843938",
        "title": "甜城职工驿站廖家巷服务点公共厕所(工会驿站)",
        "address": "四川省内江市市中区中央路与廖家巷交叉口正东方向41米左右",
        "tel": "13398102829",
        "category": "基础设施:公共设施:公共厕所",
        "type": 0,
        "location": {
            "lat": 29.584895,
            "lng": 105.068047
        },
        "ad_info": {
            "adcode": 511002,
            "province": "四川省",
            "city": "内江市",
            "district": "市中区"
        }
    },
    {
        "id": "14823109988078685162",
        "title": "威远服务区公共厕所",
        "address": "四川省内江市威远县永塘路与熊永路交叉口西北方向927米左右",
        "tel": "",
        "category": "基础设施:公共设施:公共厕所",
        "type": 0,
        "location": {
            "lat": 29.491537,
            "lng": 104.634399
        },
        "ad_info": {
            "adcode": 511024,
            "province": "四川省",
            "city": "内江市",
            "district": "威远县"
        }
    },
    {
        "id": "7160910534157577756",
        "title": "威远县建设市场公共厕所",
        "address": "四川省内江市威远县下桥街与南街交叉口正西方向66米左右",
        "tel": "13551501175",
        "category": "基础设施:公共设施:公共厕所",
        "type": 0,
        "location": {
            "lat": 29.524218,
            "lng": 104.667923
        },
        "ad_info": {
            "adcode": 511024,
            "province": "四川省",
            "city": "内江市",
            "district": "威远县"
        }
    },
    {
        "id": "3711702756065071579",
        "title": "市场公共厕所",
        "address": "四川省内江市东兴区大洲路桐梓农贸市场",
        "tel": "",
        "category": "基础设施:公共设施:公共厕所",
        "type": 0,
        "location": {
            "lat": 29.59283,
            "lng": 105.050468
        },
        "ad_info": {
            "adcode": 511011,
            "province": "四川省",
            "city": "内江市",
            "district": "东兴区"
        }
    },
    {
        "id": "998824872045929355",
        "title": "奉安广场公共厕所",
        "address": "四川省内江市资中县成渝大道中段与资州大道交叉口东南方向102米左右",
        "tel": "",
        "category": "基础设施:公共设施:公共厕所",
        "type": 0,
        "location": {
            "lat": 29.760247,
            "lng": 104.866927
        },
        "ad_info": {
            "adcode": 511025,
            "province": "四川省",
            "city": "内江市",
            "district": "资中县"
        }
    },
    {
        "id": "17190285852057621452",
        "title": "状元街公共厕所",
        "address": "四川省内江市资中县文庙(文庙街29号)",
        "tel": "",
        "category": "基础设施:公共设施:公共厕所",
        "type": 0,
        "location": {
            "lat": 29.781002,
            "lng": 104.851967
        },
        "ad_info": {
            "adcode": 511025,
            "province": "四川省",
            "city": "内江市",
            "district": "资中县"
        }
    },
    {
        "id": "976168936916618370",
        "title": "公共厕所",
        "address": "四川省内江市东兴区东兴街5号楼1层7号",
        "tel": "",
        "category": "基础设施:公共设施:公共厕所",
        "type": 0,
        "location": {
            "lat": 29.588279,
            "lng": 105.074569
        },
        "ad_info": {
            "adcode": 511011,
            "province": "四川省",
            "city": "内江市",
            "district": "东兴区"
        }
    },
    {
        "id": "6626688593743379081",
        "title": "绿色港湾公共厕所",
        "address": "四川省内江市市中区S206与西林大桥交叉口东北方向33米左右",
        "tel": "",
        "category": "基础设施:公共设施:公共厕所",
        "type": 0,
        "location": {
            "lat": 29.589548,
            "lng": 105.067127
        },
        "ad_info": {
            "adcode": 511002,
            "province": "四川省",
            "city": "内江市",
            "district": "市中区"
        }
    },
    {
        "id": "2509382811059644539",
        "title": "福利巷16号公共厕所",
        "address": "四川省内江市市中区福利巷16号",
        "tel": "",
        "category": "基础设施:公共设施:公共厕所",
        "type": 0,
        "location": {
            "lat": 29.581129,
            "lng": 105.068077
        },
        "ad_info": {
            "adcode": 511002,
            "province": "四川省",
            "city": "内江市",
            "district": "市中区"
        }
    },
    {
        "id": "8314210198335696189",
        "title": "公共厕所",
        "address": "四川省内江市威远县二环路与御屏街交叉口东北方向90米左右",
        "tel": "",
        "category": "基础设施:公共设施:公共厕所",
        "type": 0,
        "location": {
            "lat": 29.515827,
            "lng": 104.655254
        },
        "ad_info": {
            "adcode": 511024,
            "province": "四川省",
            "city": "内江市",
            "district": "威远县"
        }
    },
    {
        "id": "4977352459655378372",
        "title": "公共厕所",
        "address": "四川省内江市隆昌市水巷子与隆桥路交叉口东北方向31米左右",
        "tel": "",
        "category": "基础设施:公共设施:公共厕所",
        "type": 0,
        "location": {
            "lat": 29.335528,
            "lng": 105.287869
        },
        "ad_info": {
            "adcode": 511083,
            "province": "四川省",
            "city": "内江市",
            "district": "隆昌市"
        }
    },
    {
        "id": "3551081285843816540",
        "title": "黄河湖服务区第二公共厕所",
        "address": "四川省内江市市中区三七路与白朝路交叉口西北方向853米左右",
        "tel": "",
        "category": "基础设施:公共设施:公共厕所",
        "type": 0,
        "location": {
            "lat": 29.575458,
            "lng": 104.896305
        },
        "ad_info": {
            "adcode": 511002,
            "province": "四川省",
            "city": "内江市",
            "district": "市中区"
        }
    },
    {
        "id": "13349099677974909835",
        "title": "公共厕所",
        "address": "四川省内江市隆昌市中心街与大东街交叉口西南方向102米左右",
        "tel": "",
        "category": "基础设施:公共设施:公共厕所",
        "type": 0,
        "location": {
            "lat": 29.337963,
            "lng": 105.286207
        },
        "ad_info": {
            "adcode": 511083,
            "province": "四川省",
            "city": "内江市",
            "district": "隆昌市"
        }
    },
    {
        "id": "15546666436387597944",
        "title": "公共厕所",
        "address": "四川省内江市资中县归沙路与G76厦蓉高速入口交叉口西100米",
        "tel": "",
        "category": "基础设施:公共设施:公共厕所",
        "type": 0,
        "location": {
            "lat": 29.808065,
            "lng": 104.710803
        },
        "ad_info": {
            "adcode": 511025,
            "province": "四川省",
            "city": "内江市",
            "district": "资中县"
        }
    },
    {
        "id": "12085728434982524728",
        "title": "公共厕所",
        "address": "四川省内江市隆昌市宝峰巷与新华街交叉口正西方向33米左右",
        "tel": "",
        "category": "基础设施:公共设施:公共厕所",
        "type": 0,
        "location": {
            "lat": 29.336571,
            "lng": 105.291337
        },
        "ad_info": {
            "adcode": 511083,
            "province": "四川省",
            "city": "内江市",
            "district": "隆昌市"
        }
    },
    {
        "id": "14849526911111932171",
        "title": "公共厕所",
        "address": "四川省内江市东兴区星桥街80号",
        "tel": "",
        "category": "基础设施:公共设施:公共厕所",
        "type": 0,
        "location": {
            "lat": 29.5956,
            "lng": 105.068679
        },
        "ad_info": {
            "adcode": 511011,
            "province": "四川省",
            "city": "内江市",
            "district": "东兴区"
        }
    },
    {
        "id": "6246984385826887662",
        "title": "半边街公共厕所",
        "address": "四川省内江市威远县半边街169号",
        "tel": "18048843320",
        "category": "基础设施:公共设施:公共厕所",
        "type": 0,
        "location": {
            "lat": 29.529019,
            "lng": 104.667799
        },
        "ad_info": {
            "adcode": 511024,
            "province": "四川省",
            "city": "内江市",
            "district": "威远县"
        }
    },
    {
        "id": "8818743003240175986",
        "title": "公共厕所",
        "address": "四川省内江市威远县新盛街与新马路交叉口正北方向110米左右",
        "tel": "",
        "category": "基础设施:公共设施:公共厕所",
        "type": 0,
        "location": {
            "lat": 29.444351,
            "lng": 104.67774
        },
        "ad_info": {
            "adcode": 511024,
            "province": "四川省",
            "city": "内江市",
            "district": "威远县"
        }
    },
    {
        "id": "3456728786081582722",
        "title": "公共厕所",
        "address": "四川省内江市市中区云峰路与白朝路交叉口东北方向144米左右",
        "tel": "",
        "category": "基础设施:公共设施:公共厕所",
        "type": 0,
        "location": {
            "lat": 29.531179,
            "lng": 104.991582
        },
        "ad_info": {
            "adcode": 511002,
            "province": "四川省",
            "city": "内江市",
            "district": "市中区"
        }
    },
    {
        "id": "795896697653240083",
        "title": "四川省内江市威远人民路公共厕所",
        "address": "四川省内江市威远县一环路人民路段与人民路北段交叉口东南方向69米左右",
        "tel": "13458877356",
        "category": "基础设施:公共设施:公共厕所",
        "type": 0,
        "location": {
            "lat": 29.518652,
            "lng": 104.657511
        },
        "ad_info": {
            "adcode": 511024,
            "province": "四川省",
            "city": "内江市",
            "district": "威远县"
        }
    },
    {
        "id": "14494814554392868788",
        "title": "公共厕所",
        "address": "四川省内江市隆昌市康复东路与康复中路交叉口正西方向138米左右",
        "tel": "",
        "category": "基础设施:公共设施:公共厕所",
        "type": 0,
        "location": {
            "lat": 29.335161,
            "lng": 105.293481
        },
        "ad_info": {
            "adcode": 511083,
            "province": "四川省",
            "city": "内江市",
            "district": "隆昌市"
        }
    },
    {
        "id": "7245761648985604262",
        "title": "状元街公共厕所",
        "address": "四川省内江市资中县北街与状元街交叉口正北方向111米左右",
        "tel": "",
        "category": "基础设施:公共设施:公共厕所",
        "type": 0,
        "location": {
            "lat": 29.779733,
            "lng": 104.85215
        },
        "ad_info": {
            "adcode": 511025,
            "province": "四川省",
            "city": "内江市",
            "district": "资中县"
        }
    },
    {
        "id": "6311185485646115719",
        "title": "公共厕所",
        "address": "四川省内江市威远县翻身巷与萝卜巷交叉口正南方向33米左右",
        "tel": "",
        "category": "基础设施:公共设施:公共厕所",
        "type": 0,
        "location": {
            "lat": 29.524481,
            "lng": 104.668154
        },
        "ad_info": {
            "adcode": 511024,
            "province": "四川省",
            "city": "内江市",
            "district": "威远县"
        }
    },
    {
        "id": "12034455720586502192",
        "title": "公共厕所",
        "address": "四川省内江市威远县东陵路与东风路交叉口西南方向26米左右",
        "tel": "",
        "category": "基础设施:公共设施:公共厕所",
        "type": 0,
        "location": {
            "lat": 29.525347,
            "lng": 104.675729
        },
        "ad_info": {
            "adcode": 511024,
            "province": "四川省",
            "city": "内江市",
            "district": "威远县"
        }
    },
    {
        "id": "14321713006089898604",
        "title": "公共厕所",
        "address": "四川省内江市威远县云钢街与利民街交叉口正北方向19米左右",
        "tel": "",
        "category": "基础设施:公共设施:公共厕所",
        "type": 0,
        "location": {
            "lat": 29.733611,
            "lng": 104.490611
        },
        "ad_info": {
            "adcode": 511024,
            "province": "四川省",
            "city": "内江市",
            "district": "威远县"
        }
    },
    {
        "id": "7410150722015157081",
        "title": "公共厕所",
        "address": "四川省内江市隆昌市上街与下街交叉口西南方向115米左右",
        "tel": "",
        "category": "基础设施:公共设施:公共厕所",
        "type": 0,
        "location": {
            "lat": 29.433943,
            "lng": 105.344221
        },
        "ad_info": {
            "adcode": 511083,
            "province": "四川省",
            "city": "内江市",
            "district": "隆昌市"
        }
    },
    {
        "id": "12239321729889336432",
        "title": "公共厕所",
        "address": "四川省内江市资中县万担路与站西路交叉口东南方向262米左右",
        "tel": "",
        "category": "基础设施:公共设施:公共厕所",
        "type": 0,
        "location": {
            "lat": 29.76755,
            "lng": 104.864227
        },
        "ad_info": {
            "adcode": 511025,
            "province": "四川省",
            "city": "内江市",
            "district": "资中县"
        }
    },
    {
        "id": "357398495243028195",
        "title": "公共厕所",
        "address": "四川省内江市威远县半边街与大桥街交叉口西北方向50米左右",
        "tel": "",
        "category": "基础设施:公共设施:公共厕所",
        "type": 0,
        "location": {
            "lat": 29.530188,
            "lng": 104.664493
        },
        "ad_info": {
            "adcode": 511024,
            "province": "四川省",
            "city": "内江市",
            "district": "威远县"
        }
    },
    {
        "id": "12344320013175765169",
        "title": "公共厕所",
        "address": "四川省内江市市中区大洲路山城休闲广场(东北角)",
        "tel": "",
        "category": "基础设施:公共设施:公共厕所",
        "type": 0,
        "location": {
            "lat": 29.587792,
            "lng": 105.059997
        },
        "ad_info": {
            "adcode": 511002,
            "province": "四川省",
            "city": "内江市",
            "district": "市中区"
        }
    },
    {
        "id": "8638392819069564445",
        "title": "公共厕所",
        "address": "四川省内江市东兴区东兴大道与东城路交叉口西北方向213米左右",
        "tel": "",
        "category": "基础设施:公共设施:公共厕所",
        "type": 0,
        "location": {
            "lat": 29.608382,
            "lng": 105.084397
        },
        "ad_info": {
            "adcode": 511011,
            "province": "四川省",
            "city": "内江市",
            "district": "东兴区"
        }
    },
    {
        "id": "7849223506068567681",
        "title": "公共厕所",
        "address": "四川省内江市市中区双苏路291号",
        "tel": "",
        "category": "基础设施:公共设施:公共厕所",
        "type": 0,
        "location": {
            "lat": 29.576631,
            "lng": 105.036611
        },
        "ad_info": {
            "adcode": 511002,
            "province": "四川省",
            "city": "内江市",
            "district": "市中区"
        }
    },
    {
        "id": "1820373548514066989",
        "title": "瓦窑坝公共厕所",
        "address": "四川省内江市资中县丝绸巷与成渝上街交叉口东北方向177米左右",
        "tel": "",
        "category": "基础设施:公共设施:公共厕所",
        "type": 0,
        "location": {
            "lat": 29.773208,
            "lng": 104.839467
        },
        "ad_info": {
            "adcode": 511025,
            "province": "四川省",
            "city": "内江市",
            "district": "资中县"
        }
    },
    {
        "id": "5100003233544615026",
        "title": "太白路公共厕所",
        "address": "四川省内江市东兴区S206与西林大桥交叉口正西方向109米左右",
        "tel": "",
        "category": "基础设施:公共设施:公共厕所",
        "type": 0,
        "location": {
            "lat": 29.593672,
            "lng": 105.067002
        },
        "ad_info": {
            "adcode": 511011,
            "province": "四川省",
            "city": "内江市",
            "district": "东兴区"
        }
    },
    {
        "id": "15208173596294949107",
        "title": "公共厕所",
        "address": "四川省内江市市中区S206与西林大桥交叉口西南方向21米左右",
        "tel": "13388363554",
        "category": "基础设施:公共设施:公共厕所",
        "type": 0,
        "location": {
            "lat": 29.589153,
            "lng": 105.066783
        },
        "ad_info": {
            "adcode": 511002,
            "province": "四川省",
            "city": "内江市",
            "district": "市中区"
        }
    },
    {
        "id": "15928268256277123525",
        "title": "公共厕所",
        "address": "四川省内江市市中区S206与礼茂路交叉口正北方向135米左右",
        "tel": "",
        "category": "基础设施:公共设施:公共厕所",
        "type": 0,
        "location": {
            "lat": 29.53298,
            "lng": 105.00433
        },
        "ad_info": {
            "adcode": 511002,
            "province": "四川省",
            "city": "内江市",
            "district": "市中区"
        }
    },
    {
        "id": "915044686829521890",
        "title": "威远服务区第二公共厕所",
        "address": "四川省内江市威远县永塘路与熊永路交叉口西北方向1034米左右",
        "tel": "",
        "category": "基础设施:公共设施:公共厕所",
        "type": 0,
        "location": {
            "lat": 29.493201,
            "lng": 104.634497
        },
        "ad_info": {
            "adcode": 511024,
            "province": "四川省",
            "city": "内江市",
            "district": "威远县"
        }
    },
    {
        "id": "16162928979928838697",
        "title": "青官亭公共厕所",
        "address": "四川省内江市市中区大洲路与河坝街交叉口东北方向53米左右",
        "tel": "",
        "category": "基础设施:公共设施:公共厕所",
        "type": 0,
        "location": {
            "lat": 29.588436,
            "lng": 105.069899
        },
        "ad_info": {
            "adcode": 511002,
            "province": "四川省",
            "city": "内江市",
            "district": "市中区"
        }
    },
    {
        "id": "12205236217567407141",
        "title": "公共厕所",
        "address": "四川省内江市隆昌市康复中路与文兴街交叉口正东方向46米左右",
        "tel": "",
        "category": "基础设施:公共设施:公共厕所",
        "type": 0,
        "location": {
            "lat": 29.337595,
            "lng": 105.284958
        },
        "ad_info": {
            "adcode": 511083,
            "province": "四川省",
            "city": "内江市",
            "district": "隆昌市"
        }
    },
    {
        "id": "4931794871833329378",
        "title": "资中北站公共厕所",
        "address": "四川省内江市资中县资中北站内",
        "tel": "",
        "category": "基础设施:公共设施:公共厕所",
        "type": 0,
        "location": {
            "lat": 29.796124,
            "lng": 104.872873
        },
        "ad_info": {
            "adcode": 511025,
            "province": "四川省",
            "city": "内江市",
            "district": "资中县"
        }
    },
    {
        "id": "10344969151186837266",
        "title": "公共厕所",
        "address": "四川省内江市资中县G321与球溪河桥交叉口正西方向485米左右",
        "tel": "",
        "category": "基础设施:公共设施:公共厕所",
        "type": 0,
        "location": {
            "lat": 29.930934,
            "lng": 104.620235
        },
        "ad_info": {
            "adcode": 511025,
            "province": "四川省",
            "city": "内江市",
            "district": "资中县"
        }
    },
    {
        "id": "15631226943677811876",
        "title": "体育场公共厕所",
        "address": "四川省内江市市中区和平街与广场路交叉口西南方向12米左右",
        "tel": "",
        "category": "基础设施:公共设施:公共厕所",
        "type": 0,
        "location": {
            "lat": 29.578858,
            "lng": 105.06419
        },
        "ad_info": {
            "adcode": 511002,
            "province": "四川省",
            "city": "内江市",
            "district": "市中区"
        }
    },
    {
        "id": "3664340840414767360",
        "title": "南环路公共厕所",
        "address": "四川省内江市市中区南环路西一巷1栋",
        "tel": "",
        "category": "基础设施:公共设施:公共厕所",
        "type": 0,
        "location": {
            "lat": 29.571646,
            "lng": 105.056505
        },
        "ad_info": {
            "adcode": 511002,
            "province": "四川省",
            "city": "内江市",
            "district": "市中区"
        }
    },
    {
        "id": "16380083588165355267",
        "title": "公共厕所",
        "address": "四川省内江市威远县南街与当铺巷交叉口西北方向28米左右",
        "tel": "",
        "category": "基础设施:公共设施:公共厕所",
        "type": 0,
        "location": {
            "lat": 29.526518,
            "lng": 104.66866
        },
        "ad_info": {
            "adcode": 511024,
            "province": "四川省",
            "city": "内江市",
            "district": "威远县"
        }
    },
    {
        "id": "18354778378653046377",
        "title": "公共厕所",
        "address": "四川省内江市资中县Y501与银杨街交叉口正北方向245米左右",
        "tel": "",
        "category": "基础设施:公共设施:公共厕所",
        "type": 0,
        "location": {
            "lat": 29.682759,
            "lng": 104.969393
        },
        "ad_info": {
            "adcode": 511025,
            "province": "四川省",
            "city": "内江市",
            "district": "资中县"
        }
    },
    {
        "id": "13750853521161143535",
        "title": "公共厕所",
        "address": "四川省内江市资中县广贸街与雅兴街交叉口西北方向8米左右",
        "tel": "",
        "category": "基础设施:公共设施:公共厕所",
        "type": 0,
        "location": {
            "lat": 29.776256,
            "lng": 104.858672
        },
        "ad_info": {
            "adcode": 511025,
            "province": "四川省",
            "city": "内江市",
            "district": "资中县"
        }
    },
    {
        "id": "7833354918886004512",
        "title": "公共厕所",
        "address": "四川省内江市隆昌市中心街幼儿园中心街323号附1",
        "tel": "",
        "category": "基础设施:公共设施:公共厕所",
        "type": 0,
        "location": {
            "lat": 29.341398,
            "lng": 105.286111
        },
        "ad_info": {
            "adcode": 511083,
            "province": "四川省",
            "city": "内江市",
            "district": "隆昌市"
        }
    },
    {
        "id": "17394919501464027359",
        "title": "公共厕所",
        "address": "四川省内江市市中区松山西路与甜城大道中段交叉口东北方向271米左右",
        "tel": "",
        "category": "基础设施:公共设施:公共厕所",
        "type": 0,
        "location": {
            "lat": 29.584193,
            "lng": 105.032187
        },
        "ad_info": {
            "adcode": 511002,
            "province": "四川省",
            "city": "内江市",
            "district": "市中区"
        }
    },
    {
        "id": "4501355193800875597",
        "title": "威远服务区公共厕所",
        "address": "四川省内江市威远县永塘路与熊永路交叉口西北方向885米左右",
        "tel": "",
        "category": "基础设施:公共设施:公共厕所",
        "type": 0,
        "location": {
            "lat": 29.492506,
            "lng": 104.635857
        },
        "ad_info": {
            "adcode": 511024,
            "province": "四川省",
            "city": "内江市",
            "district": "威远县"
        }
    },
    {
        "id": "7065518927290891276",
        "title": "大桥下河边公共厕所",
        "address": "四川省内江市资中县百世街与苌弘路南一段交叉口西南方向200米左右",
        "tel": "",
        "category": "基础设施:公共设施:公共厕所",
        "type": 0,
        "location": {
            "lat": 29.775453,
            "lng": 104.844811
        },
        "ad_info": {
            "adcode": 511025,
            "province": "四川省",
            "city": "内江市",
            "district": "资中县"
        }
    },
    {
        "id": "1299556332285614504",
        "title": "公共厕所",
        "address": "四川省内江市隆昌市滨江路二段34号园林所旁",
        "tel": "",
        "category": "基础设施:公共设施:公共厕所",
        "type": 0,
        "location": {
            "lat": 29.339784,
            "lng": 105.291282
        },
        "ad_info": {
            "adcode": 511083,
            "province": "四川省",
            "city": "内江市",
            "district": "隆昌市"
        }
    },
    {
        "id": "14181143789568400300",
        "title": "公共厕所",
        "address": "四川省内江市隆昌市跃进街472号附5号",
        "tel": "",
        "category": "基础设施:公共设施:公共厕所",
        "type": 0,
        "location": {
            "lat": 29.352951,
            "lng": 105.287447
        },
        "ad_info": {
            "adcode": 511083,
            "province": "四川省",
            "city": "内江市",
            "district": "隆昌市"
        }
    },
    {
        "id": "17604143187396490538",
        "title": "公共厕所",
        "address": "四川省内江市资中县资威路东50米",
        "tel": "",
        "category": "基础设施:公共设施:公共厕所",
        "type": 0,
        "location": {
            "lat": 29.700608,
            "lng": 104.83839
        },
        "ad_info": {
            "adcode": 511025,
            "province": "四川省",
            "city": "内江市",
            "district": "资中县"
        }
    },
    {
        "id": "4683314678656287529",
        "title": "七中公共厕所",
        "address": "四川省内江市市中区新华路与新华路西二巷交叉口正北方向28米",
        "tel": "",
        "category": "基础设施:公共设施:公共厕所",
        "type": 0,
        "location": {
            "lat": 29.57571,
            "lng": 105.058752
        },
        "ad_info": {
            "adcode": 511002,
            "province": "四川省",
            "city": "内江市",
            "district": "市中区"
        }
    },
    {
        "id": "8553464609338304890",
        "title": "公共厕所",
        "address": "四川省内江市东兴区东风路与新江路交叉口东南方向331米左右",
        "tel": "",
        "category": "基础设施:公共设施:公共厕所",
        "type": 0,
        "location": {
            "lat": 29.568348,
            "lng": 105.077543
        },
        "ad_info": {
            "adcode": 511011,
            "province": "四川省",
            "city": "内江市",
            "district": "东兴区"
        }
    },
    {
        "id": "7928205014142637768",
        "title": "公共厕所",
        "address": "四川省内江市隆昌市交通路与春光路交叉口正北方向27米左右",
        "tel": "",
        "category": "基础设施:公共设施:公共厕所",
        "type": 0,
        "location": {
            "lat": 29.344772,
            "lng": 105.291308
        },
        "ad_info": {
            "adcode": 511083,
            "province": "四川省",
            "city": "内江市",
            "district": "隆昌市"
        }
    },
    {
        "id": "10377240817675359936",
        "title": "旱桥公共厕所",
        "address": "四川省内江市市中区内江宾馆外面",
        "tel": "",
        "category": "基础设施:公共设施:公共厕所",
        "type": 0,
        "location": {
            "lat": 29.580904,
            "lng": 105.060692
        },
        "ad_info": {
            "adcode": 511002,
            "province": "四川省",
            "city": "内江市",
            "district": "市中区"
        }
    },
    {
        "id": "659129682080436552",
        "title": "公共厕所",
        "address": "四川省内江市隆昌市双井巷与富顺街交叉口西南方向157米左右",
        "tel": "",
        "category": "基础设施:公共设施:公共厕所",
        "type": 0,
        "location": {
            "lat": 29.332466,
            "lng": 105.285093
        },
        "ad_info": {
            "adcode": 511083,
            "province": "四川省",
            "city": "内江市",
            "district": "隆昌市"
        }
    },
    {
        "id": "4757133142512427778",
        "title": "公共厕所",
        "address": "四川省内江市隆昌市交通路154号",
        "tel": "",
        "category": "基础设施:公共设施:公共厕所",
        "type": 0,
        "location": {
            "lat": 29.34503,
            "lng": 105.291706
        },
        "ad_info": {
            "adcode": 511083,
            "province": "四川省",
            "city": "内江市",
            "district": "隆昌市"
        }
    },
    {
        "id": "16365520839427051668",
        "title": "公共厕所",
        "address": "四川省内江市资中县凤尾广场",
        "tel": "",
        "category": "基础设施:公共设施:公共厕所",
        "type": 0,
        "location": {
            "lat": 29.756785,
            "lng": 104.855519
        },
        "ad_info": {
            "adcode": 511025,
            "province": "四川省",
            "city": "内江市",
            "district": "资中县"
        }
    },
    {
        "id": "6610666918834035534",
        "title": "桂湖街公共厕所",
        "address": "四川省内江市市中区北街与桂湖街交叉口正西方向100米左右",
        "tel": "",
        "category": "基础设施:公共设施:公共厕所",
        "type": 0,
        "location": {
            "lat": 29.588352,
            "lng": 105.065671
        },
        "ad_info": {
            "adcode": 511002,
            "province": "四川省",
            "city": "内江市",
            "district": "市中区"
        }
    },
    {
        "id": "2402576313727165963",
        "title": "和平街菜市场内公共厕所",
        "address": "四川省内江市市中区和平街菜市内",
        "tel": "15182149230",
        "category": "基础设施:公共设施:公共厕所",
        "type": 0,
        "location": {
            "lat": 29.574631,
            "lng": 105.063748
        },
        "ad_info": {
            "adcode": 511002,
            "province": "四川省",
            "city": "内江市",
            "district": "市中区"
        }
    },
    {
        "id": "403251362817125251",
        "title": "公共厕所",
        "address": "四川省内江市市中区乐高路与内椑路交叉口正西方向400米左右",
        "tel": "",
        "category": "基础设施:公共设施:公共厕所",
        "type": 0,
        "location": {
            "lat": 29.548681,
            "lng": 105.080694
        },
        "ad_info": {
            "adcode": 511002,
            "province": "四川省",
            "city": "内江市",
            "district": "市中区"
        }
    },
    {
        "id": "16763158555457150406",
        "title": "二小公共厕所",
        "address": "四川省内江市市中区沱中路与沿江路交叉口正西方向163米左右",
        "tel": "0832-2027996",
        "category": "基础设施:公共设施:公共厕所",
        "type": 0,
        "location": {
            "lat": 29.577861,
            "lng": 105.069629
        },
        "ad_info": {
            "adcode": 511002,
            "province": "四川省",
            "city": "内江市",
            "district": "市中区"
        }
    },
    {
        "id": "17409204622556965447",
        "title": "食神又名厕所兔",
        "address": "四川省内江市市中区临江小区龙腾街52号",
        "tel": "19882117291",
        "category": "基础设施:公共设施:公共厕所",
        "type": 0,
        "location": {
            "lat": 29.570101,
            "lng": 105.063383
        },
        "ad_info": {
            "adcode": 511002,
            "province": "四川省",
            "city": "内江市",
            "district": "市中区"
        }
    },
    {
        "id": "1031721451323063514",
        "title": "公共厕所",
        "address": "四川省内江市东兴区北环路与双龙路交叉口正南方向98米左右",
        "tel": "",
        "category": "基础设施:公共设施:公共厕所",
        "type": 0,
        "location": {
            "lat": 29.608032,
            "lng": 105.049127
        },
        "ad_info": {
            "adcode": 511011,
            "province": "四川省",
            "city": "内江市",
            "district": "东兴区"
        }
    },
    {
        "id": "18285155207986325179",
        "title": "七中公共厕所",
        "address": "四川省内江市市中区和平街与广场路交叉口正西方向157米左右",
        "tel": "",
        "category": "基础设施:公共设施:公共厕所",
        "type": 0,
        "location": {
            "lat": 29.578978,
            "lng": 105.062676
        },
        "ad_info": {
            "adcode": 511002,
            "province": "四川省",
            "city": "内江市",
            "district": "市中区"
        }
    },
    {
        "id": "11901190836192781581",
        "title": "沱江剧院公共厕所",
        "address": "四川省内江市市中区人民路与大西街交叉口西北方向60米左右",
        "tel": "",
        "category": "基础设施:公共设施:公共厕所",
        "type": 0,
        "location": {
            "lat": 29.586662,
            "lng": 105.06558
        },
        "ad_info": {
            "adcode": 511002,
            "province": "四川省",
            "city": "内江市",
            "district": "市中区"
        }
    },
    {
        "id": "1452986919154402161",
        "title": "威远县爱丁堡公共厕所",
        "address": "四川省内江市威远县一环路外北路东段与外北路东段交叉口正北方向201米左右",
        "tel": "",
        "category": "基础设施:公共设施:公共厕所",
        "type": 0,
        "location": {
            "lat": 29.537911,
            "lng": 104.677519
        },
        "ad_info": {
            "adcode": 511024,
            "province": "四川省",
            "city": "内江市",
            "district": "威远县"
        }
    },
    {
        "id": "1288863864920009333",
        "title": "公共厕所",
        "address": "四川省内江市隆昌市新华街百庆锦绣外滩",
        "tel": "",
        "category": "基础设施:公共设施:公共厕所",
        "type": 0,
        "location": {
            "lat": 29.342052,
            "lng": 105.292552
        },
        "ad_info": {
            "adcode": 511083,
            "province": "四川省",
            "city": "内江市",
            "district": "隆昌市"
        }
    },
    {
        "id": "5346753767175113081",
        "title": "公共厕所",
        "address": "四川省内江市东兴区112乡道与内隆路交叉口东南420米",
        "tel": "",
        "category": "基础设施:公共设施:公共厕所",
        "type": 0,
        "location": {
            "lat": 29.543736,
            "lng": 105.14745
        },
        "ad_info": {
            "adcode": 511011,
            "province": "四川省",
            "city": "内江市",
            "district": "东兴区"
        }
    },
    {
        "id": "1939786338078406428",
        "title": "公共厕所",
        "address": "四川省内江市市中区汉渝小区东侧170米",
        "tel": "",
        "category": "基础设施:公共设施:公共厕所",
        "type": 0,
        "location": {
            "lat": 29.568667,
            "lng": 105.012803
        },
        "ad_info": {
            "adcode": 511002,
            "province": "四川省",
            "city": "内江市",
            "district": "市中区"
        }
    },
    {
        "id": "10639751165829175887",
        "title": "公共厕所",
        "address": "四川省内江市隆昌市云峰关森林公园",
        "tel": "",
        "category": "基础设施:公共设施:公共厕所",
        "type": 0,
        "location": {
            "lat": 29.326812,
            "lng": 105.299731
        },
        "ad_info": {
            "adcode": 511083,
            "province": "四川省",
            "city": "内江市",
            "district": "隆昌市"
        }
    },
    {
        "id": "850560847135756766",
        "title": "公共厕所",
        "address": "四川省内江市隆昌市成渝北路与成渝北路东街交叉口西北方向49米左右",
        "tel": "",
        "category": "基础设施:公共设施:公共厕所",
        "type": 0,
        "location": {
            "lat": 29.343021,
            "lng": 105.297973
        },
        "ad_info": {
            "adcode": 511083,
            "province": "四川省",
            "city": "内江市",
            "district": "隆昌市"
        }
    },
    {
        "id": "4381400448274241408",
        "title": "公共厕所",
        "address": "四川省内江市东兴区高桥西路南段275号",
        "tel": "",
        "category": "基础设施:公共设施:公共厕所",
        "type": 0,
        "location": {
            "lat": 29.60105,
            "lng": 105.10523
        },
        "ad_info": {
            "adcode": 511011,
            "province": "四川省",
            "city": "内江市",
            "district": "东兴区"
        }
    },
    {
        "id": "10191260376121334995",
        "title": "公共厕所",
        "address": "四川省内江市市中区壕子口路1082号",
        "tel": "",
        "category": "基础设施:公共设施:公共厕所",
        "type": 0,
        "location": {
            "lat": 29.587844,
            "lng": 105.038626
        },
        "ad_info": {
            "adcode": 511002,
            "province": "四川省",
            "city": "内江市",
            "district": "市中区"
        }
    },
    {
        "id": "8473045519204051838",
        "title": "甜城职工驿站江山墅公共厕所服务点(工会驿站)",
        "address": "四川省内江市市中区三元路与新光南路交叉口东南方向461米左右",
        "tel": "13890205199",
        "category": "基础设施:公共设施:公共厕所",
        "type": 0,
        "location": {
            "lat": 29.550779,
            "lng": 105.062339
        },
        "ad_info": {
            "adcode": 511002,
            "province": "四川省",
            "city": "内江市",
            "district": "市中区"
        }
    },
    {
        "id": "16558348198785527345",
        "title": "武庙街盐巷子公共厕所",
        "address": "四川省内江市资中县北街与状元街交叉口西北方向120米左右",
        "tel": "",
        "category": "基础设施:公共设施:公共厕所",
        "type": 0,
        "location": {
            "lat": 29.7798,
            "lng": 104.852077
        },
        "ad_info": {
            "adcode": 511025,
            "province": "四川省",
            "city": "内江市",
            "district": "资中县"
        }
    },
    {
        "id": "4044850843206754104",
        "title": "资中停车区公共厕所",
        "address": "四川省内江市资中县资中停车区与G76厦蓉高速交叉口东200米",
        "tel": "",
        "category": "基础设施:公共设施:公共厕所",
        "type": 0,
        "location": {
            "lat": 29.759296,
            "lng": 104.829064
        },
        "ad_info": {
            "adcode": 511025,
            "province": "四川省",
            "city": "内江市",
            "district": "资中县"
        }
    },
    {
        "id": "10684071208999630149",
        "title": "威远服务区公共厕所",
        "address": "四川省内江市威远县G4215蓉遵高速与威远服务区交叉口西北340米",
        "tel": "",
        "category": "基础设施:公共设施:公共厕所",
        "type": 0,
        "location": {
            "lat": 29.492768,
            "lng": 104.635751
        },
        "ad_info": {
            "adcode": 511024,
            "province": "四川省",
            "city": "内江市",
            "district": "威远县"
        }
    },
    {
        "id": "11282943904311927218",
        "title": "公共厕所",
        "address": "四川省内江市市中区人民路与大西街交叉口西北方向82米左右",
        "tel": "",
        "category": "基础设施:公共设施:公共厕所",
        "type": 0,
        "location": {
            "lat": 29.586886,
            "lng": 105.065535
        },
        "ad_info": {
            "adcode": 511002,
            "province": "四川省",
            "city": "内江市",
            "district": "市中区"
        }
    },
    {
        "id": "7007680760572911197",
        "title": "五云路公共厕所",
        "address": "四川省内江市威远县五云路与白衣巷交叉口正南方向12米左右",
        "tel": "",
        "category": "基础设施:公共设施:公共厕所",
        "type": 0,
        "location": {
            "lat": 29.518232,
            "lng": 104.668862
        },
        "ad_info": {
            "adcode": 511024,
            "province": "四川省",
            "city": "内江市",
            "district": "威远县"
        }
    },
    {
        "id": "6891150477781014538",
        "title": "公共厕所",
        "address": "四川省内江市威远县石板河游旅区水韵茶轩",
        "tel": "",
        "category": "基础设施:公共设施:公共厕所",
        "type": 0,
        "location": {
            "lat": 29.724105,
            "lng": 104.524063
        },
        "ad_info": {
            "adcode": 511024,
            "province": "四川省",
            "city": "内江市",
            "district": "威远县"
        }
    },
    {
        "id": "17253863471486830790",
        "title": "东兴服务区公共厕所",
        "address": "四川省内江市东兴区东兴枢纽与内江绕城高速交叉口正南方向1863米左右",
        "tel": "",
        "category": "基础设施:公共设施:公共厕所",
        "type": 0,
        "location": {
            "lat": 29.590085,
            "lng": 105.142146
        },
        "ad_info": {
            "adcode": 511011,
            "province": "四川省",
            "city": "内江市",
            "district": "东兴区"
        }
    },
    {
        "id": "14138990616473983533",
        "title": "鹭湾2期公共厕所",
        "address": "四川省内江市市中区沿江路鹭湾二期",
        "tel": "",
        "category": "基础设施:公共设施:公共厕所",
        "type": 0,
        "location": {
            "lat": 29.574388,
            "lng": 105.071095
        },
        "ad_info": {
            "adcode": 511002,
            "province": "四川省",
            "city": "内江市",
            "district": "市中区"
        }
    },
    {
        "id": "1031721451323063514",
        "title": "公共厕所",
        "address": "四川省内江市东兴区北环路与双龙路交叉口正南方向98米左右",
        "tel": "",
        "category": "基础设施:公共设施:公共厕所",
        "type": 0,
        "location": {
            "lat": 29.608032,
            "lng": 105.049127
        },
        "ad_info": {
            "adcode": 511011,
            "province": "四川省",
            "city": "内江市",
            "district": "东兴区"
        }
    },
    {
        "id": "18285155207986325179",
        "title": "七中公共厕所",
        "address": "四川省内江市市中区和平街与广场路交叉口正西方向157米左右",
        "tel": "",
        "category": "基础设施:公共设施:公共厕所",
        "type": 0,
        "location": {
            "lat": 29.578978,
            "lng": 105.062676
        },
        "ad_info": {
            "adcode": 511002,
            "province": "四川省",
            "city": "内江市",
            "district": "市中区"
        }
    },
    {
        "id": "11901190836192781581",
        "title": "沱江剧院公共厕所",
        "address": "四川省内江市市中区人民路与大西街交叉口西北方向60米左右",
        "tel": "",
        "category": "基础设施:公共设施:公共厕所",
        "type": 0,
        "location": {
            "lat": 29.586662,
            "lng": 105.06558
        },
        "ad_info": {
            "adcode": 511002,
            "province": "四川省",
            "city": "内江市",
            "district": "市中区"
        }
    },
    {
        "id": "1452986919154402161",
        "title": "威远县爱丁堡公共厕所",
        "address": "四川省内江市威远县一环路外北路东段与外北路东段交叉口正北方向201米左右",
        "tel": "",
        "category": "基础设施:公共设施:公共厕所",
        "type": 0,
        "location": {
            "lat": 29.537911,
            "lng": 104.677519
        },
        "ad_info": {
            "adcode": 511024,
            "province": "四川省",
            "city": "内江市",
            "district": "威远县"
        }
    },
    {
        "id": "1288863864920009333",
        "title": "公共厕所",
        "address": "四川省内江市隆昌市新华街百庆锦绣外滩",
        "tel": "",
        "category": "基础设施:公共设施:公共厕所",
        "type": 0,
        "location": {
            "lat": 29.342052,
            "lng": 105.292552
        },
        "ad_info": {
            "adcode": 511083,
            "province": "四川省",
            "city": "内江市",
            "district": "隆昌市"
        }
    },
    {
        "id": "5346753767175113081",
        "title": "公共厕所",
        "address": "四川省内江市东兴区112乡道与内隆路交叉口东南420米",
        "tel": "",
        "category": "基础设施:公共设施:公共厕所",
        "type": 0,
        "location": {
            "lat": 29.543736,
            "lng": 105.14745
        },
        "ad_info": {
            "adcode": 511011,
            "province": "四川省",
            "city": "内江市",
            "district": "东兴区"
        }
    },
    {
        "id": "1939786338078406428",
        "title": "公共厕所",
        "address": "四川省内江市市中区汉渝小区东侧170米",
        "tel": "",
        "category": "基础设施:公共设施:公共厕所",
        "type": 0,
        "location": {
            "lat": 29.568667,
            "lng": 105.012803
        },
        "ad_info": {
            "adcode": 511002,
            "province": "四川省",
            "city": "内江市",
            "district": "市中区"
        }
    },
    {
        "id": "10639751165829175887",
        "title": "公共厕所",
        "address": "四川省内江市隆昌市云峰关森林公园",
        "tel": "",
        "category": "基础设施:公共设施:公共厕所",
        "type": 0,
        "location": {
            "lat": 29.326812,
            "lng": 105.299731
        },
        "ad_info": {
            "adcode": 511083,
            "province": "四川省",
            "city": "内江市",
            "district": "隆昌市"
        }
    },
    {
        "id": "850560847135756766",
        "title": "公共厕所",
        "address": "四川省内江市隆昌市成渝北路与成渝北路东街交叉口西北方向49米左右",
        "tel": "",
        "category": "基础设施:公共设施:公共厕所",
        "type": 0,
        "location": {
            "lat": 29.343021,
            "lng": 105.297973
        },
        "ad_info": {
            "adcode": 511083,
            "province": "四川省",
            "city": "内江市",
            "district": "隆昌市"
        }
    },
    {
        "id": "4381400448274241408",
        "title": "公共厕所",
        "address": "四川省内江市东兴区高桥西路南段275号",
        "tel": "",
        "category": "基础设施:公共设施:公共厕所",
        "type": 0,
        "location": {
            "lat": 29.60105,
            "lng": 105.10523
        },
        "ad_info": {
            "adcode": 511011,
            "province": "四川省",
            "city": "内江市",
            "district": "东兴区"
        }
    },
    {
        "id": "10191260376121334995",
        "title": "公共厕所",
        "address": "四川省内江市市中区壕子口路1082号",
        "tel": "",
        "category": "基础设施:公共设施:公共厕所",
        "type": 0,
        "location": {
            "lat": 29.587844,
            "lng": 105.038626
        },
        "ad_info": {
            "adcode": 511002,
            "province": "四川省",
            "city": "内江市",
            "district": "市中区"
        }
    },
    {
        "id": "8473045519204051838",
        "title": "甜城职工驿站江山墅公共厕所服务点(工会驿站)",
        "address": "四川省内江市市中区三元路与新光南路交叉口东南方向461米左右",
        "tel": "13890205199",
        "category": "基础设施:公共设施:公共厕所",
        "type": 0,
        "location": {
            "lat": 29.550779,
            "lng": 105.062339
        },
        "ad_info": {
            "adcode": 511002,
            "province": "四川省",
            "city": "内江市",
            "district": "市中区"
        }
    },
    {
        "id": "16558348198785527345",
        "title": "武庙街盐巷子公共厕所",
        "address": "四川省内江市资中县北街与状元街交叉口西北方向120米左右",
        "tel": "",
        "category": "基础设施:公共设施:公共厕所",
        "type": 0,
        "location": {
            "lat": 29.7798,
            "lng": 104.852077
        },
        "ad_info": {
            "adcode": 511025,
            "province": "四川省",
            "city": "内江市",
            "district": "资中县"
        }
    },
    {
        "id": "4044850843206754104",
        "title": "资中停车区公共厕所",
        "address": "四川省内江市资中县资中停车区与G76厦蓉高速交叉口东200米",
        "tel": "",
        "category": "基础设施:公共设施:公共厕所",
        "type": 0,
        "location": {
            "lat": 29.759296,
            "lng": 104.829064
        },
        "ad_info": {
            "adcode": 511025,
            "province": "四川省",
            "city": "内江市",
            "district": "资中县"
        }
    },
    {
        "id": "10684071208999630149",
        "title": "威远服务区公共厕所",
        "address": "四川省内江市威远县G4215蓉遵高速与威远服务区交叉口西北340米",
        "tel": "",
        "category": "基础设施:公共设施:公共厕所",
        "type": 0,
        "location": {
            "lat": 29.492768,
            "lng": 104.635751
        },
        "ad_info": {
            "adcode": 511024,
            "province": "四川省",
            "city": "内江市",
            "district": "威远县"
        }
    },
    {
        "id": "11282943904311927218",
        "title": "公共厕所",
        "address": "四川省内江市市中区人民路与大西街交叉口西北方向82米左右",
        "tel": "",
        "category": "基础设施:公共设施:公共厕所",
        "type": 0,
        "location": {
            "lat": 29.586886,
            "lng": 105.065535
        },
        "ad_info": {
            "adcode": 511002,
            "province": "四川省",
            "city": "内江市",
            "district": "市中区"
        }
    },
    {
        "id": "7007680760572911197",
        "title": "五云路公共厕所",
        "address": "四川省内江市威远县五云路与白衣巷交叉口正南方向12米左右",
        "tel": "",
        "category": "基础设施:公共设施:公共厕所",
        "type": 0,
        "location": {
            "lat": 29.518232,
            "lng": 104.668862
        },
        "ad_info": {
            "adcode": 511024,
            "province": "四川省",
            "city": "内江市",
            "district": "威远县"
        }
    },
    {
        "id": "6891150477781014538",
        "title": "公共厕所",
        "address": "四川省内江市威远县石板河游旅区水韵茶轩",
        "tel": "",
        "category": "基础设施:公共设施:公共厕所",
        "type": 0,
        "location": {
            "lat": 29.724105,
            "lng": 104.524063
        },
        "ad_info": {
            "adcode": 511024,
            "province": "四川省",
            "city": "内江市",
            "district": "威远县"
        }
    },
    {
        "id": "17253863471486830790",
        "title": "东兴服务区公共厕所",
        "address": "四川省内江市东兴区东兴枢纽与内江绕城高速交叉口正南方向1863米左右",
        "tel": "",
        "category": "基础设施:公共设施:公共厕所",
        "type": 0,
        "location": {
            "lat": 29.590085,
            "lng": 105.142146
        },
        "ad_info": {
            "adcode": 511011,
            "province": "四川省",
            "city": "内江市",
            "district": "东兴区"
        }
    },
    {
        "id": "14138990616473983533",
        "title": "鹭湾2期公共厕所",
        "address": "四川省内江市市中区沿江路鹭湾二期",
        "tel": "",
        "category": "基础设施:公共设施:公共厕所",
        "type": 0,
        "location": {
            "lat": 29.574388,
            "lng": 105.071095
        },
        "ad_info": {
            "adcode": 511002,
            "province": "四川省",
            "city": "内江市",
            "district": "市中区"
        }
    },
    {
        "id": "1031721451323063514",
        "title": "公共厕所",
        "address": "四川省内江市东兴区北环路与双龙路交叉口正南方向98米左右",
        "tel": "",
        "category": "基础设施:公共设施:公共厕所",
        "type": 0,
        "location": {
            "lat": 29.608032,
            "lng": 105.049127
        },
        "ad_info": {
            "adcode": 511011,
            "province": "四川省",
            "city": "内江市",
            "district": "东兴区"
        }
    },
    {
        "id": "18285155207986325179",
        "title": "七中公共厕所",
        "address": "四川省内江市市中区和平街与广场路交叉口正西方向157米左右",
        "tel": "",
        "category": "基础设施:公共设施:公共厕所",
        "type": 0,
        "location": {
            "lat": 29.578978,
            "lng": 105.062676
        },
        "ad_info": {
            "adcode": 511002,
            "province": "四川省",
            "city": "内江市",
            "district": "市中区"
        }
    },
    {
        "id": "11901190836192781581",
        "title": "沱江剧院公共厕所",
        "address": "四川省内江市市中区人民路与大西街交叉口西北方向60米左右",
        "tel": "",
        "category": "基础设施:公共设施:公共厕所",
        "type": 0,
        "location": {
            "lat": 29.586662,
            "lng": 105.06558
        },
        "ad_info": {
            "adcode": 511002,
            "province": "四川省",
            "city": "内江市",
            "district": "市中区"
        }
    },
    {
        "id": "1452986919154402161",
        "title": "威远县爱丁堡公共厕所",
        "address": "四川省内江市威远县一环路外北路东段与外北路东段交叉口正北方向201米左右",
        "tel": "",
        "category": "基础设施:公共设施:公共厕所",
        "type": 0,
        "location": {
            "lat": 29.537911,
            "lng": 104.677519
        },
        "ad_info": {
            "adcode": 511024,
            "province": "四川省",
            "city": "内江市",
            "district": "威远县"
        }
    },
    {
        "id": "1288863864920009333",
        "title": "公共厕所",
        "address": "四川省内江市隆昌市新华街百庆锦绣外滩",
        "tel": "",
        "category": "基础设施:公共设施:公共厕所",
        "type": 0,
        "location": {
            "lat": 29.342052,
            "lng": 105.292552
        },
        "ad_info": {
            "adcode": 511083,
            "province": "四川省",
            "city": "内江市",
            "district": "隆昌市"
        }
    },
    {
        "id": "5346753767175113081",
        "title": "公共厕所",
        "address": "四川省内江市东兴区112乡道与内隆路交叉口东南420米",
        "tel": "",
        "category": "基础设施:公共设施:公共厕所",
        "type": 0,
        "location": {
            "lat": 29.543736,
            "lng": 105.14745
        },
        "ad_info": {
            "adcode": 511011,
            "province": "四川省",
            "city": "内江市",
            "district": "东兴区"
        }
    },
    {
        "id": "1939786338078406428",
        "title": "公共厕所",
        "address": "四川省内江市市中区汉渝小区东侧170米",
        "tel": "",
        "category": "基础设施:公共设施:公共厕所",
        "type": 0,
        "location": {
            "lat": 29.568667,
            "lng": 105.012803
        },
        "ad_info": {
            "adcode": 511002,
            "province": "四川省",
            "city": "内江市",
            "district": "市中区"
        }
    },
    {
        "id": "10639751165829175887",
        "title": "公共厕所",
        "address": "四川省内江市隆昌市云峰关森林公园",
        "tel": "",
        "category": "基础设施:公共设施:公共厕所",
        "type": 0,
        "location": {
            "lat": 29.326812,
            "lng": 105.299731
        },
        "ad_info": {
            "adcode": 511083,
            "province": "四川省",
            "city": "内江市",
            "district": "隆昌市"
        }
    },
    {
        "id": "850560847135756766",
        "title": "公共厕所",
        "address": "四川省内江市隆昌市成渝北路与成渝北路东街交叉口西北方向49米左右",
        "tel": "",
        "category": "基础设施:公共设施:公共厕所",
        "type": 0,
        "location": {
            "lat": 29.343021,
            "lng": 105.297973
        },
        "ad_info": {
            "adcode": 511083,
            "province": "四川省",
            "city": "内江市",
            "district": "隆昌市"
        }
    },
    {
        "id": "4381400448274241408",
        "title": "公共厕所",
        "address": "四川省内江市东兴区高桥西路南段275号",
        "tel": "",
        "category": "基础设施:公共设施:公共厕所",
        "type": 0,
        "location": {
            "lat": 29.60105,
            "lng": 105.10523
        },
        "ad_info": {
            "adcode": 511011,
            "province": "四川省",
            "city": "内江市",
            "district": "东兴区"
        }
    },
    {
        "id": "10191260376121334995",
        "title": "公共厕所",
        "address": "四川省内江市市中区壕子口路1082号",
        "tel": "",
        "category": "基础设施:公共设施:公共厕所",
        "type": 0,
        "location": {
            "lat": 29.587844,
            "lng": 105.038626
        },
        "ad_info": {
            "adcode": 511002,
            "province": "四川省",
            "city": "内江市",
            "district": "市中区"
        }
    },
    {
        "id": "8473045519204051838",
        "title": "甜城职工驿站江山墅公共厕所服务点(工会驿站)",
        "address": "四川省内江市市中区三元路与新光南路交叉口东南方向461米左右",
        "tel": "13890205199",
        "category": "基础设施:公共设施:公共厕所",
        "type": 0,
        "location": {
            "lat": 29.550779,
            "lng": 105.062339
        },
        "ad_info": {
            "adcode": 511002,
            "province": "四川省",
            "city": "内江市",
            "district": "市中区"
        }
    },
    {
        "id": "16558348198785527345",
        "title": "武庙街盐巷子公共厕所",
        "address": "四川省内江市资中县北街与状元街交叉口西北方向120米左右",
        "tel": "",
        "category": "基础设施:公共设施:公共厕所",
        "type": 0,
        "location": {
            "lat": 29.7798,
            "lng": 104.852077
        },
        "ad_info": {
            "adcode": 511025,
            "province": "四川省",
            "city": "内江市",
            "district": "资中县"
        }
    },
    {
        "id": "4044850843206754104",
        "title": "资中停车区公共厕所",
        "address": "四川省内江市资中县资中停车区与G76厦蓉高速交叉口东200米",
        "tel": "",
        "category": "基础设施:公共设施:公共厕所",
        "type": 0,
        "location": {
            "lat": 29.759296,
            "lng": 104.829064
        },
        "ad_info": {
            "adcode": 511025,
            "province": "四川省",
            "city": "内江市",
            "district": "资中县"
        }
    },
    {
        "id": "10684071208999630149",
        "title": "威远服务区公共厕所",
        "address": "四川省内江市威远县G4215蓉遵高速与威远服务区交叉口西北340米",
        "tel": "",
        "category": "基础设施:公共设施:公共厕所",
        "type": 0,
        "location": {
            "lat": 29.492768,
            "lng": 104.635751
        },
        "ad_info": {
            "adcode": 511024,
            "province": "四川省",
            "city": "内江市",
            "district": "威远县"
        }
    },
    {
        "id": "11282943904311927218",
        "title": "公共厕所",
        "address": "四川省内江市市中区人民路与大西街交叉口西北方向82米左右",
        "tel": "",
        "category": "基础设施:公共设施:公共厕所",
        "type": 0,
        "location": {
            "lat": 29.586886,
            "lng": 105.065535
        },
        "ad_info": {
            "adcode": 511002,
            "province": "四川省",
            "city": "内江市",
            "district": "市中区"
        }
    },
    {
        "id": "7007680760572911197",
        "title": "五云路公共厕所",
        "address": "四川省内江市威远县五云路与白衣巷交叉口正南方向12米左右",
        "tel": "",
        "category": "基础设施:公共设施:公共厕所",
        "type": 0,
        "location": {
            "lat": 29.518232,
            "lng": 104.668862
        },
        "ad_info": {
            "adcode": 511024,
            "province": "四川省",
            "city": "内江市",
            "district": "威远县"
        }
    },
    {
        "id": "6891150477781014538",
        "title": "公共厕所",
        "address": "四川省内江市威远县石板河游旅区水韵茶轩",
        "tel": "",
        "category": "基础设施:公共设施:公共厕所",
        "type": 0,
        "location": {
            "lat": 29.724105,
            "lng": 104.524063
        },
        "ad_info": {
            "adcode": 511024,
            "province": "四川省",
            "city": "内江市",
            "district": "威远县"
        }
    },
    {
        "id": "17253863471486830790",
        "title": "东兴服务区公共厕所",
        "address": "四川省内江市东兴区东兴枢纽与内江绕城高速交叉口正南方向1863米左右",
        "tel": "",
        "category": "基础设施:公共设施:公共厕所",
        "type": 0,
        "location": {
            "lat": 29.590085,
            "lng": 105.142146
        },
        "ad_info": {
            "adcode": 511011,
            "province": "四川省",
            "city": "内江市",
            "district": "东兴区"
        }
    },
    {
        "id": "14138990616473983533",
        "title": "鹭湾2期公共厕所",
        "address": "四川省内江市市中区沿江路鹭湾二期",
        "tel": "",
        "category": "基础设施:公共设施:公共厕所",
        "type": 0,
        "location": {
            "lat": 29.574388,
            "lng": 105.071095
        },
        "ad_info": {
            "adcode": 511002,
            "province": "四川省",
            "city": "内江市",
            "district": "市中区"
        }
    },
    {
        "id": "1031721451323063514",
        "title": "公共厕所",
        "address": "四川省内江市东兴区北环路与双龙路交叉口正南方向98米左右",
        "tel": "",
        "category": "基础设施:公共设施:公共厕所",
        "type": 0,
        "location": {
            "lat": 29.608032,
            "lng": 105.049127
        },
        "ad_info": {
            "adcode": 511011,
            "province": "四川省",
            "city": "内江市",
            "district": "东兴区"
        }
    },
    {
        "id": "18285155207986325179",
        "title": "七中公共厕所",
        "address": "四川省内江市市中区和平街与广场路交叉口正西方向157米左右",
        "tel": "",
        "category": "基础设施:公共设施:公共厕所",
        "type": 0,
        "location": {
            "lat": 29.578978,
            "lng": 105.062676
        },
        "ad_info": {
            "adcode": 511002,
            "province": "四川省",
            "city": "内江市",
            "district": "市中区"
        }
    },
    {
        "id": "11901190836192781581",
        "title": "沱江剧院公共厕所",
        "address": "四川省内江市市中区人民路与大西街交叉口西北方向60米左右",
        "tel": "",
        "category": "基础设施:公共设施:公共厕所",
        "type": 0,
        "location": {
            "lat": 29.586662,
            "lng": 105.06558
        },
        "ad_info": {
            "adcode": 511002,
            "province": "四川省",
            "city": "内江市",
            "district": "市中区"
        }
    },
    {
        "id": "1452986919154402161",
        "title": "威远县爱丁堡公共厕所",
        "address": "四川省内江市威远县一环路外北路东段与外北路东段交叉口正北方向201米左右",
        "tel": "",
        "category": "基础设施:公共设施:公共厕所",
        "type": 0,
        "location": {
            "lat": 29.537911,
            "lng": 104.677519
        },
        "ad_info": {
            "adcode": 511024,
            "province": "四川省",
            "city": "内江市",
            "district": "威远县"
        }
    },
    {
        "id": "1288863864920009333",
        "title": "公共厕所",
        "address": "四川省内江市隆昌市新华街百庆锦绣外滩",
        "tel": "",
        "category": "基础设施:公共设施:公共厕所",
        "type": 0,
        "location": {
            "lat": 29.342052,
            "lng": 105.292552
        },
        "ad_info": {
            "adcode": 511083,
            "province": "四川省",
            "city": "内江市",
            "district": "隆昌市"
        }
    },
    {
        "id": "5346753767175113081",
        "title": "公共厕所",
        "address": "四川省内江市东兴区112乡道与内隆路交叉口东南420米",
        "tel": "",
        "category": "基础设施:公共设施:公共厕所",
        "type": 0,
        "location": {
            "lat": 29.543736,
            "lng": 105.14745
        },
        "ad_info": {
            "adcode": 511011,
            "province": "四川省",
            "city": "内江市",
            "district": "东兴区"
        }
    },
    {
        "id": "1939786338078406428",
        "title": "公共厕所",
        "address": "四川省内江市市中区汉渝小区东侧170米",
        "tel": "",
        "category": "基础设施:公共设施:公共厕所",
        "type": 0,
        "location": {
            "lat": 29.568667,
            "lng": 105.012803
        },
        "ad_info": {
            "adcode": 511002,
            "province": "四川省",
            "city": "内江市",
            "district": "市中区"
        }
    },
    {
        "id": "10639751165829175887",
        "title": "公共厕所",
        "address": "四川省内江市隆昌市云峰关森林公园",
        "tel": "",
        "category": "基础设施:公共设施:公共厕所",
        "type": 0,
        "location": {
            "lat": 29.326812,
            "lng": 105.299731
        },
        "ad_info": {
            "adcode": 511083,
            "province": "四川省",
            "city": "内江市",
            "district": "隆昌市"
        }
    },
    {
        "id": "850560847135756766",
        "title": "公共厕所",
        "address": "四川省内江市隆昌市成渝北路与成渝北路东街交叉口西北方向49米左右",
        "tel": "",
        "category": "基础设施:公共设施:公共厕所",
        "type": 0,
        "location": {
            "lat": 29.343021,
            "lng": 105.297973
        },
        "ad_info": {
            "adcode": 511083,
            "province": "四川省",
            "city": "内江市",
            "district": "隆昌市"
        }
    },
    {
        "id": "4381400448274241408",
        "title": "公共厕所",
        "address": "四川省内江市东兴区高桥西路南段275号",
        "tel": "",
        "category": "基础设施:公共设施:公共厕所",
        "type": 0,
        "location": {
            "lat": 29.60105,
            "lng": 105.10523
        },
        "ad_info": {
            "adcode": 511011,
            "province": "四川省",
            "city": "内江市",
            "district": "东兴区"
        }
    },
    {
        "id": "10191260376121334995",
        "title": "公共厕所",
        "address": "四川省内江市市中区壕子口路1082号",
        "tel": "",
        "category": "基础设施:公共设施:公共厕所",
        "type": 0,
        "location": {
            "lat": 29.587844,
            "lng": 105.038626
        },
        "ad_info": {
            "adcode": 511002,
            "province": "四川省",
            "city": "内江市",
            "district": "市中区"
        }
    },
    {
        "id": "8473045519204051838",
        "title": "甜城职工驿站江山墅公共厕所服务点(工会驿站)",
        "address": "四川省内江市市中区三元路与新光南路交叉口东南方向461米左右",
        "tel": "13890205199",
        "category": "基础设施:公共设施:公共厕所",
        "type": 0,
        "location": {
            "lat": 29.550779,
            "lng": 105.062339
        },
        "ad_info": {
            "adcode": 511002,
            "province": "四川省",
            "city": "内江市",
            "district": "市中区"
        }
    },
    {
        "id": "16558348198785527345",
        "title": "武庙街盐巷子公共厕所",
        "address": "四川省内江市资中县北街与状元街交叉口西北方向120米左右",
        "tel": "",
        "category": "基础设施:公共设施:公共厕所",
        "type": 0,
        "location": {
            "lat": 29.7798,
            "lng": 104.852077
        },
        "ad_info": {
            "adcode": 511025,
            "province": "四川省",
            "city": "内江市",
            "district": "资中县"
        }
    },
    {
        "id": "4044850843206754104",
        "title": "资中停车区公共厕所",
        "address": "四川省内江市资中县资中停车区与G76厦蓉高速交叉口东200米",
        "tel": "",
        "category": "基础设施:公共设施:公共厕所",
        "type": 0,
        "location": {
            "lat": 29.759296,
            "lng": 104.829064
        },
        "ad_info": {
            "adcode": 511025,
            "province": "四川省",
            "city": "内江市",
            "district": "资中县"
        }
    },
    {
        "id": "10684071208999630149",
        "title": "威远服务区公共厕所",
        "address": "四川省内江市威远县G4215蓉遵高速与威远服务区交叉口西北340米",
        "tel": "",
        "category": "基础设施:公共设施:公共厕所",
        "type": 0,
        "location": {
            "lat": 29.492768,
            "lng": 104.635751
        },
        "ad_info": {
            "adcode": 511024,
            "province": "四川省",
            "city": "内江市",
            "district": "威远县"
        }
    },
    {
        "id": "11282943904311927218",
        "title": "公共厕所",
        "address": "四川省内江市市中区人民路与大西街交叉口西北方向82米左右",
        "tel": "",
        "category": "基础设施:公共设施:公共厕所",
        "type": 0,
        "location": {
            "lat": 29.586886,
            "lng": 105.065535
        },
        "ad_info": {
            "adcode": 511002,
            "province": "四川省",
            "city": "内江市",
            "district": "市中区"
        }
    },
    {
        "id": "7007680760572911197",
        "title": "五云路公共厕所",
        "address": "四川省内江市威远县五云路与白衣巷交叉口正南方向12米左右",
        "tel": "",
        "category": "基础设施:公共设施:公共厕所",
        "type": 0,
        "location": {
            "lat": 29.518232,
            "lng": 104.668862
        },
        "ad_info": {
            "adcode": 511024,
            "province": "四川省",
            "city": "内江市",
            "district": "威远县"
        }
    },
    {
        "id": "6891150477781014538",
        "title": "公共厕所",
        "address": "四川省内江市威远县石板河游旅区水韵茶轩",
        "tel": "",
        "category": "基础设施:公共设施:公共厕所",
        "type": 0,
        "location": {
            "lat": 29.724105,
            "lng": 104.524063
        },
        "ad_info": {
            "adcode": 511024,
            "province": "四川省",
            "city": "内江市",
            "district": "威远县"
        }
    },
    {
        "id": "17253863471486830790",
        "title": "东兴服务区公共厕所",
        "address": "四川省内江市东兴区东兴枢纽与内江绕城高速交叉口正南方向1863米左右",
        "tel": "",
        "category": "基础设施:公共设施:公共厕所",
        "type": 0,
        "location": {
            "lat": 29.590085,
            "lng": 105.142146
        },
        "ad_info": {
            "adcode": 511011,
            "province": "四川省",
            "city": "内江市",
            "district": "东兴区"
        }
    },
    {
        "id": "14138990616473983533",
        "title": "鹭湾2期公共厕所",
        "address": "四川省内江市市中区沿江路鹭湾二期",
        "tel": "",
        "category": "基础设施:公共设施:公共厕所",
        "type": 0,
        "location": {
            "lat": 29.574388,
            "lng": 105.071095
        },
        "ad_info": {
            "adcode": 511002,
            "province": "四川省",
            "city": "内江市",
            "district": "市中区"
        }
    },
    {
        "id": "1031721451323063514",
        "title": "公共厕所",
        "address": "四川省内江市东兴区北环路与双龙路交叉口正南方向98米左右",
        "tel": "",
        "category": "基础设施:公共设施:公共厕所",
        "type": 0,
        "location": {
            "lat": 29.608032,
            "lng": 105.049127
        },
        "ad_info": {
            "adcode": 511011,
            "province": "四川省",
            "city": "内江市",
            "district": "东兴区"
        }
    },
    {
        "id": "18285155207986325179",
        "title": "七中公共厕所",
        "address": "四川省内江市市中区和平街与广场路交叉口正西方向157米左右",
        "tel": "",
        "category": "基础设施:公共设施:公共厕所",
        "type": 0,
        "location": {
            "lat": 29.578978,
            "lng": 105.062676
        },
        "ad_info": {
            "adcode": 511002,
            "province": "四川省",
            "city": "内江市",
            "district": "市中区"
        }
    },
    {
        "id": "11901190836192781581",
        "title": "沱江剧院公共厕所",
        "address": "四川省内江市市中区人民路与大西街交叉口西北方向60米左右",
        "tel": "",
        "category": "基础设施:公共设施:公共厕所",
        "type": 0,
        "location": {
            "lat": 29.586662,
            "lng": 105.06558
        },
        "ad_info": {
            "adcode": 511002,
            "province": "四川省",
            "city": "内江市",
            "district": "市中区"
        }
    },
    {
        "id": "1452986919154402161",
        "title": "威远县爱丁堡公共厕所",
        "address": "四川省内江市威远县一环路外北路东段与外北路东段交叉口正北方向201米左右",
        "tel": "",
        "category": "基础设施:公共设施:公共厕所",
        "type": 0,
        "location": {
            "lat": 29.537911,
            "lng": 104.677519
        },
        "ad_info": {
            "adcode": 511024,
            "province": "四川省",
            "city": "内江市",
            "district": "威远县"
        }
    },
    {
        "id": "1288863864920009333",
        "title": "公共厕所",
        "address": "四川省内江市隆昌市新华街百庆锦绣外滩",
        "tel": "",
        "category": "基础设施:公共设施:公共厕所",
        "type": 0,
        "location": {
            "lat": 29.342052,
            "lng": 105.292552
        },
        "ad_info": {
            "adcode": 511083,
            "province": "四川省",
            "city": "内江市",
            "district": "隆昌市"
        }
    },
    {
        "id": "5346753767175113081",
        "title": "公共厕所",
        "address": "四川省内江市东兴区112乡道与内隆路交叉口东南420米",
        "tel": "",
        "category": "基础设施:公共设施:公共厕所",
        "type": 0,
        "location": {
            "lat": 29.543736,
            "lng": 105.14745
        },
        "ad_info": {
            "adcode": 511011,
            "province": "四川省",
            "city": "内江市",
            "district": "东兴区"
        }
    },
    {
        "id": "1939786338078406428",
        "title": "公共厕所",
        "address": "四川省内江市市中区汉渝小区东侧170米",
        "tel": "",
        "category": "基础设施:公共设施:公共厕所",
        "type": 0,
        "location": {
            "lat": 29.568667,
            "lng": 105.012803
        },
        "ad_info": {
            "adcode": 511002,
            "province": "四川省",
            "city": "内江市",
            "district": "市中区"
        }
    },
    {
        "id": "10639751165829175887",
        "title": "公共厕所",
        "address": "四川省内江市隆昌市云峰关森林公园",
        "tel": "",
        "category": "基础设施:公共设施:公共厕所",
        "type": 0,
        "location": {
            "lat": 29.326812,
            "lng": 105.299731
        },
        "ad_info": {
            "adcode": 511083,
            "province": "四川省",
            "city": "内江市",
            "district": "隆昌市"
        }
    },
    {
        "id": "850560847135756766",
        "title": "公共厕所",
        "address": "四川省内江市隆昌市成渝北路与成渝北路东街交叉口西北方向49米左右",
        "tel": "",
        "category": "基础设施:公共设施:公共厕所",
        "type": 0,
        "location": {
            "lat": 29.343021,
            "lng": 105.297973
        },
        "ad_info": {
            "adcode": 511083,
            "province": "四川省",
            "city": "内江市",
            "district": "隆昌市"
        }
    },
    {
        "id": "4381400448274241408",
        "title": "公共厕所",
        "address": "四川省内江市东兴区高桥西路南段275号",
        "tel": "",
        "category": "基础设施:公共设施:公共厕所",
        "type": 0,
        "location": {
            "lat": 29.60105,
            "lng": 105.10523
        },
        "ad_info": {
            "adcode": 511011,
            "province": "四川省",
            "city": "内江市",
            "district": "东兴区"
        }
    },
    {
        "id": "10191260376121334995",
        "title": "公共厕所",
        "address": "四川省内江市市中区壕子口路1082号",
        "tel": "",
        "category": "基础设施:公共设施:公共厕所",
        "type": 0,
        "location": {
            "lat": 29.587844,
            "lng": 105.038626
        },
        "ad_info": {
            "adcode": 511002,
            "province": "四川省",
            "city": "内江市",
            "district": "市中区"
        }
    },
    {
        "id": "8473045519204051838",
        "title": "甜城职工驿站江山墅公共厕所服务点(工会驿站)",
        "address": "四川省内江市市中区三元路与新光南路交叉口东南方向461米左右",
        "tel": "13890205199",
        "category": "基础设施:公共设施:公共厕所",
        "type": 0,
        "location": {
            "lat": 29.550779,
            "lng": 105.062339
        },
        "ad_info": {
            "adcode": 511002,
            "province": "四川省",
            "city": "内江市",
            "district": "市中区"
        }
    },
    {
        "id": "16558348198785527345",
        "title": "武庙街盐巷子公共厕所",
        "address": "四川省内江市资中县北街与状元街交叉口西北方向120米左右",
        "tel": "",
        "category": "基础设施:公共设施:公共厕所",
        "type": 0,
        "location": {
            "lat": 29.7798,
            "lng": 104.852077
        },
        "ad_info": {
            "adcode": 511025,
            "province": "四川省",
            "city": "内江市",
            "district": "资中县"
        }
    },
    {
        "id": "4044850843206754104",
        "title": "资中停车区公共厕所",
        "address": "四川省内江市资中县资中停车区与G76厦蓉高速交叉口东200米",
        "tel": "",
        "category": "基础设施:公共设施:公共厕所",
        "type": 0,
        "location": {
            "lat": 29.759296,
            "lng": 104.829064
        },
        "ad_info": {
            "adcode": 511025,
            "province": "四川省",
            "city": "内江市",
            "district": "资中县"
        }
    },
    {
        "id": "10684071208999630149",
        "title": "威远服务区公共厕所",
        "address": "四川省内江市威远县G4215蓉遵高速与威远服务区交叉口西北340米",
        "tel": "",
        "category": "基础设施:公共设施:公共厕所",
        "type": 0,
        "location": {
            "lat": 29.492768,
            "lng": 104.635751
        },
        "ad_info": {
            "adcode": 511024,
            "province": "四川省",
            "city": "内江市",
            "district": "威远县"
        }
    },
    {
        "id": "11282943904311927218",
        "title": "公共厕所",
        "address": "四川省内江市市中区人民路与大西街交叉口西北方向82米左右",
        "tel": "",
        "category": "基础设施:公共设施:公共厕所",
        "type": 0,
        "location": {
            "lat": 29.586886,
            "lng": 105.065535
        },
        "ad_info": {
            "adcode": 511002,
            "province": "四川省",
            "city": "内江市",
            "district": "市中区"
        }
    },
    {
        "id": "7007680760572911197",
        "title": "五云路公共厕所",
        "address": "四川省内江市威远县五云路与白衣巷交叉口正南方向12米左右",
        "tel": "",
        "category": "基础设施:公共设施:公共厕所",
        "type": 0,
        "location": {
            "lat": 29.518232,
            "lng": 104.668862
        },
        "ad_info": {
            "adcode": 511024,
            "province": "四川省",
            "city": "内江市",
            "district": "威远县"
        }
    },
    {
        "id": "6891150477781014538",
        "title": "公共厕所",
        "address": "四川省内江市威远县石板河游旅区水韵茶轩",
        "tel": "",
        "category": "基础设施:公共设施:公共厕所",
        "type": 0,
        "location": {
            "lat": 29.724105,
            "lng": 104.524063
        },
        "ad_info": {
            "adcode": 511024,
            "province": "四川省",
            "city": "内江市",
            "district": "威远县"
        }
    },
    {
        "id": "17253863471486830790",
        "title": "东兴服务区公共厕所",
        "address": "四川省内江市东兴区东兴枢纽与内江绕城高速交叉口正南方向1863米左右",
        "tel": "",
        "category": "基础设施:公共设施:公共厕所",
        "type": 0,
        "location": {
            "lat": 29.590085,
            "lng": 105.142146
        },
        "ad_info": {
            "adcode": 511011,
            "province": "四川省",
            "city": "内江市",
            "district": "东兴区"
        }
    },
    {
        "id": "14138990616473983533",
        "title": "鹭湾2期公共厕所",
        "address": "四川省内江市市中区沿江路鹭湾二期",
        "tel": "",
        "category": "基础设施:公共设施:公共厕所",
        "type": 0,
        "location": {
            "lat": 29.574388,
            "lng": 105.071095
        },
        "ad_info": {
            "adcode": 511002,
            "province": "四川省",
            "city": "内江市",
            "district": "市中区"
        }
    },
    {
        "id": "1031721451323063514",
        "title": "公共厕所",
        "address": "四川省内江市东兴区北环路与双龙路交叉口正南方向98米左右",
        "tel": "",
        "category": "基础设施:公共设施:公共厕所",
        "type": 0,
        "location": {
            "lat": 29.608032,
            "lng": 105.049127
        },
        "ad_info": {
            "adcode": 511011,
            "province": "四川省",
            "city": "内江市",
            "district": "东兴区"
        }
    },
    {
        "id": "18285155207986325179",
        "title": "七中公共厕所",
        "address": "四川省内江市市中区和平街与广场路交叉口正西方向157米左右",
        "tel": "",
        "category": "基础设施:公共设施:公共厕所",
        "type": 0,
        "location": {
            "lat": 29.578978,
            "lng": 105.062676
        },
        "ad_info": {
            "adcode": 511002,
            "province": "四川省",
            "city": "内江市",
            "district": "市中区"
        }
    },
    {
        "id": "11901190836192781581",
        "title": "沱江剧院公共厕所",
        "address": "四川省内江市市中区人民路与大西街交叉口西北方向60米左右",
        "tel": "",
        "category": "基础设施:公共设施:公共厕所",
        "type": 0,
        "location": {
            "lat": 29.586662,
            "lng": 105.06558
        },
        "ad_info": {
            "adcode": 511002,
            "province": "四川省",
            "city": "内江市",
            "district": "市中区"
        }
    },
    {
        "id": "1452986919154402161",
        "title": "威远县爱丁堡公共厕所",
        "address": "四川省内江市威远县一环路外北路东段与外北路东段交叉口正北方向201米左右",
        "tel": "",
        "category": "基础设施:公共设施:公共厕所",
        "type": 0,
        "location": {
            "lat": 29.537911,
            "lng": 104.677519
        },
        "ad_info": {
            "adcode": 511024,
            "province": "四川省",
            "city": "内江市",
            "district": "威远县"
        }
    },
    {
        "id": "1288863864920009333",
        "title": "公共厕所",
        "address": "四川省内江市隆昌市新华街百庆锦绣外滩",
        "tel": "",
        "category": "基础设施:公共设施:公共厕所",
        "type": 0,
        "location": {
            "lat": 29.342052,
            "lng": 105.292552
        },
        "ad_info": {
            "adcode": 511083,
            "province": "四川省",
            "city": "内江市",
            "district": "隆昌市"
        }
    },
    {
        "id": "5346753767175113081",
        "title": "公共厕所",
        "address": "四川省内江市东兴区112乡道与内隆路交叉口东南420米",
        "tel": "",
        "category": "基础设施:公共设施:公共厕所",
        "type": 0,
        "location": {
            "lat": 29.543736,
            "lng": 105.14745
        },
        "ad_info": {
            "adcode": 511011,
            "province": "四川省",
            "city": "内江市",
            "district": "东兴区"
        }
    },
    {
        "id": "1939786338078406428",
        "title": "公共厕所",
        "address": "四川省内江市市中区汉渝小区东侧170米",
        "tel": "",
        "category": "基础设施:公共设施:公共厕所",
        "type": 0,
        "location": {
            "lat": 29.568667,
            "lng": 105.012803
        },
        "ad_info": {
            "adcode": 511002,
            "province": "四川省",
            "city": "内江市",
            "district": "市中区"
        }
    },
    {
        "id": "10639751165829175887",
        "title": "公共厕所",
        "address": "四川省内江市隆昌市云峰关森林公园",
        "tel": "",
        "category": "基础设施:公共设施:公共厕所",
        "type": 0,
        "location": {
            "lat": 29.326812,
            "lng": 105.299731
        },
        "ad_info": {
            "adcode": 511083,
            "province": "四川省",
            "city": "内江市",
            "district": "隆昌市"
        }
    },
    {
        "id": "850560847135756766",
        "title": "公共厕所",
        "address": "四川省内江市隆昌市成渝北路与成渝北路东街交叉口西北方向49米左右",
        "tel": "",
        "category": "基础设施:公共设施:公共厕所",
        "type": 0,
        "location": {
            "lat": 29.343021,
            "lng": 105.297973
        },
        "ad_info": {
            "adcode": 511083,
            "province": "四川省",
            "city": "内江市",
            "district": "隆昌市"
        }
    },
    {
        "id": "4381400448274241408",
        "title": "公共厕所",
        "address": "四川省内江市东兴区高桥西路南段275号",
        "tel": "",
        "category": "基础设施:公共设施:公共厕所",
        "type": 0,
        "location": {
            "lat": 29.60105,
            "lng": 105.10523
        },
        "ad_info": {
            "adcode": 511011,
            "province": "四川省",
            "city": "内江市",
            "district": "东兴区"
        }
    },
    {
        "id": "10191260376121334995",
        "title": "公共厕所",
        "address": "四川省内江市市中区壕子口路1082号",
        "tel": "",
        "category": "基础设施:公共设施:公共厕所",
        "type": 0,
        "location": {
            "lat": 29.587844,
            "lng": 105.038626
        },
        "ad_info": {
            "adcode": 511002,
            "province": "四川省",
            "city": "内江市",
            "district": "市中区"
        }
    },
    {
        "id": "8473045519204051838",
        "title": "甜城职工驿站江山墅公共厕所服务点(工会驿站)",
        "address": "四川省内江市市中区三元路与新光南路交叉口东南方向461米左右",
        "tel": "13890205199",
        "category": "基础设施:公共设施:公共厕所",
        "type": 0,
        "location": {
            "lat": 29.550779,
            "lng": 105.062339
        },
        "ad_info": {
            "adcode": 511002,
            "province": "四川省",
            "city": "内江市",
            "district": "市中区"
        }
    },
    {
        "id": "16558348198785527345",
        "title": "武庙街盐巷子公共厕所",
        "address": "四川省内江市资中县北街与状元街交叉口西北方向120米左右",
        "tel": "",
        "category": "基础设施:公共设施:公共厕所",
        "type": 0,
        "location": {
            "lat": 29.7798,
            "lng": 104.852077
        },
        "ad_info": {
            "adcode": 511025,
            "province": "四川省",
            "city": "内江市",
            "district": "资中县"
        }
    },
    {
        "id": "4044850843206754104",
        "title": "资中停车区公共厕所",
        "address": "四川省内江市资中县资中停车区与G76厦蓉高速交叉口东200米",
        "tel": "",
        "category": "基础设施:公共设施:公共厕所",
        "type": 0,
        "location": {
            "lat": 29.759296,
            "lng": 104.829064
        },
        "ad_info": {
            "adcode": 511025,
            "province": "四川省",
            "city": "内江市",
            "district": "资中县"
        }
    },
    {
        "id": "10684071208999630149",
        "title": "威远服务区公共厕所",
        "address": "四川省内江市威远县G4215蓉遵高速与威远服务区交叉口西北340米",
        "tel": "",
        "category": "基础设施:公共设施:公共厕所",
        "type": 0,
        "location": {
            "lat": 29.492768,
            "lng": 104.635751
        },
        "ad_info": {
            "adcode": 511024,
            "province": "四川省",
            "city": "内江市",
            "district": "威远县"
        }
    },
    {
        "id": "11282943904311927218",
        "title": "公共厕所",
        "address": "四川省内江市市中区人民路与大西街交叉口西北方向82米左右",
        "tel": "",
        "category": "基础设施:公共设施:公共厕所",
        "type": 0,
        "location": {
            "lat": 29.586886,
            "lng": 105.065535
        },
        "ad_info": {
            "adcode": 511002,
            "province": "四川省",
            "city": "内江市",
            "district": "市中区"
        }
    },
    {
        "id": "7007680760572911197",
        "title": "五云路公共厕所",
        "address": "四川省内江市威远县五云路与白衣巷交叉口正南方向12米左右",
        "tel": "",
        "category": "基础设施:公共设施:公共厕所",
        "type": 0,
        "location": {
            "lat": 29.518232,
            "lng": 104.668862
        },
        "ad_info": {
            "adcode": 511024,
            "province": "四川省",
            "city": "内江市",
            "district": "威远县"
        }
    },
    {
        "id": "6891150477781014538",
        "title": "公共厕所",
        "address": "四川省内江市威远县石板河游旅区水韵茶轩",
        "tel": "",
        "category": "基础设施:公共设施:公共厕所",
        "type": 0,
        "location": {
            "lat": 29.724105,
            "lng": 104.524063
        },
        "ad_info": {
            "adcode": 511024,
            "province": "四川省",
            "city": "内江市",
            "district": "威远县"
        }
    },
    {
        "id": "17253863471486830790",
        "title": "东兴服务区公共厕所",
        "address": "四川省内江市东兴区东兴枢纽与内江绕城高速交叉口正南方向1863米左右",
        "tel": "",
        "category": "基础设施:公共设施:公共厕所",
        "type": 0,
        "location": {
            "lat": 29.590085,
            "lng": 105.142146
        },
        "ad_info": {
            "adcode": 511011,
            "province": "四川省",
            "city": "内江市",
            "district": "东兴区"
        }
    },
    {
        "id": "14138990616473983533",
        "title": "鹭湾2期公共厕所",
        "address": "四川省内江市市中区沿江路鹭湾二期",
        "tel": "",
        "category": "基础设施:公共设施:公共厕所",
        "type": 0,
        "location": {
            "lat": 29.574388,
            "lng": 105.071095
        },
        "ad_info": {
            "adcode": 511002,
            "province": "四川省",
            "city": "内江市",
            "district": "市中区"
        }
    },
    {
        "id": "1031721451323063514",
        "title": "公共厕所",
        "address": "四川省内江市东兴区北环路与双龙路交叉口正南方向98米左右",
        "tel": "",
        "category": "基础设施:公共设施:公共厕所",
        "type": 0,
        "location": {
            "lat": 29.608032,
            "lng": 105.049127
        },
        "ad_info": {
            "adcode": 511011,
            "province": "四川省",
            "city": "内江市",
            "district": "东兴区"
        }
    },
    {
        "id": "18285155207986325179",
        "title": "七中公共厕所",
        "address": "四川省内江市市中区和平街与广场路交叉口正西方向157米左右",
        "tel": "",
        "category": "基础设施:公共设施:公共厕所",
        "type": 0,
        "location": {
            "lat": 29.578978,
            "lng": 105.062676
        },
        "ad_info": {
            "adcode": 511002,
            "province": "四川省",
            "city": "内江市",
            "district": "市中区"
        }
    },
    {
        "id": "11901190836192781581",
        "title": "沱江剧院公共厕所",
        "address": "四川省内江市市中区人民路与大西街交叉口西北方向60米左右",
        "tel": "",
        "category": "基础设施:公共设施:公共厕所",
        "type": 0,
        "location": {
            "lat": 29.586662,
            "lng": 105.06558
        },
        "ad_info": {
            "adcode": 511002,
            "province": "四川省",
            "city": "内江市",
            "district": "市中区"
        }
    },
    {
        "id": "1452986919154402161",
        "title": "威远县爱丁堡公共厕所",
        "address": "四川省内江市威远县一环路外北路东段与外北路东段交叉口正北方向201米左右",
        "tel": "",
        "category": "基础设施:公共设施:公共厕所",
        "type": 0,
        "location": {
            "lat": 29.537911,
            "lng": 104.677519
        },
        "ad_info": {
            "adcode": 511024,
            "province": "四川省",
            "city": "内江市",
            "district": "威远县"
        }
    },
    {
        "id": "1288863864920009333",
        "title": "公共厕所",
        "address": "四川省内江市隆昌市新华街百庆锦绣外滩",
        "tel": "",
        "category": "基础设施:公共设施:公共厕所",
        "type": 0,
        "location": {
            "lat": 29.342052,
            "lng": 105.292552
        },
        "ad_info": {
            "adcode": 511083,
            "province": "四川省",
            "city": "内江市",
            "district": "隆昌市"
        }
    },
    {
        "id": "5346753767175113081",
        "title": "公共厕所",
        "address": "四川省内江市东兴区112乡道与内隆路交叉口东南420米",
        "tel": "",
        "category": "基础设施:公共设施:公共厕所",
        "type": 0,
        "location": {
            "lat": 29.543736,
            "lng": 105.14745
        },
        "ad_info": {
            "adcode": 511011,
            "province": "四川省",
            "city": "内江市",
            "district": "东兴区"
        }
    },
    {
        "id": "1939786338078406428",
        "title": "公共厕所",
        "address": "四川省内江市市中区汉渝小区东侧170米",
        "tel": "",
        "category": "基础设施:公共设施:公共厕所",
        "type": 0,
        "location": {
            "lat": 29.568667,
            "lng": 105.012803
        },
        "ad_info": {
            "adcode": 511002,
            "province": "四川省",
            "city": "内江市",
            "district": "市中区"
        }
    },
    {
        "id": "10639751165829175887",
        "title": "公共厕所",
        "address": "四川省内江市隆昌市云峰关森林公园",
        "tel": "",
        "category": "基础设施:公共设施:公共厕所",
        "type": 0,
        "location": {
            "lat": 29.326812,
            "lng": 105.299731
        },
        "ad_info": {
            "adcode": 511083,
            "province": "四川省",
            "city": "内江市",
            "district": "隆昌市"
        }
    },
    {
        "id": "850560847135756766",
        "title": "公共厕所",
        "address": "四川省内江市隆昌市成渝北路与成渝北路东街交叉口西北方向49米左右",
        "tel": "",
        "category": "基础设施:公共设施:公共厕所",
        "type": 0,
        "location": {
            "lat": 29.343021,
            "lng": 105.297973
        },
        "ad_info": {
            "adcode": 511083,
            "province": "四川省",
            "city": "内江市",
            "district": "隆昌市"
        }
    },
    {
        "id": "4381400448274241408",
        "title": "公共厕所",
        "address": "四川省内江市东兴区高桥西路南段275号",
        "tel": "",
        "category": "基础设施:公共设施:公共厕所",
        "type": 0,
        "location": {
            "lat": 29.60105,
            "lng": 105.10523
        },
        "ad_info": {
            "adcode": 511011,
            "province": "四川省",
            "city": "内江市",
            "district": "东兴区"
        }
    },
    {
        "id": "10191260376121334995",
        "title": "公共厕所",
        "address": "四川省内江市市中区壕子口路1082号",
        "tel": "",
        "category": "基础设施:公共设施:公共厕所",
        "type": 0,
        "location": {
            "lat": 29.587844,
            "lng": 105.038626
        },
        "ad_info": {
            "adcode": 511002,
            "province": "四川省",
            "city": "内江市",
            "district": "市中区"
        }
    },
    {
        "id": "8473045519204051838",
        "title": "甜城职工驿站江山墅公共厕所服务点(工会驿站)",
        "address": "四川省内江市市中区三元路与新光南路交叉口东南方向461米左右",
        "tel": "13890205199",
        "category": "基础设施:公共设施:公共厕所",
        "type": 0,
        "location": {
            "lat": 29.550779,
            "lng": 105.062339
        },
        "ad_info": {
            "adcode": 511002,
            "province": "四川省",
            "city": "内江市",
            "district": "市中区"
        }
    },
    {
        "id": "16558348198785527345",
        "title": "武庙街盐巷子公共厕所",
        "address": "四川省内江市资中县北街与状元街交叉口西北方向120米左右",
        "tel": "",
        "category": "基础设施:公共设施:公共厕所",
        "type": 0,
        "location": {
            "lat": 29.7798,
            "lng": 104.852077
        },
        "ad_info": {
            "adcode": 511025,
            "province": "四川省",
            "city": "内江市",
            "district": "资中县"
        }
    },
    {
        "id": "4044850843206754104",
        "title": "资中停车区公共厕所",
        "address": "四川省内江市资中县资中停车区与G76厦蓉高速交叉口东200米",
        "tel": "",
        "category": "基础设施:公共设施:公共厕所",
        "type": 0,
        "location": {
            "lat": 29.759296,
            "lng": 104.829064
        },
        "ad_info": {
            "adcode": 511025,
            "province": "四川省",
            "city": "内江市",
            "district": "资中县"
        }
    },
    {
        "id": "10684071208999630149",
        "title": "威远服务区公共厕所",
        "address": "四川省内江市威远县G4215蓉遵高速与威远服务区交叉口西北340米",
        "tel": "",
        "category": "基础设施:公共设施:公共厕所",
        "type": 0,
        "location": {
            "lat": 29.492768,
            "lng": 104.635751
        },
        "ad_info": {
            "adcode": 511024,
            "province": "四川省",
            "city": "内江市",
            "district": "威远县"
        }
    },
    {
        "id": "11282943904311927218",
        "title": "公共厕所",
        "address": "四川省内江市市中区人民路与大西街交叉口西北方向82米左右",
        "tel": "",
        "category": "基础设施:公共设施:公共厕所",
        "type": 0,
        "location": {
            "lat": 29.586886,
            "lng": 105.065535
        },
        "ad_info": {
            "adcode": 511002,
            "province": "四川省",
            "city": "内江市",
            "district": "市中区"
        }
    },
    {
        "id": "7007680760572911197",
        "title": "五云路公共厕所",
        "address": "四川省内江市威远县五云路与白衣巷交叉口正南方向12米左右",
        "tel": "",
        "category": "基础设施:公共设施:公共厕所",
        "type": 0,
        "location": {
            "lat": 29.518232,
            "lng": 104.668862
        },
        "ad_info": {
            "adcode": 511024,
            "province": "四川省",
            "city": "内江市",
            "district": "威远县"
        }
    },
    {
        "id": "6891150477781014538",
        "title": "公共厕所",
        "address": "四川省内江市威远县石板河游旅区水韵茶轩",
        "tel": "",
        "category": "基础设施:公共设施:公共厕所",
        "type": 0,
        "location": {
            "lat": 29.724105,
            "lng": 104.524063
        },
        "ad_info": {
            "adcode": 511024,
            "province": "四川省",
            "city": "内江市",
            "district": "威远县"
        }
    },
    {
        "id": "17253863471486830790",
        "title": "东兴服务区公共厕所",
        "address": "四川省内江市东兴区东兴枢纽与内江绕城高速交叉口正南方向1863米左右",
        "tel": "",
        "category": "基础设施:公共设施:公共厕所",
        "type": 0,
        "location": {
            "lat": 29.590085,
            "lng": 105.142146
        },
        "ad_info": {
            "adcode": 511011,
            "province": "四川省",
            "city": "内江市",
            "district": "东兴区"
        }
    },
    {
        "id": "14138990616473983533",
        "title": "鹭湾2期公共厕所",
        "address": "四川省内江市市中区沿江路鹭湾二期",
        "tel": "",
        "category": "基础设施:公共设施:公共厕所",
        "type": 0,
        "location": {
            "lat": 29.574388,
            "lng": 105.071095
        },
        "ad_info": {
            "adcode": 511002,
            "province": "四川省",
            "city": "内江市",
            "district": "市中区"
        }
    },
    {
        "id": "1031721451323063514",
        "title": "公共厕所",
        "address": "四川省内江市东兴区北环路与双龙路交叉口正南方向98米左右",
        "tel": "",
        "category": "基础设施:公共设施:公共厕所",
        "type": 0,
        "location": {
            "lat": 29.608032,
            "lng": 105.049127
        },
        "ad_info": {
            "adcode": 511011,
            "province": "四川省",
            "city": "内江市",
            "district": "东兴区"
        }
    },
    {
        "id": "18285155207986325179",
        "title": "七中公共厕所",
        "address": "四川省内江市市中区和平街与广场路交叉口正西方向157米左右",
        "tel": "",
        "category": "基础设施:公共设施:公共厕所",
        "type": 0,
        "location": {
            "lat": 29.578978,
            "lng": 105.062676
        },
        "ad_info": {
            "adcode": 511002,
            "province": "四川省",
            "city": "内江市",
            "district": "市中区"
        }
    },
    {
        "id": "11901190836192781581",
        "title": "沱江剧院公共厕所",
        "address": "四川省内江市市中区人民路与大西街交叉口西北方向60米左右",
        "tel": "",
        "category": "基础设施:公共设施:公共厕所",
        "type": 0,
        "location": {
            "lat": 29.586662,
            "lng": 105.06558
        },
        "ad_info": {
            "adcode": 511002,
            "province": "四川省",
            "city": "内江市",
            "district": "市中区"
        }
    },
    {
        "id": "1452986919154402161",
        "title": "威远县爱丁堡公共厕所",
        "address": "四川省内江市威远县一环路外北路东段与外北路东段交叉口正北方向201米左右",
        "tel": "",
        "category": "基础设施:公共设施:公共厕所",
        "type": 0,
        "location": {
            "lat": 29.537911,
            "lng": 104.677519
        },
        "ad_info": {
            "adcode": 511024,
            "province": "四川省",
            "city": "内江市",
            "district": "威远县"
        }
    },
    {
        "id": "1288863864920009333",
        "title": "公共厕所",
        "address": "四川省内江市隆昌市新华街百庆锦绣外滩",
        "tel": "",
        "category": "基础设施:公共设施:公共厕所",
        "type": 0,
        "location": {
            "lat": 29.342052,
            "lng": 105.292552
        },
        "ad_info": {
            "adcode": 511083,
            "province": "四川省",
            "city": "内江市",
            "district": "隆昌市"
        }
    },
    {
        "id": "5346753767175113081",
        "title": "公共厕所",
        "address": "四川省内江市东兴区112乡道与内隆路交叉口东南420米",
        "tel": "",
        "category": "基础设施:公共设施:公共厕所",
        "type": 0,
        "location": {
            "lat": 29.543736,
            "lng": 105.14745
        },
        "ad_info": {
            "adcode": 511011,
            "province": "四川省",
            "city": "内江市",
            "district": "东兴区"
        }
    },
    {
        "id": "1939786338078406428",
        "title": "公共厕所",
        "address": "四川省内江市市中区汉渝小区东侧170米",
        "tel": "",
        "category": "基础设施:公共设施:公共厕所",
        "type": 0,
        "location": {
            "lat": 29.568667,
            "lng": 105.012803
        },
        "ad_info": {
            "adcode": 511002,
            "province": "四川省",
            "city": "内江市",
            "district": "市中区"
        }
    },
    {
        "id": "10639751165829175887",
        "title": "公共厕所",
        "address": "四川省内江市隆昌市云峰关森林公园",
        "tel": "",
        "category": "基础设施:公共设施:公共厕所",
        "type": 0,
        "location": {
            "lat": 29.326812,
            "lng": 105.299731
        },
        "ad_info": {
            "adcode": 511083,
            "province": "四川省",
            "city": "内江市",
            "district": "隆昌市"
        }
    },
    {
        "id": "850560847135756766",
        "title": "公共厕所",
        "address": "四川省内江市隆昌市成渝北路与成渝北路东街交叉口西北方向49米左右",
        "tel": "",
        "category": "基础设施:公共设施:公共厕所",
        "type": 0,
        "location": {
            "lat": 29.343021,
            "lng": 105.297973
        },
        "ad_info": {
            "adcode": 511083,
            "province": "四川省",
            "city": "内江市",
            "district": "隆昌市"
        }
    },
    {
        "id": "4381400448274241408",
        "title": "公共厕所",
        "address": "四川省内江市东兴区高桥西路南段275号",
        "tel": "",
        "category": "基础设施:公共设施:公共厕所",
        "type": 0,
        "location": {
            "lat": 29.60105,
            "lng": 105.10523
        },
        "ad_info": {
            "adcode": 511011,
            "province": "四川省",
            "city": "内江市",
            "district": "东兴区"
        }
    },
    {
        "id": "10191260376121334995",
        "title": "公共厕所",
        "address": "四川省内江市市中区壕子口路1082号",
        "tel": "",
        "category": "基础设施:公共设施:公共厕所",
        "type": 0,
        "location": {
            "lat": 29.587844,
            "lng": 105.038626
        },
        "ad_info": {
            "adcode": 511002,
            "province": "四川省",
            "city": "内江市",
            "district": "市中区"
        }
    },
    {
        "id": "8473045519204051838",
        "title": "甜城职工驿站江山墅公共厕所服务点(工会驿站)",
        "address": "四川省内江市市中区三元路与新光南路交叉口东南方向461米左右",
        "tel": "13890205199",
        "category": "基础设施:公共设施:公共厕所",
        "type": 0,
        "location": {
            "lat": 29.550779,
            "lng": 105.062339
        },
        "ad_info": {
            "adcode": 511002,
            "province": "四川省",
            "city": "内江市",
            "district": "市中区"
        }
    },
    {
        "id": "16558348198785527345",
        "title": "武庙街盐巷子公共厕所",
        "address": "四川省内江市资中县北街与状元街交叉口西北方向120米左右",
        "tel": "",
        "category": "基础设施:公共设施:公共厕所",
        "type": 0,
        "location": {
            "lat": 29.7798,
            "lng": 104.852077
        },
        "ad_info": {
            "adcode": 511025,
            "province": "四川省",
            "city": "内江市",
            "district": "资中县"
        }
    },
    {
        "id": "4044850843206754104",
        "title": "资中停车区公共厕所",
        "address": "四川省内江市资中县资中停车区与G76厦蓉高速交叉口东200米",
        "tel": "",
        "category": "基础设施:公共设施:公共厕所",
        "type": 0,
        "location": {
            "lat": 29.759296,
            "lng": 104.829064
        },
        "ad_info": {
            "adcode": 511025,
            "province": "四川省",
            "city": "内江市",
            "district": "资中县"
        }
    },
    {
        "id": "10684071208999630149",
        "title": "威远服务区公共厕所",
        "address": "四川省内江市威远县G4215蓉遵高速与威远服务区交叉口西北340米",
        "tel": "",
        "category": "基础设施:公共设施:公共厕所",
        "type": 0,
        "location": {
            "lat": 29.492768,
            "lng": 104.635751
        },
        "ad_info": {
            "adcode": 511024,
            "province": "四川省",
            "city": "内江市",
            "district": "威远县"
        }
    },
    {
        "id": "11282943904311927218",
        "title": "公共厕所",
        "address": "四川省内江市市中区人民路与大西街交叉口西北方向82米左右",
        "tel": "",
        "category": "基础设施:公共设施:公共厕所",
        "type": 0,
        "location": {
            "lat": 29.586886,
            "lng": 105.065535
        },
        "ad_info": {
            "adcode": 511002,
            "province": "四川省",
            "city": "内江市",
            "district": "市中区"
        }
    },
    {
        "id": "7007680760572911197",
        "title": "五云路公共厕所",
        "address": "四川省内江市威远县五云路与白衣巷交叉口正南方向12米左右",
        "tel": "",
        "category": "基础设施:公共设施:公共厕所",
        "type": 0,
        "location": {
            "lat": 29.518232,
            "lng": 104.668862
        },
        "ad_info": {
            "adcode": 511024,
            "province": "四川省",
            "city": "内江市",
            "district": "威远县"
        }
    },
    {
        "id": "6891150477781014538",
        "title": "公共厕所",
        "address": "四川省内江市威远县石板河游旅区水韵茶轩",
        "tel": "",
        "category": "基础设施:公共设施:公共厕所",
        "type": 0,
        "location": {
            "lat": 29.724105,
            "lng": 104.524063
        },
        "ad_info": {
            "adcode": 511024,
            "province": "四川省",
            "city": "内江市",
            "district": "威远县"
        }
    },
    {
        "id": "17253863471486830790",
        "title": "东兴服务区公共厕所",
        "address": "四川省内江市东兴区东兴枢纽与内江绕城高速交叉口正南方向1863米左右",
        "tel": "",
        "category": "基础设施:公共设施:公共厕所",
        "type": 0,
        "location": {
            "lat": 29.590085,
            "lng": 105.142146
        },
        "ad_info": {
            "adcode": 511011,
            "province": "四川省",
            "city": "内江市",
            "district": "东兴区"
        }
    },
    {
        "id": "14138990616473983533",
        "title": "鹭湾2期公共厕所",
        "address": "四川省内江市市中区沿江路鹭湾二期",
        "tel": "",
        "category": "基础设施:公共设施:公共厕所",
        "type": 0,
        "location": {
            "lat": 29.574388,
            "lng": 105.071095
        },
        "ad_info": {
            "adcode": 511002,
            "province": "四川省",
            "city": "内江市",
            "district": "市中区"
        }
    },
    {
        "id": "1031721451323063514",
        "title": "公共厕所",
        "address": "四川省内江市东兴区北环路与双龙路交叉口正南方向98米左右",
        "tel": "",
        "category": "基础设施:公共设施:公共厕所",
        "type": 0,
        "location": {
            "lat": 29.608032,
            "lng": 105.049127
        },
        "ad_info": {
            "adcode": 511011,
            "province": "四川省",
            "city": "内江市",
            "district": "东兴区"
        }
    },
    {
        "id": "18285155207986325179",
        "title": "七中公共厕所",
        "address": "四川省内江市市中区和平街与广场路交叉口正西方向157米左右",
        "tel": "",
        "category": "基础设施:公共设施:公共厕所",
        "type": 0,
        "location": {
            "lat": 29.578978,
            "lng": 105.062676
        },
        "ad_info": {
            "adcode": 511002,
            "province": "四川省",
            "city": "内江市",
            "district": "市中区"
        }
    },
    {
        "id": "11901190836192781581",
        "title": "沱江剧院公共厕所",
        "address": "四川省内江市市中区人民路与大西街交叉口西北方向60米左右",
        "tel": "",
        "category": "基础设施:公共设施:公共厕所",
        "type": 0,
        "location": {
            "lat": 29.586662,
            "lng": 105.06558
        },
        "ad_info": {
            "adcode": 511002,
            "province": "四川省",
            "city": "内江市",
            "district": "市中区"
        }
    },
    {
        "id": "1452986919154402161",
        "title": "威远县爱丁堡公共厕所",
        "address": "四川省内江市威远县一环路外北路东段与外北路东段交叉口正北方向201米左右",
        "tel": "",
        "category": "基础设施:公共设施:公共厕所",
        "type": 0,
        "location": {
            "lat": 29.537911,
            "lng": 104.677519
        },
        "ad_info": {
            "adcode": 511024,
            "province": "四川省",
            "city": "内江市",
            "district": "威远县"
        }
    },
    {
        "id": "1288863864920009333",
        "title": "公共厕所",
        "address": "四川省内江市隆昌市新华街百庆锦绣外滩",
        "tel": "",
        "category": "基础设施:公共设施:公共厕所",
        "type": 0,
        "location": {
            "lat": 29.342052,
            "lng": 105.292552
        },
        "ad_info": {
            "adcode": 511083,
            "province": "四川省",
            "city": "内江市",
            "district": "隆昌市"
        }
    },
    {
        "id": "5346753767175113081",
        "title": "公共厕所",
        "address": "四川省内江市东兴区112乡道与内隆路交叉口东南420米",
        "tel": "",
        "category": "基础设施:公共设施:公共厕所",
        "type": 0,
        "location": {
            "lat": 29.543736,
            "lng": 105.14745
        },
        "ad_info": {
            "adcode": 511011,
            "province": "四川省",
            "city": "内江市",
            "district": "东兴区"
        }
    },
    {
        "id": "1939786338078406428",
        "title": "公共厕所",
        "address": "四川省内江市市中区汉渝小区东侧170米",
        "tel": "",
        "category": "基础设施:公共设施:公共厕所",
        "type": 0,
        "location": {
            "lat": 29.568667,
            "lng": 105.012803
        },
        "ad_info": {
            "adcode": 511002,
            "province": "四川省",
            "city": "内江市",
            "district": "市中区"
        }
    },
    {
        "id": "10639751165829175887",
        "title": "公共厕所",
        "address": "四川省内江市隆昌市云峰关森林公园",
        "tel": "",
        "category": "基础设施:公共设施:公共厕所",
        "type": 0,
        "location": {
            "lat": 29.326812,
            "lng": 105.299731
        },
        "ad_info": {
            "adcode": 511083,
            "province": "四川省",
            "city": "内江市",
            "district": "隆昌市"
        }
    },
    {
        "id": "850560847135756766",
        "title": "公共厕所",
        "address": "四川省内江市隆昌市成渝北路与成渝北路东街交叉口西北方向49米左右",
        "tel": "",
        "category": "基础设施:公共设施:公共厕所",
        "type": 0,
        "location": {
            "lat": 29.343021,
            "lng": 105.297973
        },
        "ad_info": {
            "adcode": 511083,
            "province": "四川省",
            "city": "内江市",
            "district": "隆昌市"
        }
    },
    {
        "id": "4381400448274241408",
        "title": "公共厕所",
        "address": "四川省内江市东兴区高桥西路南段275号",
        "tel": "",
        "category": "基础设施:公共设施:公共厕所",
        "type": 0,
        "location": {
            "lat": 29.60105,
            "lng": 105.10523
        },
        "ad_info": {
            "adcode": 511011,
            "province": "四川省",
            "city": "内江市",
            "district": "东兴区"
        }
    },
    {
        "id": "10191260376121334995",
        "title": "公共厕所",
        "address": "四川省内江市市中区壕子口路1082号",
        "tel": "",
        "category": "基础设施:公共设施:公共厕所",
        "type": 0,
        "location": {
            "lat": 29.587844,
            "lng": 105.038626
        },
        "ad_info": {
            "adcode": 511002,
            "province": "四川省",
            "city": "内江市",
            "district": "市中区"
        }
    },
    {
        "id": "8473045519204051838",
        "title": "甜城职工驿站江山墅公共厕所服务点(工会驿站)",
        "address": "四川省内江市市中区三元路与新光南路交叉口东南方向461米左右",
        "tel": "13890205199",
        "category": "基础设施:公共设施:公共厕所",
        "type": 0,
        "location": {
            "lat": 29.550779,
            "lng": 105.062339
        },
        "ad_info": {
            "adcode": 511002,
            "province": "四川省",
            "city": "内江市",
            "district": "市中区"
        }
    },
    {
        "id": "16558348198785527345",
        "title": "武庙街盐巷子公共厕所",
        "address": "四川省内江市资中县北街与状元街交叉口西北方向120米左右",
        "tel": "",
        "category": "基础设施:公共设施:公共厕所",
        "type": 0,
        "location": {
            "lat": 29.7798,
            "lng": 104.852077
        },
        "ad_info": {
            "adcode": 511025,
            "province": "四川省",
            "city": "内江市",
            "district": "资中县"
        }
    },
    {
        "id": "4044850843206754104",
        "title": "资中停车区公共厕所",
        "address": "四川省内江市资中县资中停车区与G76厦蓉高速交叉口东200米",
        "tel": "",
        "category": "基础设施:公共设施:公共厕所",
        "type": 0,
        "location": {
            "lat": 29.759296,
            "lng": 104.829064
        },
        "ad_info": {
            "adcode": 511025,
            "province": "四川省",
            "city": "内江市",
            "district": "资中县"
        }
    },
    {
        "id": "10684071208999630149",
        "title": "威远服务区公共厕所",
        "address": "四川省内江市威远县G4215蓉遵高速与威远服务区交叉口西北340米",
        "tel": "",
        "category": "基础设施:公共设施:公共厕所",
        "type": 0,
        "location": {
            "lat": 29.492768,
            "lng": 104.635751
        },
        "ad_info": {
            "adcode": 511024,
            "province": "四川省",
            "city": "内江市",
            "district": "威远县"
        }
    },
    {
        "id": "11282943904311927218",
        "title": "公共厕所",
        "address": "四川省内江市市中区人民路与大西街交叉口西北方向82米左右",
        "tel": "",
        "category": "基础设施:公共设施:公共厕所",
        "type": 0,
        "location": {
            "lat": 29.586886,
            "lng": 105.065535
        },
        "ad_info": {
            "adcode": 511002,
            "province": "四川省",
            "city": "内江市",
            "district": "市中区"
        }
    },
    {
        "id": "7007680760572911197",
        "title": "五云路公共厕所",
        "address": "四川省内江市威远县五云路与白衣巷交叉口正南方向12米左右",
        "tel": "",
        "category": "基础设施:公共设施:公共厕所",
        "type": 0,
        "location": {
            "lat": 29.518232,
            "lng": 104.668862
        },
        "ad_info": {
            "adcode": 511024,
            "province": "四川省",
            "city": "内江市",
            "district": "威远县"
        }
    },
    {
        "id": "6891150477781014538",
        "title": "公共厕所",
        "address": "四川省内江市威远县石板河游旅区水韵茶轩",
        "tel": "",
        "category": "基础设施:公共设施:公共厕所",
        "type": 0,
        "location": {
            "lat": 29.724105,
            "lng": 104.524063
        },
        "ad_info": {
            "adcode": 511024,
            "province": "四川省",
            "city": "内江市",
            "district": "威远县"
        }
    },
    {
        "id": "17253863471486830790",
        "title": "东兴服务区公共厕所",
        "address": "四川省内江市东兴区东兴枢纽与内江绕城高速交叉口正南方向1863米左右",
        "tel": "",
        "category": "基础设施:公共设施:公共厕所",
        "type": 0,
        "location": {
            "lat": 29.590085,
            "lng": 105.142146
        },
        "ad_info": {
            "adcode": 511011,
            "province": "四川省",
            "city": "内江市",
            "district": "东兴区"
        }
    },
    {
        "id": "14138990616473983533",
        "title": "鹭湾2期公共厕所",
        "address": "四川省内江市市中区沿江路鹭湾二期",
        "tel": "",
        "category": "基础设施:公共设施:公共厕所",
        "type": 0,
        "location": {
            "lat": 29.574388,
            "lng": 105.071095
        },
        "ad_info": {
            "adcode": 511002,
            "province": "四川省",
            "city": "内江市",
            "district": "市中区"
        }
    },
    {
        "id": "1031721451323063514",
        "title": "公共厕所",
        "address": "四川省内江市东兴区北环路与双龙路交叉口正南方向98米左右",
        "tel": "",
        "category": "基础设施:公共设施:公共厕所",
        "type": 0,
        "location": {
            "lat": 29.608032,
            "lng": 105.049127
        },
        "ad_info": {
            "adcode": 511011,
            "province": "四川省",
            "city": "内江市",
            "district": "东兴区"
        }
    },
    {
        "id": "18285155207986325179",
        "title": "七中公共厕所",
        "address": "四川省内江市市中区和平街与广场路交叉口正西方向157米左右",
        "tel": "",
        "category": "基础设施:公共设施:公共厕所",
        "type": 0,
        "location": {
            "lat": 29.578978,
            "lng": 105.062676
        },
        "ad_info": {
            "adcode": 511002,
            "province": "四川省",
            "city": "内江市",
            "district": "市中区"
        }
    },
    {
        "id": "11901190836192781581",
        "title": "沱江剧院公共厕所",
        "address": "四川省内江市市中区人民路与大西街交叉口西北方向60米左右",
        "tel": "",
        "category": "基础设施:公共设施:公共厕所",
        "type": 0,
        "location": {
            "lat": 29.586662,
            "lng": 105.06558
        },
        "ad_info": {
            "adcode": 511002,
            "province": "四川省",
            "city": "内江市",
            "district": "市中区"
        }
    },
    {
        "id": "1452986919154402161",
        "title": "威远县爱丁堡公共厕所",
        "address": "四川省内江市威远县一环路外北路东段与外北路东段交叉口正北方向201米左右",
        "tel": "",
        "category": "基础设施:公共设施:公共厕所",
        "type": 0,
        "location": {
            "lat": 29.537911,
            "lng": 104.677519
        },
        "ad_info": {
            "adcode": 511024,
            "province": "四川省",
            "city": "内江市",
            "district": "威远县"
        }
    },
    {
        "id": "1288863864920009333",
        "title": "公共厕所",
        "address": "四川省内江市隆昌市新华街百庆锦绣外滩",
        "tel": "",
        "category": "基础设施:公共设施:公共厕所",
        "type": 0,
        "location": {
            "lat": 29.342052,
            "lng": 105.292552
        },
        "ad_info": {
            "adcode": 511083,
            "province": "四川省",
            "city": "内江市",
            "district": "隆昌市"
        }
    },
    {
        "id": "5346753767175113081",
        "title": "公共厕所",
        "address": "四川省内江市东兴区112乡道与内隆路交叉口东南420米",
        "tel": "",
        "category": "基础设施:公共设施:公共厕所",
        "type": 0,
        "location": {
            "lat": 29.543736,
            "lng": 105.14745
        },
        "ad_info": {
            "adcode": 511011,
            "province": "四川省",
            "city": "内江市",
            "district": "东兴区"
        }
    },
    {
        "id": "1939786338078406428",
        "title": "公共厕所",
        "address": "四川省内江市市中区汉渝小区东侧170米",
        "tel": "",
        "category": "基础设施:公共设施:公共厕所",
        "type": 0,
        "location": {
            "lat": 29.568667,
            "lng": 105.012803
        },
        "ad_info": {
            "adcode": 511002,
            "province": "四川省",
            "city": "内江市",
            "district": "市中区"
        }
    },
    {
        "id": "10639751165829175887",
        "title": "公共厕所",
        "address": "四川省内江市隆昌市云峰关森林公园",
        "tel": "",
        "category": "基础设施:公共设施:公共厕所",
        "type": 0,
        "location": {
            "lat": 29.326812,
            "lng": 105.299731
        },
        "ad_info": {
            "adcode": 511083,
            "province": "四川省",
            "city": "内江市",
            "district": "隆昌市"
        }
    },
    {
        "id": "850560847135756766",
        "title": "公共厕所",
        "address": "四川省内江市隆昌市成渝北路与成渝北路东街交叉口西北方向49米左右",
        "tel": "",
        "category": "基础设施:公共设施:公共厕所",
        "type": 0,
        "location": {
            "lat": 29.343021,
            "lng": 105.297973
        },
        "ad_info": {
            "adcode": 511083,
            "province": "四川省",
            "city": "内江市",
            "district": "隆昌市"
        }
    },
    {
        "id": "4381400448274241408",
        "title": "公共厕所",
        "address": "四川省内江市东兴区高桥西路南段275号",
        "tel": "",
        "category": "基础设施:公共设施:公共厕所",
        "type": 0,
        "location": {
            "lat": 29.60105,
            "lng": 105.10523
        },
        "ad_info": {
            "adcode": 511011,
            "province": "四川省",
            "city": "内江市",
            "district": "东兴区"
        }
    },
    {
        "id": "10191260376121334995",
        "title": "公共厕所",
        "address": "四川省内江市市中区壕子口路1082号",
        "tel": "",
        "category": "基础设施:公共设施:公共厕所",
        "type": 0,
        "location": {
            "lat": 29.587844,
            "lng": 105.038626
        },
        "ad_info": {
            "adcode": 511002,
            "province": "四川省",
            "city": "内江市",
            "district": "市中区"
        }
    },
    {
        "id": "8473045519204051838",
        "title": "甜城职工驿站江山墅公共厕所服务点(工会驿站)",
        "address": "四川省内江市市中区三元路与新光南路交叉口东南方向461米左右",
        "tel": "13890205199",
        "category": "基础设施:公共设施:公共厕所",
        "type": 0,
        "location": {
            "lat": 29.550779,
            "lng": 105.062339
        },
        "ad_info": {
            "adcode": 511002,
            "province": "四川省",
            "city": "内江市",
            "district": "市中区"
        }
    },
    {
        "id": "16558348198785527345",
        "title": "武庙街盐巷子公共厕所",
        "address": "四川省内江市资中县北街与状元街交叉口西北方向120米左右",
        "tel": "",
        "category": "基础设施:公共设施:公共厕所",
        "type": 0,
        "location": {
            "lat": 29.7798,
            "lng": 104.852077
        },
        "ad_info": {
            "adcode": 511025,
            "province": "四川省",
            "city": "内江市",
            "district": "资中县"
        }
    },
    {
        "id": "4044850843206754104",
        "title": "资中停车区公共厕所",
        "address": "四川省内江市资中县资中停车区与G76厦蓉高速交叉口东200米",
        "tel": "",
        "category": "基础设施:公共设施:公共厕所",
        "type": 0,
        "location": {
            "lat": 29.759296,
            "lng": 104.829064
        },
        "ad_info": {
            "adcode": 511025,
            "province": "四川省",
            "city": "内江市",
            "district": "资中县"
        }
    },
    {
        "id": "10684071208999630149",
        "title": "威远服务区公共厕所",
        "address": "四川省内江市威远县G4215蓉遵高速与威远服务区交叉口西北340米",
        "tel": "",
        "category": "基础设施:公共设施:公共厕所",
        "type": 0,
        "location": {
            "lat": 29.492768,
            "lng": 104.635751
        },
        "ad_info": {
            "adcode": 511024,
            "province": "四川省",
            "city": "内江市",
            "district": "威远县"
        }
    },
    {
        "id": "11282943904311927218",
        "title": "公共厕所",
        "address": "四川省内江市市中区人民路与大西街交叉口西北方向82米左右",
        "tel": "",
        "category": "基础设施:公共设施:公共厕所",
        "type": 0,
        "location": {
            "lat": 29.586886,
            "lng": 105.065535
        },
        "ad_info": {
            "adcode": 511002,
            "province": "四川省",
            "city": "内江市",
            "district": "市中区"
        }
    },
    {
        "id": "7007680760572911197",
        "title": "五云路公共厕所",
        "address": "四川省内江市威远县五云路与白衣巷交叉口正南方向12米左右",
        "tel": "",
        "category": "基础设施:公共设施:公共厕所",
        "type": 0,
        "location": {
            "lat": 29.518232,
            "lng": 104.668862
        },
        "ad_info": {
            "adcode": 511024,
            "province": "四川省",
            "city": "内江市",
            "district": "威远县"
        }
    },
    {
        "id": "6891150477781014538",
        "title": "公共厕所",
        "address": "四川省内江市威远县石板河游旅区水韵茶轩",
        "tel": "",
        "category": "基础设施:公共设施:公共厕所",
        "type": 0,
        "location": {
            "lat": 29.724105,
            "lng": 104.524063
        },
        "ad_info": {
            "adcode": 511024,
            "province": "四川省",
            "city": "内江市",
            "district": "威远县"
        }
    },
    {
        "id": "17253863471486830790",
        "title": "东兴服务区公共厕所",
        "address": "四川省内江市东兴区东兴枢纽与内江绕城高速交叉口正南方向1863米左右",
        "tel": "",
        "category": "基础设施:公共设施:公共厕所",
        "type": 0,
        "location": {
            "lat": 29.590085,
            "lng": 105.142146
        },
        "ad_info": {
            "adcode": 511011,
            "province": "四川省",
            "city": "内江市",
            "district": "东兴区"
        }
    },
    {
        "id": "14138990616473983533",
        "title": "鹭湾2期公共厕所",
        "address": "四川省内江市市中区沿江路鹭湾二期",
        "tel": "",
        "category": "基础设施:公共设施:公共厕所",
        "type": 0,
        "location": {
            "lat": 29.574388,
            "lng": 105.071095
        },
        "ad_info": {
            "adcode": 511002,
            "province": "四川省",
            "city": "内江市",
            "district": "市中区"
        }
    },
    {
        "id": "1031721451323063514",
        "title": "公共厕所",
        "address": "四川省内江市东兴区北环路与双龙路交叉口正南方向98米左右",
        "tel": "",
        "category": "基础设施:公共设施:公共厕所",
        "type": 0,
        "location": {
            "lat": 29.608032,
            "lng": 105.049127
        },
        "ad_info": {
            "adcode": 511011,
            "province": "四川省",
            "city": "内江市",
            "district": "东兴区"
        }
    },
    {
        "id": "18285155207986325179",
        "title": "七中公共厕所",
        "address": "四川省内江市市中区和平街与广场路交叉口正西方向157米左右",
        "tel": "",
        "category": "基础设施:公共设施:公共厕所",
        "type": 0,
        "location": {
            "lat": 29.578978,
            "lng": 105.062676
        },
        "ad_info": {
            "adcode": 511002,
            "province": "四川省",
            "city": "内江市",
            "district": "市中区"
        }
    },
    {
        "id": "11901190836192781581",
        "title": "沱江剧院公共厕所",
        "address": "四川省内江市市中区人民路与大西街交叉口西北方向60米左右",
        "tel": "",
        "category": "基础设施:公共设施:公共厕所",
        "type": 0,
        "location": {
            "lat": 29.586662,
            "lng": 105.06558
        },
        "ad_info": {
            "adcode": 511002,
            "province": "四川省",
            "city": "内江市",
            "district": "市中区"
        }
    },
    {
        "id": "1452986919154402161",
        "title": "威远县爱丁堡公共厕所",
        "address": "四川省内江市威远县一环路外北路东段与外北路东段交叉口正北方向201米左右",
        "tel": "",
        "category": "基础设施:公共设施:公共厕所",
        "type": 0,
        "location": {
            "lat": 29.537911,
            "lng": 104.677519
        },
        "ad_info": {
            "adcode": 511024,
            "province": "四川省",
            "city": "内江市",
            "district": "威远县"
        }
    },
    {
        "id": "1288863864920009333",
        "title": "公共厕所",
        "address": "四川省内江市隆昌市新华街百庆锦绣外滩",
        "tel": "",
        "category": "基础设施:公共设施:公共厕所",
        "type": 0,
        "location": {
            "lat": 29.342052,
            "lng": 105.292552
        },
        "ad_info": {
            "adcode": 511083,
            "province": "四川省",
            "city": "内江市",
            "district": "隆昌市"
        }
    },
    {
        "id": "5346753767175113081",
        "title": "公共厕所",
        "address": "四川省内江市东兴区112乡道与内隆路交叉口东南420米",
        "tel": "",
        "category": "基础设施:公共设施:公共厕所",
        "type": 0,
        "location": {
            "lat": 29.543736,
            "lng": 105.14745
        },
        "ad_info": {
            "adcode": 511011,
            "province": "四川省",
            "city": "内江市",
            "district": "东兴区"
        }
    },
    {
        "id": "1939786338078406428",
        "title": "公共厕所",
        "address": "四川省内江市市中区汉渝小区东侧170米",
        "tel": "",
        "category": "基础设施:公共设施:公共厕所",
        "type": 0,
        "location": {
            "lat": 29.568667,
            "lng": 105.012803
        },
        "ad_info": {
            "adcode": 511002,
            "province": "四川省",
            "city": "内江市",
            "district": "市中区"
        }
    },
    {
        "id": "10639751165829175887",
        "title": "公共厕所",
        "address": "四川省内江市隆昌市云峰关森林公园",
        "tel": "",
        "category": "基础设施:公共设施:公共厕所",
        "type": 0,
        "location": {
            "lat": 29.326812,
            "lng": 105.299731
        },
        "ad_info": {
            "adcode": 511083,
            "province": "四川省",
            "city": "内江市",
            "district": "隆昌市"
        }
    },
    {
        "id": "850560847135756766",
        "title": "公共厕所",
        "address": "四川省内江市隆昌市成渝北路与成渝北路东街交叉口西北方向49米左右",
        "tel": "",
        "category": "基础设施:公共设施:公共厕所",
        "type": 0,
        "location": {
            "lat": 29.343021,
            "lng": 105.297973
        },
        "ad_info": {
            "adcode": 511083,
            "province": "四川省",
            "city": "内江市",
            "district": "隆昌市"
        }
    },
    {
        "id": "4381400448274241408",
        "title": "公共厕所",
        "address": "四川省内江市东兴区高桥西路南段275号",
        "tel": "",
        "category": "基础设施:公共设施:公共厕所",
        "type": 0,
        "location": {
            "lat": 29.60105,
            "lng": 105.10523
        },
        "ad_info": {
            "adcode": 511011,
            "province": "四川省",
            "city": "内江市",
            "district": "东兴区"
        }
    },
    {
        "id": "10191260376121334995",
        "title": "公共厕所",
        "address": "四川省内江市市中区壕子口路1082号",
        "tel": "",
        "category": "基础设施:公共设施:公共厕所",
        "type": 0,
        "location": {
            "lat": 29.587844,
            "lng": 105.038626
        },
        "ad_info": {
            "adcode": 511002,
            "province": "四川省",
            "city": "内江市",
            "district": "市中区"
        }
    },
    {
        "id": "8473045519204051838",
        "title": "甜城职工驿站江山墅公共厕所服务点(工会驿站)",
        "address": "四川省内江市市中区三元路与新光南路交叉口东南方向461米左右",
        "tel": "13890205199",
        "category": "基础设施:公共设施:公共厕所",
        "type": 0,
        "location": {
            "lat": 29.550779,
            "lng": 105.062339
        },
        "ad_info": {
            "adcode": 511002,
            "province": "四川省",
            "city": "内江市",
            "district": "市中区"
        }
    },
    {
        "id": "16558348198785527345",
        "title": "武庙街盐巷子公共厕所",
        "address": "四川省内江市资中县北街与状元街交叉口西北方向120米左右",
        "tel": "",
        "category": "基础设施:公共设施:公共厕所",
        "type": 0,
        "location": {
            "lat": 29.7798,
            "lng": 104.852077
        },
        "ad_info": {
            "adcode": 511025,
            "province": "四川省",
            "city": "内江市",
            "district": "资中县"
        }
    },
    {
        "id": "4044850843206754104",
        "title": "资中停车区公共厕所",
        "address": "四川省内江市资中县资中停车区与G76厦蓉高速交叉口东200米",
        "tel": "",
        "category": "基础设施:公共设施:公共厕所",
        "type": 0,
        "location": {
            "lat": 29.759296,
            "lng": 104.829064
        },
        "ad_info": {
            "adcode": 511025,
            "province": "四川省",
            "city": "内江市",
            "district": "资中县"
        }
    },
    {
        "id": "10684071208999630149",
        "title": "威远服务区公共厕所",
        "address": "四川省内江市威远县G4215蓉遵高速与威远服务区交叉口西北340米",
        "tel": "",
        "category": "基础设施:公共设施:公共厕所",
        "type": 0,
        "location": {
            "lat": 29.492768,
            "lng": 104.635751
        },
        "ad_info": {
            "adcode": 511024,
            "province": "四川省",
            "city": "内江市",
            "district": "威远县"
        }
    },
    {
        "id": "11282943904311927218",
        "title": "公共厕所",
        "address": "四川省内江市市中区人民路与大西街交叉口西北方向82米左右",
        "tel": "",
        "category": "基础设施:公共设施:公共厕所",
        "type": 0,
        "location": {
            "lat": 29.586886,
            "lng": 105.065535
        },
        "ad_info": {
            "adcode": 511002,
            "province": "四川省",
            "city": "内江市",
            "district": "市中区"
        }
    },
    {
        "id": "7007680760572911197",
        "title": "五云路公共厕所",
        "address": "四川省内江市威远县五云路与白衣巷交叉口正南方向12米左右",
        "tel": "",
        "category": "基础设施:公共设施:公共厕所",
        "type": 0,
        "location": {
            "lat": 29.518232,
            "lng": 104.668862
        },
        "ad_info": {
            "adcode": 511024,
            "province": "四川省",
            "city": "内江市",
            "district": "威远县"
        }
    },
    {
        "id": "6891150477781014538",
        "title": "公共厕所",
        "address": "四川省内江市威远县石板河游旅区水韵茶轩",
        "tel": "",
        "category": "基础设施:公共设施:公共厕所",
        "type": 0,
        "location": {
            "lat": 29.724105,
            "lng": 104.524063
        },
        "ad_info": {
            "adcode": 511024,
            "province": "四川省",
            "city": "内江市",
            "district": "威远县"
        }
    },
    {
        "id": "17253863471486830790",
        "title": "东兴服务区公共厕所",
        "address": "四川省内江市东兴区东兴枢纽与内江绕城高速交叉口正南方向1863米左右",
        "tel": "",
        "category": "基础设施:公共设施:公共厕所",
        "type": 0,
        "location": {
            "lat": 29.590085,
            "lng": 105.142146
        },
        "ad_info": {
            "adcode": 511011,
            "province": "四川省",
            "city": "内江市",
            "district": "东兴区"
        }
    },
    {
        "id": "14138990616473983533",
        "title": "鹭湾2期公共厕所",
        "address": "四川省内江市市中区沿江路鹭湾二期",
        "tel": "",
        "category": "基础设施:公共设施:公共厕所",
        "type": 0,
        "location": {
            "lat": 29.574388,
            "lng": 105.071095
        },
        "ad_info": {
            "adcode": 511002,
            "province": "四川省",
            "city": "内江市",
            "district": "市中区"
        }
    }
]