[
    {
        "id": "6481242616246088474",
        "title": "公共厕所",
        "address": "四川省凉山彝族自治州会东县全球通路与彩云街交叉口正东方向102米左右",
        "tel": "",
        "category": "基础设施:公共设施:公共厕所",
        "type": 0,
        "location": {
            "lat": 26.628786,
            "lng": 102.579789
        },
        "ad_info": {
            "adcode": 513426,
            "province": "四川省",
            "city": "凉山彝族自治州",
            "district": "会东县"
        }
    },
    {
        "id": "2898263931553166801",
        "title": "公共厕所",
        "address": "四川省凉山彝族自治州西昌市大巷口下街与长安东路交叉口西北方向52米左右",
        "tel": "",
        "category": "基础设施:公共设施:公共厕所",
        "type": 0,
        "location": {
            "lat": 27.88854,
            "lng": 102.26262
        },
        "ad_info": {
            "adcode": 513401,
            "province": "四川省",
            "city": "凉山彝族自治州",
            "district": "西昌市"
        }
    },
    {
        "id": "18373654507244923674",
        "title": "公共厕所",
        "address": "四川省凉山彝族自治州西昌市农林巷长安花园",
        "tel": "",
        "category": "基础设施:公共设施:公共厕所",
        "type": 0,
        "location": {
            "lat": 27.889903,
            "lng": 102.240307
        },
        "ad_info": {
            "adcode": 513401,
            "province": "四川省",
            "city": "凉山彝族自治州",
            "district": "西昌市"
        }
    },
    {
        "id": "668878452819365902",
        "title": "公共厕所",
        "address": "四川省凉山彝族自治州西昌市春栖南路与望海大道交叉口东南80米",
        "tel": "",
        "category": "基础设施:公共设施:公共厕所",
        "type": 0,
        "location": {
            "lat": 27.876892,
            "lng": 102.28736
        },
        "ad_info": {
            "adcode": 513401,
            "province": "四川省",
            "city": "凉山彝族自治州",
            "district": "西昌市"
        }
    },
    {
        "id": "15060241513084678876",
        "title": "公共厕所",
        "address": "四川省凉山彝族自治州西昌市航天大道一段336",
        "tel": "",
        "category": "基础设施:公共设施:公共厕所",
        "type": 0,
        "location": {
            "lat": 27.89304,
            "lng": 102.22767
        },
        "ad_info": {
            "adcode": 513401,
            "province": "四川省",
            "city": "凉山彝族自治州",
            "district": "西昌市"
        }
    },
    {
        "id": "5997315250378818023",
        "title": "公共厕所",
        "address": "四川省凉山彝族自治州宁南县洗布坝路与石牌坊路交叉口东南方向25米左右",
        "tel": "",
        "category": "基础设施:公共设施:公共厕所",
        "type": 0,
        "location": {
            "lat": 27.065121,
            "lng": 102.752361
        },
        "ad_info": {
            "adcode": 513427,
            "province": "四川省",
            "city": "凉山彝族自治州",
            "district": "宁南县"
        }
    },
    {
        "id": "9708060548216852408",
        "title": "公共厕所",
        "address": "四川省凉山彝族自治州雷波县南环路与青龙街交叉口正西方向46米左右",
        "tel": "",
        "category": "基础设施:公共设施:公共厕所",
        "type": 0,
        "location": {
            "lat": 28.260512,
            "lng": 103.571084
        },
        "ad_info": {
            "adcode": 513437,
            "province": "四川省",
            "city": "凉山彝族自治州",
            "district": "雷波县"
        }
    },
    {
        "id": "16129124014775804099",
        "title": "公共厕所",
        "address": "四川省凉山彝族自治州会理市广场路121号",
        "tel": "",
        "category": "基础设施:公共设施:公共厕所",
        "type": 0,
        "location": {
            "lat": 26.656536,
            "lng": 102.250015
        },
        "ad_info": {
            "adcode": 513402,
            "province": "四川省",
            "city": "凉山彝族自治州",
            "district": "会理市"
        }
    },
    {
        "id": "13945557474195280275",
        "title": "公共厕所",
        "address": "四川省凉山彝族自治州西昌市建设南路与长兴路交叉口正北方向83米左右",
        "tel": "",
        "category": "基础设施:公共设施:公共厕所",
        "type": 0,
        "location": {
            "lat": 27.90144,
            "lng": 102.219306
        },
        "ad_info": {
            "adcode": 513401,
            "province": "四川省",
            "city": "凉山彝族自治州",
            "district": "西昌市"
        }
    },
    {
        "id": "15467065780860704806",
        "title": "公共厕所",
        "address": "四川省凉山彝族自治州西昌市滨河东路凉山民族体育场",
        "tel": "",
        "category": "基础设施:公共设施:公共厕所",
        "type": 0,
        "location": {
            "lat": 27.875583,
            "lng": 102.253492
        },
        "ad_info": {
            "adcode": 513401,
            "province": "四川省",
            "city": "凉山彝族自治州",
            "district": "西昌市"
        }
    },
    {
        "id": "4636226458942313721",
        "title": "公共厕所",
        "address": "四川省凉山彝族自治州会东县G353与垭口路交叉口正西方向399米左右",
        "tel": "",
        "category": "基础设施:公共设施:公共厕所",
        "type": 0,
        "location": {
            "lat": 26.624668,
            "lng": 102.588948
        },
        "ad_info": {
            "adcode": 513426,
            "province": "四川省",
            "city": "凉山彝族自治州",
            "district": "会东县"
        }
    },
    {
        "id": "442591122508850634",
        "title": "公共厕所",
        "address": "四川省凉山彝族自治州西昌市泸山路与海滨中路交叉口正南方向970米左右",
        "tel": "",
        "category": "基础设施:公共设施:公共厕所",
        "type": 0,
        "location": {
            "lat": 27.828893,
            "lng": 102.275922
        },
        "ad_info": {
            "adcode": 513401,
            "province": "四川省",
            "city": "凉山彝族自治州",
            "district": "西昌市"
        }
    },
    {
        "id": "4433380422558640552",
        "title": "公共厕所",
        "address": "四川省凉山彝族自治州西昌市北街与后营巷交叉口东南方向28米左右",
        "tel": "",
        "category": "基础设施:公共设施:公共厕所",
        "type": 0,
        "location": {
            "lat": 27.897411,
            "lng": 102.272733
        },
        "ad_info": {
            "adcode": 513401,
            "province": "四川省",
            "city": "凉山彝族自治州",
            "district": "西昌市"
        }
    },
    {
        "id": "15969291169921207134",
        "title": "公共厕所",
        "address": "四川省凉山彝族自治州西昌市G108与机场路交叉口东南方向107米左右",
        "tel": "",
        "category": "基础设施:公共设施:公共厕所",
        "type": 0,
        "location": {
            "lat": 27.963761,
            "lng": 102.192211
        },
        "ad_info": {
            "adcode": 513401,
            "province": "四川省",
            "city": "凉山彝族自治州",
            "district": "西昌市"
        }
    },
    {
        "id": "8875464802413154224",
        "title": "公共厕所",
        "address": "四川省凉山彝族自治州雷波县东环路与外东街交叉口西南方向93米左右",
        "tel": "",
        "category": "基础设施:公共设施:公共厕所",
        "type": 0,
        "location": {
            "lat": 28.264203,
            "lng": 103.574351
        },
        "ad_info": {
            "adcode": 513437,
            "province": "四川省",
            "city": "凉山彝族自治州",
            "district": "雷波县"
        }
    },
    {
        "id": "4978923499450453404",
        "title": "公共厕所",
        "address": "四川省凉山彝族自治州会理市南街与县府街交叉口东北方向37米左右",
        "tel": "",
        "category": "基础设施:公共设施:公共厕所",
        "type": 0,
        "location": {
            "lat": 26.655009,
            "lng": 102.245913
        },
        "ad_info": {
            "adcode": 513402,
            "province": "四川省",
            "city": "凉山彝族自治州",
            "district": "会理市"
        }
    },
    {
        "id": "11179242535483229492",
        "title": "公共厕所",
        "address": "四川省凉山彝族自治州越西县中心商业街与南大街交叉口正西方向77米左右",
        "tel": "",
        "category": "基础设施:公共设施:公共厕所",
        "type": 0,
        "location": {
            "lat": 28.638789,
            "lng": 102.510437
        },
        "ad_info": {
            "adcode": 513434,
            "province": "四川省",
            "city": "凉山彝族自治州",
            "district": "越西县"
        }
    },
    {
        "id": "11424619305635214655",
        "title": "公共厕所",
        "address": "四川省凉山彝族自治州西昌市福新路17号",
        "tel": "",
        "category": "基础设施:公共设施:公共厕所",
        "type": 0,
        "location": {
            "lat": 27.896738,
            "lng": 102.230814
        },
        "ad_info": {
            "adcode": 513401,
            "province": "四川省",
            "city": "凉山彝族自治州",
            "district": "西昌市"
        }
    },
    {
        "id": "14762780727659998928",
        "title": "公共厕所",
        "address": "四川省凉山彝族自治州越西县文寿街与武曲街交叉口西南方向27米左右",
        "tel": "",
        "category": "基础设施:公共设施:公共厕所",
        "type": 0,
        "location": {
            "lat": 28.639904,
            "lng": 102.509304
        },
        "ad_info": {
            "adcode": 513434,
            "province": "四川省",
            "city": "凉山彝族自治州",
            "district": "越西县"
        }
    },
    {
        "id": "9290141488548284209",
        "title": "公共厕所",
        "address": "四川省凉山彝族自治州西昌市袁马路与黄堡路交叉口东北方向83米左右",
        "tel": "",
        "category": "基础设施:公共设施:公共厕所",
        "type": 0,
        "location": {
            "lat": 27.877347,
            "lng": 102.22129
        },
        "ad_info": {
            "adcode": 513401,
            "province": "四川省",
            "city": "凉山彝族自治州",
            "district": "西昌市"
        }
    },
    {
        "id": "11494696742365141977",
        "title": "公共厕所",
        "address": "四川省凉山彝族自治州西昌市龙眼井街1号",
        "tel": "",
        "category": "基础设施:公共设施:公共厕所",
        "type": 0,
        "location": {
            "lat": 27.88707,
            "lng": 102.2624
        },
        "ad_info": {
            "adcode": 513401,
            "province": "四川省",
            "city": "凉山彝族自治州",
            "district": "西昌市"
        }
    },
    {
        "id": "10050648981800945561",
        "title": "公共厕所",
        "address": "四川省凉山彝族自治州西昌市三岔口南路与春城路交叉口西南方向126米左右",
        "tel": "",
        "category": "基础设施:公共设施:公共厕所",
        "type": 0,
        "location": {
            "lat": 27.867487,
            "lng": 102.261015
        },
        "ad_info": {
            "adcode": 513401,
            "province": "四川省",
            "city": "凉山彝族自治州",
            "district": "西昌市"
        }
    },
    {
        "id": "12747823641973639683",
        "title": "公共厕所",
        "address": "四川省凉山彝族自治州甘洛县G245与石甘公路交叉口西南方向270米左右",
        "tel": "",
        "category": "基础设施:公共设施:公共厕所",
        "type": 0,
        "location": {
            "lat": 28.982475,
            "lng": 102.777219
        },
        "ad_info": {
            "adcode": 513435,
            "province": "四川省",
            "city": "凉山彝族自治州",
            "district": "甘洛县"
        }
    },
    {
        "id": "3563769728085068831",
        "title": "公共厕所",
        "address": "四川省凉山彝族自治州西昌市海亭路一段与滨海绿道一段交叉口正西方向165米左右",
        "tel": "",
        "category": "基础设施:公共设施:公共厕所",
        "type": 0,
        "location": {
            "lat": 27.861718,
            "lng": 102.263374
        },
        "ad_info": {
            "adcode": 513401,
            "province": "四川省",
            "city": "凉山彝族自治州",
            "district": "西昌市"
        }
    },
    {
        "id": "1037863055017334577",
        "title": "公共厕所",
        "address": "四川省凉山彝族自治州西昌市三岔口西路与健康路交叉口西南方向195米左右",
        "tel": "",
        "category": "基础设施:公共设施:公共厕所",
        "type": 0,
        "location": {
            "lat": 27.88436,
            "lng": 102.263997
        },
        "ad_info": {
            "adcode": 513401,
            "province": "四川省",
            "city": "凉山彝族自治州",
            "district": "西昌市"
        }
    },
    {
        "id": "1283716748427856617",
        "title": "公共厕所",
        "address": "四川省凉山彝族自治州盐源县向阳街与政府街交叉口正南方向107米左右",
        "tel": "",
        "category": "基础设施:公共设施:公共厕所",
        "type": 0,
        "location": {
            "lat": 27.421524,
            "lng": 101.510135
        },
        "ad_info": {
            "adcode": 513423,
            "province": "四川省",
            "city": "凉山彝族自治州",
            "district": "盐源县"
        }
    },
    {
        "id": "12977202126085591330",
        "title": "公共厕所",
        "address": "四川省凉山彝族自治州越西县环城路与新大街南段交叉口东北20米",
        "tel": "",
        "category": "基础设施:公共设施:公共厕所",
        "type": 0,
        "location": {
            "lat": 28.637446,
            "lng": 102.508547
        },
        "ad_info": {
            "adcode": 513434,
            "province": "四川省",
            "city": "凉山彝族自治州",
            "district": "越西县"
        }
    },
    {
        "id": "16902510598236443791",
        "title": "公共厕所",
        "address": "四川省凉山彝族自治州昭觉县人民中路与人民路交叉口正北方向91米左右",
        "tel": "",
        "category": "基础设施:公共设施:公共厕所",
        "type": 0,
        "location": {
            "lat": 28.013885,
            "lng": 102.841265
        },
        "ad_info": {
            "adcode": 513431,
            "province": "四川省",
            "city": "凉山彝族自治州",
            "district": "昭觉县"
        }
    },
    {
        "id": "18051950517117995077",
        "title": "公共厕所",
        "address": "四川省凉山彝族自治州西昌市大巷口下街57达达春天百货8楼",
        "tel": "",
        "category": "基础设施:公共设施:公共厕所",
        "type": 0,
        "location": {
            "lat": 27.888312,
            "lng": 102.263934
        },
        "ad_info": {
            "adcode": 513401,
            "province": "四川省",
            "city": "凉山彝族自治州",
            "district": "西昌市"
        }
    },
    {
        "id": "12090018824289478791",
        "title": "公共厕所",
        "address": "四川省凉山彝族自治州西昌市海亭路一段与滨海绿道一段交叉口正北方向336米左右",
        "tel": "",
        "category": "基础设施:公共设施:公共厕所",
        "type": 0,
        "location": {
            "lat": 27.864898,
            "lng": 102.265717
        },
        "ad_info": {
            "adcode": 513401,
            "province": "四川省",
            "city": "凉山彝族自治州",
            "district": "西昌市"
        }
    },
    {
        "id": "2146103374929353757",
        "title": "公共厕所",
        "address": "四川省凉山彝族自治州西昌市一环路与龙眼井街交叉口西北方向125米左右",
        "tel": "",
        "category": "基础设施:公共设施:公共厕所",
        "type": 0,
        "location": {
            "lat": 27.88131,
            "lng": 102.255384
        },
        "ad_info": {
            "adcode": 513401,
            "province": "四川省",
            "city": "凉山彝族自治州",
            "district": "西昌市"
        }
    },
    {
        "id": "6512911161601660148",
        "title": "公共厕所",
        "address": "四川省凉山彝族自治州西昌市春城中路与风情园中路交叉口正西方向69米左右",
        "tel": "",
        "category": "基础设施:公共设施:公共厕所",
        "type": 0,
        "location": {
            "lat": 27.870944,
            "lng": 102.253105
        },
        "ad_info": {
            "adcode": 513401,
            "province": "四川省",
            "city": "凉山彝族自治州",
            "district": "西昌市"
        }
    },
    {
        "id": "10202338493329582124",
        "title": "公共厕所",
        "address": "四川省凉山彝族自治州普格县政文西路附3号",
        "tel": "",
        "category": "基础设施:公共设施:公共厕所",
        "type": 0,
        "location": {
            "lat": 27.376114,
            "lng": 102.540799
        },
        "ad_info": {
            "adcode": 513428,
            "province": "四川省",
            "city": "凉山彝族自治州",
            "district": "普格县"
        }
    },
    {
        "id": "17862828787623477870",
        "title": "公共厕所",
        "address": "四川省凉山彝族自治州西昌市春城西路与海河东路交叉口正西方向90米左右",
        "tel": "",
        "category": "基础设施:公共设施:公共厕所",
        "type": 0,
        "location": {
            "lat": 27.866991,
            "lng": 102.255201
        },
        "ad_info": {
            "adcode": 513401,
            "province": "四川省",
            "city": "凉山彝族自治州",
            "district": "西昌市"
        }
    },
    {
        "id": "2161562481835181374",
        "title": "公共厕所",
        "address": "四川省凉山彝族自治州西昌市宁远桥街与张家巷交叉口东北方向47米左右",
        "tel": "",
        "category": "基础设施:公共设施:公共厕所",
        "type": 0,
        "location": {
            "lat": 27.894352,
            "lng": 102.256425
        },
        "ad_info": {
            "adcode": 513401,
            "province": "四川省",
            "city": "凉山彝族自治州",
            "district": "西昌市"
        }
    },
    {
        "id": "844643672267923905",
        "title": "公共厕所",
        "address": "四川省凉山彝族自治州金阳县下南街109号",
        "tel": "",
        "category": "基础设施:公共设施:公共厕所",
        "type": 0,
        "location": {
            "lat": 27.691752,
            "lng": 103.247422
        },
        "ad_info": {
            "adcode": 513430,
            "province": "四川省",
            "city": "凉山彝族自治州",
            "district": "金阳县"
        }
    },
    {
        "id": "2175879181053520468",
        "title": "公共厕所",
        "address": "四川省凉山彝族自治州会理市公园路与顺城西路交叉口东南方向67米左右",
        "tel": "",
        "category": "基础设施:公共设施:公共厕所",
        "type": 0,
        "location": {
            "lat": 26.657433,
            "lng": 102.241944
        },
        "ad_info": {
            "adcode": 513402,
            "province": "四川省",
            "city": "凉山彝族自治州",
            "district": "会理市"
        }
    },
    {
        "id": "1899002234896258291",
        "title": "公共厕所",
        "address": "四川省凉山彝族自治州西昌市下马水河巷与马水河街交叉口西南方向50米左右",
        "tel": "",
        "category": "基础设施:公共设施:公共厕所",
        "type": 0,
        "location": {
            "lat": 27.892132,
            "lng": 102.260647
        },
        "ad_info": {
            "adcode": 513401,
            "province": "四川省",
            "city": "凉山彝族自治州",
            "district": "西昌市"
        }
    },
    {
        "id": "14671472418289437486",
        "title": "公共厕所",
        "address": "四川省凉山彝族自治州西昌市一环路与龙眼井街交叉口西南方向139米左右",
        "tel": "",
        "category": "基础设施:公共设施:公共厕所",
        "type": 0,
        "location": {
            "lat": 27.879633,
            "lng": 102.255577
        },
        "ad_info": {
            "adcode": 513401,
            "province": "四川省",
            "city": "凉山彝族自治州",
            "district": "西昌市"
        }
    },
    {
        "id": "14605904188490296119",
        "title": "公共厕所",
        "address": "四川省凉山彝族自治州会理市东关东路与建设路交叉口正西方向88米左右",
        "tel": "",
        "category": "基础设施:公共设施:公共厕所",
        "type": 0,
        "location": {
            "lat": 26.661326,
            "lng": 102.249999
        },
        "ad_info": {
            "adcode": 513402,
            "province": "四川省",
            "city": "凉山彝族自治州",
            "district": "会理市"
        }
    },
    {
        "id": "11404190470891718277",
        "title": "公共厕所",
        "address": "四川省凉山彝族自治州昭觉县南街与西街交叉口东南方向154米左右",
        "tel": "",
        "category": "基础设施:公共设施:公共厕所",
        "type": 0,
        "location": {
            "lat": 28.010468,
            "lng": 102.846948
        },
        "ad_info": {
            "adcode": 513431,
            "province": "四川省",
            "city": "凉山彝族自治州",
            "district": "昭觉县"
        }
    },
    {
        "id": "11890195813075160647",
        "title": "公共厕所",
        "address": "四川省凉山彝族自治州西昌市长安中路中国石化加油站",
        "tel": "",
        "category": "基础设施:公共设施:公共厕所",
        "type": 0,
        "location": {
            "lat": 27.888173,
            "lng": 102.247513
        },
        "ad_info": {
            "adcode": 513401,
            "province": "四川省",
            "city": "凉山彝族自治州",
            "district": "西昌市"
        }
    },
    {
        "id": "7010448816607646518",
        "title": "公共厕所",
        "address": "四川省凉山彝族自治州西昌市上顺城街与下顺城街交叉口正西方向72米左右",
        "tel": "",
        "category": "基础设施:公共设施:公共厕所",
        "type": 0,
        "location": {
            "lat": 27.89207,
            "lng": 102.26604
        },
        "ad_info": {
            "adcode": 513401,
            "province": "四川省",
            "city": "凉山彝族自治州",
            "district": "西昌市"
        }
    },
    {
        "id": "5425336849055367899",
        "title": "公共厕所",
        "address": "四川省凉山彝族自治州西昌市泸山路与海滨中路交叉口正南方向61米左右",
        "tel": "",
        "category": "基础设施:公共设施:公共厕所",
        "type": 0,
        "location": {
            "lat": 27.836471,
            "lng": 102.272299
        },
        "ad_info": {
            "adcode": 513401,
            "province": "四川省",
            "city": "凉山彝族自治州",
            "district": "西昌市"
        }
    },
    {
        "id": "9693128922026863292",
        "title": "公共厕所",
        "address": "四川省凉山彝族自治州会理市滨河路与濯璎桥交叉口正北方向55米左右",
        "tel": "",
        "category": "基础设施:公共设施:公共厕所",
        "type": 0,
        "location": {
            "lat": 26.662278,
            "lng": 102.252026
        },
        "ad_info": {
            "adcode": 513402,
            "province": "四川省",
            "city": "凉山彝族自治州",
            "district": "会理市"
        }
    },
    {
        "id": "3407647729144392010",
        "title": "公共厕所",
        "address": "四川省凉山彝族自治州木里藏族自治县S216与佳居路交叉口东北方向192米左右",
        "tel": "",
        "category": "基础设施:公共设施:公共厕所",
        "type": 0,
        "location": {
            "lat": 27.922112,
            "lng": 101.279083
        },
        "ad_info": {
            "adcode": 513422,
            "province": "四川省",
            "city": "凉山彝族自治州",
            "district": "木里藏族自治县"
        }
    },
    {
        "id": "9360214781624472562",
        "title": "公共厕所",
        "address": "四川省凉山彝族自治州冕宁县滨河路红军广场(西北角)",
        "tel": "",
        "category": "基础设施:公共设施:公共厕所",
        "type": 0,
        "location": {
            "lat": 28.550723,
            "lng": 102.180618
        },
        "ad_info": {
            "adcode": 513433,
            "province": "四川省",
            "city": "凉山彝族自治州",
            "district": "冕宁县"
        }
    },
    {
        "id": "14392342879857741108",
        "title": "公共厕所",
        "address": "四川省凉山彝族自治州西昌市张家屯路与祁家屯巷交叉口正西方向142米左右",
        "tel": "",
        "category": "基础设施:公共设施:公共厕所",
        "type": 0,
        "location": {
            "lat": 27.885679,
            "lng": 102.244405
        },
        "ad_info": {
            "adcode": 513401,
            "province": "四川省",
            "city": "凉山彝族自治州",
            "district": "西昌市"
        }
    },
    {
        "id": "11012491420851279927",
        "title": "公共厕所",
        "address": "四川省凉山彝族自治州喜德县环城北路与环城西路交叉口西南方向101米左右",
        "tel": "",
        "category": "基础设施:公共设施:公共厕所",
        "type": 0,
        "location": {
            "lat": 28.306948,
            "lng": 102.410932
        },
        "ad_info": {
            "adcode": 513432,
            "province": "四川省",
            "city": "凉山彝族自治州",
            "district": "喜德县"
        }
    },
    {
        "id": "1826585182769356203",
        "title": "公共厕所",
        "address": "四川省凉山彝族自治州西昌市泸山路与海滨中路交叉口东北方向260米左右",
        "tel": "",
        "category": "基础设施:公共设施:公共厕所",
        "type": 0,
        "location": {
            "lat": 27.83882,
            "lng": 102.273978
        },
        "ad_info": {
            "adcode": 513401,
            "province": "四川省",
            "city": "凉山彝族自治州",
            "district": "西昌市"
        }
    },
    {
        "id": "437033669633231064",
        "title": "公共厕所",
        "address": "四川省凉山彝族自治州会理市G108与鹿厂中街交叉口西南方向278米左右",
        "tel": "",
        "category": "基础设施:公共设施:公共厕所",
        "type": 0,
        "location": {
            "lat": 26.559903,
            "lng": 102.202886
        },
        "ad_info": {
            "adcode": 513402,
            "province": "四川省",
            "city": "凉山彝族自治州",
            "district": "会理市"
        }
    },
    {
        "id": "105293419768689514",
        "title": "公共厕所",
        "address": "四川省凉山彝族自治州会理市G245与打吉塘大桥交叉口正北方向244米左右",
        "tel": "",
        "category": "基础设施:公共设施:公共厕所",
        "type": 0,
        "location": {
            "lat": 26.425315,
            "lng": 102.348982
        },
        "ad_info": {
            "adcode": 513402,
            "province": "四川省",
            "city": "凉山彝族自治州",
            "district": "会理市"
        }
    },
    {
        "id": "10725543526657582826",
        "title": "公共厕所",
        "address": "四川省凉山彝族自治州西昌市G348与磨盘山隧道交叉口正东方向656米左右",
        "tel": "",
        "category": "基础设施:公共设施:公共厕所",
        "type": 0,
        "location": {
            "lat": 27.752954,
            "lng": 102.10094
        },
        "ad_info": {
            "adcode": 513401,
            "province": "四川省",
            "city": "凉山彝族自治州",
            "district": "西昌市"
        }
    },
    {
        "id": "9960886631980833411",
        "title": "公共厕所",
        "address": "四川省凉山彝族自治州盐源县307省道西50米",
        "tel": "",
        "category": "基础设施:公共设施:公共厕所",
        "type": 0,
        "location": {
            "lat": 27.424044,
            "lng": 101.366542
        },
        "ad_info": {
            "adcode": 513423,
            "province": "四川省",
            "city": "凉山彝族自治州",
            "district": "盐源县"
        }
    },
    {
        "id": "4851284753577318535",
        "title": "公共厕所",
        "address": "四川省凉山彝族自治州西昌市井泉路与建昌东路交叉口正南方向102米左右",
        "tel": "",
        "category": "基础设施:公共设施:公共厕所",
        "type": 0,
        "location": {
            "lat": 27.875247,
            "lng": 102.272935
        },
        "ad_info": {
            "adcode": 513401,
            "province": "四川省",
            "city": "凉山彝族自治州",
            "district": "西昌市"
        }
    },
    {
        "id": "4092943268756753650",
        "title": "公共厕所",
        "address": "四川省凉山彝族自治州西昌市G245与G348交叉口正东方向940米左右",
        "tel": "",
        "category": "基础设施:公共设施:公共厕所",
        "type": 0,
        "location": {
            "lat": 27.870053,
            "lng": 102.411058
        },
        "ad_info": {
            "adcode": 513401,
            "province": "四川省",
            "city": "凉山彝族自治州",
            "district": "西昌市"
        }
    },
    {
        "id": "3449089750308717502",
        "title": "公共厕所",
        "address": "四川省凉山彝族自治州雷波县宁远街与老街交叉口西南方向34米左右",
        "tel": "",
        "category": "基础设施:公共设施:公共厕所",
        "type": 0,
        "location": {
            "lat": 28.261982,
            "lng": 103.570023
        },
        "ad_info": {
            "adcode": 513437,
            "province": "四川省",
            "city": "凉山彝族自治州",
            "district": "雷波县"
        }
    },
    {
        "id": "17794926157400695739",
        "title": "公共厕所",
        "address": "四川省凉山彝族自治州会理市滨河东路北段与玉苑路交叉口西北方向475米左右",
        "tel": "",
        "category": "基础设施:公共设施:公共厕所",
        "type": 0,
        "location": {
            "lat": 26.680842,
            "lng": 102.244675
        },
        "ad_info": {
            "adcode": 513402,
            "province": "四川省",
            "city": "凉山彝族自治州",
            "district": "会理市"
        }
    },
    {
        "id": "7861616471907967036",
        "title": "公厕",
        "address": "四川省凉山彝族自治州盐源县Y021与环湖公路交叉口正东方向69米左右",
        "tel": "",
        "category": "基础设施:公共设施:公共厕所",
        "type": 0,
        "location": {
            "lat": 27.73209,
            "lng": 100.83704
        },
        "ad_info": {
            "adcode": 513423,
            "province": "四川省",
            "city": "凉山彝族自治州",
            "district": "盐源县"
        }
    },
    {
        "id": "9019997879068875296",
        "title": "免费公共厕所",
        "address": "四川省凉山彝族自治州会东县满银路西段68号",
        "tel": "",
        "category": "基础设施:公共设施:公共厕所",
        "type": 0,
        "location": {
            "lat": 26.632538,
            "lng": 102.575716
        },
        "ad_info": {
            "adcode": 513426,
            "province": "四川省",
            "city": "凉山彝族自治州",
            "district": "会东县"
        }
    },
    {
        "id": "10595906212227801734",
        "title": "公共厕所",
        "address": "四川省凉山彝族自治州西昌市名店街与商业街二段交叉口正南方向29米左右",
        "tel": "",
        "category": "基础设施:公共设施:公共厕所",
        "type": 0,
        "location": {
            "lat": 27.89037,
            "lng": 102.26098
        },
        "ad_info": {
            "adcode": 513401,
            "province": "四川省",
            "city": "凉山彝族自治州",
            "district": "西昌市"
        }
    },
    {
        "id": "5246384501265920236",
        "title": "公共厕所",
        "address": "四川省凉山彝族自治州会东县满银路东段-9,11,13,15号",
        "tel": "",
        "category": "基础设施:公共设施:公共厕所",
        "type": 0,
        "location": {
            "lat": 26.629488,
            "lng": 102.58146
        },
        "ad_info": {
            "adcode": 513426,
            "province": "四川省",
            "city": "凉山彝族自治州",
            "district": "会东县"
        }
    },
    {
        "id": "92524182212631592",
        "title": "公共厕所",
        "address": "四川省凉山彝族自治州甘洛县208省道东50米",
        "tel": "",
        "category": "基础设施:公共设施:公共厕所",
        "type": 0,
        "location": {
            "lat": 28.90073,
            "lng": 102.67847
        },
        "ad_info": {
            "adcode": 513435,
            "province": "四川省",
            "city": "凉山彝族自治州",
            "district": "甘洛县"
        }
    },
    {
        "id": "7473994268535032711",
        "title": "公共厕所",
        "address": "四川省凉山彝族自治州木里藏族自治县042县道附近",
        "tel": "",
        "category": "基础设施:公共设施:公共厕所",
        "type": 0,
        "location": {
            "lat": 28.144536,
            "lng": 100.842205
        },
        "ad_info": {
            "adcode": 513422,
            "province": "四川省",
            "city": "凉山彝族自治州",
            "district": "木里藏族自治县"
        }
    },
    {
        "id": "17983815355287538590",
        "title": "公共厕所",
        "address": "四川省凉山彝族自治州喜德县XW07与登相营中桥交叉口西南方向1456米左右",
        "tel": "",
        "category": "基础设施:公共设施:公共厕所",
        "type": 0,
        "location": {
            "lat": 28.444929,
            "lng": 102.335677
        },
        "ad_info": {
            "adcode": 513432,
            "province": "四川省",
            "city": "凉山彝族自治州",
            "district": "喜德县"
        }
    },
    {
        "id": "639254254526236588",
        "title": "公共厕所",
        "address": "四川省凉山彝族自治州冕宁县交通北路与台登商城交叉口正西方向46米左右",
        "tel": "",
        "category": "基础设施:公共设施:公共厕所",
        "type": 0,
        "location": {
            "lat": 28.29285,
            "lng": 102.18922
        },
        "ad_info": {
            "adcode": 513433,
            "province": "四川省",
            "city": "凉山彝族自治州",
            "district": "冕宁县"
        }
    },
    {
        "id": "2364690036228056995",
        "title": "公共厕所",
        "address": "四川省凉山彝族自治州西昌市三岔口南路126号",
        "tel": "",
        "category": "基础设施:公共设施:公共厕所",
        "type": 0,
        "location": {
            "lat": 27.879279,
            "lng": 102.265846
        },
        "ad_info": {
            "adcode": 513401,
            "province": "四川省",
            "city": "凉山彝族自治州",
            "district": "西昌市"
        }
    },
    {
        "id": "2765633160233964081",
        "title": "公共厕所",
        "address": "四川省凉山彝族自治州西昌市三岔口东路与三岔口南路交叉口东北方向90米左右",
        "tel": "",
        "category": "基础设施:公共设施:公共厕所",
        "type": 0,
        "location": {
            "lat": 27.883669,
            "lng": 102.26847
        },
        "ad_info": {
            "adcode": 513401,
            "province": "四川省",
            "city": "凉山彝族自治州",
            "district": "西昌市"
        }
    },
    {
        "id": "4661484846937106571",
        "title": "公共厕所",
        "address": "四川省凉山彝族自治州西昌市胜利东路与胜利南路一段交叉口西南方向43米左右",
        "tel": "",
        "category": "基础设施:公共设施:公共厕所",
        "type": 0,
        "location": {
            "lat": 27.885303,
            "lng": 102.255421
        },
        "ad_info": {
            "adcode": 513401,
            "province": "四川省",
            "city": "凉山彝族自治州",
            "district": "西昌市"
        }
    },
    {
        "id": "17761955346727449282",
        "title": "公共厕所",
        "address": "四川省凉山彝族自治州盐源县S307",
        "tel": "",
        "category": "基础设施:公共设施:公共厕所",
        "type": 0,
        "location": {
            "lat": 27.5858,
            "lng": 101.778315
        },
        "ad_info": {
            "adcode": 513423,
            "province": "四川省",
            "city": "凉山彝族自治州",
            "district": "盐源县"
        }
    },
    {
        "id": "13421639688089458917",
        "title": "公共厕所",
        "address": "四川省凉山彝族自治州盐源县307省道东50米",
        "tel": "",
        "category": "基础设施:公共设施:公共厕所",
        "type": 0,
        "location": {
            "lat": 27.699176,
            "lng": 101.908556
        },
        "ad_info": {
            "adcode": 513423,
            "province": "四川省",
            "city": "凉山彝族自治州",
            "district": "盐源县"
        }
    },
    {
        "id": "1299518329000161251",
        "title": "公共厕所",
        "address": "四川省凉山彝族自治州会理市108国道东50米",
        "tel": "",
        "category": "基础设施:公共设施:公共厕所",
        "type": 0,
        "location": {
            "lat": 26.377518,
            "lng": 102.043586
        },
        "ad_info": {
            "adcode": 513402,
            "province": "四川省",
            "city": "凉山彝族自治州",
            "district": "会理市"
        }
    },
    {
        "id": "6224818048167881347",
        "title": "公共厕所",
        "address": "四川省凉山彝族自治州西昌市名店街42号",
        "tel": "",
        "category": "基础设施:公共设施:公共厕所",
        "type": 0,
        "location": {
            "lat": 27.888712,
            "lng": 102.260601
        },
        "ad_info": {
            "adcode": 513401,
            "province": "四川省",
            "city": "凉山彝族自治州",
            "district": "西昌市"
        }
    },
    {
        "id": "9500682120189011870",
        "title": "公共厕所",
        "address": "四川省凉山彝族自治州甘洛县G245与甘越路交叉口东北方向556米左右",
        "tel": "",
        "category": "基础设施:公共设施:公共厕所",
        "type": 0,
        "location": {
            "lat": 28.978186,
            "lng": 102.762095
        },
        "ad_info": {
            "adcode": 513435,
            "province": "四川省",
            "city": "凉山彝族自治州",
            "district": "甘洛县"
        }
    },
    {
        "id": "7389457963228844668",
        "title": "公共厕所",
        "address": "四川省凉山彝族自治州西昌市三岔口西路与顺河路交叉口东北方向100米左右",
        "tel": "",
        "category": "基础设施:公共设施:公共厕所",
        "type": 0,
        "location": {
            "lat": 27.885429,
            "lng": 102.266993
        },
        "ad_info": {
            "adcode": 513401,
            "province": "四川省",
            "city": "凉山彝族自治州",
            "district": "西昌市"
        }
    },
    {
        "id": "11920279882494799082",
        "title": "公共厕所",
        "address": "四川省凉山彝族自治州西昌市长安路158号",
        "tel": "",
        "category": "基础设施:公共设施:公共厕所",
        "type": 0,
        "location": {
            "lat": 27.890731,
            "lng": 102.237651
        },
        "ad_info": {
            "adcode": 513401,
            "province": "四川省",
            "city": "凉山彝族自治州",
            "district": "西昌市"
        }
    },
    {
        "id": "12911841196946236517",
        "title": "公共厕所(SC-LIS-0381)",
        "address": "四川省凉山彝族自治州盐源县Y021与环湖公路交叉口正西方向1383米左右",
        "tel": "",
        "category": "基础设施:公共设施:公共厕所",
        "type": 0,
        "location": {
            "lat": 27.73618,
            "lng": 100.82304
        },
        "ad_info": {
            "adcode": 513423,
            "province": "四川省",
            "city": "凉山彝族自治州",
            "district": "盐源县"
        }
    },
    {
        "id": "5770884812975877706",
        "title": "公共厕所",
        "address": "四川省凉山彝族自治州雷波县G353与下河坝隧道交叉口正南方向87米左右",
        "tel": "",
        "category": "基础设施:公共设施:公共厕所",
        "type": 0,
        "location": {
            "lat": 28.455612,
            "lng": 103.828242
        },
        "ad_info": {
            "adcode": 513437,
            "province": "四川省",
            "city": "凉山彝族自治州",
            "district": "雷波县"
        }
    },
    {
        "id": "7269403001684142824",
        "title": "公共厕所",
        "address": "四川省凉山彝族自治州西昌市307省道与Z004交叉口南200米",
        "tel": "",
        "category": "基础设施:公共设施:公共厕所",
        "type": 0,
        "location": {
            "lat": 27.876083,
            "lng": 102.396737
        },
        "ad_info": {
            "adcode": 513401,
            "province": "四川省",
            "city": "凉山彝族自治州",
            "district": "西昌市"
        }
    },
    {
        "id": "13245976263789249186",
        "title": "公共厕所",
        "address": "四川省凉山彝族自治州西昌市长安南路162号",
        "tel": "",
        "category": "基础设施:公共设施:公共厕所",
        "type": 0,
        "location": {
            "lat": 27.888246,
            "lng": 102.232966
        },
        "ad_info": {
            "adcode": 513401,
            "province": "四川省",
            "city": "凉山彝族自治州",
            "district": "西昌市"
        }
    },
    {
        "id": "10089695570466075795",
        "title": "公共厕所",
        "address": "四川省凉山彝族自治州会东县三鑫路北一段与人和东街交叉口西北方向81米左右",
        "tel": "",
        "category": "基础设施:公共设施:公共厕所",
        "type": 0,
        "location": {
            "lat": 26.633183,
            "lng": 102.577684
        },
        "ad_info": {
            "adcode": 513426,
            "province": "四川省",
            "city": "凉山彝族自治州",
            "district": "会东县"
        }
    },
    {
        "id": "16611804589209657783",
        "title": "公共厕所",
        "address": "四川省凉山彝族自治州德昌县交通路南段-32,34,36号",
        "tel": "",
        "category": "基础设施:公共设施:公共厕所",
        "type": 0,
        "location": {
            "lat": 27.403046,
            "lng": 102.184816
        },
        "ad_info": {
            "adcode": 513424,
            "province": "四川省",
            "city": "凉山彝族自治州",
            "district": "德昌县"
        }
    },
    {
        "id": "14019171644041865384",
        "title": "公共厕所",
        "address": "四川省凉山彝族自治州甘洛县G245与Y001交叉口正南方向128米左右",
        "tel": "",
        "category": "基础设施:公共设施:公共厕所",
        "type": 0,
        "location": {
            "lat": 28.854715,
            "lng": 102.596517
        },
        "ad_info": {
            "adcode": 513435,
            "province": "四川省",
            "city": "凉山彝族自治州",
            "district": "甘洛县"
        }
    },
    {
        "id": "7205520830991802830",
        "title": "公共厕所",
        "address": "四川省凉山彝族自治州盐源县金河镇",
        "tel": "",
        "category": "基础设施:公共设施:公共厕所",
        "type": 0,
        "location": {
            "lat": 27.714232,
            "lng": 102.047086
        },
        "ad_info": {
            "adcode": 513423,
            "province": "四川省",
            "city": "凉山彝族自治州",
            "district": "盐源县"
        }
    },
    {
        "id": "3588630220365182146",
        "title": "公共厕所",
        "address": "四川省凉山彝族自治州会理市G4216蓉丽高速与G4216蓉丽高速出口交叉口东北220米",
        "tel": "",
        "category": "基础设施:公共设施:公共厕所",
        "type": 0,
        "location": {
            "lat": 26.590751,
            "lng": 102.295739
        },
        "ad_info": {
            "adcode": 513402,
            "province": "四川省",
            "city": "凉山彝族自治州",
            "district": "会理市"
        }
    },
    {
        "id": "15748213172798268121",
        "title": "公共厕所",
        "address": "四川省凉山彝族自治州会理市G108与甸渡路交叉口正西方向68米左右",
        "tel": "",
        "category": "基础设施:公共设施:公共厕所",
        "type": 0,
        "location": {
            "lat": 27.093109,
            "lng": 102.249688
        },
        "ad_info": {
            "adcode": 513402,
            "province": "四川省",
            "city": "凉山彝族自治州",
            "district": "会理市"
        }
    },
    {
        "id": "17150004071530016243",
        "title": "公共厕所",
        "address": "四川省凉山彝族自治州西昌市长安中路338号",
        "tel": "",
        "category": "基础设施:公共设施:公共厕所",
        "type": 0,
        "location": {
            "lat": 27.887543,
            "lng": 102.248232
        },
        "ad_info": {
            "adcode": 513401,
            "province": "四川省",
            "city": "凉山彝族自治州",
            "district": "西昌市"
        }
    },
    {
        "id": "17880748120847162558",
        "title": "公共厕所",
        "address": "四川省凉山彝族自治州西昌市安康路与长宁北路交叉口西北方向53米左右",
        "tel": "",
        "category": "基础设施:公共设施:公共厕所",
        "type": 0,
        "location": {
            "lat": 27.905921,
            "lng": 102.218865
        },
        "ad_info": {
            "adcode": 513401,
            "province": "四川省",
            "city": "凉山彝族自治州",
            "district": "西昌市"
        }
    },
    {
        "id": "11341825944211332384",
        "title": "公共厕所",
        "address": "四川省凉山彝族自治州西昌市X13与太和大道交叉口正南方向636米左右",
        "tel": "",
        "category": "基础设施:公共设施:公共厕所",
        "type": 0,
        "location": {
            "lat": 27.897809,
            "lng": 102.171608
        },
        "ad_info": {
            "adcode": 513401,
            "province": "四川省",
            "city": "凉山彝族自治州",
            "district": "西昌市"
        }
    },
    {
        "id": "1012296927659108549",
        "title": "公共厕所",
        "address": "四川省凉山彝族自治州德昌县广场路21号",
        "tel": "",
        "category": "基础设施:公共设施:公共厕所",
        "type": 0,
        "location": {
            "lat": 27.405184,
            "lng": 102.182503
        },
        "ad_info": {
            "adcode": 513424,
            "province": "四川省",
            "city": "凉山彝族自治州",
            "district": "德昌县"
        }
    },
    {
        "id": "10952864366577181807",
        "title": "公共厕所",
        "address": "四川省凉山彝族自治州西昌市海河东路68号",
        "tel": "",
        "category": "基础设施:公共设施:公共厕所",
        "type": 0,
        "location": {
            "lat": 27.864631,
            "lng": 102.25789
        },
        "ad_info": {
            "adcode": 513401,
            "province": "四川省",
            "city": "凉山彝族自治州",
            "district": "西昌市"
        }
    },
    {
        "id": "17118644990508238154",
        "title": "公共厕所",
        "address": "四川省凉山彝族自治州西昌市上顺城街与下顺城街交叉口东南方向56米左右",
        "tel": "",
        "category": "基础设施:公共设施:公共厕所",
        "type": 0,
        "location": {
            "lat": 27.891681,
            "lng": 102.267233
        },
        "ad_info": {
            "adcode": 513401,
            "province": "四川省",
            "city": "凉山彝族自治州",
            "district": "西昌市"
        }
    },
    {
        "id": "1013200277621601913",
        "title": "公共厕所",
        "address": "四川省凉山彝族自治州西昌市商业街三段与朱家巷交叉口南40米",
        "tel": "",
        "category": "基础设施:公共设施:公共厕所",
        "type": 0,
        "location": {
            "lat": 27.891949,
            "lng": 102.256528
        },
        "ad_info": {
            "adcode": 513401,
            "province": "四川省",
            "city": "凉山彝族自治州",
            "district": "西昌市"
        }
    },
    {
        "id": "17850066113023745865",
        "title": "公共厕所",
        "address": "四川省凉山彝族自治州盐源县果场路与金果路交叉口北220米",
        "tel": "",
        "category": "基础设施:公共设施:公共厕所",
        "type": 0,
        "location": {
            "lat": 27.428229,
            "lng": 101.504637
        },
        "ad_info": {
            "adcode": 513423,
            "province": "四川省",
            "city": "凉山彝族自治州",
            "district": "盐源县"
        }
    },
    {
        "id": "5695517617716646598",
        "title": "公共厕所",
        "address": "四川省凉山彝族自治州冕宁县G108与交通北路交叉口正南方向376米左右",
        "tel": "",
        "category": "基础设施:公共设施:公共厕所",
        "type": 0,
        "location": {
            "lat": 28.309769,
            "lng": 102.194094
        },
        "ad_info": {
            "adcode": 513433,
            "province": "四川省",
            "city": "凉山彝族自治州",
            "district": "冕宁县"
        }
    },
    {
        "id": "5627570266534757074",
        "title": "公共厕所",
        "address": "四川省凉山彝族自治州西昌市海河南路与瑶山路交叉口西北方向79米左右",
        "tel": "",
        "category": "基础设施:公共设施:公共厕所",
        "type": 0,
        "location": {
            "lat": 27.863651,
            "lng": 102.26019
        },
        "ad_info": {
            "adcode": 513401,
            "province": "四川省",
            "city": "凉山彝族自治州",
            "district": "西昌市"
        }
    },
    {
        "id": "13230418104133149660",
        "title": "公共厕所",
        "address": "四川省凉山彝族自治州德昌县正南街与龙泉路东段交叉口东北方向56米左右",
        "tel": "",
        "category": "基础设施:公共设施:公共厕所",
        "type": 0,
        "location": {
            "lat": 27.401322,
            "lng": 102.180672
        },
        "ad_info": {
            "adcode": 513424,
            "province": "四川省",
            "city": "凉山彝族自治州",
            "district": "德昌县"
        }
    },
    {
        "id": "1631863678050978628",
        "title": "公共厕所",
        "address": "四川省凉山彝族自治州布拖县嘎子街南段与普提上街交叉口东北方向73米左右",
        "tel": "",
        "category": "基础设施:公共设施:公共厕所",
        "type": 0,
        "location": {
            "lat": 27.705867,
            "lng": 102.811528
        },
        "ad_info": {
            "adcode": 513429,
            "province": "四川省",
            "city": "凉山彝族自治州",
            "district": "布拖县"
        }
    },
    {
        "id": "9999189334473975474",
        "title": "公共厕所",
        "address": "四川省凉山彝族自治州西昌市上顺城街花卉市场(上顺城街店)",
        "tel": "",
        "category": "基础设施:公共设施:公共厕所",
        "type": 0,
        "location": {
            "lat": 27.891465,
            "lng": 102.270727
        },
        "ad_info": {
            "adcode": 513401,
            "province": "四川省",
            "city": "凉山彝族自治州",
            "district": "西昌市"
        }
    },
    {
        "id": "4277192373026050000",
        "title": "公共厕所",
        "address": "四川省凉山彝族自治州会理市滨河路北段与爱民路交叉口正西方向119米左右",
        "tel": "",
        "category": "基础设施:公共设施:公共厕所",
        "type": 0,
        "location": {
            "lat": 26.667086,
            "lng": 102.24751
        },
        "ad_info": {
            "adcode": 513402,
            "province": "四川省",
            "city": "凉山彝族自治州",
            "district": "会理市"
        }
    },
    {
        "id": "6771373691617250367",
        "title": "公共厕所",
        "address": "四川省凉山彝族自治州冕宁县S219与新房子巷交叉口正东方向1985米左右",
        "tel": "",
        "category": "基础设施:公共设施:公共厕所",
        "type": 0,
        "location": {
            "lat": 28.353614,
            "lng": 102.193172
        },
        "ad_info": {
            "adcode": 513433,
            "province": "四川省",
            "city": "凉山彝族自治州",
            "district": "冕宁县"
        }
    },
    {
        "id": "1245932886534036317",
        "title": "公共厕所",
        "address": "四川省凉山彝族自治州冕宁县灵栖旅游度假区东北侧100米",
        "tel": "",
        "category": "基础设施:公共设施:公共厕所",
        "type": 0,
        "location": {
            "lat": 28.57548,
            "lng": 102.236768
        },
        "ad_info": {
            "adcode": 513433,
            "province": "四川省",
            "city": "凉山彝族自治州",
            "district": "冕宁县"
        }
    },
    {
        "id": "12858256604637143129",
        "title": "公共厕所",
        "address": "四川省凉山彝族自治州冕宁县215省道南50米",
        "tel": "",
        "category": "基础设施:公共设施:公共厕所",
        "type": 0,
        "location": {
            "lat": 28.337366,
            "lng": 101.963733
        },
        "ad_info": {
            "adcode": 513433,
            "province": "四川省",
            "city": "凉山彝族自治州",
            "district": "冕宁县"
        }
    },
    {
        "id": "18090787893316896924",
        "title": "四季假日酒店洗手间",
        "address": "四川省凉山彝族自治州西昌市长安西路5号",
        "tel": "",
        "category": "基础设施:公共设施:公共厕所",
        "type": 0,
        "location": {
            "lat": 27.89424,
            "lng": 102.22822
        },
        "ad_info": {
            "adcode": 513401,
            "province": "四川省",
            "city": "凉山彝族自治州",
            "district": "西昌市"
        }
    },
    {
        "id": "9692731721955375751",
        "title": "肯德基(航天餐厅)-洗手间",
        "address": "四川省凉山彝族自治州西昌市航天大道世纪mall1层",
        "tel": "",
        "category": "基础设施:公共设施:公共厕所",
        "type": 0,
        "location": {
            "lat": 27.877997,
            "lng": 102.251283
        },
        "ad_info": {
            "adcode": 513401,
            "province": "四川省",
            "city": "凉山彝族自治州",
            "district": "西昌市"
        }
    },
    {
        "id": "1420423345703933700",
        "title": "公共厕所",
        "address": "四川省凉山彝族自治州西昌市滨河路三段与滨河路交叉口西南方向58米左右",
        "tel": "",
        "category": "基础设施:公共设施:公共厕所",
        "type": 0,
        "location": {
            "lat": 27.888611,
            "lng": 102.266762
        },
        "ad_info": {
            "adcode": 513401,
            "province": "四川省",
            "city": "凉山彝族自治州",
            "district": "西昌市"
        }
    },
    {
        "id": "12654110125686063974",
        "title": "公共厕所",
        "address": "四川省凉山彝族自治州布拖县特觉下街108号",
        "tel": "",
        "category": "基础设施:公共设施:公共厕所",
        "type": 0,
        "location": {
            "lat": 27.709296,
            "lng": 102.81108
        },
        "ad_info": {
            "adcode": 513429,
            "province": "四川省",
            "city": "凉山彝族自治州",
            "district": "布拖县"
        }
    },
    {
        "id": "14024177106353939232",
        "title": "公共厕所",
        "address": "四川省凉山彝族自治州冕宁县G248与S215交叉口正西方向111米左右",
        "tel": "",
        "category": "基础设施:公共设施:公共厕所",
        "type": 0,
        "location": {
            "lat": 28.614126,
            "lng": 101.92081
        },
        "ad_info": {
            "adcode": 513433,
            "province": "四川省",
            "city": "凉山彝族自治州",
            "district": "冕宁县"
        }
    },
    {
        "id": "6926353469837622701",
        "title": "公共厕所",
        "address": "四川省凉山彝族自治州冕宁县卫星西路与小东河步行街交叉口西南方向30米左右",
        "tel": "",
        "category": "基础设施:公共设施:公共厕所",
        "type": 0,
        "location": {
            "lat": 28.550639,
            "lng": 102.174946
        },
        "ad_info": {
            "adcode": 513433,
            "province": "四川省",
            "city": "凉山彝族自治州",
            "district": "冕宁县"
        }
    },
    {
        "id": "16949047731124716920",
        "title": "公共厕所",
        "address": "四川省凉山彝族自治州冕宁县G108与红旗桥交叉口正南方向549米左右",
        "tel": "",
        "category": "基础设施:公共设施:公共厕所",
        "type": 0,
        "location": {
            "lat": 28.759535,
            "lng": 102.255837
        },
        "ad_info": {
            "adcode": 513433,
            "province": "四川省",
            "city": "凉山彝族自治州",
            "district": "冕宁县"
        }
    },
    {
        "id": "443599502594268353",
        "title": "公共厕所",
        "address": "四川省凉山彝族自治州美姑县嘎哟啦商务酒店",
        "tel": "",
        "category": "基础设施:公共设施:公共厕所",
        "type": 0,
        "location": {
            "lat": 28.329365,
            "lng": 103.134778
        },
        "ad_info": {
            "adcode": 513436,
            "province": "四川省",
            "city": "凉山彝族自治州",
            "district": "美姑县"
        }
    },
    {
        "id": "14864624005087144417",
        "title": "公共厕所",
        "address": "四川省凉山彝族自治州德昌县新华街东段与通达街交叉口西北方向16米左右",
        "tel": "",
        "category": "基础设施:公共设施:公共厕所",
        "type": 0,
        "location": {
            "lat": 27.404141,
            "lng": 102.183797
        },
        "ad_info": {
            "adcode": 513424,
            "province": "四川省",
            "city": "凉山彝族自治州",
            "district": "德昌县"
        }
    },
    {
        "id": "5760420368656213153",
        "title": "西昌四季月酒店-洗手间",
        "address": "四川省凉山彝族自治州西昌市春城中路6号(近凉山民族风情园)",
        "tel": "",
        "category": "基础设施:公共设施:公共厕所",
        "type": 0,
        "location": {
            "lat": 27.87024,
            "lng": 102.25503
        },
        "ad_info": {
            "adcode": 513401,
            "province": "四川省",
            "city": "凉山彝族自治州",
            "district": "西昌市"
        }
    },
    {
        "id": "17904352673951120165",
        "title": "旅游公共厕所",
        "address": "四川省凉山彝族自治州布拖县洛奎村电商(物流)服务中心东南侧",
        "tel": "",
        "category": "基础设施:公共设施:公共厕所",
        "type": 0,
        "location": {
            "lat": 27.745845,
            "lng": 102.777154
        },
        "ad_info": {
            "adcode": 513429,
            "province": "四川省",
            "city": "凉山彝族自治州",
            "district": "布拖县"
        }
    },
    {
        "id": "4434594994710067352",
        "title": "西昌锦城观海宾馆-洗手间",
        "address": "四川省凉山彝族自治州西昌市泸山路与海滨中路交叉口正南方向588米左右",
        "tel": "",
        "category": "基础设施:公共设施:公共厕所",
        "type": 0,
        "location": {
            "lat": 27.831769,
            "lng": 102.273081
        },
        "ad_info": {
            "adcode": 513401,
            "province": "四川省",
            "city": "凉山彝族自治州",
            "district": "西昌市"
        }
    },
    {
        "id": "11175508546390129149",
        "title": "免费公共厕所",
        "address": "四川省凉山彝族自治州德昌县新华街中段与清泉街交叉口正东方向56米左右",
        "tel": "",
        "category": "基础设施:公共设施:公共厕所",
        "type": 0,
        "location": {
            "lat": 27.40333,
            "lng": 102.17991
        },
        "ad_info": {
            "adcode": 513424,
            "province": "四川省",
            "city": "凉山彝族自治州",
            "district": "德昌县"
        }
    },
    {
        "id": "13112031737269377969",
        "title": "菩萨岗服务区公共厕所",
        "address": "四川省凉山彝族自治州冕宁县京昆高速附近",
        "tel": "",
        "category": "基础设施:公共设施:公共厕所",
        "type": 0,
        "location": {
            "lat": 28.860013,
            "lng": 102.296879
        },
        "ad_info": {
            "adcode": 513433,
            "province": "四川省",
            "city": "凉山彝族自治州",
            "district": "冕宁县"
        }
    },
    {
        "id": "53663195198351953",
        "title": "德昌服务区公共厕所",
        "address": "四川省凉山彝族自治州德昌县G5京昆高速与德昌服务区交叉口西140米",
        "tel": "",
        "category": "基础设施:公共设施:公共厕所",
        "type": 0,
        "location": {
            "lat": 27.388906,
            "lng": 102.218555
        },
        "ad_info": {
            "adcode": 513424,
            "province": "四川省",
            "city": "凉山彝族自治州",
            "district": "德昌县"
        }
    },
    {
        "id": "2797083493101490368",
        "title": "德昌服务区公共厕所",
        "address": "四川省凉山彝族自治州德昌县京昆高速",
        "tel": "",
        "category": "基础设施:公共设施:公共厕所",
        "type": 0,
        "location": {
            "lat": 27.390248,
            "lng": 102.219348
        },
        "ad_info": {
            "adcode": 513424,
            "province": "四川省",
            "city": "凉山彝族自治州",
            "district": "德昌县"
        }
    },
    {
        "id": "1437304954815653745",
        "title": "公共厕所",
        "address": "四川省凉山彝族自治州会理市益门中学南侧200米",
        "tel": "",
        "category": "基础设施:公共设施:公共厕所",
        "type": 0,
        "location": {
            "lat": 26.857932,
            "lng": 102.288253
        },
        "ad_info": {
            "adcode": 513402,
            "province": "四川省",
            "city": "凉山彝族自治州",
            "district": "会理市"
        }
    },
    {
        "id": "17113447692114451159",
        "title": "公共厕所",
        "address": "四川省凉山彝族自治州西昌市北环路辅路与北街交叉口西南方向69米左右",
        "tel": "",
        "category": "基础设施:公共设施:公共厕所",
        "type": 0,
        "location": {
            "lat": 27.899528,
            "lng": 102.274838
        },
        "ad_info": {
            "adcode": 513401,
            "province": "四川省",
            "city": "凉山彝族自治州",
            "district": "西昌市"
        }
    },
    {
        "id": "13757695147821805057",
        "title": "公共厕所",
        "address": "四川省凉山彝族自治州西昌市观海路二段与酒吧街交叉口西南方向177米左右",
        "tel": "",
        "category": "基础设施:公共设施:公共厕所",
        "type": 0,
        "location": {
            "lat": 27.85543,
            "lng": 102.262064
        },
        "ad_info": {
            "adcode": 513401,
            "province": "四川省",
            "city": "凉山彝族自治州",
            "district": "西昌市"
        }
    },
    {
        "id": "4777193773882304903",
        "title": "公共厕所",
        "address": "四川省凉山彝族自治州越西县文化路与西苑路交叉口西南方向68米左右",
        "tel": "",
        "category": "基础设施:公共设施:公共厕所",
        "type": 0,
        "location": {
            "lat": 28.641575,
            "lng": 102.50626
        },
        "ad_info": {
            "adcode": 513434,
            "province": "四川省",
            "city": "凉山彝族自治州",
            "district": "越西县"
        }
    },
    {
        "id": "2293993585186547324",
        "title": "公共厕所",
        "address": "四川省凉山彝族自治州西昌市宁远桥东路与宁远桥北路交叉口东北方向188米左右",
        "tel": "",
        "category": "基础设施:公共设施:公共厕所",
        "type": 0,
        "location": {
            "lat": 27.896281,
            "lng": 102.256818
        },
        "ad_info": {
            "adcode": 513401,
            "province": "四川省",
            "city": "凉山彝族自治州",
            "district": "西昌市"
        }
    },
    {
        "id": "17016956696038300166",
        "title": "公共厕所",
        "address": "四川省凉山彝族自治州西昌市G348与磨盘山隧道交叉口正东方向1846米左右",
        "tel": "",
        "category": "基础设施:公共设施:公共厕所",
        "type": 0,
        "location": {
            "lat": 27.757007,
            "lng": 102.113072
        },
        "ad_info": {
            "adcode": 513401,
            "province": "四川省",
            "city": "凉山彝族自治州",
            "district": "西昌市"
        }
    },
    {
        "id": "10542260884117864621",
        "title": "公共厕所",
        "address": "四川省凉山彝族自治州西昌市西郊乡三岔口南路384号",
        "tel": "",
        "category": "基础设施:公共设施:公共厕所",
        "type": 0,
        "location": {
            "lat": 27.86934,
            "lng": 102.262609
        },
        "ad_info": {
            "adcode": 513401,
            "province": "四川省",
            "city": "凉山彝族自治州",
            "district": "西昌市"
        }
    },
    {
        "id": "4056505818952917677",
        "title": "公共厕所",
        "address": "四川省凉山彝族自治州西昌市尤家屯路鹭洲半岛",
        "tel": "",
        "category": "基础设施:公共设施:公共厕所",
        "type": 0,
        "location": {
            "lat": 27.872172,
            "lng": 102.271611
        },
        "ad_info": {
            "adcode": 513401,
            "province": "四川省",
            "city": "凉山彝族自治州",
            "district": "西昌市"
        }
    },
    {
        "id": "5060414895095614082",
        "title": "公共厕所",
        "address": "四川省凉山彝族自治州雷波县S307与莫红1号桥交叉口正西方向238米左右",
        "tel": "",
        "category": "基础设施:公共设施:公共厕所",
        "type": 0,
        "location": {
            "lat": 28.046561,
            "lng": 103.317053
        },
        "ad_info": {
            "adcode": 513437,
            "province": "四川省",
            "city": "凉山彝族自治州",
            "district": "雷波县"
        }
    },
    {
        "id": "15539400602810826912",
        "title": "公共厕所",
        "address": "四川省凉山彝族自治州会东县G353与会淌公路交叉口西北方向400米左右",
        "tel": "",
        "category": "基础设施:公共设施:公共厕所",
        "type": 0,
        "location": {
            "lat": 26.623193,
            "lng": 102.571489
        },
        "ad_info": {
            "adcode": 513426,
            "province": "四川省",
            "city": "凉山彝族自治州",
            "district": "会东县"
        }
    },
    {
        "id": "8005963540131725014",
        "title": "公厕",
        "address": "四川省凉山彝族自治州盐源县Y023与左环湖路交叉口西南方向1460米左右",
        "tel": "",
        "category": "基础设施:公共设施:公共厕所",
        "type": 0,
        "location": {
            "lat": 27.69516,
            "lng": 100.85996
        },
        "ad_info": {
            "adcode": 513423,
            "province": "四川省",
            "city": "凉山彝族自治州",
            "district": "盐源县"
        }
    },
    {
        "id": "7803954610457274419",
        "title": "公共厕所",
        "address": "四川省凉山彝族自治州盐源县万家巷与政府街交叉口东北方向169米左右",
        "tel": "",
        "category": "基础设施:公共设施:公共厕所",
        "type": 0,
        "location": {
            "lat": 27.424127,
            "lng": 101.512931
        },
        "ad_info": {
            "adcode": 513423,
            "province": "四川省",
            "city": "凉山彝族自治州",
            "district": "盐源县"
        }
    },
    {
        "id": "15442779304846532487",
        "title": "公共厕所",
        "address": "四川省凉山彝族自治州昭觉县G245与Y004交叉口正北方向1123米左右",
        "tel": "",
        "category": "基础设施:公共设施:公共厕所",
        "type": 0,
        "location": {
            "lat": 27.857323,
            "lng": 102.494524
        },
        "ad_info": {
            "adcode": 513431,
            "province": "四川省",
            "city": "凉山彝族自治州",
            "district": "昭觉县"
        }
    },
    {
        "id": "14600482086607893811",
        "title": "公共厕所",
        "address": "四川省凉山彝族自治州冕宁县108国道与G5京昆高速出口交叉口东20米",
        "tel": "",
        "category": "基础设施:公共设施:公共厕所",
        "type": 0,
        "location": {
            "lat": 28.762841,
            "lng": 102.255251
        },
        "ad_info": {
            "adcode": 513433,
            "province": "四川省",
            "city": "凉山彝族自治州",
            "district": "冕宁县"
        }
    },
    {
        "id": "14047734753713590724",
        "title": "公共厕所",
        "address": "四川省凉山彝族自治州木里藏族自治县移民局综合大楼南侧90米",
        "tel": "",
        "category": "基础设施:公共设施:公共厕所",
        "type": 0,
        "location": {
            "lat": 27.921888,
            "lng": 101.284735
        },
        "ad_info": {
            "adcode": 513422,
            "province": "四川省",
            "city": "凉山彝族自治州",
            "district": "木里藏族自治县"
        }
    },
    {
        "id": "2733689847468065465",
        "title": "公共厕所",
        "address": "四川省凉山彝族自治州昭觉县南街与西街交叉口东南方向81米左右",
        "tel": "",
        "category": "基础设施:公共设施:公共厕所",
        "type": 0,
        "location": {
            "lat": 28.01096,
            "lng": 102.846428
        },
        "ad_info": {
            "adcode": 513431,
            "province": "四川省",
            "city": "凉山彝族自治州",
            "district": "昭觉县"
        }
    },
    {
        "id": "207493155871694556",
        "title": "公共厕所",
        "address": "四川省凉山彝族自治州盐源县园林街与气象路交叉口正西方向240米左右",
        "tel": "",
        "category": "基础设施:公共设施:公共厕所",
        "type": 0,
        "location": {
            "lat": 27.425358,
            "lng": 101.511696
        },
        "ad_info": {
            "adcode": 513423,
            "province": "四川省",
            "city": "凉山彝族自治州",
            "district": "盐源县"
        }
    },
    {
        "id": "11561598683257977069",
        "title": "公共厕所",
        "address": "四川省凉山彝族自治州西昌市马坪坝西昌学院",
        "tel": "",
        "category": "基础设施:公共设施:公共厕所",
        "type": 0,
        "location": {
            "lat": 27.945539,
            "lng": 102.214345
        },
        "ad_info": {
            "adcode": 513401,
            "province": "四川省",
            "city": "凉山彝族自治州",
            "district": "西昌市"
        }
    },
    {
        "id": "17739605697351868634",
        "title": "公共厕所",
        "address": "四川省凉山彝族自治州甘洛县滨河南路与美怡路交叉口正南方向331米左右",
        "tel": "",
        "category": "基础设施:公共设施:公共厕所",
        "type": 0,
        "location": {
            "lat": 28.957322,
            "lng": 102.773333
        },
        "ad_info": {
            "adcode": 513435,
            "province": "四川省",
            "city": "凉山彝族自治州",
            "district": "甘洛县"
        }
    },
    {
        "id": "5257394639207747937",
        "title": "公共厕所",
        "address": "四川省凉山彝族自治州昭觉县208省道西50米",
        "tel": "",
        "category": "基础设施:公共设施:公共厕所",
        "type": 0,
        "location": {
            "lat": 28.026019,
            "lng": 103.008294
        },
        "ad_info": {
            "adcode": 513431,
            "province": "四川省",
            "city": "凉山彝族自治州",
            "district": "昭觉县"
        }
    },
    {
        "id": "10982464648692226885",
        "title": "公共厕所",
        "address": "四川省凉山彝族自治州西昌市G108与G245交叉口东南方向40米左右",
        "tel": "",
        "category": "基础设施:公共设施:公共厕所",
        "type": 0,
        "location": {
            "lat": 27.805396,
            "lng": 102.29472
        },
        "ad_info": {
            "adcode": 513401,
            "province": "四川省",
            "city": "凉山彝族自治州",
            "district": "西昌市"
        }
    },
    {
        "id": "12697699453501624460",
        "title": "公共厕所",
        "address": "四川省凉山彝族自治州会理市G245与通杨路交叉口正南方向179米左右",
        "tel": "",
        "category": "基础设施:公共设施:公共厕所",
        "type": 0,
        "location": {
            "lat": 26.350457,
            "lng": 102.332048
        },
        "ad_info": {
            "adcode": 513402,
            "province": "四川省",
            "city": "凉山彝族自治州",
            "district": "会理市"
        }
    },
    {
        "id": "3995223776574902401",
        "title": "公共厕所",
        "address": "四川省凉山彝族自治州宁南县民康路与洗布坝路交叉口正东方向29米左右",
        "tel": "",
        "category": "基础设施:公共设施:公共厕所",
        "type": 0,
        "location": {
            "lat": 27.07007,
            "lng": 102.757368
        },
        "ad_info": {
            "adcode": 513427,
            "province": "四川省",
            "city": "凉山彝族自治州",
            "district": "宁南县"
        }
    },
    {
        "id": "1318321689181234675",
        "title": "公共厕所",
        "address": "四川省凉山彝族自治州会理市108国道东50米",
        "tel": "",
        "category": "基础设施:公共设施:公共厕所",
        "type": 0,
        "location": {
            "lat": 26.400534,
            "lng": 102.075406
        },
        "ad_info": {
            "adcode": 513402,
            "province": "四川省",
            "city": "凉山彝族自治州",
            "district": "会理市"
        }
    },
    {
        "id": "5322805594762447215",
        "title": "公共厕所",
        "address": "四川省凉山彝族自治州德昌县凤凰广场路与育才路一段交叉路口西北侧(凤凰广场西侧)",
        "tel": "",
        "category": "基础设施:公共设施:公共厕所",
        "type": 0,
        "location": {
            "lat": 27.409534,
            "lng": 102.177865
        },
        "ad_info": {
            "adcode": 513424,
            "province": "四川省",
            "city": "凉山彝族自治州",
            "district": "德昌县"
        }
    },
    {
        "id": "14796220513180372927",
        "title": "公共卫生间",
        "address": "四川省凉山彝族自治州雷波县宁远街与老街交叉口正南方向18米左右",
        "tel": "",
        "category": "基础设施:公共设施:公共厕所",
        "type": 0,
        "location": {
            "lat": 28.262029,
            "lng": 103.570353
        },
        "ad_info": {
            "adcode": 513437,
            "province": "四川省",
            "city": "凉山彝族自治州",
            "district": "雷波县"
        }
    },
    {
        "id": "8961081468053365303",
        "title": "公共厕所",
        "address": "四川省凉山彝族自治州会东县G353与会淌公路交叉口东北方向127米左右",
        "tel": "",
        "category": "基础设施:公共设施:公共厕所",
        "type": 0,
        "location": {
            "lat": 26.621657,
            "lng": 102.575639
        },
        "ad_info": {
            "adcode": 513426,
            "province": "四川省",
            "city": "凉山彝族自治州",
            "district": "会东县"
        }
    },
    {
        "id": "11959924067821735145",
        "title": "公共厕所",
        "address": "四川省凉山彝族自治州西昌市创业创新路团结安置新村",
        "tel": "",
        "category": "基础设施:公共设施:公共厕所",
        "type": 0,
        "location": {
            "lat": 27.875048,
            "lng": 102.275573
        },
        "ad_info": {
            "adcode": 513401,
            "province": "四川省",
            "city": "凉山彝族自治州",
            "district": "西昌市"
        }
    },
    {
        "id": "2626242668635132160",
        "title": "公共厕所",
        "address": "四川省凉山彝族自治州西昌市商业街一段与步行街交叉口东南方向123米左右",
        "tel": "",
        "category": "基础设施:公共设施:公共厕所",
        "type": 0,
        "location": {
            "lat": 27.889573,
            "lng": 102.264454
        },
        "ad_info": {
            "adcode": 513401,
            "province": "四川省",
            "city": "凉山彝族自治州",
            "district": "西昌市"
        }
    },
    {
        "id": "10684985462293259599",
        "title": "公共厕所",
        "address": "四川省凉山彝族自治州西昌市羊羔河路与航天大道四段辅路交叉口西南方向111米左右",
        "tel": "",
        "category": "基础设施:公共设施:公共厕所",
        "type": 0,
        "location": {
            "lat": 27.870723,
            "lng": 102.265202
        },
        "ad_info": {
            "adcode": 513401,
            "province": "四川省",
            "city": "凉山彝族自治州",
            "district": "西昌市"
        }
    },
    {
        "id": "3366227389001587211",
        "title": "公共厕所",
        "address": "四川省凉山彝族自治州西昌市大石坂路与建昌东路交叉口西南方向81米左右",
        "tel": "",
        "category": "基础设施:公共设施:公共厕所",
        "type": 0,
        "location": {
            "lat": 27.882741,
            "lng": 102.282569
        },
        "ad_info": {
            "adcode": 513401,
            "province": "四川省",
            "city": "凉山彝族自治州",
            "district": "西昌市"
        }
    },
    {
        "id": "603717869190856727",
        "title": "唐园公共厕所",
        "address": "四川省凉山彝族自治州西昌市海宴路",
        "tel": "",
        "category": "基础设施:公共设施:公共厕所",
        "type": 0,
        "location": {
            "lat": 27.880358,
            "lng": 102.279609
        },
        "ad_info": {
            "adcode": 513401,
            "province": "四川省",
            "city": "凉山彝族自治州",
            "district": "西昌市"
        }
    },
    {
        "id": "3802597681283166965",
        "title": "西昌服务区公共厕所",
        "address": "四川省凉山彝族自治州西昌市G108与Y024交叉口正北方向869米左右",
        "tel": "",
        "category": "基础设施:公共设施:公共厕所",
        "type": 0,
        "location": {
            "lat": 28.015011,
            "lng": 102.178889
        },
        "ad_info": {
            "adcode": 513401,
            "province": "四川省",
            "city": "凉山彝族自治州",
            "district": "西昌市"
        }
    },
    {
        "id": "12575444436659857416",
        "title": "公共厕所(洛俄依甘会盟文化小镇)",
        "address": "四川省凉山彝族自治州美姑县348国道SC-LIS-0435",
        "tel": "",
        "category": "基础设施:公共设施:公共厕所",
        "type": 0,
        "location": {
            "lat": 28.112706,
            "lng": 103.01441
        },
        "ad_info": {
            "adcode": 513436,
            "province": "四川省",
            "city": "凉山彝族自治州",
            "district": "美姑县"
        }
    },
    {
        "id": "11484585856783019503",
        "title": "公共厕所",
        "address": "四川省凉山彝族自治州冕宁县Z990奔月楼",
        "tel": "",
        "category": "基础设施:公共设施:公共厕所",
        "type": 0,
        "location": {
            "lat": 28.199486,
            "lng": 102.067583
        },
        "ad_info": {
            "adcode": 513433,
            "province": "四川省",
            "city": "凉山彝族自治州",
            "district": "冕宁县"
        }
    },
    {
        "id": "4771784974160715704",
        "title": "公共厕所",
        "address": "四川省凉山彝族自治州昭觉县人民中路与西街交叉口西北方向95米左右",
        "tel": "",
        "category": "基础设施:公共设施:公共厕所",
        "type": 0,
        "location": {
            "lat": 28.014625,
            "lng": 102.841755
        },
        "ad_info": {
            "adcode": 513431,
            "province": "四川省",
            "city": "凉山彝族自治州",
            "district": "昭觉县"
        }
    },
    {
        "id": "9867749045071232050",
        "title": "公共厕所(假山)",
        "address": "四川省凉山彝族自治州木里藏族自治县S220与瓦厂街道交叉口西南方向682米左右",
        "tel": "",
        "category": "基础设施:公共设施:公共厕所",
        "type": 0,
        "location": {
            "lat": 28.163461,
            "lng": 100.854359
        },
        "ad_info": {
            "adcode": 513422,
            "province": "四川省",
            "city": "凉山彝族自治州",
            "district": "木里藏族自治县"
        }
    },
    {
        "id": "8129413563974289707",
        "title": "公共厕所",
        "address": "四川省凉山彝族自治州越西县文昌大道与西宁路交叉口东北方向497米左右",
        "tel": "",
        "category": "基础设施:公共设施:公共厕所",
        "type": 0,
        "location": {
            "lat": 28.621472,
            "lng": 102.509414
        },
        "ad_info": {
            "adcode": 513434,
            "province": "四川省",
            "city": "凉山彝族自治州",
            "district": "越西县"
        }
    },
    {
        "id": "17826594327026694912",
        "title": "公共厕所",
        "address": "四川省凉山彝族自治州普格县中心街与正南街交叉口正北方向151米左右",
        "tel": "",
        "category": "基础设施:公共设施:公共厕所",
        "type": 0,
        "location": {
            "lat": 27.378893,
            "lng": 102.543635
        },
        "ad_info": {
            "adcode": 513428,
            "province": "四川省",
            "city": "凉山彝族自治州",
            "district": "普格县"
        }
    },
    {
        "id": "5830160757881144107",
        "title": "公共厕所",
        "address": "四川省凉山彝族自治州金阳县G356与北街交叉口西南方向163米左右",
        "tel": "",
        "category": "基础设施:公共设施:公共厕所",
        "type": 0,
        "location": {
            "lat": 27.705518,
            "lng": 103.253365
        },
        "ad_info": {
            "adcode": 513430,
            "province": "四川省",
            "city": "凉山彝族自治州",
            "district": "金阳县"
        }
    },
    {
        "id": "8342371313922463308",
        "title": "公共厕所",
        "address": "四川省凉山彝族自治州西昌市245国道与环海路交叉口西北220米",
        "tel": "",
        "category": "基础设施:公共设施:公共厕所",
        "type": 0,
        "location": {
            "lat": 27.799845,
            "lng": 102.298304
        },
        "ad_info": {
            "adcode": 513401,
            "province": "四川省",
            "city": "凉山彝族自治州",
            "district": "西昌市"
        }
    },
    {
        "id": "18274155808603459567",
        "title": "公共厕所",
        "address": "四川省凉山彝族自治州宁南县中心街与宁府路上段交叉口东北方向48米左右",
        "tel": "",
        "category": "基础设施:公共设施:公共厕所",
        "type": 0,
        "location": {
            "lat": 27.065934,
            "lng": 102.758851
        },
        "ad_info": {
            "adcode": 513427,
            "province": "四川省",
            "city": "凉山彝族自治州",
            "district": "宁南县"
        }
    },
    {
        "id": "5351468358150088149",
        "title": "公共厕所",
        "address": "四川省凉山彝族自治州会东县G353与垭口路交叉口正西方向367米左右",
        "tel": "",
        "category": "基础设施:公共设施:公共厕所",
        "type": 0,
        "location": {
            "lat": 26.624618,
            "lng": 102.58927
        },
        "ad_info": {
            "adcode": 513426,
            "province": "四川省",
            "city": "凉山彝族自治州",
            "district": "会东县"
        }
    },
    {
        "id": "15342170786374150354",
        "title": "公共厕所",
        "address": "四川省凉山彝族自治州西昌市登月路与红枣林路交叉口东南方向47米左右",
        "tel": "",
        "category": "基础设施:公共设施:公共厕所",
        "type": 0,
        "location": {
            "lat": 27.876632,
            "lng": 102.244901
        },
        "ad_info": {
            "adcode": 513401,
            "province": "四川省",
            "city": "凉山彝族自治州",
            "district": "西昌市"
        }
    },
    {
        "id": "11988910777940962976",
        "title": "公共厕所",
        "address": "四川省凉山彝族自治州普格县螺髻山景区游客中心",
        "tel": "",
        "category": "基础设施:公共设施:公共厕所",
        "type": 0,
        "location": {
            "lat": 27.575914,
            "lng": 102.429143
        },
        "ad_info": {
            "adcode": 513428,
            "province": "四川省",
            "city": "凉山彝族自治州",
            "district": "普格县"
        }
    },
    {
        "id": "2456446899858513714",
        "title": "公共厕所",
        "address": "四川省凉山彝族自治州西昌市阳光东路阳光商贸城",
        "tel": "",
        "category": "基础设施:公共设施:公共厕所",
        "type": 0,
        "location": {
            "lat": 27.870052,
            "lng": 102.272392
        },
        "ad_info": {
            "adcode": 513401,
            "province": "四川省",
            "city": "凉山彝族自治州",
            "district": "西昌市"
        }
    },
    {
        "id": "6041340969111640966",
        "title": "彝海停车区公共厕所",
        "address": "四川省凉山彝族自治州冕宁县彝海停车区西50米",
        "tel": "",
        "category": "基础设施:公共设施:公共厕所",
        "type": 0,
        "location": {
            "lat": 28.730387,
            "lng": 102.264276
        },
        "ad_info": {
            "adcode": 513433,
            "province": "四川省",
            "city": "凉山彝族自治州",
            "district": "冕宁县"
        }
    },
    {
        "id": "6935822610666513642",
        "title": "公共厕所",
        "address": "四川省凉山彝族自治州冕宁县东街72号",
        "tel": "",
        "category": "基础设施:公共设施:公共厕所",
        "type": 0,
        "location": {
            "lat": 28.548831,
            "lng": 102.171575
        },
        "ad_info": {
            "adcode": 513433,
            "province": "四川省",
            "city": "凉山彝族自治州",
            "district": "冕宁县"
        }
    },
    {
        "id": "10482369850685461724",
        "title": "公共厕所",
        "address": "四川省凉山彝族自治州西昌市环海路与钟楼路交叉口西南方向71米左右",
        "tel": "",
        "category": "基础设施:公共设施:公共厕所",
        "type": 0,
        "location": {
            "lat": 27.792438,
            "lng": 102.319251
        },
        "ad_info": {
            "adcode": 513401,
            "province": "四川省",
            "city": "凉山彝族自治州",
            "district": "西昌市"
        }
    },
    {
        "id": "9361434722489720132",
        "title": "公共厕所",
        "address": "四川省凉山彝族自治州会理市双河路与金带路交叉口正北方向38米左右",
        "tel": "",
        "category": "基础设施:公共设施:公共厕所",
        "type": 0,
        "location": {
            "lat": 26.648317,
            "lng": 102.248942
        },
        "ad_info": {
            "adcode": 513402,
            "province": "四川省",
            "city": "凉山彝族自治州",
            "district": "会理市"
        }
    },
    {
        "id": "1659285481845860614",
        "title": "公共厕所",
        "address": "四川省凉山彝族自治州越西县XW07与小相岭隧道交叉口正东方向582米左右",
        "tel": "",
        "category": "基础设施:公共设施:公共厕所",
        "type": 0,
        "location": {
            "lat": 28.484484,
            "lng": 102.425538
        },
        "ad_info": {
            "adcode": 513434,
            "province": "四川省",
            "city": "凉山彝族自治州",
            "district": "越西县"
        }
    },
    {
        "id": "11846197624051770725",
        "title": "公共厕所",
        "address": "四川省凉山彝族自治州普格县新建北路中国石油温泉加油站",
        "tel": "",
        "category": "基础设施:公共设施:公共厕所",
        "type": 0,
        "location": {
            "lat": 27.383922,
            "lng": 102.538323
        },
        "ad_info": {
            "adcode": 513428,
            "province": "四川省",
            "city": "凉山彝族自治州",
            "district": "普格县"
        }
    },
    {
        "id": "6655701237303700843",
        "title": "公共厕所",
        "address": "四川省凉山彝族自治州西昌市三岔口西路40号",
        "tel": "",
        "category": "基础设施:公共设施:公共厕所",
        "type": 0,
        "location": {
            "lat": 27.884651,
            "lng": 102.267842
        },
        "ad_info": {
            "adcode": 513401,
            "province": "四川省",
            "city": "凉山彝族自治州",
            "district": "西昌市"
        }
    },
    {
        "id": "17613701224607679240",
        "title": "公共厕所",
        "address": "四川省凉山彝族自治州盐源县农场路与太安上街交叉口正东方向82米左右",
        "tel": "",
        "category": "基础设施:公共设施:公共厕所",
        "type": 0,
        "location": {
            "lat": 27.423599,
            "lng": 101.517419
        },
        "ad_info": {
            "adcode": 513423,
            "province": "四川省",
            "city": "凉山彝族自治州",
            "district": "盐源县"
        }
    },
    {
        "id": "5674363748076302784",
        "title": "公共厕所",
        "address": "四川省凉山彝族自治州西昌市登月路与西河南路交叉口正南方向155米左右",
        "tel": "",
        "category": "基础设施:公共设施:公共厕所",
        "type": 0,
        "location": {
            "lat": 27.879552,
            "lng": 102.23901
        },
        "ad_info": {
            "adcode": 513401,
            "province": "四川省",
            "city": "凉山彝族自治州",
            "district": "西昌市"
        }
    },
    {
        "id": "12220114899267746819",
        "title": "公共厕所",
        "address": "四川省凉山彝族自治州冕宁县248国道橄榄基地游客中心",
        "tel": "",
        "category": "基础设施:公共设施:公共厕所",
        "type": 0,
        "location": {
            "lat": 28.356658,
            "lng": 102.168552
        },
        "ad_info": {
            "adcode": 513433,
            "province": "四川省",
            "city": "凉山彝族自治州",
            "district": "冕宁县"
        }
    },
    {
        "id": "10962909396287487401",
        "title": "公共厕所(冕宁县旅游集散中心)",
        "address": "四川省凉山彝族自治州冕宁县交通西路10号集散中心",
        "tel": "",
        "category": "基础设施:公共设施:公共厕所",
        "type": 0,
        "location": {
            "lat": 28.548099,
            "lng": 102.17683
        },
        "ad_info": {
            "adcode": 513433,
            "province": "四川省",
            "city": "凉山彝族自治州",
            "district": "冕宁县"
        }
    },
    {
        "id": "3570724036528989852",
        "title": "公共厕所",
        "address": "四川省凉山彝族自治州布拖县步步路与特觉上街交叉口正西方向777米左右",
        "tel": "",
        "category": "基础设施:公共设施:公共厕所",
        "type": 0,
        "location": {
            "lat": 27.703825,
            "lng": 102.798685
        },
        "ad_info": {
            "adcode": 513429,
            "province": "四川省",
            "city": "凉山彝族自治州",
            "district": "布拖县"
        }
    },
    {
        "id": "14473129906559394063",
        "title": "公共厕所",
        "address": "四川省凉山彝族自治州会东县滩王路与金环南路交叉口东南方向131米左右",
        "tel": "",
        "category": "基础设施:公共设施:公共厕所",
        "type": 0,
        "location": {
            "lat": 26.625466,
            "lng": 102.584547
        },
        "ad_info": {
            "adcode": 513426,
            "province": "四川省",
            "city": "凉山彝族自治州",
            "district": "会东县"
        }
    },
    {
        "id": "15045310295214106666",
        "title": "公共厕所",
        "address": "四川省凉山彝族自治州会理市康庄路与滨河路北段交叉口西南方向81米左右",
        "tel": "",
        "category": "基础设施:公共设施:公共厕所",
        "type": 0,
        "location": {
            "lat": 26.67206,
            "lng": 102.246558
        },
        "ad_info": {
            "adcode": 513402,
            "province": "四川省",
            "city": "凉山彝族自治州",
            "district": "会理市"
        }
    },
    {
        "id": "2777449255103927269",
        "title": "洗手间(青年旅社)",
        "address": "四川省凉山彝族自治州木里藏族自治县S220与瓦厂街道交叉口西南方向609米左右",
        "tel": "",
        "category": "基础设施:公共设施:公共厕所",
        "type": 0,
        "location": {
            "lat": 28.16381,
            "lng": 100.855057
        },
        "ad_info": {
            "adcode": 513422,
            "province": "四川省",
            "city": "凉山彝族自治州",
            "district": "木里藏族自治县"
        }
    },
    {
        "id": "13997289658950261430",
        "title": "西昌市月城广场达达超市楼上公共厕所",
        "address": "四川省凉山彝族自治州西昌市大巷口下街50号",
        "tel": "",
        "category": "基础设施:公共设施:公共厕所",
        "type": 0,
        "location": {
            "lat": 27.889223,
            "lng": 102.264249
        },
        "ad_info": {
            "adcode": 513401,
            "province": "四川省",
            "city": "凉山彝族自治州",
            "district": "西昌市"
        }
    },
    {
        "id": "17076704536696760846",
        "title": "西昌唐园公共厕所",
        "address": "四川省凉山彝族自治州西昌市西昌唐园公交站背后有个小门进来",
        "tel": "",
        "category": "基础设施:公共设施:公共厕所",
        "type": 0,
        "location": {
            "lat": 27.878091,
            "lng": 102.27965
        },
        "ad_info": {
            "adcode": 513401,
            "province": "四川省",
            "city": "凉山彝族自治州",
            "district": "西昌市"
        }
    },
    {
        "id": "7491693161876709991",
        "title": "公共厕所",
        "address": "四川省凉山彝族自治州会理市G108与城河桥交叉口东北方向222米左右",
        "tel": "",
        "category": "基础设施:公共设施:公共厕所",
        "type": 0,
        "location": {
            "lat": 26.618541,
            "lng": 102.251269
        },
        "ad_info": {
            "adcode": 513402,
            "province": "四川省",
            "city": "凉山彝族自治州",
            "district": "会理市"
        }
    },
    {
        "id": "3807654055959269327",
        "title": "公共厕所",
        "address": "四川省凉山彝族自治州会东县",
        "tel": "",
        "category": "基础设施:公共设施:公共厕所",
        "type": 0,
        "location": {
            "lat": 26.463793,
            "lng": 102.55505
        },
        "ad_info": {
            "adcode": 513426,
            "province": "四川省",
            "city": "凉山彝族自治州",
            "district": "会东县"
        }
    },
    {
        "id": "4013412008188021713",
        "title": "洗手间(菩提林卡)",
        "address": "四川省凉山彝族自治州木里藏族自治县S220与瓦厂街道交叉口西南方向1002米左右",
        "tel": "",
        "category": "基础设施:公共设施:公共厕所",
        "type": 0,
        "location": {
            "lat": 28.162766,
            "lng": 100.850661
        },
        "ad_info": {
            "adcode": 513422,
            "province": "四川省",
            "city": "凉山彝族自治州",
            "district": "木里藏族自治县"
        }
    },
    {
        "id": "10035322911641763012",
        "title": "卫生间",
        "address": "四川省凉山彝族自治州甘洛县附近",
        "tel": "",
        "category": "基础设施:公共设施:公共厕所",
        "type": 0,
        "location": {
            "lat": 29.037518,
            "lng": 102.55895
        },
        "ad_info": {
            "adcode": 513435,
            "province": "四川省",
            "city": "凉山彝族自治州",
            "district": "甘洛县"
        }
    },
    {
        "id": "15549258784507071663",
        "title": "邛海公园公共厕所",
        "address": "四川省凉山彝族自治州西昌市泸山路与海滨中路交叉口东南方向669米左右",
        "tel": "",
        "category": "基础设施:公共设施:公共厕所",
        "type": 0,
        "location": {
            "lat": 27.83229,
            "lng": 102.27648
        },
        "ad_info": {
            "adcode": 513401,
            "province": "四川省",
            "city": "凉山彝族自治州",
            "district": "西昌市"
        }
    },
    {
        "id": "18222827315301834970",
        "title": "公共厕所",
        "address": "四川省凉山彝族自治州西昌市大石坂路与大石坂路二段交叉口西北方向118米左右",
        "tel": "",
        "category": "基础设施:公共设施:公共厕所",
        "type": 0,
        "location": {
            "lat": 27.882884,
            "lng": 102.284567
        },
        "ad_info": {
            "adcode": 513401,
            "province": "四川省",
            "city": "凉山彝族自治州",
            "district": "西昌市"
        }
    },
    {
        "id": "16325555739728916091",
        "title": "公共厕所",
        "address": "四川省凉山彝族自治州盐源县农场路与太安上街交叉口正南方向267米左右",
        "tel": "",
        "category": "基础设施:公共设施:公共厕所",
        "type": 0,
        "location": {
            "lat": 27.421108,
            "lng": 101.516954
        },
        "ad_info": {
            "adcode": 513423,
            "province": "四川省",
            "city": "凉山彝族自治州",
            "district": "盐源县"
        }
    },
    {
        "id": "12046607007472461310",
        "title": "公共厕所",
        "address": "四川省凉山彝族自治州西昌市通海巷92号",
        "tel": "",
        "category": "基础设施:公共设施:公共厕所",
        "type": 0,
        "location": {
            "lat": 27.886655,
            "lng": 102.275446
        },
        "ad_info": {
            "adcode": 513401,
            "province": "四川省",
            "city": "凉山彝族自治州",
            "district": "西昌市"
        }
    },
    {
        "id": "3898065538445754179",
        "title": "公共厕所",
        "address": "四川省凉山彝族自治州会理市G108与黎拉路交叉口正东方向789米左右",
        "tel": "",
        "category": "基础设施:公共设施:公共厕所",
        "type": 0,
        "location": {
            "lat": 26.376629,
            "lng": 102.008707
        },
        "ad_info": {
            "adcode": 513402,
            "province": "四川省",
            "city": "凉山彝族自治州",
            "district": "会理市"
        }
    },
    {
        "id": "4069608882974134661",
        "title": "公共厕所",
        "address": "四川省凉山彝族自治州西昌市蓝星清洗西昌分公司南侧",
        "tel": "",
        "category": "基础设施:公共设施:公共厕所",
        "type": 0,
        "location": {
            "lat": 27.734971,
            "lng": 102.172494
        },
        "ad_info": {
            "adcode": 513401,
            "province": "四川省",
            "city": "凉山彝族自治州",
            "district": "西昌市"
        }
    },
    {
        "id": "13368903746560208565",
        "title": "公共厕所(SC-LIS-0395)",
        "address": "四川省凉山彝族自治州盐源县G348",
        "tel": "",
        "category": "基础设施:公共设施:公共厕所",
        "type": 0,
        "location": {
            "lat": 27.4341,
            "lng": 101.376687
        },
        "ad_info": {
            "adcode": 513423,
            "province": "四川省",
            "city": "凉山彝族自治州",
            "district": "盐源县"
        }
    },
    {
        "id": "634890106797480208",
        "title": "公共厕所",
        "address": "四川省凉山彝族自治州西昌市商业街二段141号",
        "tel": "",
        "category": "基础设施:公共设施:公共厕所",
        "type": 0,
        "location": {
            "lat": 27.890186,
            "lng": 102.259314
        },
        "ad_info": {
            "adcode": 513401,
            "province": "四川省",
            "city": "凉山彝族自治州",
            "district": "西昌市"
        }
    },
    {
        "id": "13403698250635436538",
        "title": "公共厕所",
        "address": "四川省凉山彝族自治州盐源县名源饭店东侧",
        "tel": "",
        "category": "基础设施:公共设施:公共厕所",
        "type": 0,
        "location": {
            "lat": 27.46724,
            "lng": 101.670844
        },
        "ad_info": {
            "adcode": 513423,
            "province": "四川省",
            "city": "凉山彝族自治州",
            "district": "盐源县"
        }
    },
    {
        "id": "3302419819949017149",
        "title": "公共厕所",
        "address": "四川省凉山彝族自治州西昌市S107(海滨中路)",
        "tel": "",
        "category": "基础设施:公共设施:公共厕所",
        "type": 0,
        "location": {
            "lat": 27.837475,
            "lng": 102.273859
        },
        "ad_info": {
            "adcode": 513401,
            "province": "四川省",
            "city": "凉山彝族自治州",
            "district": "西昌市"
        }
    },
    {
        "id": "5544725679893002163",
        "title": "公共厕所",
        "address": "四川省凉山彝族自治州西昌市胜利北路153号",
        "tel": "",
        "category": "基础设施:公共设施:公共厕所",
        "type": 0,
        "location": {
            "lat": 27.897599,
            "lng": 102.261637
        },
        "ad_info": {
            "adcode": 513401,
            "province": "四川省",
            "city": "凉山彝族自治州",
            "district": "西昌市"
        }
    },
    {
        "id": "4826101360818312512",
        "title": "冕宁服务区公共厕所",
        "address": "四川省凉山彝族自治州冕宁县G5京昆高速与G5京昆高速出口交叉口东120米",
        "tel": "",
        "category": "基础设施:公共设施:公共厕所",
        "type": 0,
        "location": {
            "lat": 28.574117,
            "lng": 102.229224
        },
        "ad_info": {
            "adcode": 513433,
            "province": "四川省",
            "city": "凉山彝族自治州",
            "district": "冕宁县"
        }
    },
    {
        "id": "8796757727581800516",
        "title": "公共厕所",
        "address": "四川省凉山彝族自治州西昌市后营巷安定门",
        "tel": "",
        "category": "基础设施:公共设施:公共厕所",
        "type": 0,
        "location": {
            "lat": 27.894059,
            "lng": 102.275911
        },
        "ad_info": {
            "adcode": 513401,
            "province": "四川省",
            "city": "凉山彝族自治州",
            "district": "西昌市"
        }
    },
    {
        "id": "11383952787629147574",
        "title": "公共厕所(木里县屋脚乡利家咀)",
        "address": "四川省凉山彝族自治州木里藏族自治县屋脚乡利家咀境内",
        "tel": "",
        "category": "基础设施:公共设施:公共厕所",
        "type": 0,
        "location": {
            "lat": 27.892428,
            "lng": 100.721519
        },
        "ad_info": {
            "adcode": 513422,
            "province": "四川省",
            "city": "凉山彝族自治州",
            "district": "木里藏族自治县"
        }
    },
    {
        "id": "13997289658950261430",
        "title": "西昌市月城广场达达超市楼上公共厕所",
        "address": "四川省凉山彝族自治州西昌市大巷口下街50号",
        "tel": "",
        "category": "基础设施:公共设施:公共厕所",
        "type": 0,
        "location": {
            "lat": 27.889223,
            "lng": 102.264249
        },
        "ad_info": {
            "adcode": 513401,
            "province": "四川省",
            "city": "凉山彝族自治州",
            "district": "西昌市"
        }
    },
    {
        "id": "17076704536696760846",
        "title": "西昌唐园公共厕所",
        "address": "四川省凉山彝族自治州西昌市西昌唐园公交站背后有个小门进来",
        "tel": "",
        "category": "基础设施:公共设施:公共厕所",
        "type": 0,
        "location": {
            "lat": 27.878091,
            "lng": 102.27965
        },
        "ad_info": {
            "adcode": 513401,
            "province": "四川省",
            "city": "凉山彝族自治州",
            "district": "西昌市"
        }
    },
    {
        "id": "7491693161876709991",
        "title": "公共厕所",
        "address": "四川省凉山彝族自治州会理市G108与城河桥交叉口东北方向222米左右",
        "tel": "",
        "category": "基础设施:公共设施:公共厕所",
        "type": 0,
        "location": {
            "lat": 26.618541,
            "lng": 102.251269
        },
        "ad_info": {
            "adcode": 513402,
            "province": "四川省",
            "city": "凉山彝族自治州",
            "district": "会理市"
        }
    },
    {
        "id": "3807654055959269327",
        "title": "公共厕所",
        "address": "四川省凉山彝族自治州会东县",
        "tel": "",
        "category": "基础设施:公共设施:公共厕所",
        "type": 0,
        "location": {
            "lat": 26.463793,
            "lng": 102.55505
        },
        "ad_info": {
            "adcode": 513426,
            "province": "四川省",
            "city": "凉山彝族自治州",
            "district": "会东县"
        }
    },
    {
        "id": "4013412008188021713",
        "title": "洗手间(菩提林卡)",
        "address": "四川省凉山彝族自治州木里藏族自治县S220与瓦厂街道交叉口西南方向1002米左右",
        "tel": "",
        "category": "基础设施:公共设施:公共厕所",
        "type": 0,
        "location": {
            "lat": 28.162766,
            "lng": 100.850661
        },
        "ad_info": {
            "adcode": 513422,
            "province": "四川省",
            "city": "凉山彝族自治州",
            "district": "木里藏族自治县"
        }
    },
    {
        "id": "10035322911641763012",
        "title": "卫生间",
        "address": "四川省凉山彝族自治州甘洛县附近",
        "tel": "",
        "category": "基础设施:公共设施:公共厕所",
        "type": 0,
        "location": {
            "lat": 29.037518,
            "lng": 102.55895
        },
        "ad_info": {
            "adcode": 513435,
            "province": "四川省",
            "city": "凉山彝族自治州",
            "district": "甘洛县"
        }
    },
    {
        "id": "15549258784507071663",
        "title": "邛海公园公共厕所",
        "address": "四川省凉山彝族自治州西昌市泸山路与海滨中路交叉口东南方向669米左右",
        "tel": "",
        "category": "基础设施:公共设施:公共厕所",
        "type": 0,
        "location": {
            "lat": 27.83229,
            "lng": 102.27648
        },
        "ad_info": {
            "adcode": 513401,
            "province": "四川省",
            "city": "凉山彝族自治州",
            "district": "西昌市"
        }
    },
    {
        "id": "18222827315301834970",
        "title": "公共厕所",
        "address": "四川省凉山彝族自治州西昌市大石坂路与大石坂路二段交叉口西北方向118米左右",
        "tel": "",
        "category": "基础设施:公共设施:公共厕所",
        "type": 0,
        "location": {
            "lat": 27.882884,
            "lng": 102.284567
        },
        "ad_info": {
            "adcode": 513401,
            "province": "四川省",
            "city": "凉山彝族自治州",
            "district": "西昌市"
        }
    },
    {
        "id": "16325555739728916091",
        "title": "公共厕所",
        "address": "四川省凉山彝族自治州盐源县农场路与太安上街交叉口正南方向267米左右",
        "tel": "",
        "category": "基础设施:公共设施:公共厕所",
        "type": 0,
        "location": {
            "lat": 27.421108,
            "lng": 101.516954
        },
        "ad_info": {
            "adcode": 513423,
            "province": "四川省",
            "city": "凉山彝族自治州",
            "district": "盐源县"
        }
    },
    {
        "id": "12046607007472461310",
        "title": "公共厕所",
        "address": "四川省凉山彝族自治州西昌市通海巷92号",
        "tel": "",
        "category": "基础设施:公共设施:公共厕所",
        "type": 0,
        "location": {
            "lat": 27.886655,
            "lng": 102.275446
        },
        "ad_info": {
            "adcode": 513401,
            "province": "四川省",
            "city": "凉山彝族自治州",
            "district": "西昌市"
        }
    },
    {
        "id": "3898065538445754179",
        "title": "公共厕所",
        "address": "四川省凉山彝族自治州会理市G108与黎拉路交叉口正东方向789米左右",
        "tel": "",
        "category": "基础设施:公共设施:公共厕所",
        "type": 0,
        "location": {
            "lat": 26.376629,
            "lng": 102.008707
        },
        "ad_info": {
            "adcode": 513402,
            "province": "四川省",
            "city": "凉山彝族自治州",
            "district": "会理市"
        }
    },
    {
        "id": "4069608882974134661",
        "title": "公共厕所",
        "address": "四川省凉山彝族自治州西昌市蓝星清洗西昌分公司南侧",
        "tel": "",
        "category": "基础设施:公共设施:公共厕所",
        "type": 0,
        "location": {
            "lat": 27.734971,
            "lng": 102.172494
        },
        "ad_info": {
            "adcode": 513401,
            "province": "四川省",
            "city": "凉山彝族自治州",
            "district": "西昌市"
        }
    },
    {
        "id": "13368903746560208565",
        "title": "公共厕所(SC-LIS-0395)",
        "address": "四川省凉山彝族自治州盐源县G348",
        "tel": "",
        "category": "基础设施:公共设施:公共厕所",
        "type": 0,
        "location": {
            "lat": 27.4341,
            "lng": 101.376687
        },
        "ad_info": {
            "adcode": 513423,
            "province": "四川省",
            "city": "凉山彝族自治州",
            "district": "盐源县"
        }
    },
    {
        "id": "634890106797480208",
        "title": "公共厕所",
        "address": "四川省凉山彝族自治州西昌市商业街二段141号",
        "tel": "",
        "category": "基础设施:公共设施:公共厕所",
        "type": 0,
        "location": {
            "lat": 27.890186,
            "lng": 102.259314
        },
        "ad_info": {
            "adcode": 513401,
            "province": "四川省",
            "city": "凉山彝族自治州",
            "district": "西昌市"
        }
    },
    {
        "id": "13403698250635436538",
        "title": "公共厕所",
        "address": "四川省凉山彝族自治州盐源县名源饭店东侧",
        "tel": "",
        "category": "基础设施:公共设施:公共厕所",
        "type": 0,
        "location": {
            "lat": 27.46724,
            "lng": 101.670844
        },
        "ad_info": {
            "adcode": 513423,
            "province": "四川省",
            "city": "凉山彝族自治州",
            "district": "盐源县"
        }
    },
    {
        "id": "3302419819949017149",
        "title": "公共厕所",
        "address": "四川省凉山彝族自治州西昌市S107(海滨中路)",
        "tel": "",
        "category": "基础设施:公共设施:公共厕所",
        "type": 0,
        "location": {
            "lat": 27.837475,
            "lng": 102.273859
        },
        "ad_info": {
            "adcode": 513401,
            "province": "四川省",
            "city": "凉山彝族自治州",
            "district": "西昌市"
        }
    },
    {
        "id": "5544725679893002163",
        "title": "公共厕所",
        "address": "四川省凉山彝族自治州西昌市胜利北路153号",
        "tel": "",
        "category": "基础设施:公共设施:公共厕所",
        "type": 0,
        "location": {
            "lat": 27.897599,
            "lng": 102.261637
        },
        "ad_info": {
            "adcode": 513401,
            "province": "四川省",
            "city": "凉山彝族自治州",
            "district": "西昌市"
        }
    },
    {
        "id": "4826101360818312512",
        "title": "冕宁服务区公共厕所",
        "address": "四川省凉山彝族自治州冕宁县G5京昆高速与G5京昆高速出口交叉口东120米",
        "tel": "",
        "category": "基础设施:公共设施:公共厕所",
        "type": 0,
        "location": {
            "lat": 28.574117,
            "lng": 102.229224
        },
        "ad_info": {
            "adcode": 513433,
            "province": "四川省",
            "city": "凉山彝族自治州",
            "district": "冕宁县"
        }
    },
    {
        "id": "8796757727581800516",
        "title": "公共厕所",
        "address": "四川省凉山彝族自治州西昌市后营巷安定门",
        "tel": "",
        "category": "基础设施:公共设施:公共厕所",
        "type": 0,
        "location": {
            "lat": 27.894059,
            "lng": 102.275911
        },
        "ad_info": {
            "adcode": 513401,
            "province": "四川省",
            "city": "凉山彝族自治州",
            "district": "西昌市"
        }
    },
    {
        "id": "11383952787629147574",
        "title": "公共厕所(木里县屋脚乡利家咀)",
        "address": "四川省凉山彝族自治州木里藏族自治县屋脚乡利家咀境内",
        "tel": "",
        "category": "基础设施:公共设施:公共厕所",
        "type": 0,
        "location": {
            "lat": 27.892428,
            "lng": 100.721519
        },
        "ad_info": {
            "adcode": 513422,
            "province": "四川省",
            "city": "凉山彝族自治州",
            "district": "木里藏族自治县"
        }
    },
    {
        "id": "13997289658950261430",
        "title": "西昌市月城广场达达超市楼上公共厕所",
        "address": "四川省凉山彝族自治州西昌市大巷口下街50号",
        "tel": "",
        "category": "基础设施:公共设施:公共厕所",
        "type": 0,
        "location": {
            "lat": 27.889223,
            "lng": 102.264249
        },
        "ad_info": {
            "adcode": 513401,
            "province": "四川省",
            "city": "凉山彝族自治州",
            "district": "西昌市"
        }
    },
    {
        "id": "17076704536696760846",
        "title": "西昌唐园公共厕所",
        "address": "四川省凉山彝族自治州西昌市西昌唐园公交站背后有个小门进来",
        "tel": "",
        "category": "基础设施:公共设施:公共厕所",
        "type": 0,
        "location": {
            "lat": 27.878091,
            "lng": 102.27965
        },
        "ad_info": {
            "adcode": 513401,
            "province": "四川省",
            "city": "凉山彝族自治州",
            "district": "西昌市"
        }
    },
    {
        "id": "7491693161876709991",
        "title": "公共厕所",
        "address": "四川省凉山彝族自治州会理市G108与城河桥交叉口东北方向222米左右",
        "tel": "",
        "category": "基础设施:公共设施:公共厕所",
        "type": 0,
        "location": {
            "lat": 26.618541,
            "lng": 102.251269
        },
        "ad_info": {
            "adcode": 513402,
            "province": "四川省",
            "city": "凉山彝族自治州",
            "district": "会理市"
        }
    },
    {
        "id": "3807654055959269327",
        "title": "公共厕所",
        "address": "四川省凉山彝族自治州会东县",
        "tel": "",
        "category": "基础设施:公共设施:公共厕所",
        "type": 0,
        "location": {
            "lat": 26.463793,
            "lng": 102.55505
        },
        "ad_info": {
            "adcode": 513426,
            "province": "四川省",
            "city": "凉山彝族自治州",
            "district": "会东县"
        }
    },
    {
        "id": "4013412008188021713",
        "title": "洗手间(菩提林卡)",
        "address": "四川省凉山彝族自治州木里藏族自治县S220与瓦厂街道交叉口西南方向1002米左右",
        "tel": "",
        "category": "基础设施:公共设施:公共厕所",
        "type": 0,
        "location": {
            "lat": 28.162766,
            "lng": 100.850661
        },
        "ad_info": {
            "adcode": 513422,
            "province": "四川省",
            "city": "凉山彝族自治州",
            "district": "木里藏族自治县"
        }
    },
    {
        "id": "10035322911641763012",
        "title": "卫生间",
        "address": "四川省凉山彝族自治州甘洛县附近",
        "tel": "",
        "category": "基础设施:公共设施:公共厕所",
        "type": 0,
        "location": {
            "lat": 29.037518,
            "lng": 102.55895
        },
        "ad_info": {
            "adcode": 513435,
            "province": "四川省",
            "city": "凉山彝族自治州",
            "district": "甘洛县"
        }
    },
    {
        "id": "15549258784507071663",
        "title": "邛海公园公共厕所",
        "address": "四川省凉山彝族自治州西昌市泸山路与海滨中路交叉口东南方向669米左右",
        "tel": "",
        "category": "基础设施:公共设施:公共厕所",
        "type": 0,
        "location": {
            "lat": 27.83229,
            "lng": 102.27648
        },
        "ad_info": {
            "adcode": 513401,
            "province": "四川省",
            "city": "凉山彝族自治州",
            "district": "西昌市"
        }
    },
    {
        "id": "18222827315301834970",
        "title": "公共厕所",
        "address": "四川省凉山彝族自治州西昌市大石坂路与大石坂路二段交叉口西北方向118米左右",
        "tel": "",
        "category": "基础设施:公共设施:公共厕所",
        "type": 0,
        "location": {
            "lat": 27.882884,
            "lng": 102.284567
        },
        "ad_info": {
            "adcode": 513401,
            "province": "四川省",
            "city": "凉山彝族自治州",
            "district": "西昌市"
        }
    },
    {
        "id": "16325555739728916091",
        "title": "公共厕所",
        "address": "四川省凉山彝族自治州盐源县农场路与太安上街交叉口正南方向267米左右",
        "tel": "",
        "category": "基础设施:公共设施:公共厕所",
        "type": 0,
        "location": {
            "lat": 27.421108,
            "lng": 101.516954
        },
        "ad_info": {
            "adcode": 513423,
            "province": "四川省",
            "city": "凉山彝族自治州",
            "district": "盐源县"
        }
    },
    {
        "id": "12046607007472461310",
        "title": "公共厕所",
        "address": "四川省凉山彝族自治州西昌市通海巷92号",
        "tel": "",
        "category": "基础设施:公共设施:公共厕所",
        "type": 0,
        "location": {
            "lat": 27.886655,
            "lng": 102.275446
        },
        "ad_info": {
            "adcode": 513401,
            "province": "四川省",
            "city": "凉山彝族自治州",
            "district": "西昌市"
        }
    },
    {
        "id": "3898065538445754179",
        "title": "公共厕所",
        "address": "四川省凉山彝族自治州会理市G108与黎拉路交叉口正东方向789米左右",
        "tel": "",
        "category": "基础设施:公共设施:公共厕所",
        "type": 0,
        "location": {
            "lat": 26.376629,
            "lng": 102.008707
        },
        "ad_info": {
            "adcode": 513402,
            "province": "四川省",
            "city": "凉山彝族自治州",
            "district": "会理市"
        }
    },
    {
        "id": "4069608882974134661",
        "title": "公共厕所",
        "address": "四川省凉山彝族自治州西昌市蓝星清洗西昌分公司南侧",
        "tel": "",
        "category": "基础设施:公共设施:公共厕所",
        "type": 0,
        "location": {
            "lat": 27.734971,
            "lng": 102.172494
        },
        "ad_info": {
            "adcode": 513401,
            "province": "四川省",
            "city": "凉山彝族自治州",
            "district": "西昌市"
        }
    },
    {
        "id": "13368903746560208565",
        "title": "公共厕所(SC-LIS-0395)",
        "address": "四川省凉山彝族自治州盐源县G348",
        "tel": "",
        "category": "基础设施:公共设施:公共厕所",
        "type": 0,
        "location": {
            "lat": 27.4341,
            "lng": 101.376687
        },
        "ad_info": {
            "adcode": 513423,
            "province": "四川省",
            "city": "凉山彝族自治州",
            "district": "盐源县"
        }
    },
    {
        "id": "634890106797480208",
        "title": "公共厕所",
        "address": "四川省凉山彝族自治州西昌市商业街二段141号",
        "tel": "",
        "category": "基础设施:公共设施:公共厕所",
        "type": 0,
        "location": {
            "lat": 27.890186,
            "lng": 102.259314
        },
        "ad_info": {
            "adcode": 513401,
            "province": "四川省",
            "city": "凉山彝族自治州",
            "district": "西昌市"
        }
    },
    {
        "id": "13403698250635436538",
        "title": "公共厕所",
        "address": "四川省凉山彝族自治州盐源县名源饭店东侧",
        "tel": "",
        "category": "基础设施:公共设施:公共厕所",
        "type": 0,
        "location": {
            "lat": 27.46724,
            "lng": 101.670844
        },
        "ad_info": {
            "adcode": 513423,
            "province": "四川省",
            "city": "凉山彝族自治州",
            "district": "盐源县"
        }
    },
    {
        "id": "3302419819949017149",
        "title": "公共厕所",
        "address": "四川省凉山彝族自治州西昌市S107(海滨中路)",
        "tel": "",
        "category": "基础设施:公共设施:公共厕所",
        "type": 0,
        "location": {
            "lat": 27.837475,
            "lng": 102.273859
        },
        "ad_info": {
            "adcode": 513401,
            "province": "四川省",
            "city": "凉山彝族自治州",
            "district": "西昌市"
        }
    },
    {
        "id": "5544725679893002163",
        "title": "公共厕所",
        "address": "四川省凉山彝族自治州西昌市胜利北路153号",
        "tel": "",
        "category": "基础设施:公共设施:公共厕所",
        "type": 0,
        "location": {
            "lat": 27.897599,
            "lng": 102.261637
        },
        "ad_info": {
            "adcode": 513401,
            "province": "四川省",
            "city": "凉山彝族自治州",
            "district": "西昌市"
        }
    },
    {
        "id": "4826101360818312512",
        "title": "冕宁服务区公共厕所",
        "address": "四川省凉山彝族自治州冕宁县G5京昆高速与G5京昆高速出口交叉口东120米",
        "tel": "",
        "category": "基础设施:公共设施:公共厕所",
        "type": 0,
        "location": {
            "lat": 28.574117,
            "lng": 102.229224
        },
        "ad_info": {
            "adcode": 513433,
            "province": "四川省",
            "city": "凉山彝族自治州",
            "district": "冕宁县"
        }
    },
    {
        "id": "8796757727581800516",
        "title": "公共厕所",
        "address": "四川省凉山彝族自治州西昌市后营巷安定门",
        "tel": "",
        "category": "基础设施:公共设施:公共厕所",
        "type": 0,
        "location": {
            "lat": 27.894059,
            "lng": 102.275911
        },
        "ad_info": {
            "adcode": 513401,
            "province": "四川省",
            "city": "凉山彝族自治州",
            "district": "西昌市"
        }
    },
    {
        "id": "11383952787629147574",
        "title": "公共厕所(木里县屋脚乡利家咀)",
        "address": "四川省凉山彝族自治州木里藏族自治县屋脚乡利家咀境内",
        "tel": "",
        "category": "基础设施:公共设施:公共厕所",
        "type": 0,
        "location": {
            "lat": 27.892428,
            "lng": 100.721519
        },
        "ad_info": {
            "adcode": 513422,
            "province": "四川省",
            "city": "凉山彝族自治州",
            "district": "木里藏族自治县"
        }
    },
    {
        "id": "13997289658950261430",
        "title": "西昌市月城广场达达超市楼上公共厕所",
        "address": "四川省凉山彝族自治州西昌市大巷口下街50号",
        "tel": "",
        "category": "基础设施:公共设施:公共厕所",
        "type": 0,
        "location": {
            "lat": 27.889223,
            "lng": 102.264249
        },
        "ad_info": {
            "adcode": 513401,
            "province": "四川省",
            "city": "凉山彝族自治州",
            "district": "西昌市"
        }
    },
    {
        "id": "17076704536696760846",
        "title": "西昌唐园公共厕所",
        "address": "四川省凉山彝族自治州西昌市西昌唐园公交站背后有个小门进来",
        "tel": "",
        "category": "基础设施:公共设施:公共厕所",
        "type": 0,
        "location": {
            "lat": 27.878091,
            "lng": 102.27965
        },
        "ad_info": {
            "adcode": 513401,
            "province": "四川省",
            "city": "凉山彝族自治州",
            "district": "西昌市"
        }
    },
    {
        "id": "7491693161876709991",
        "title": "公共厕所",
        "address": "四川省凉山彝族自治州会理市G108与城河桥交叉口东北方向222米左右",
        "tel": "",
        "category": "基础设施:公共设施:公共厕所",
        "type": 0,
        "location": {
            "lat": 26.618541,
            "lng": 102.251269
        },
        "ad_info": {
            "adcode": 513402,
            "province": "四川省",
            "city": "凉山彝族自治州",
            "district": "会理市"
        }
    },
    {
        "id": "3807654055959269327",
        "title": "公共厕所",
        "address": "四川省凉山彝族自治州会东县",
        "tel": "",
        "category": "基础设施:公共设施:公共厕所",
        "type": 0,
        "location": {
            "lat": 26.463793,
            "lng": 102.55505
        },
        "ad_info": {
            "adcode": 513426,
            "province": "四川省",
            "city": "凉山彝族自治州",
            "district": "会东县"
        }
    },
    {
        "id": "4013412008188021713",
        "title": "洗手间(菩提林卡)",
        "address": "四川省凉山彝族自治州木里藏族自治县S220与瓦厂街道交叉口西南方向1002米左右",
        "tel": "",
        "category": "基础设施:公共设施:公共厕所",
        "type": 0,
        "location": {
            "lat": 28.162766,
            "lng": 100.850661
        },
        "ad_info": {
            "adcode": 513422,
            "province": "四川省",
            "city": "凉山彝族自治州",
            "district": "木里藏族自治县"
        }
    },
    {
        "id": "10035322911641763012",
        "title": "卫生间",
        "address": "四川省凉山彝族自治州甘洛县附近",
        "tel": "",
        "category": "基础设施:公共设施:公共厕所",
        "type": 0,
        "location": {
            "lat": 29.037518,
            "lng": 102.55895
        },
        "ad_info": {
            "adcode": 513435,
            "province": "四川省",
            "city": "凉山彝族自治州",
            "district": "甘洛县"
        }
    },
    {
        "id": "15549258784507071663",
        "title": "邛海公园公共厕所",
        "address": "四川省凉山彝族自治州西昌市泸山路与海滨中路交叉口东南方向669米左右",
        "tel": "",
        "category": "基础设施:公共设施:公共厕所",
        "type": 0,
        "location": {
            "lat": 27.83229,
            "lng": 102.27648
        },
        "ad_info": {
            "adcode": 513401,
            "province": "四川省",
            "city": "凉山彝族自治州",
            "district": "西昌市"
        }
    },
    {
        "id": "18222827315301834970",
        "title": "公共厕所",
        "address": "四川省凉山彝族自治州西昌市大石坂路与大石坂路二段交叉口西北方向118米左右",
        "tel": "",
        "category": "基础设施:公共设施:公共厕所",
        "type": 0,
        "location": {
            "lat": 27.882884,
            "lng": 102.284567
        },
        "ad_info": {
            "adcode": 513401,
            "province": "四川省",
            "city": "凉山彝族自治州",
            "district": "西昌市"
        }
    },
    {
        "id": "16325555739728916091",
        "title": "公共厕所",
        "address": "四川省凉山彝族自治州盐源县农场路与太安上街交叉口正南方向267米左右",
        "tel": "",
        "category": "基础设施:公共设施:公共厕所",
        "type": 0,
        "location": {
            "lat": 27.421108,
            "lng": 101.516954
        },
        "ad_info": {
            "adcode": 513423,
            "province": "四川省",
            "city": "凉山彝族自治州",
            "district": "盐源县"
        }
    },
    {
        "id": "12046607007472461310",
        "title": "公共厕所",
        "address": "四川省凉山彝族自治州西昌市通海巷92号",
        "tel": "",
        "category": "基础设施:公共设施:公共厕所",
        "type": 0,
        "location": {
            "lat": 27.886655,
            "lng": 102.275446
        },
        "ad_info": {
            "adcode": 513401,
            "province": "四川省",
            "city": "凉山彝族自治州",
            "district": "西昌市"
        }
    },
    {
        "id": "3898065538445754179",
        "title": "公共厕所",
        "address": "四川省凉山彝族自治州会理市G108与黎拉路交叉口正东方向789米左右",
        "tel": "",
        "category": "基础设施:公共设施:公共厕所",
        "type": 0,
        "location": {
            "lat": 26.376629,
            "lng": 102.008707
        },
        "ad_info": {
            "adcode": 513402,
            "province": "四川省",
            "city": "凉山彝族自治州",
            "district": "会理市"
        }
    },
    {
        "id": "4069608882974134661",
        "title": "公共厕所",
        "address": "四川省凉山彝族自治州西昌市蓝星清洗西昌分公司南侧",
        "tel": "",
        "category": "基础设施:公共设施:公共厕所",
        "type": 0,
        "location": {
            "lat": 27.734971,
            "lng": 102.172494
        },
        "ad_info": {
            "adcode": 513401,
            "province": "四川省",
            "city": "凉山彝族自治州",
            "district": "西昌市"
        }
    },
    {
        "id": "13368903746560208565",
        "title": "公共厕所(SC-LIS-0395)",
        "address": "四川省凉山彝族自治州盐源县G348",
        "tel": "",
        "category": "基础设施:公共设施:公共厕所",
        "type": 0,
        "location": {
            "lat": 27.4341,
            "lng": 101.376687
        },
        "ad_info": {
            "adcode": 513423,
            "province": "四川省",
            "city": "凉山彝族自治州",
            "district": "盐源县"
        }
    },
    {
        "id": "634890106797480208",
        "title": "公共厕所",
        "address": "四川省凉山彝族自治州西昌市商业街二段141号",
        "tel": "",
        "category": "基础设施:公共设施:公共厕所",
        "type": 0,
        "location": {
            "lat": 27.890186,
            "lng": 102.259314
        },
        "ad_info": {
            "adcode": 513401,
            "province": "四川省",
            "city": "凉山彝族自治州",
            "district": "西昌市"
        }
    },
    {
        "id": "13403698250635436538",
        "title": "公共厕所",
        "address": "四川省凉山彝族自治州盐源县名源饭店东侧",
        "tel": "",
        "category": "基础设施:公共设施:公共厕所",
        "type": 0,
        "location": {
            "lat": 27.46724,
            "lng": 101.670844
        },
        "ad_info": {
            "adcode": 513423,
            "province": "四川省",
            "city": "凉山彝族自治州",
            "district": "盐源县"
        }
    },
    {
        "id": "3302419819949017149",
        "title": "公共厕所",
        "address": "四川省凉山彝族自治州西昌市S107(海滨中路)",
        "tel": "",
        "category": "基础设施:公共设施:公共厕所",
        "type": 0,
        "location": {
            "lat": 27.837475,
            "lng": 102.273859
        },
        "ad_info": {
            "adcode": 513401,
            "province": "四川省",
            "city": "凉山彝族自治州",
            "district": "西昌市"
        }
    },
    {
        "id": "5544725679893002163",
        "title": "公共厕所",
        "address": "四川省凉山彝族自治州西昌市胜利北路153号",
        "tel": "",
        "category": "基础设施:公共设施:公共厕所",
        "type": 0,
        "location": {
            "lat": 27.897599,
            "lng": 102.261637
        },
        "ad_info": {
            "adcode": 513401,
            "province": "四川省",
            "city": "凉山彝族自治州",
            "district": "西昌市"
        }
    },
    {
        "id": "4826101360818312512",
        "title": "冕宁服务区公共厕所",
        "address": "四川省凉山彝族自治州冕宁县G5京昆高速与G5京昆高速出口交叉口东120米",
        "tel": "",
        "category": "基础设施:公共设施:公共厕所",
        "type": 0,
        "location": {
            "lat": 28.574117,
            "lng": 102.229224
        },
        "ad_info": {
            "adcode": 513433,
            "province": "四川省",
            "city": "凉山彝族自治州",
            "district": "冕宁县"
        }
    },
    {
        "id": "8796757727581800516",
        "title": "公共厕所",
        "address": "四川省凉山彝族自治州西昌市后营巷安定门",
        "tel": "",
        "category": "基础设施:公共设施:公共厕所",
        "type": 0,
        "location": {
            "lat": 27.894059,
            "lng": 102.275911
        },
        "ad_info": {
            "adcode": 513401,
            "province": "四川省",
            "city": "凉山彝族自治州",
            "district": "西昌市"
        }
    },
    {
        "id": "11383952787629147574",
        "title": "公共厕所(木里县屋脚乡利家咀)",
        "address": "四川省凉山彝族自治州木里藏族自治县屋脚乡利家咀境内",
        "tel": "",
        "category": "基础设施:公共设施:公共厕所",
        "type": 0,
        "location": {
            "lat": 27.892428,
            "lng": 100.721519
        },
        "ad_info": {
            "adcode": 513422,
            "province": "四川省",
            "city": "凉山彝族自治州",
            "district": "木里藏族自治县"
        }
    },
    {
        "id": "13997289658950261430",
        "title": "西昌市月城广场达达超市楼上公共厕所",
        "address": "四川省凉山彝族自治州西昌市大巷口下街50号",
        "tel": "",
        "category": "基础设施:公共设施:公共厕所",
        "type": 0,
        "location": {
            "lat": 27.889223,
            "lng": 102.264249
        },
        "ad_info": {
            "adcode": 513401,
            "province": "四川省",
            "city": "凉山彝族自治州",
            "district": "西昌市"
        }
    },
    {
        "id": "17076704536696760846",
        "title": "西昌唐园公共厕所",
        "address": "四川省凉山彝族自治州西昌市西昌唐园公交站背后有个小门进来",
        "tel": "",
        "category": "基础设施:公共设施:公共厕所",
        "type": 0,
        "location": {
            "lat": 27.878091,
            "lng": 102.27965
        },
        "ad_info": {
            "adcode": 513401,
            "province": "四川省",
            "city": "凉山彝族自治州",
            "district": "西昌市"
        }
    },
    {
        "id": "7491693161876709991",
        "title": "公共厕所",
        "address": "四川省凉山彝族自治州会理市G108与城河桥交叉口东北方向222米左右",
        "tel": "",
        "category": "基础设施:公共设施:公共厕所",
        "type": 0,
        "location": {
            "lat": 26.618541,
            "lng": 102.251269
        },
        "ad_info": {
            "adcode": 513402,
            "province": "四川省",
            "city": "凉山彝族自治州",
            "district": "会理市"
        }
    },
    {
        "id": "3807654055959269327",
        "title": "公共厕所",
        "address": "四川省凉山彝族自治州会东县",
        "tel": "",
        "category": "基础设施:公共设施:公共厕所",
        "type": 0,
        "location": {
            "lat": 26.463793,
            "lng": 102.55505
        },
        "ad_info": {
            "adcode": 513426,
            "province": "四川省",
            "city": "凉山彝族自治州",
            "district": "会东县"
        }
    },
    {
        "id": "4013412008188021713",
        "title": "洗手间(菩提林卡)",
        "address": "四川省凉山彝族自治州木里藏族自治县S220与瓦厂街道交叉口西南方向1002米左右",
        "tel": "",
        "category": "基础设施:公共设施:公共厕所",
        "type": 0,
        "location": {
            "lat": 28.162766,
            "lng": 100.850661
        },
        "ad_info": {
            "adcode": 513422,
            "province": "四川省",
            "city": "凉山彝族自治州",
            "district": "木里藏族自治县"
        }
    },
    {
        "id": "10035322911641763012",
        "title": "卫生间",
        "address": "四川省凉山彝族自治州甘洛县附近",
        "tel": "",
        "category": "基础设施:公共设施:公共厕所",
        "type": 0,
        "location": {
            "lat": 29.037518,
            "lng": 102.55895
        },
        "ad_info": {
            "adcode": 513435,
            "province": "四川省",
            "city": "凉山彝族自治州",
            "district": "甘洛县"
        }
    },
    {
        "id": "15549258784507071663",
        "title": "邛海公园公共厕所",
        "address": "四川省凉山彝族自治州西昌市泸山路与海滨中路交叉口东南方向669米左右",
        "tel": "",
        "category": "基础设施:公共设施:公共厕所",
        "type": 0,
        "location": {
            "lat": 27.83229,
            "lng": 102.27648
        },
        "ad_info": {
            "adcode": 513401,
            "province": "四川省",
            "city": "凉山彝族自治州",
            "district": "西昌市"
        }
    },
    {
        "id": "18222827315301834970",
        "title": "公共厕所",
        "address": "四川省凉山彝族自治州西昌市大石坂路与大石坂路二段交叉口西北方向118米左右",
        "tel": "",
        "category": "基础设施:公共设施:公共厕所",
        "type": 0,
        "location": {
            "lat": 27.882884,
            "lng": 102.284567
        },
        "ad_info": {
            "adcode": 513401,
            "province": "四川省",
            "city": "凉山彝族自治州",
            "district": "西昌市"
        }
    },
    {
        "id": "16325555739728916091",
        "title": "公共厕所",
        "address": "四川省凉山彝族自治州盐源县农场路与太安上街交叉口正南方向267米左右",
        "tel": "",
        "category": "基础设施:公共设施:公共厕所",
        "type": 0,
        "location": {
            "lat": 27.421108,
            "lng": 101.516954
        },
        "ad_info": {
            "adcode": 513423,
            "province": "四川省",
            "city": "凉山彝族自治州",
            "district": "盐源县"
        }
    },
    {
        "id": "12046607007472461310",
        "title": "公共厕所",
        "address": "四川省凉山彝族自治州西昌市通海巷92号",
        "tel": "",
        "category": "基础设施:公共设施:公共厕所",
        "type": 0,
        "location": {
            "lat": 27.886655,
            "lng": 102.275446
        },
        "ad_info": {
            "adcode": 513401,
            "province": "四川省",
            "city": "凉山彝族自治州",
            "district": "西昌市"
        }
    },
    {
        "id": "3898065538445754179",
        "title": "公共厕所",
        "address": "四川省凉山彝族自治州会理市G108与黎拉路交叉口正东方向789米左右",
        "tel": "",
        "category": "基础设施:公共设施:公共厕所",
        "type": 0,
        "location": {
            "lat": 26.376629,
            "lng": 102.008707
        },
        "ad_info": {
            "adcode": 513402,
            "province": "四川省",
            "city": "凉山彝族自治州",
            "district": "会理市"
        }
    },
    {
        "id": "4069608882974134661",
        "title": "公共厕所",
        "address": "四川省凉山彝族自治州西昌市蓝星清洗西昌分公司南侧",
        "tel": "",
        "category": "基础设施:公共设施:公共厕所",
        "type": 0,
        "location": {
            "lat": 27.734971,
            "lng": 102.172494
        },
        "ad_info": {
            "adcode": 513401,
            "province": "四川省",
            "city": "凉山彝族自治州",
            "district": "西昌市"
        }
    },
    {
        "id": "13368903746560208565",
        "title": "公共厕所(SC-LIS-0395)",
        "address": "四川省凉山彝族自治州盐源县G348",
        "tel": "",
        "category": "基础设施:公共设施:公共厕所",
        "type": 0,
        "location": {
            "lat": 27.4341,
            "lng": 101.376687
        },
        "ad_info": {
            "adcode": 513423,
            "province": "四川省",
            "city": "凉山彝族自治州",
            "district": "盐源县"
        }
    },
    {
        "id": "634890106797480208",
        "title": "公共厕所",
        "address": "四川省凉山彝族自治州西昌市商业街二段141号",
        "tel": "",
        "category": "基础设施:公共设施:公共厕所",
        "type": 0,
        "location": {
            "lat": 27.890186,
            "lng": 102.259314
        },
        "ad_info": {
            "adcode": 513401,
            "province": "四川省",
            "city": "凉山彝族自治州",
            "district": "西昌市"
        }
    },
    {
        "id": "13403698250635436538",
        "title": "公共厕所",
        "address": "四川省凉山彝族自治州盐源县名源饭店东侧",
        "tel": "",
        "category": "基础设施:公共设施:公共厕所",
        "type": 0,
        "location": {
            "lat": 27.46724,
            "lng": 101.670844
        },
        "ad_info": {
            "adcode": 513423,
            "province": "四川省",
            "city": "凉山彝族自治州",
            "district": "盐源县"
        }
    },
    {
        "id": "3302419819949017149",
        "title": "公共厕所",
        "address": "四川省凉山彝族自治州西昌市S107(海滨中路)",
        "tel": "",
        "category": "基础设施:公共设施:公共厕所",
        "type": 0,
        "location": {
            "lat": 27.837475,
            "lng": 102.273859
        },
        "ad_info": {
            "adcode": 513401,
            "province": "四川省",
            "city": "凉山彝族自治州",
            "district": "西昌市"
        }
    },
    {
        "id": "5544725679893002163",
        "title": "公共厕所",
        "address": "四川省凉山彝族自治州西昌市胜利北路153号",
        "tel": "",
        "category": "基础设施:公共设施:公共厕所",
        "type": 0,
        "location": {
            "lat": 27.897599,
            "lng": 102.261637
        },
        "ad_info": {
            "adcode": 513401,
            "province": "四川省",
            "city": "凉山彝族自治州",
            "district": "西昌市"
        }
    },
    {
        "id": "4826101360818312512",
        "title": "冕宁服务区公共厕所",
        "address": "四川省凉山彝族自治州冕宁县G5京昆高速与G5京昆高速出口交叉口东120米",
        "tel": "",
        "category": "基础设施:公共设施:公共厕所",
        "type": 0,
        "location": {
            "lat": 28.574117,
            "lng": 102.229224
        },
        "ad_info": {
            "adcode": 513433,
            "province": "四川省",
            "city": "凉山彝族自治州",
            "district": "冕宁县"
        }
    },
    {
        "id": "8796757727581800516",
        "title": "公共厕所",
        "address": "四川省凉山彝族自治州西昌市后营巷安定门",
        "tel": "",
        "category": "基础设施:公共设施:公共厕所",
        "type": 0,
        "location": {
            "lat": 27.894059,
            "lng": 102.275911
        },
        "ad_info": {
            "adcode": 513401,
            "province": "四川省",
            "city": "凉山彝族自治州",
            "district": "西昌市"
        }
    },
    {
        "id": "11383952787629147574",
        "title": "公共厕所(木里县屋脚乡利家咀)",
        "address": "四川省凉山彝族自治州木里藏族自治县屋脚乡利家咀境内",
        "tel": "",
        "category": "基础设施:公共设施:公共厕所",
        "type": 0,
        "location": {
            "lat": 27.892428,
            "lng": 100.721519
        },
        "ad_info": {
            "adcode": 513422,
            "province": "四川省",
            "city": "凉山彝族自治州",
            "district": "木里藏族自治县"
        }
    },
    {
        "id": "13997289658950261430",
        "title": "西昌市月城广场达达超市楼上公共厕所",
        "address": "四川省凉山彝族自治州西昌市大巷口下街50号",
        "tel": "",
        "category": "基础设施:公共设施:公共厕所",
        "type": 0,
        "location": {
            "lat": 27.889223,
            "lng": 102.264249
        },
        "ad_info": {
            "adcode": 513401,
            "province": "四川省",
            "city": "凉山彝族自治州",
            "district": "西昌市"
        }
    },
    {
        "id": "17076704536696760846",
        "title": "西昌唐园公共厕所",
        "address": "四川省凉山彝族自治州西昌市西昌唐园公交站背后有个小门进来",
        "tel": "",
        "category": "基础设施:公共设施:公共厕所",
        "type": 0,
        "location": {
            "lat": 27.878091,
            "lng": 102.27965
        },
        "ad_info": {
            "adcode": 513401,
            "province": "四川省",
            "city": "凉山彝族自治州",
            "district": "西昌市"
        }
    },
    {
        "id": "7491693161876709991",
        "title": "公共厕所",
        "address": "四川省凉山彝族自治州会理市G108与城河桥交叉口东北方向222米左右",
        "tel": "",
        "category": "基础设施:公共设施:公共厕所",
        "type": 0,
        "location": {
            "lat": 26.618541,
            "lng": 102.251269
        },
        "ad_info": {
            "adcode": 513402,
            "province": "四川省",
            "city": "凉山彝族自治州",
            "district": "会理市"
        }
    },
    {
        "id": "3807654055959269327",
        "title": "公共厕所",
        "address": "四川省凉山彝族自治州会东县",
        "tel": "",
        "category": "基础设施:公共设施:公共厕所",
        "type": 0,
        "location": {
            "lat": 26.463793,
            "lng": 102.55505
        },
        "ad_info": {
            "adcode": 513426,
            "province": "四川省",
            "city": "凉山彝族自治州",
            "district": "会东县"
        }
    },
    {
        "id": "4013412008188021713",
        "title": "洗手间(菩提林卡)",
        "address": "四川省凉山彝族自治州木里藏族自治县S220与瓦厂街道交叉口西南方向1002米左右",
        "tel": "",
        "category": "基础设施:公共设施:公共厕所",
        "type": 0,
        "location": {
            "lat": 28.162766,
            "lng": 100.850661
        },
        "ad_info": {
            "adcode": 513422,
            "province": "四川省",
            "city": "凉山彝族自治州",
            "district": "木里藏族自治县"
        }
    },
    {
        "id": "10035322911641763012",
        "title": "卫生间",
        "address": "四川省凉山彝族自治州甘洛县附近",
        "tel": "",
        "category": "基础设施:公共设施:公共厕所",
        "type": 0,
        "location": {
            "lat": 29.037518,
            "lng": 102.55895
        },
        "ad_info": {
            "adcode": 513435,
            "province": "四川省",
            "city": "凉山彝族自治州",
            "district": "甘洛县"
        }
    },
    {
        "id": "15549258784507071663",
        "title": "邛海公园公共厕所",
        "address": "四川省凉山彝族自治州西昌市泸山路与海滨中路交叉口东南方向669米左右",
        "tel": "",
        "category": "基础设施:公共设施:公共厕所",
        "type": 0,
        "location": {
            "lat": 27.83229,
            "lng": 102.27648
        },
        "ad_info": {
            "adcode": 513401,
            "province": "四川省",
            "city": "凉山彝族自治州",
            "district": "西昌市"
        }
    },
    {
        "id": "18222827315301834970",
        "title": "公共厕所",
        "address": "四川省凉山彝族自治州西昌市大石坂路与大石坂路二段交叉口西北方向118米左右",
        "tel": "",
        "category": "基础设施:公共设施:公共厕所",
        "type": 0,
        "location": {
            "lat": 27.882884,
            "lng": 102.284567
        },
        "ad_info": {
            "adcode": 513401,
            "province": "四川省",
            "city": "凉山彝族自治州",
            "district": "西昌市"
        }
    },
    {
        "id": "16325555739728916091",
        "title": "公共厕所",
        "address": "四川省凉山彝族自治州盐源县农场路与太安上街交叉口正南方向267米左右",
        "tel": "",
        "category": "基础设施:公共设施:公共厕所",
        "type": 0,
        "location": {
            "lat": 27.421108,
            "lng": 101.516954
        },
        "ad_info": {
            "adcode": 513423,
            "province": "四川省",
            "city": "凉山彝族自治州",
            "district": "盐源县"
        }
    },
    {
        "id": "12046607007472461310",
        "title": "公共厕所",
        "address": "四川省凉山彝族自治州西昌市通海巷92号",
        "tel": "",
        "category": "基础设施:公共设施:公共厕所",
        "type": 0,
        "location": {
            "lat": 27.886655,
            "lng": 102.275446
        },
        "ad_info": {
            "adcode": 513401,
            "province": "四川省",
            "city": "凉山彝族自治州",
            "district": "西昌市"
        }
    },
    {
        "id": "3898065538445754179",
        "title": "公共厕所",
        "address": "四川省凉山彝族自治州会理市G108与黎拉路交叉口正东方向789米左右",
        "tel": "",
        "category": "基础设施:公共设施:公共厕所",
        "type": 0,
        "location": {
            "lat": 26.376629,
            "lng": 102.008707
        },
        "ad_info": {
            "adcode": 513402,
            "province": "四川省",
            "city": "凉山彝族自治州",
            "district": "会理市"
        }
    },
    {
        "id": "4069608882974134661",
        "title": "公共厕所",
        "address": "四川省凉山彝族自治州西昌市蓝星清洗西昌分公司南侧",
        "tel": "",
        "category": "基础设施:公共设施:公共厕所",
        "type": 0,
        "location": {
            "lat": 27.734971,
            "lng": 102.172494
        },
        "ad_info": {
            "adcode": 513401,
            "province": "四川省",
            "city": "凉山彝族自治州",
            "district": "西昌市"
        }
    },
    {
        "id": "13368903746560208565",
        "title": "公共厕所(SC-LIS-0395)",
        "address": "四川省凉山彝族自治州盐源县G348",
        "tel": "",
        "category": "基础设施:公共设施:公共厕所",
        "type": 0,
        "location": {
            "lat": 27.4341,
            "lng": 101.376687
        },
        "ad_info": {
            "adcode": 513423,
            "province": "四川省",
            "city": "凉山彝族自治州",
            "district": "盐源县"
        }
    },
    {
        "id": "634890106797480208",
        "title": "公共厕所",
        "address": "四川省凉山彝族自治州西昌市商业街二段141号",
        "tel": "",
        "category": "基础设施:公共设施:公共厕所",
        "type": 0,
        "location": {
            "lat": 27.890186,
            "lng": 102.259314
        },
        "ad_info": {
            "adcode": 513401,
            "province": "四川省",
            "city": "凉山彝族自治州",
            "district": "西昌市"
        }
    },
    {
        "id": "13403698250635436538",
        "title": "公共厕所",
        "address": "四川省凉山彝族自治州盐源县名源饭店东侧",
        "tel": "",
        "category": "基础设施:公共设施:公共厕所",
        "type": 0,
        "location": {
            "lat": 27.46724,
            "lng": 101.670844
        },
        "ad_info": {
            "adcode": 513423,
            "province": "四川省",
            "city": "凉山彝族自治州",
            "district": "盐源县"
        }
    },
    {
        "id": "3302419819949017149",
        "title": "公共厕所",
        "address": "四川省凉山彝族自治州西昌市S107(海滨中路)",
        "tel": "",
        "category": "基础设施:公共设施:公共厕所",
        "type": 0,
        "location": {
            "lat": 27.837475,
            "lng": 102.273859
        },
        "ad_info": {
            "adcode": 513401,
            "province": "四川省",
            "city": "凉山彝族自治州",
            "district": "西昌市"
        }
    },
    {
        "id": "5544725679893002163",
        "title": "公共厕所",
        "address": "四川省凉山彝族自治州西昌市胜利北路153号",
        "tel": "",
        "category": "基础设施:公共设施:公共厕所",
        "type": 0,
        "location": {
            "lat": 27.897599,
            "lng": 102.261637
        },
        "ad_info": {
            "adcode": 513401,
            "province": "四川省",
            "city": "凉山彝族自治州",
            "district": "西昌市"
        }
    },
    {
        "id": "4826101360818312512",
        "title": "冕宁服务区公共厕所",
        "address": "四川省凉山彝族自治州冕宁县G5京昆高速与G5京昆高速出口交叉口东120米",
        "tel": "",
        "category": "基础设施:公共设施:公共厕所",
        "type": 0,
        "location": {
            "lat": 28.574117,
            "lng": 102.229224
        },
        "ad_info": {
            "adcode": 513433,
            "province": "四川省",
            "city": "凉山彝族自治州",
            "district": "冕宁县"
        }
    },
    {
        "id": "8796757727581800516",
        "title": "公共厕所",
        "address": "四川省凉山彝族自治州西昌市后营巷安定门",
        "tel": "",
        "category": "基础设施:公共设施:公共厕所",
        "type": 0,
        "location": {
            "lat": 27.894059,
            "lng": 102.275911
        },
        "ad_info": {
            "adcode": 513401,
            "province": "四川省",
            "city": "凉山彝族自治州",
            "district": "西昌市"
        }
    },
    {
        "id": "11383952787629147574",
        "title": "公共厕所(木里县屋脚乡利家咀)",
        "address": "四川省凉山彝族自治州木里藏族自治县屋脚乡利家咀境内",
        "tel": "",
        "category": "基础设施:公共设施:公共厕所",
        "type": 0,
        "location": {
            "lat": 27.892428,
            "lng": 100.721519
        },
        "ad_info": {
            "adcode": 513422,
            "province": "四川省",
            "city": "凉山彝族自治州",
            "district": "木里藏族自治县"
        }
    }
]