[
    {
        "id": "7119527826250477674",
        "title": "公共厕所",
        "address": "新疆维吾尔自治区北屯市博望东街与芳园路交叉口东南方向191米左右",
        "tel": "",
        "category": "基础设施:公共设施:公共厕所",
        "type": 0,
        "location": {
            "lat": 47.351987,
            "lng": 87.82493
        },
        "ad_info": {
            "adcode": 659005,
            "province": "新疆维吾尔自治区",
            "city": "",
            "district": "北屯市"
        }
    },
    {
        "id": "3118589480188800271",
        "title": "公共厕所",
        "address": "新疆维吾尔自治区北屯市中瀚北路与多尔布尔津街交叉口东北方向62米左右",
        "tel": "",
        "category": "基础设施:公共设施:公共厕所",
        "type": 0,
        "location": {
            "lat": 47.350862,
            "lng": 87.829837
        },
        "ad_info": {
            "adcode": 659005,
            "province": "新疆维吾尔自治区",
            "city": "",
            "district": "北屯市"
        }
    },
    {
        "id": "2662437177940280835",
        "title": "公共厕所",
        "address": "新疆维吾尔自治区北屯市惠民路与西北路交叉口正南方向303米左右",
        "tel": "",
        "category": "基础设施:公共设施:公共厕所",
        "type": 0,
        "location": {
            "lat": 47.356442,
            "lng": 87.810725
        },
        "ad_info": {
            "adcode": 659005,
            "province": "新疆维吾尔自治区",
            "city": "",
            "district": "北屯市"
        }
    },
    {
        "id": "6219598959148631146",
        "title": "公共厕所",
        "address": "新疆维吾尔自治区北屯市Y213与复兴北路交叉口正东方向408米左右",
        "tel": "",
        "category": "基础设施:公共设施:公共厕所",
        "type": 0,
        "location": {
            "lat": 47.335431,
            "lng": 87.789209
        },
        "ad_info": {
            "adcode": 659005,
            "province": "新疆维吾尔自治区",
            "city": "",
            "district": "北屯市"
        }
    },
    {
        "id": "1703112109868924202",
        "title": "公共厕所",
        "address": "新疆维吾尔自治区北屯市玉龙路与西北路交叉口西北方向237米左右",
        "tel": "",
        "category": "基础设施:公共设施:公共厕所",
        "type": 0,
        "location": {
            "lat": 47.366268,
            "lng": 87.79745
        },
        "ad_info": {
            "adcode": 659005,
            "province": "新疆维吾尔自治区",
            "city": "",
            "district": "北屯市"
        }
    },
    {
        "id": "14755964278517985173",
        "title": "公共厕所(XJ-AL-0240)",
        "address": "新疆维吾尔自治区北屯市惠民路与西北路交叉口西北方向125米左右",
        "tel": "",
        "category": "基础设施:公共设施:公共厕所",
        "type": 0,
        "location": {
            "lat": 47.359773,
            "lng": 87.808253
        },
        "ad_info": {
            "adcode": 659005,
            "province": "新疆维吾尔自治区",
            "city": "",
            "district": "北屯市"
        }
    },
    {
        "id": "9873863168441658970",
        "title": "公共厕所",
        "address": "新疆维吾尔自治区北屯市惠民路与西北路交叉口西南方向65米左右",
        "tel": "",
        "category": "基础设施:公共设施:公共厕所",
        "type": 0,
        "location": {
            "lat": 47.358695,
            "lng": 87.808843
        },
        "ad_info": {
            "adcode": 659005,
            "province": "新疆维吾尔自治区",
            "city": "",
            "district": "北屯市"
        }
    },
    {
        "id": "14998667941079705121",
        "title": "公共厕所",
        "address": "新疆维吾尔自治区北屯市酒乡路与金山东路交叉口西北方向157米左右",
        "tel": "",
        "category": "基础设施:公共设施:公共厕所",
        "type": 0,
        "location": {
            "lat": 47.26246,
            "lng": 88.093963
        },
        "ad_info": {
            "adcode": 659005,
            "province": "新疆维吾尔自治区",
            "city": "",
            "district": "北屯市"
        }
    },
    {
        "id": "12476195484692520213",
        "title": "公共厕所",
        "address": "新疆维吾尔自治区北屯市惠民路与西北路交叉口正东方向179米左右",
        "tel": "",
        "category": "基础设施:公共设施:公共厕所",
        "type": 0,
        "location": {
            "lat": 47.358937,
            "lng": 87.811907
        },
        "ad_info": {
            "adcode": 659005,
            "province": "新疆维吾尔自治区",
            "city": "",
            "district": "北屯市"
        }
    },
    {
        "id": "18196400023016233423",
        "title": "公共厕所",
        "address": "新疆维吾尔自治区北屯市G216与北大高速交叉口正西方向1035米左右",
        "tel": "",
        "category": "基础设施:公共设施:公共厕所",
        "type": 0,
        "location": {
            "lat": 47.231764,
            "lng": 88.334687
        },
        "ad_info": {
            "adcode": 659005,
            "province": "新疆维吾尔自治区",
            "city": "",
            "district": "北屯市"
        }
    },
    {
        "id": "7820704024904764499",
        "title": "公共厕所",
        "address": "新疆维吾尔自治区北屯市秀水路与龙山路交叉口西南方向31米左右",
        "tel": "",
        "category": "基础设施:公共设施:公共厕所",
        "type": 0,
        "location": {
            "lat": 47.322792,
            "lng": 87.832949
        },
        "ad_info": {
            "adcode": 659005,
            "province": "新疆维吾尔自治区",
            "city": "",
            "district": "北屯市"
        }
    },
    {
        "id": "2374445342569525426",
        "title": "公共厕所",
        "address": "新疆维吾尔自治区北屯市得仁路与玉带河北路交叉口正南方向29米左右",
        "tel": "",
        "category": "基础设施:公共设施:公共厕所",
        "type": 0,
        "location": {
            "lat": 47.324142,
            "lng": 87.829959
        },
        "ad_info": {
            "adcode": 659005,
            "province": "新疆维吾尔自治区",
            "city": "",
            "district": "北屯市"
        }
    },
    {
        "id": "8950166454120254282",
        "title": "公共厕所",
        "address": "新疆维吾尔自治区北屯市博望东街与田园路交叉口东北方向45米左右",
        "tel": "",
        "category": "基础设施:公共设施:公共厕所",
        "type": 0,
        "location": {
            "lat": 47.353467,
            "lng": 87.821557
        },
        "ad_info": {
            "adcode": 659005,
            "province": "新疆维吾尔自治区",
            "city": "",
            "district": "北屯市"
        }
    },
    {
        "id": "16814667434006502622",
        "title": "公共厕所",
        "address": "新疆维吾尔自治区北屯市博望东街与博望西街交叉口正东方向88米左右",
        "tel": "",
        "category": "基础设施:公共设施:公共厕所",
        "type": 0,
        "location": {
            "lat": 47.352781,
            "lng": 87.819873
        },
        "ad_info": {
            "adcode": 659005,
            "province": "新疆维吾尔自治区",
            "city": "",
            "district": "北屯市"
        }
    },
    {
        "id": "6033919367066625046",
        "title": "公共厕所",
        "address": "新疆维吾尔自治区北屯市林茵街与西北路交叉口正西方向163米左右",
        "tel": "",
        "category": "基础设施:公共设施:公共厕所",
        "type": 0,
        "location": {
            "lat": 47.355418,
            "lng": 87.813665
        },
        "ad_info": {
            "adcode": 659005,
            "province": "新疆维吾尔自治区",
            "city": "",
            "district": "北屯市"
        }
    },
    {
        "id": "7985028317031095589",
        "title": "公共厕所",
        "address": "新疆维吾尔自治区北屯市博望东街与文苑路交叉口正东方向184米左右",
        "tel": "",
        "category": "基础设施:公共设施:公共厕所",
        "type": 0,
        "location": {
            "lat": 47.353486,
            "lng": 87.850323
        },
        "ad_info": {
            "adcode": 659005,
            "province": "新疆维吾尔自治区",
            "city": "",
            "district": "北屯市"
        }
    },
    {
        "id": "10936003532826658629",
        "title": "公共厕所",
        "address": "新疆维吾尔自治区北屯市华阳路与博望西街交叉口正西方向105米左右",
        "tel": "",
        "category": "基础设施:公共设施:公共厕所",
        "type": 0,
        "location": {
            "lat": 47.352316,
            "lng": 87.81633
        },
        "ad_info": {
            "adcode": 659005,
            "province": "新疆维吾尔自治区",
            "city": "",
            "district": "北屯市"
        }
    },
    {
        "id": "18191090099347053497",
        "title": "公共厕所",
        "address": "新疆维吾尔自治区北屯市富强路与酒乡路交叉口东北方向79米左右",
        "tel": "",
        "category": "基础设施:公共设施:公共厕所",
        "type": 0,
        "location": {
            "lat": 47.264676,
            "lng": 88.095633
        },
        "ad_info": {
            "adcode": 659005,
            "province": "新疆维吾尔自治区",
            "city": "",
            "district": "北屯市"
        }
    },
    {
        "id": "13168783091902488734",
        "title": "公共厕所",
        "address": "新疆维吾尔自治区北屯市军垦路与富强路交叉口东北方向44米左右",
        "tel": "",
        "category": "基础设施:公共设施:公共厕所",
        "type": 0,
        "location": {
            "lat": 47.264399,
            "lng": 88.099333
        },
        "ad_info": {
            "adcode": 659005,
            "province": "新疆维吾尔自治区",
            "city": "",
            "district": "北屯市"
        }
    },
    {
        "id": "12061287271045693241",
        "title": "北屯服务区-公共厕所",
        "address": "新疆维吾尔自治区北屯市G3014奎阿高速与北屯服务区交叉口东420米",
        "tel": "",
        "category": "基础设施:公共设施:公共厕所",
        "type": 0,
        "location": {
            "lat": 47.255264,
            "lng": 87.851415
        },
        "ad_info": {
            "adcode": 659005,
            "province": "新疆维吾尔自治区",
            "city": "",
            "district": "北屯市"
        }
    },
    {
        "id": "2903428482584503630",
        "title": "北屯服务区公共厕所",
        "address": "新疆维吾尔自治区北屯市G3014奎阿高速与北屯服务区交叉口西440米",
        "tel": "",
        "category": "基础设施:公共设施:公共厕所",
        "type": 0,
        "location": {
            "lat": 47.257979,
            "lng": 87.852981
        },
        "ad_info": {
            "adcode": 659005,
            "province": "新疆维吾尔自治区",
            "city": "",
            "district": "北屯市"
        }
    }
]