[
    {
        "id": "6616097764338771066",
        "title": "公共厕所",
        "address": "广西壮族自治区北海市海城区民权路与滨海路交叉口东南方向12米左右",
        "tel": "",
        "category": "基础设施:公共设施:公共厕所",
        "type": 0,
        "location": {
            "lat": 21.483977,
            "lng": 109.115174
        },
        "ad_info": {
            "adcode": 450502,
            "province": "广西壮族自治区",
            "city": "北海市",
            "district": "海城区"
        }
    },
    {
        "id": "11302267772585782657",
        "title": "公共厕所",
        "address": "广西壮族自治区北海市海城区中皇路与云西路交叉口西北方向153米左右",
        "tel": "",
        "category": "基础设施:公共设施:公共厕所",
        "type": 0,
        "location": {
            "lat": 21.45874,
            "lng": 109.09647
        },
        "ad_info": {
            "adcode": 450502,
            "province": "广西壮族自治区",
            "city": "北海市",
            "district": "海城区"
        }
    },
    {
        "id": "8114077851850364230",
        "title": "公共厕所",
        "address": "广西壮族自治区北海市海城区中山西路178号",
        "tel": "",
        "category": "基础设施:公共设施:公共厕所",
        "type": 0,
        "location": {
            "lat": 21.481181,
            "lng": 109.109906
        },
        "ad_info": {
            "adcode": 450502,
            "province": "广西壮族自治区",
            "city": "北海市",
            "district": "海城区"
        }
    },
    {
        "id": "2595394899454609140",
        "title": "公共厕所",
        "address": "广西壮族自治区北海市海城区西藏路银湾花园海信赤水苑西门西南侧约50米",
        "tel": "",
        "category": "基础设施:公共设施:公共厕所",
        "type": 0,
        "location": {
            "lat": 21.445268,
            "lng": 109.101177
        },
        "ad_info": {
            "adcode": 450502,
            "province": "广西壮族自治区",
            "city": "北海市",
            "district": "海城区"
        }
    },
    {
        "id": "6603668710967185465",
        "title": "公共厕所",
        "address": "广西壮族自治区北海市海城区体育北路与体育北路二巷交叉口正南方向59米左右",
        "tel": "",
        "category": "基础设施:公共设施:公共厕所",
        "type": 0,
        "location": {
            "lat": 21.47969,
            "lng": 109.12493
        },
        "ad_info": {
            "adcode": 450502,
            "province": "广西壮族自治区",
            "city": "北海市",
            "district": "海城区"
        }
    },
    {
        "id": "14126259170974648671",
        "title": "公共厕所",
        "address": "广西壮族自治区北海市海城区北京路辅路与重庆路交叉口东南方向60米左右",
        "tel": "",
        "category": "基础设施:公共设施:公共厕所",
        "type": 0,
        "location": {
            "lat": 21.463071,
            "lng": 109.12503
        },
        "ad_info": {
            "adcode": 450502,
            "province": "广西壮族自治区",
            "city": "北海市",
            "district": "海城区"
        }
    },
    {
        "id": "11240483970799644502",
        "title": "公共厕所",
        "address": "广西壮族自治区北海市海城区海西路与火烧床路交叉口西南方向74米左右",
        "tel": "",
        "category": "基础设施:公共设施:公共厕所",
        "type": 0,
        "location": {
            "lat": 21.467043,
            "lng": 109.1068
        },
        "ad_info": {
            "adcode": 450502,
            "province": "广西壮族自治区",
            "city": "北海市",
            "district": "海城区"
        }
    },
    {
        "id": "15095396550393278213",
        "title": "公共厕所",
        "address": "广西壮族自治区北海市海城区四川路辅路与沈四村路交叉口西北80米",
        "tel": "",
        "category": "基础设施:公共设施:公共厕所",
        "type": 0,
        "location": {
            "lat": 21.465477,
            "lng": 109.113955
        },
        "ad_info": {
            "adcode": 450502,
            "province": "广西壮族自治区",
            "city": "北海市",
            "district": "海城区"
        }
    },
    {
        "id": "12307209567385114413",
        "title": "公共厕所",
        "address": "广西壮族自治区北海市海城区垌尾新区七巷与垌尾新区三巷交叉口西北方向13米左右",
        "tel": "",
        "category": "基础设施:公共设施:公共厕所",
        "type": 0,
        "location": {
            "lat": 21.473214,
            "lng": 109.116067
        },
        "ad_info": {
            "adcode": 450502,
            "province": "广西壮族自治区",
            "city": "北海市",
            "district": "海城区"
        }
    },
    {
        "id": "9218227824639236477",
        "title": "公共厕所",
        "address": "广西壮族自治区北海市海城区云南路与西南大道交叉口东北方向123米左右",
        "tel": "",
        "category": "基础设施:公共设施:公共厕所",
        "type": 0,
        "location": {
            "lat": 21.452106,
            "lng": 109.106864
        },
        "ad_info": {
            "adcode": 450502,
            "province": "广西壮族自治区",
            "city": "北海市",
            "district": "海城区"
        }
    },
    {
        "id": "5864494629098587866",
        "title": "公共厕所",
        "address": "广西壮族自治区北海市海城区江苏路与上海路辅路交叉口东北60米",
        "tel": "",
        "category": "基础设施:公共设施:公共厕所",
        "type": 0,
        "location": {
            "lat": 21.448277,
            "lng": 109.15937
        },
        "ad_info": {
            "adcode": 450502,
            "province": "广西壮族自治区",
            "city": "北海市",
            "district": "海城区"
        }
    },
    {
        "id": "13699778824589944420",
        "title": "公共厕所",
        "address": "广西壮族自治区北海市海城区三中南里五巷与前进路交叉口正西方向43米左右",
        "tel": "",
        "category": "基础设施:公共设施:公共厕所",
        "type": 0,
        "location": {
            "lat": 21.471437,
            "lng": 109.107656
        },
        "ad_info": {
            "adcode": 450502,
            "province": "广西壮族自治区",
            "city": "北海市",
            "district": "海城区"
        }
    },
    {
        "id": "8446334194290856524",
        "title": "公共厕所",
        "address": "广西壮族自治区北海市海城区四川南路8号",
        "tel": "",
        "category": "基础设施:公共设施:公共厕所",
        "type": 0,
        "location": {
            "lat": 21.469344,
            "lng": 109.111832
        },
        "ad_info": {
            "adcode": 450502,
            "province": "广西壮族自治区",
            "city": "北海市",
            "district": "海城区"
        }
    },
    {
        "id": "513710681553301185",
        "title": "公共厕所",
        "address": "广西壮族自治区北海市海城区菜园里三巷横巷与菜园里交叉口正南方向66米左右",
        "tel": "",
        "category": "基础设施:公共设施:公共厕所",
        "type": 0,
        "location": {
            "lat": 21.47565,
            "lng": 109.111598
        },
        "ad_info": {
            "adcode": 450502,
            "province": "广西壮族自治区",
            "city": "北海市",
            "district": "海城区"
        }
    },
    {
        "id": "14485864362853545396",
        "title": "公共厕所",
        "address": "广西壮族自治区北海市海城区北部湾中路与广安路交叉口东南方向123米左右",
        "tel": "",
        "category": "基础设施:公共设施:公共厕所",
        "type": 0,
        "location": {
            "lat": 21.472913,
            "lng": 109.114609
        },
        "ad_info": {
            "adcode": 450502,
            "province": "广西壮族自治区",
            "city": "北海市",
            "district": "海城区"
        }
    },
    {
        "id": "15994624380423272507",
        "title": "公共厕所",
        "address": "广西壮族自治区北海市海城区珠海中路98号北海老城内(西侧)",
        "tel": "",
        "category": "基础设施:公共设施:公共厕所",
        "type": 0,
        "location": {
            "lat": 21.483103,
            "lng": 109.113172
        },
        "ad_info": {
            "adcode": 450502,
            "province": "广西壮族自治区",
            "city": "北海市",
            "district": "海城区"
        }
    },
    {
        "id": "16821357708738838336",
        "title": "公共厕所",
        "address": "广西壮族自治区北海市海城区海信路与谭屋六巷交叉口东北方向32米左右",
        "tel": "",
        "category": "基础设施:公共设施:公共厕所",
        "type": 0,
        "location": {
            "lat": 21.483157,
            "lng": 109.133869
        },
        "ad_info": {
            "adcode": 450502,
            "province": "广西壮族自治区",
            "city": "北海市",
            "district": "海城区"
        }
    },
    {
        "id": "15823790108535062975",
        "title": "公共厕所",
        "address": "广西壮族自治区北海市海城区拉萨路与普安路交叉口正北方向148米左右",
        "tel": "",
        "category": "基础设施:公共设施:公共厕所",
        "type": 0,
        "location": {
            "lat": 21.448578,
            "lng": 109.116094
        },
        "ad_info": {
            "adcode": 450502,
            "province": "广西壮族自治区",
            "city": "北海市",
            "district": "海城区"
        }
    },
    {
        "id": "17969609921340122844",
        "title": "公共厕所",
        "address": "广西壮族自治区北海市海城区北部湾中路与和平路交叉口正东方向43米左右",
        "tel": "",
        "category": "基础设施:公共设施:公共厕所",
        "type": 0,
        "location": {
            "lat": 21.480548,
            "lng": 109.122494
        },
        "ad_info": {
            "adcode": 450502,
            "province": "广西壮族自治区",
            "city": "北海市",
            "district": "海城区"
        }
    },
    {
        "id": "16892278582040827214",
        "title": "公共厕所",
        "address": "广西壮族自治区北海市海城区云南路与逸安路交叉口正北方向50米左右",
        "tel": "",
        "category": "基础设施:公共设施:公共厕所",
        "type": 0,
        "location": {
            "lat": 21.450427,
            "lng": 109.106548
        },
        "ad_info": {
            "adcode": 450502,
            "province": "广西壮族自治区",
            "city": "北海市",
            "district": "海城区"
        }
    },
    {
        "id": "8045145877031479981",
        "title": "公共厕所",
        "address": "广西壮族自治区北海市海城区北部湾东路中国石化(海东加油站)",
        "tel": "",
        "category": "基础设施:公共设施:公共厕所",
        "type": 0,
        "location": {
            "lat": 21.491525,
            "lng": 109.145682
        },
        "ad_info": {
            "adcode": 450502,
            "province": "广西壮族自治区",
            "city": "北海市",
            "district": "海城区"
        }
    },
    {
        "id": "16751338232979791460",
        "title": "公共厕所",
        "address": "广西壮族自治区北海市海城区和平里三巷与解放路交叉口正南方向105米左右",
        "tel": "",
        "category": "基础设施:公共设施:公共厕所",
        "type": 0,
        "location": {
            "lat": 21.480863,
            "lng": 109.117461
        },
        "ad_info": {
            "adcode": 450502,
            "province": "广西壮族自治区",
            "city": "北海市",
            "district": "海城区"
        }
    },
    {
        "id": "18081983017818378805",
        "title": "公共厕所",
        "address": "广西壮族自治区北海市海城区铜鼓里七巷与铜鼓里后巷交叉口正西方向17米左右",
        "tel": "",
        "category": "基础设施:公共设施:公共厕所",
        "type": 0,
        "location": {
            "lat": 21.475293,
            "lng": 109.129558
        },
        "ad_info": {
            "adcode": 450502,
            "province": "广西壮族自治区",
            "city": "北海市",
            "district": "海城区"
        }
    },
    {
        "id": "10516907164366972542",
        "title": "公共厕所",
        "address": "广西壮族自治区北海市海城区台湾路与吉林路交叉口东南方向135米左右",
        "tel": "",
        "category": "基础设施:公共设施:公共厕所",
        "type": 0,
        "location": {
            "lat": 21.536842,
            "lng": 109.182326
        },
        "ad_info": {
            "adcode": 450502,
            "province": "广西壮族自治区",
            "city": "北海市",
            "district": "海城区"
        }
    },
    {
        "id": "5897943374933433466",
        "title": "公共厕所",
        "address": "广西壮族自治区北海市海城区文明路北海市第一中学(北京路)",
        "tel": "",
        "category": "基础设施:公共设施:公共厕所",
        "type": 0,
        "location": {
            "lat": 21.4759,
            "lng": 109.121552
        },
        "ad_info": {
            "adcode": 450502,
            "province": "广西壮族自治区",
            "city": "北海市",
            "district": "海城区"
        }
    },
    {
        "id": "15143477578481128766",
        "title": "公共卫生间",
        "address": "广西壮族自治区北海市海城区湘西路与西南大道辅路交叉口东北方向69米左右",
        "tel": "",
        "category": "基础设施:公共设施:公共厕所",
        "type": 0,
        "location": {
            "lat": 21.4625,
            "lng": 109.139798
        },
        "ad_info": {
            "adcode": 450502,
            "province": "广西壮族自治区",
            "city": "北海市",
            "district": "海城区"
        }
    },
    {
        "id": "5899356897433912613",
        "title": "公共厕所",
        "address": "广西壮族自治区北海市海城区海角街道云南路公交站北",
        "tel": "",
        "category": "基础设施:公共设施:公共厕所",
        "type": 0,
        "location": {
            "lat": 21.466495,
            "lng": 109.101114
        },
        "ad_info": {
            "adcode": 450502,
            "province": "广西壮族自治区",
            "city": "北海市",
            "district": "海城区"
        }
    },
    {
        "id": "12611961591246416076",
        "title": "公共厕所",
        "address": "广西壮族自治区北海市海城区科技街与长青东路西十五巷交叉口东南方向86米左右",
        "tel": "",
        "category": "基础设施:公共设施:公共厕所",
        "type": 0,
        "location": {
            "lat": 21.470964,
            "lng": 109.127294
        },
        "ad_info": {
            "adcode": 450502,
            "province": "广西壮族自治区",
            "city": "北海市",
            "district": "海城区"
        }
    },
    {
        "id": "6232494730272959748",
        "title": "公共厕所",
        "address": "广西壮族自治区北海市海城区云藏路与创业路交叉口东南方向220米左右",
        "tel": "",
        "category": "基础设施:公共设施:公共厕所",
        "type": 0,
        "location": {
            "lat": 21.464099,
            "lng": 109.099098
        },
        "ad_info": {
            "adcode": 450502,
            "province": "广西壮族自治区",
            "city": "北海市",
            "district": "海城区"
        }
    },
    {
        "id": "12807413909783808435",
        "title": "公共厕所",
        "address": "广西壮族自治区北海市海城区北海大道与香港路交叉口正南方向54米左右",
        "tel": "",
        "category": "基础设施:公共设施:公共厕所",
        "type": 0,
        "location": {
            "lat": 21.520811,
            "lng": 109.190991
        },
        "ad_info": {
            "adcode": 450502,
            "province": "广西壮族自治区",
            "city": "北海市",
            "district": "海城区"
        }
    },
    {
        "id": "1946201616435300469",
        "title": "公共厕所",
        "address": "广西壮族自治区北海市海城区北部湾东路与高德西里三巷交叉口东北方向23米左右",
        "tel": "",
        "category": "基础设施:公共设施:公共厕所",
        "type": 0,
        "location": {
            "lat": 21.494022,
            "lng": 109.14943
        },
        "ad_info": {
            "adcode": 450502,
            "province": "广西壮族自治区",
            "city": "北海市",
            "district": "海城区"
        }
    },
    {
        "id": "17393443376094224413",
        "title": "公共厕所",
        "address": "广西壮族自治区北海市海城区鲜活市场西侧",
        "tel": "",
        "category": "基础设施:公共设施:公共厕所",
        "type": 0,
        "location": {
            "lat": 21.477331,
            "lng": 109.080199
        },
        "ad_info": {
            "adcode": 450502,
            "province": "广西壮族自治区",
            "city": "北海市",
            "district": "海城区"
        }
    },
    {
        "id": "5010758320145861325",
        "title": "公共厕所",
        "address": "广西壮族自治区北海市海城区北部湾海域涠洲岛火山国家地质公园鳄鱼山景区内",
        "tel": "",
        "category": "基础设施:公共设施:公共厕所",
        "type": 0,
        "location": {
            "lat": 21.010059,
            "lng": 109.102209
        },
        "ad_info": {
            "adcode": 450502,
            "province": "广西壮族自治区",
            "city": "北海市",
            "district": "海城区"
        }
    },
    {
        "id": "15496707160127398982",
        "title": "公共厕所",
        "address": "广西壮族自治区北海市海城区四川路与明珠路交叉口正西方向74米左右",
        "tel": "",
        "category": "基础设施:公共设施:公共厕所",
        "type": 0,
        "location": {
            "lat": 21.483458,
            "lng": 109.107474
        },
        "ad_info": {
            "adcode": 450502,
            "province": "广西壮族自治区",
            "city": "北海市",
            "district": "海城区"
        }
    },
    {
        "id": "2088854029932158512",
        "title": "公共厕所",
        "address": "广西壮族自治区北海市海城区南万路与独树根西路交叉口正北方向65米左右",
        "tel": "",
        "category": "基础设施:公共设施:公共厕所",
        "type": 0,
        "location": {
            "lat": 21.47717,
            "lng": 109.104
        },
        "ad_info": {
            "adcode": 450502,
            "province": "广西壮族自治区",
            "city": "北海市",
            "district": "海城区"
        }
    },
    {
        "id": "3277367038070907562",
        "title": "公共厕所",
        "address": "广西壮族自治区北海市海城区中山西路50号",
        "tel": "",
        "category": "基础设施:公共设施:公共厕所",
        "type": 0,
        "location": {
            "lat": 21.481649,
            "lng": 109.111914
        },
        "ad_info": {
            "adcode": 450502,
            "province": "广西壮族自治区",
            "city": "北海市",
            "district": "海城区"
        }
    },
    {
        "id": "13293091808478867374",
        "title": "公共厕所",
        "address": "广西壮族自治区北海市银海区广东路与江苏路交叉口西南方向132米左右",
        "tel": "",
        "category": "基础设施:公共设施:公共厕所",
        "type": 0,
        "location": {
            "lat": 21.442882,
            "lng": 109.138297
        },
        "ad_info": {
            "adcode": 450503,
            "province": "广西壮族自治区",
            "city": "北海市",
            "district": "银海区"
        }
    },
    {
        "id": "14787703843963871319",
        "title": "公共厕所",
        "address": "广西壮族自治区北海市海城区太平洋路与独树根西路交叉口西南方向89米左右",
        "tel": "",
        "category": "基础设施:公共设施:公共厕所",
        "type": 0,
        "location": {
            "lat": 21.471661,
            "lng": 109.096802
        },
        "ad_info": {
            "adcode": 450502,
            "province": "广西壮族自治区",
            "city": "北海市",
            "district": "海城区"
        }
    },
    {
        "id": "3408757734162996866",
        "title": "公共厕所",
        "address": "广西壮族自治区北海市海城区新庆路与重庆路交叉口正东方向90米左右",
        "tel": "",
        "category": "基础设施:公共设施:公共厕所",
        "type": 0,
        "location": {
            "lat": 21.454997,
            "lng": 109.096998
        },
        "ad_info": {
            "adcode": 450502,
            "province": "广西壮族自治区",
            "city": "北海市",
            "district": "海城区"
        }
    },
    {
        "id": "2019116853411531016",
        "title": "公共厕所",
        "address": "广西壮族自治区北海市银海区四号路与滨江路交叉口西南方向242米左右",
        "tel": "",
        "category": "基础设施:公共设施:公共厕所",
        "type": 0,
        "location": {
            "lat": 21.402985,
            "lng": 109.154186
        },
        "ad_info": {
            "adcode": 450503,
            "province": "广西壮族自治区",
            "city": "北海市",
            "district": "银海区"
        }
    },
    {
        "id": "7834283791392368427",
        "title": "公共厕所",
        "address": "广西壮族自治区北海市海城区亿海路与西南大道辅路交叉口东北方向96米左右",
        "tel": "",
        "category": "基础设施:公共设施:公共厕所",
        "type": 0,
        "location": {
            "lat": 21.455129,
            "lng": 109.115433
        },
        "ad_info": {
            "adcode": 450502,
            "province": "广西壮族自治区",
            "city": "北海市",
            "district": "海城区"
        }
    },
    {
        "id": "8706663402227263631",
        "title": "公共厕所",
        "address": "广西壮族自治区北海市海城区上寮十一巷与地角旧中学新区四巷交叉口西北方向30米左右",
        "tel": "",
        "category": "基础设施:公共设施:公共厕所",
        "type": 0,
        "location": {
            "lat": 21.481057,
            "lng": 109.082804
        },
        "ad_info": {
            "adcode": 450502,
            "province": "广西壮族自治区",
            "city": "北海市",
            "district": "海城区"
        }
    },
    {
        "id": "5237208041544915801",
        "title": "公共厕所",
        "address": "广西壮族自治区北海市海城区四川路与重庆路交叉口西北方向53米左右",
        "tel": "",
        "category": "基础设施:公共设施:公共厕所",
        "type": 0,
        "location": {
            "lat": 21.461312,
            "lng": 109.115508
        },
        "ad_info": {
            "adcode": 450502,
            "province": "广西壮族自治区",
            "city": "北海市",
            "district": "海城区"
        }
    },
    {
        "id": "1611954533098364910",
        "title": "公共厕所",
        "address": "广西壮族自治区北海市海城区得琛石油加油站西南侧120米",
        "tel": "",
        "category": "基础设施:公共设施:公共厕所",
        "type": 0,
        "location": {
            "lat": 21.51292,
            "lng": 109.170022
        },
        "ad_info": {
            "adcode": 450502,
            "province": "广西壮族自治区",
            "city": "北海市",
            "district": "海城区"
        }
    },
    {
        "id": "1566423863376095495",
        "title": "公共厕所",
        "address": "广西壮族自治区北海市银海区冠岭路与北海大道交叉口正南方向286米左右",
        "tel": "",
        "category": "基础设施:公共设施:公共厕所",
        "type": 0,
        "location": {
            "lat": 21.44343,
            "lng": 109.077905
        },
        "ad_info": {
            "adcode": 450503,
            "province": "广西壮族自治区",
            "city": "北海市",
            "district": "银海区"
        }
    },
    {
        "id": "11651433746778027000",
        "title": "公共厕所",
        "address": "广西壮族自治区北海市海城区兴业大道与合浦大道交叉口东北方向104米左右",
        "tel": "",
        "category": "基础设施:公共设施:公共厕所",
        "type": 0,
        "location": {
            "lat": 21.582503,
            "lng": 109.191959
        },
        "ad_info": {
            "adcode": 450502,
            "province": "广西壮族自治区",
            "city": "北海市",
            "district": "海城区"
        }
    },
    {
        "id": "3298179681286464782",
        "title": "公共厕所",
        "address": "广西壮族自治区北海市海城区新建五巷与菜园路交叉口东北方向71米左右",
        "tel": "",
        "category": "基础设施:公共设施:公共厕所",
        "type": 0,
        "location": {
            "lat": 21.478998,
            "lng": 109.1129
        },
        "ad_info": {
            "adcode": 450502,
            "province": "广西壮族自治区",
            "city": "北海市",
            "district": "海城区"
        }
    },
    {
        "id": "2558307540154787361",
        "title": "公共厕所",
        "address": "广西壮族自治区北海市海城区北海大道与庞屋路交叉口正南方向165米左右",
        "tel": "",
        "category": "基础设施:公共设施:公共厕所",
        "type": 0,
        "location": {
            "lat": 21.473895,
            "lng": 109.143589
        },
        "ad_info": {
            "adcode": 450502,
            "province": "广西壮族自治区",
            "city": "北海市",
            "district": "海城区"
        }
    },
    {
        "id": "3253898576724359348",
        "title": "公共厕所",
        "address": "广西壮族自治区北海市银海区新世纪大道8号",
        "tel": "",
        "category": "基础设施:公共设施:公共厕所",
        "type": 0,
        "location": {
            "lat": 21.441119,
            "lng": 109.102263
        },
        "ad_info": {
            "adcode": 450503,
            "province": "广西壮族自治区",
            "city": "北海市",
            "district": "银海区"
        }
    },
    {
        "id": "2029938358196677054",
        "title": "公共厕所",
        "address": "广西壮族自治区北海市银海区贵东路与赤水路交叉口正西方向14米左右",
        "tel": "",
        "category": "基础设施:公共设施:公共厕所",
        "type": 0,
        "location": {
            "lat": 21.444422,
            "lng": 109.115718
        },
        "ad_info": {
            "adcode": 450503,
            "province": "广西壮族自治区",
            "city": "北海市",
            "district": "银海区"
        }
    },
    {
        "id": "3194034200830816808",
        "title": "公共厕所",
        "address": "广西壮族自治区北海市海城区地角中路与地角新街一巷交叉口东南20米",
        "tel": "",
        "category": "基础设施:公共设施:公共厕所",
        "type": 0,
        "location": {
            "lat": 21.475137,
            "lng": 109.080634
        },
        "ad_info": {
            "adcode": 450502,
            "province": "广西壮族自治区",
            "city": "北海市",
            "district": "海城区"
        }
    },
    {
        "id": "2596991690396293164",
        "title": "洗手间",
        "address": "广西壮族自治区北海市海城区科庄路与香港路交叉口东北方向275米左右",
        "tel": "",
        "category": "基础设施:公共设施:公共厕所",
        "type": 0,
        "location": {
            "lat": 21.522262,
            "lng": 109.188573
        },
        "ad_info": {
            "adcode": 450502,
            "province": "广西壮族自治区",
            "city": "北海市",
            "district": "海城区"
        }
    },
    {
        "id": "14474988803151961987",
        "title": "公共厕所",
        "address": "广西壮族自治区北海市海城区勒棚村一巷与茶亭路交叉口正北方向17米左右",
        "tel": "",
        "category": "基础设施:公共设施:公共厕所",
        "type": 0,
        "location": {
            "lat": 21.493073,
            "lng": 109.142078
        },
        "ad_info": {
            "adcode": 450502,
            "province": "广西壮族自治区",
            "city": "北海市",
            "district": "海城区"
        }
    },
    {
        "id": "14420177884377403722",
        "title": "公共厕所",
        "address": "广西壮族自治区北海市银海区上海路与海丝大道西路交叉口正北方向48米左右",
        "tel": "",
        "category": "基础设施:公共设施:公共厕所",
        "type": 0,
        "location": {
            "lat": 21.409196,
            "lng": 109.15127
        },
        "ad_info": {
            "adcode": 450503,
            "province": "广西壮族自治区",
            "city": "北海市",
            "district": "银海区"
        }
    },
    {
        "id": "14679750509260445590",
        "title": "公共厕所",
        "address": "广西壮族自治区北海市银海区银滩大道1号东北方向190米",
        "tel": "",
        "category": "基础设施:公共设施:公共厕所",
        "type": 0,
        "location": {
            "lat": 21.429634,
            "lng": 109.138686
        },
        "ad_info": {
            "adcode": 450503,
            "province": "广西壮族自治区",
            "city": "北海市",
            "district": "银海区"
        }
    },
    {
        "id": "12400110278721242383",
        "title": "公共厕所(GX+BH+0421)",
        "address": "广西壮族自治区北海市海城区北部湾海域涠洲岛火山国家地质公园鳄鱼山景区内",
        "tel": "",
        "category": "基础设施:公共设施:公共厕所",
        "type": 0,
        "location": {
            "lat": 21.007702,
            "lng": 109.102485
        },
        "ad_info": {
            "adcode": 450502,
            "province": "广西壮族自治区",
            "city": "北海市",
            "district": "海城区"
        }
    },
    {
        "id": "496647008123225481",
        "title": "公共厕所",
        "address": "广西壮族自治区北海市银海区福北路与福合路交叉口正东方向157米左右",
        "tel": "",
        "category": "基础设施:公共设施:公共厕所",
        "type": 0,
        "location": {
            "lat": 21.569387,
            "lng": 109.334
        },
        "ad_info": {
            "adcode": 450503,
            "province": "广西壮族自治区",
            "city": "北海市",
            "district": "银海区"
        }
    },
    {
        "id": "17047785265474118574",
        "title": "公共厕所",
        "address": "广西壮族自治区北海市银海区港口路与鸿华路交叉口东南方向255米左右",
        "tel": "",
        "category": "基础设施:公共设施:公共厕所",
        "type": 0,
        "location": {
            "lat": 21.415631,
            "lng": 109.122388
        },
        "ad_info": {
            "adcode": 450503,
            "province": "广西壮族自治区",
            "city": "北海市",
            "district": "银海区"
        }
    },
    {
        "id": "10975107938808825288",
        "title": "公共厕所",
        "address": "广西壮族自治区北海市银海区江苏路中国石化加油站(江苏路站)",
        "tel": "",
        "category": "基础设施:公共设施:公共厕所",
        "type": 0,
        "location": {
            "lat": 21.434495,
            "lng": 109.114967
        },
        "ad_info": {
            "adcode": 450503,
            "province": "广西壮族自治区",
            "city": "北海市",
            "district": "银海区"
        }
    },
    {
        "id": "10029919181345005257",
        "title": "公共厕所",
        "address": "广西壮族自治区北海市海城区地角中路与地角新街一巷交叉口东北420米",
        "tel": "",
        "category": "基础设施:公共设施:公共厕所",
        "type": 0,
        "location": {
            "lat": 21.478647,
            "lng": 109.08234
        },
        "ad_info": {
            "adcode": 450502,
            "province": "广西壮族自治区",
            "city": "北海市",
            "district": "海城区"
        }
    },
    {
        "id": "5977784100950536801",
        "title": "公共厕所",
        "address": "广西壮族自治区北海市银海区水厂路与银滩中路辅路交叉口正南方向102米左右",
        "tel": "",
        "category": "基础设施:公共设施:公共厕所",
        "type": 0,
        "location": {
            "lat": 21.424033,
            "lng": 109.127585
        },
        "ad_info": {
            "adcode": 450503,
            "province": "广西壮族自治区",
            "city": "北海市",
            "district": "银海区"
        }
    },
    {
        "id": "14778769387792720459",
        "title": "公共厕所",
        "address": "广西壮族自治区北海市海城区火烧床与火烧床三巷交叉口西北方向60米",
        "tel": "",
        "category": "基础设施:公共设施:公共厕所",
        "type": 0,
        "location": {
            "lat": 21.47018,
            "lng": 109.10939
        },
        "ad_info": {
            "adcode": 450502,
            "province": "广西壮族自治区",
            "city": "北海市",
            "district": "海城区"
        }
    },
    {
        "id": "4414913682810131253",
        "title": "公共厕所",
        "address": "广西壮族自治区北海市银海区学苑路与金海岸大道交叉口东北方向189米左右",
        "tel": "",
        "category": "基础设施:公共设施:公共厕所",
        "type": 0,
        "location": {
            "lat": 21.42564,
            "lng": 109.187541
        },
        "ad_info": {
            "adcode": 450503,
            "province": "广西壮族自治区",
            "city": "北海市",
            "district": "银海区"
        }
    },
    {
        "id": "11484966953674957527",
        "title": "公共厕所",
        "address": "广西壮族自治区北海市银海区广东路与银滩大道交叉口正西方向49米左右",
        "tel": "",
        "category": "基础设施:公共设施:公共厕所",
        "type": 0,
        "location": {
            "lat": 21.423858,
            "lng": 109.145395
        },
        "ad_info": {
            "adcode": 450503,
            "province": "广西壮族自治区",
            "city": "北海市",
            "district": "银海区"
        }
    },
    {
        "id": "1609378879134901596",
        "title": "公共厕所",
        "address": "广西壮族自治区北海市银海区市场环形路与银新拱北路交叉口正西方向70米左右",
        "tel": "",
        "category": "基础设施:公共设施:公共厕所",
        "type": 0,
        "location": {
            "lat": 21.422802,
            "lng": 109.154085
        },
        "ad_info": {
            "adcode": 450503,
            "province": "广西壮族自治区",
            "city": "北海市",
            "district": "银海区"
        }
    },
    {
        "id": "11921251370782703746",
        "title": "公共厕所",
        "address": "广西壮族自治区北海市海城区东海街7号",
        "tel": "",
        "category": "基础设施:公共设施:公共厕所",
        "type": 0,
        "location": {
            "lat": 21.485886,
            "lng": 109.136965
        },
        "ad_info": {
            "adcode": 450502,
            "province": "广西壮族自治区",
            "city": "北海市",
            "district": "海城区"
        }
    },
    {
        "id": "4908373400187219569",
        "title": "公共厕所",
        "address": "广西壮族自治区北海市银海区江苏路与湘潭路交叉口东南方向337米左右",
        "tel": "",
        "category": "基础设施:公共设施:公共厕所",
        "type": 0,
        "location": {
            "lat": 21.440706,
            "lng": 109.145887
        },
        "ad_info": {
            "adcode": 450503,
            "province": "广西壮族自治区",
            "city": "北海市",
            "district": "银海区"
        }
    },
    {
        "id": "18306386001338880800",
        "title": "公共卫生间",
        "address": "广西壮族自治区北海市海城区北海大道辅路与油行江路交叉口西南方向100米左右",
        "tel": "",
        "category": "基础设施:公共设施:公共厕所",
        "type": 0,
        "location": {
            "lat": 21.48136,
            "lng": 109.1645
        },
        "ad_info": {
            "adcode": 450502,
            "province": "广西壮族自治区",
            "city": "北海市",
            "district": "海城区"
        }
    },
    {
        "id": "1123781050942919921",
        "title": "公共厕所",
        "address": "广西壮族自治区北海市海城区北海大道72号",
        "tel": "",
        "category": "基础设施:公共设施:公共厕所",
        "type": 0,
        "location": {
            "lat": 21.47484,
            "lng": 109.140151
        },
        "ad_info": {
            "adcode": 450502,
            "province": "广西壮族自治区",
            "city": "北海市",
            "district": "海城区"
        }
    },
    {
        "id": "6457090464243674195",
        "title": "公共厕所",
        "address": "广西壮族自治区北海市银海区银新东一路与银滩大道辅路交叉口东南方向136米左右",
        "tel": "",
        "category": "基础设施:公共设施:公共厕所",
        "type": 0,
        "location": {
            "lat": 21.426291,
            "lng": 109.16083
        },
        "ad_info": {
            "adcode": 450503,
            "province": "广西壮族自治区",
            "city": "北海市",
            "district": "银海区"
        }
    },
    {
        "id": "15006424670565480327",
        "title": "公共厕所",
        "address": "广西壮族自治区北海市海城区北海大道辅路与上海路交叉口西南80米",
        "tel": "",
        "category": "基础设施:公共设施:公共厕所",
        "type": 0,
        "location": {
            "lat": 21.476442,
            "lng": 109.148075
        },
        "ad_info": {
            "adcode": 450502,
            "province": "广西壮族自治区",
            "city": "北海市",
            "district": "海城区"
        }
    },
    {
        "id": "4750113067608699033",
        "title": "北海老城公共厕所",
        "address": "广西壮族自治区北海市海城区民生路与滨海路交叉口西南方向67米左右",
        "tel": "",
        "category": "基础设施:公共设施:公共厕所",
        "type": 0,
        "location": {
            "lat": 21.482888,
            "lng": 109.111975
        },
        "ad_info": {
            "adcode": 450502,
            "province": "广西壮族自治区",
            "city": "北海市",
            "district": "海城区"
        }
    },
    {
        "id": "9564909008152068051",
        "title": "侨港文体公园公共厕所",
        "address": "广西壮族自治区北海市银海区红棉路49号侨港文体公园(东南角)",
        "tel": "",
        "category": "基础设施:公共设施:公共厕所",
        "type": 0,
        "location": {
            "lat": 21.42266,
            "lng": 109.122782
        },
        "ad_info": {
            "adcode": 450503,
            "province": "广西壮族自治区",
            "city": "北海市",
            "district": "银海区"
        }
    },
    {
        "id": "16615385442138288318",
        "title": "公共厕所",
        "address": "广西壮族自治区北海市海城区铜鼓里西巷与长青东路交叉口正南方向15米左右",
        "tel": "",
        "category": "基础设施:公共设施:公共厕所",
        "type": 0,
        "location": {
            "lat": 21.478404,
            "lng": 109.131517
        },
        "ad_info": {
            "adcode": 450502,
            "province": "广西壮族自治区",
            "city": "北海市",
            "district": "海城区"
        }
    },
    {
        "id": "5460609819531235880",
        "title": "公共厕所",
        "address": "广西壮族自治区北海市银海区龙潭大冠沙(银滩往东6公里)北海金海湾红树林生态旅游区内(西侧)",
        "tel": "",
        "category": "基础设施:公共设施:公共厕所",
        "type": 0,
        "location": {
            "lat": 21.421433,
            "lng": 109.20816
        },
        "ad_info": {
            "adcode": 450503,
            "province": "广西壮族自治区",
            "city": "北海市",
            "district": "银海区"
        }
    },
    {
        "id": "3643431317864151810",
        "title": "公共厕所",
        "address": "广西壮族自治区北海市银海区海上丝路北海工艺美术博览园南侧",
        "tel": "",
        "category": "基础设施:公共设施:公共厕所",
        "type": 0,
        "location": {
            "lat": 21.513967,
            "lng": 109.225057
        },
        "ad_info": {
            "adcode": 450503,
            "province": "广西壮族自治区",
            "city": "北海市",
            "district": "银海区"
        }
    },
    {
        "id": "1960841564191575781",
        "title": "涠洲岛-公共厕所",
        "address": "广西壮族自治区北海市海城区Y016与三号路交叉口正南方向1271米左右",
        "tel": "",
        "category": "基础设施:公共设施:公共厕所",
        "type": 0,
        "location": {
            "lat": 21.051046,
            "lng": 109.136713
        },
        "ad_info": {
            "adcode": 450502,
            "province": "广西壮族自治区",
            "city": "北海市",
            "district": "海城区"
        }
    },
    {
        "id": "1167050906933407731",
        "title": "公共厕所",
        "address": "广西壮族自治区北海市银海区南珠大道与金海岸大道交叉口正西方向34米左右",
        "tel": "",
        "category": "基础设施:公共设施:公共厕所",
        "type": 0,
        "location": {
            "lat": 21.423581,
            "lng": 109.181785
        },
        "ad_info": {
            "adcode": 450503,
            "province": "广西壮族自治区",
            "city": "北海市",
            "district": "银海区"
        }
    },
    {
        "id": "16489038824792446007",
        "title": "公共厕所",
        "address": "广西壮族自治区北海市银海区仁爱路与四川路交叉口东北方向144米左右",
        "tel": "",
        "category": "基础设施:公共设施:公共厕所",
        "type": 0,
        "location": {
            "lat": 21.435034,
            "lng": 109.126333
        },
        "ad_info": {
            "adcode": 450503,
            "province": "广西壮族自治区",
            "city": "北海市",
            "district": "银海区"
        }
    },
    {
        "id": "1924388357718182018",
        "title": "公共厕所",
        "address": "广西壮族自治区北海市银海区G209与Y003交叉口正南方向171米左右",
        "tel": "",
        "category": "基础设施:公共设施:公共厕所",
        "type": 0,
        "location": {
            "lat": 21.597271,
            "lng": 109.219462
        },
        "ad_info": {
            "adcode": 450503,
            "province": "广西壮族自治区",
            "city": "北海市",
            "district": "银海区"
        }
    },
    {
        "id": "5754173135959996173",
        "title": "公共卫生间",
        "address": "广西壮族自治区北海市海城区四川路与百合路交叉口正南方向58米左右",
        "tel": "",
        "category": "基础设施:公共设施:公共厕所",
        "type": 0,
        "location": {
            "lat": 21.45279,
            "lng": 109.118435
        },
        "ad_info": {
            "adcode": 450502,
            "province": "广西壮族自治区",
            "city": "北海市",
            "district": "海城区"
        }
    },
    {
        "id": "5164951246635502821",
        "title": "公共厕所",
        "address": "广西壮族自治区北海市银海区四川路与浙江路交叉口东南方向134米左右",
        "tel": "",
        "category": "基础设施:公共设施:公共厕所",
        "type": 0,
        "location": {
            "lat": 21.430621,
            "lng": 109.126605
        },
        "ad_info": {
            "adcode": 450503,
            "province": "广西壮族自治区",
            "city": "北海市",
            "district": "银海区"
        }
    },
    {
        "id": "551395609126316308",
        "title": "竹园公共厕所",
        "address": "广西壮族自治区北海市海城区云南路与北海大道交叉口正东方向159米左右",
        "tel": "",
        "category": "基础设施:公共设施:公共厕所",
        "type": 0,
        "location": {
            "lat": 21.462612,
            "lng": 109.10353
        },
        "ad_info": {
            "adcode": 450502,
            "province": "广西壮族自治区",
            "city": "北海市",
            "district": "海城区"
        }
    },
    {
        "id": "10864717477309339341",
        "title": "公共厕所",
        "address": "广西壮族自治区北海市海城区前进路与南万路交叉口正北方向63米左右",
        "tel": "",
        "category": "基础设施:公共设施:公共厕所",
        "type": 0,
        "location": {
            "lat": 21.47831,
            "lng": 109.105567
        },
        "ad_info": {
            "adcode": 450502,
            "province": "广西壮族自治区",
            "city": "北海市",
            "district": "海城区"
        }
    },
    {
        "id": "16606484234798265105",
        "title": "公共厕所",
        "address": "广西壮族自治区北海市海城区幸福街与建文路交叉口正南方向105米左右",
        "tel": "",
        "category": "基础设施:公共设施:公共厕所",
        "type": 0,
        "location": {
            "lat": 21.473928,
            "lng": 109.112433
        },
        "ad_info": {
            "adcode": 450502,
            "province": "广西壮族自治区",
            "city": "北海市",
            "district": "海城区"
        }
    },
    {
        "id": "13704236547053195560",
        "title": "公共厕所",
        "address": "广西壮族自治区北海市海城区北京路与站北路交叉口西南方向201米左右",
        "tel": "",
        "category": "基础设施:公共设施:公共厕所",
        "type": 0,
        "location": {
            "lat": 21.454038,
            "lng": 109.125805
        },
        "ad_info": {
            "adcode": 450502,
            "province": "广西壮族自治区",
            "city": "北海市",
            "district": "海城区"
        }
    },
    {
        "id": "421061145336326322",
        "title": "环保公共厕所",
        "address": "广西壮族自治区北海市海城区云南路与惠民路交叉口正北方向73米左右",
        "tel": "",
        "category": "基础设施:公共设施:公共厕所",
        "type": 0,
        "location": {
            "lat": 21.454749,
            "lng": 109.105082
        },
        "ad_info": {
            "adcode": 450502,
            "province": "广西壮族自治区",
            "city": "北海市",
            "district": "海城区"
        }
    },
    {
        "id": "9264934458054894662",
        "title": "公共厕所(渔港中里)",
        "address": "广西壮族自治区北海市海城区水宿巷与渔港路三巷交叉口正东方向16米左右",
        "tel": "",
        "category": "基础设施:公共设施:公共厕所",
        "type": 0,
        "location": {
            "lat": 21.474698,
            "lng": 109.101965
        },
        "ad_info": {
            "adcode": 450502,
            "province": "广西壮族自治区",
            "city": "北海市",
            "district": "海城区"
        }
    },
    {
        "id": "13951338439241014135",
        "title": "公共卫生间",
        "address": "广西壮族自治区北海市海城区北海大道与庞屋路交叉口正东方向123米左右",
        "tel": "",
        "category": "基础设施:公共设施:公共厕所",
        "type": 0,
        "location": {
            "lat": 21.475227,
            "lng": 109.14431
        },
        "ad_info": {
            "adcode": 450502,
            "province": "广西壮族自治区",
            "city": "北海市",
            "district": "海城区"
        }
    },
    {
        "id": "9509237457869359561",
        "title": "嘉莱度假酒店-洗手间",
        "address": "广西壮族自治区北海市海城区云南路89号(近北海大道路口)",
        "tel": "",
        "category": "基础设施:公共设施:公共厕所",
        "type": 0,
        "location": {
            "lat": 21.45891,
            "lng": 109.104
        },
        "ad_info": {
            "adcode": 450502,
            "province": "广西壮族自治区",
            "city": "北海市",
            "district": "海城区"
        }
    },
    {
        "id": "2177751290597873614",
        "title": "公共厕所",
        "address": "广西壮族自治区北海市海城区珠海中路98号北海老城内(西侧)",
        "tel": "",
        "category": "基础设施:公共设施:公共厕所",
        "type": 0,
        "location": {
            "lat": 21.483873,
            "lng": 109.111782
        },
        "ad_info": {
            "adcode": 450502,
            "province": "广西壮族自治区",
            "city": "北海市",
            "district": "海城区"
        }
    },
    {
        "id": "14662271827530908176",
        "title": "市政公共厕所",
        "address": "广西壮族自治区北海市银海区港口路与鸿华路交叉口西南方向75米左右",
        "tel": "",
        "category": "基础设施:公共设施:公共厕所",
        "type": 0,
        "location": {
            "lat": 21.41623,
            "lng": 109.119923
        },
        "ad_info": {
            "adcode": 450503,
            "province": "广西壮族自治区",
            "city": "北海市",
            "district": "银海区"
        }
    },
    {
        "id": "7076908267969721659",
        "title": "公共厕所",
        "address": "广西壮族自治区北海市银海区侨北路与金海岸大道辅路交叉口正东方向97米左右",
        "tel": "",
        "category": "基础设施:公共设施:公共厕所",
        "type": 0,
        "location": {
            "lat": 21.426294,
            "lng": 109.126607
        },
        "ad_info": {
            "adcode": 450503,
            "province": "广西壮族自治区",
            "city": "北海市",
            "district": "银海区"
        }
    },
    {
        "id": "9112163703971847701",
        "title": "公共厕所",
        "address": "广西壮族自治区北海市海城区北海大道辅路与昆明路交叉口东北60米",
        "tel": "",
        "category": "基础设施:公共设施:公共厕所",
        "type": 0,
        "location": {
            "lat": 21.460263,
            "lng": 109.091894
        },
        "ad_info": {
            "adcode": 450502,
            "province": "广西壮族自治区",
            "city": "北海市",
            "district": "海城区"
        }
    },
    {
        "id": "11852408970577977924",
        "title": "市政公共厕所",
        "address": "广西壮族自治区北海市银海区银滩大道36号",
        "tel": "",
        "category": "基础设施:公共设施:公共厕所",
        "type": 0,
        "location": {
            "lat": 21.427569,
            "lng": 109.13771
        },
        "ad_info": {
            "adcode": 450503,
            "province": "广西壮族自治区",
            "city": "北海市",
            "district": "银海区"
        }
    },
    {
        "id": "5195015083555986323",
        "title": "公共厕所",
        "address": "广西壮族自治区北海市银海区侨南路与小港北三路交叉口东北方向91米左右",
        "tel": "",
        "category": "基础设施:公共设施:公共厕所",
        "type": 0,
        "location": {
            "lat": 21.423909,
            "lng": 109.125756
        },
        "ad_info": {
            "adcode": 450503,
            "province": "广西壮族自治区",
            "city": "北海市",
            "district": "银海区"
        }
    },
    {
        "id": "16396038404980724054",
        "title": "北海·海洋之窗公共厕所",
        "address": "广西壮族自治区北海市银海区四川路与新世纪大道交叉路口北海海洋之窗景区验票入口旁",
        "tel": "",
        "category": "基础设施:公共设施:公共厕所",
        "type": 0,
        "location": {
            "lat": 21.444684,
            "lng": 109.122229
        },
        "ad_info": {
            "adcode": 450503,
            "province": "广西壮族自治区",
            "city": "北海市",
            "district": "银海区"
        }
    },
    {
        "id": "10389789445723716663",
        "title": "环保公共厕所",
        "address": "广西壮族自治区北海市海城区湖南路逢时商城花园",
        "tel": "",
        "category": "基础设施:公共设施:公共厕所",
        "type": 0,
        "location": {
            "lat": 21.468455,
            "lng": 109.142931
        },
        "ad_info": {
            "adcode": 450502,
            "province": "广西壮族自治区",
            "city": "北海市",
            "district": "海城区"
        }
    },
    {
        "id": "12777651497691853336",
        "title": "路海大酒店-洗手间(内部专用)",
        "address": "广西壮族自治区北海市银海区侨港镇港口路侨港银滩1号(近北海国际客运码头)",
        "tel": "",
        "category": "基础设施:公共设施:公共厕所",
        "type": 0,
        "location": {
            "lat": 21.416791,
            "lng": 109.11941
        },
        "ad_info": {
            "adcode": 450503,
            "province": "广西壮族自治区",
            "city": "北海市",
            "district": "银海区"
        }
    },
    {
        "id": "6499323299768909081",
        "title": "公共厕所",
        "address": "广西壮族自治区北海市合浦县南乐街与还珠大道四路交叉口西北方向43米左右",
        "tel": "",
        "category": "基础设施:公共设施:公共厕所",
        "type": 0,
        "location": {
            "lat": 21.661604,
            "lng": 109.193396
        },
        "ad_info": {
            "adcode": 450521,
            "province": "广西壮族自治区",
            "city": "北海市",
            "district": "合浦县"
        }
    },
    {
        "id": "5017115626302265561",
        "title": "公共厕所(中心加油站)",
        "address": "广西壮族自治区北海市合浦县廉州大道与还珠东路交叉口东南方向75米左右",
        "tel": "",
        "category": "基础设施:公共设施:公共厕所",
        "type": 0,
        "location": {
            "lat": 21.657236,
            "lng": 109.206426
        },
        "ad_info": {
            "adcode": 450521,
            "province": "广西壮族自治区",
            "city": "北海市",
            "district": "合浦县"
        }
    },
    {
        "id": "17342408015919577414",
        "title": "公共厕所",
        "address": "广西壮族自治区北海市合浦县新安街与西安街交叉口正东方向108米左右",
        "tel": "",
        "category": "基础设施:公共设施:公共厕所",
        "type": 0,
        "location": {
            "lat": 21.649028,
            "lng": 109.124922
        },
        "ad_info": {
            "adcode": 450521,
            "province": "广西壮族自治区",
            "city": "北海市",
            "district": "合浦县"
        }
    },
    {
        "id": "7383049685936994508",
        "title": "公共厕所",
        "address": "广西壮族自治区北海市合浦县南北二级公路与还珠南路交叉口正北方向116米左右",
        "tel": "",
        "category": "基础设施:公共设施:公共厕所",
        "type": 0,
        "location": {
            "lat": 21.638169,
            "lng": 109.203152
        },
        "ad_info": {
            "adcode": 450521,
            "province": "广西壮族自治区",
            "city": "北海市",
            "district": "合浦县"
        }
    },
    {
        "id": "899901111578011742",
        "title": "公共厕所",
        "address": "广西壮族自治区北海市合浦县中山路与青云路交叉口东北方向213米左右",
        "tel": "",
        "category": "基础设施:公共设施:公共厕所",
        "type": 0,
        "location": {
            "lat": 21.672606,
            "lng": 109.197388
        },
        "ad_info": {
            "adcode": 450521,
            "province": "广西壮族自治区",
            "city": "北海市",
            "district": "合浦县"
        }
    },
    {
        "id": "3582608327790868434",
        "title": "公共厕所",
        "address": "广西壮族自治区北海市合浦县两广市场西山路19号",
        "tel": "",
        "category": "基础设施:公共设施:公共厕所",
        "type": 0,
        "location": {
            "lat": 21.608552,
            "lng": 109.73705
        },
        "ad_info": {
            "adcode": 450521,
            "province": "广西壮族自治区",
            "city": "北海市",
            "district": "合浦县"
        }
    },
    {
        "id": "7897079333612831506",
        "title": "公共厕所",
        "address": "广西壮族自治区北海市合浦县G209与水车桥交叉口东北方向610米左右",
        "tel": "",
        "category": "基础设施:公共设施:公共厕所",
        "type": 0,
        "location": {
            "lat": 21.801128,
            "lng": 109.378689
        },
        "ad_info": {
            "adcode": 450521,
            "province": "广西壮族自治区",
            "city": "北海市",
            "district": "合浦县"
        }
    },
    {
        "id": "17642017824806322486",
        "title": "公共厕所",
        "address": "广西壮族自治区北海市合浦县富康路与文蔚坊路交叉口正东方向71米左右",
        "tel": "",
        "category": "基础设施:公共设施:公共厕所",
        "type": 0,
        "location": {
            "lat": 21.670474,
            "lng": 109.184767
        },
        "ad_info": {
            "adcode": 450521,
            "province": "广西壮族自治区",
            "city": "北海市",
            "district": "合浦县"
        }
    },
    {
        "id": "8467218921668869557",
        "title": "公共厕所",
        "address": "广西壮族自治区北海市合浦县G325与文蔚坊路交叉口东南方向208米左右",
        "tel": "",
        "category": "基础设施:公共设施:公共厕所",
        "type": 0,
        "location": {
            "lat": 21.669685,
            "lng": 109.173126
        },
        "ad_info": {
            "adcode": 450521,
            "province": "广西壮族自治区",
            "city": "北海市",
            "district": "合浦县"
        }
    },
    {
        "id": "11454699484453366861",
        "title": "公共厕所",
        "address": "广西壮族自治区北海市合浦县北河街与石桥街交叉口正东方向54米左右",
        "tel": "",
        "category": "基础设施:公共设施:公共厕所",
        "type": 0,
        "location": {
            "lat": 21.675543,
            "lng": 109.195713
        },
        "ad_info": {
            "adcode": 450521,
            "province": "广西壮族自治区",
            "city": "北海市",
            "district": "合浦县"
        }
    },
    {
        "id": "7413043663445208671",
        "title": "公共厕所",
        "address": "广西壮族自治区北海市合浦县X240与XA14交叉口东南方向536米左右",
        "tel": "",
        "category": "基础设施:公共设施:公共厕所",
        "type": 0,
        "location": {
            "lat": 21.848102,
            "lng": 109.572444
        },
        "ad_info": {
            "adcode": 450521,
            "province": "广西壮族自治区",
            "city": "北海市",
            "district": "合浦县"
        }
    },
    {
        "id": "2679184475789216436",
        "title": "公共厕所",
        "address": "广西壮族自治区北海市合浦县325国道上陈屋路段,路南附近",
        "tel": "",
        "category": "基础设施:公共设施:公共厕所",
        "type": 0,
        "location": {
            "lat": 21.783794,
            "lng": 108.996295
        },
        "ad_info": {
            "adcode": 450521,
            "province": "广西壮族自治区",
            "city": "北海市",
            "district": "合浦县"
        }
    },
    {
        "id": "13141213694567707724",
        "title": "公共厕所",
        "address": "广西壮族自治区北海市合浦县G325与宏达大道交叉口正西方向483米左右",
        "tel": "",
        "category": "基础设施:公共设施:公共厕所",
        "type": 0,
        "location": {
            "lat": 21.704583,
            "lng": 109.476178
        },
        "ad_info": {
            "adcode": 450521,
            "province": "广西壮族自治区",
            "city": "北海市",
            "district": "合浦县"
        }
    },
    {
        "id": "79394237973917225",
        "title": "公共厕所",
        "address": "广西壮族自治区北海市合浦县113乡道与115乡道交叉口南50米",
        "tel": "",
        "category": "基础设施:公共设施:公共厕所",
        "type": 0,
        "location": {
            "lat": 21.792812,
            "lng": 109.152449
        },
        "ad_info": {
            "adcode": 450521,
            "province": "广西壮族自治区",
            "city": "北海市",
            "district": "合浦县"
        }
    },
    {
        "id": "16839074772421545023",
        "title": "公共厕所",
        "address": "广西壮族自治区北海市合浦县陈仔汽车维修部东北侧180米",
        "tel": "",
        "category": "基础设施:公共设施:公共厕所",
        "type": 0,
        "location": {
            "lat": 21.819874,
            "lng": 109.410683
        },
        "ad_info": {
            "adcode": 450521,
            "province": "广西壮族自治区",
            "city": "北海市",
            "district": "合浦县"
        }
    },
    {
        "id": "4050449052156601126",
        "title": "公共厕所",
        "address": "广西壮族自治区北海市合浦县Y053与郝家巷交叉口正东方向88米左右",
        "tel": "",
        "category": "基础设施:公共设施:公共厕所",
        "type": 0,
        "location": {
            "lat": 21.677529,
            "lng": 109.193493
        },
        "ad_info": {
            "adcode": 450521,
            "province": "广西壮族自治区",
            "city": "北海市",
            "district": "合浦县"
        }
    },
    {
        "id": "6593890582117648461",
        "title": "廉州广场公共厕所",
        "address": "广西壮族自治区北海市合浦县廉州广场南路与步行街交叉口东北50米园林管理所旁边猪肚鸡美食城门口对面",
        "tel": "",
        "category": "基础设施:公共设施:公共厕所",
        "type": 0,
        "location": {
            "lat": 21.662046,
            "lng": 109.208033
        },
        "ad_info": {
            "adcode": 450521,
            "province": "广西壮族自治区",
            "city": "北海市",
            "district": "合浦县"
        }
    },
    {
        "id": "16300718090889077015",
        "title": "廉州广场公共厕所",
        "address": "广西壮族自治区北海市合浦县解放路与青云路交叉口东南50米廉州广场东南角文化宫斜对面",
        "tel": "",
        "category": "基础设施:公共设施:公共厕所",
        "type": 0,
        "location": {
            "lat": 21.667789,
            "lng": 109.195528
        },
        "ad_info": {
            "adcode": 450521,
            "province": "广西壮族自治区",
            "city": "北海市",
            "district": "合浦县"
        }
    },
    {
        "id": "15793730429618155110",
        "title": "公共厕所",
        "address": "广西壮族自治区北海市合浦县合浦黄记玥亮饼业有限公司南侧220米",
        "tel": "",
        "category": "基础设施:公共设施:公共厕所",
        "type": 0,
        "location": {
            "lat": 21.71849,
            "lng": 109.131246
        },
        "ad_info": {
            "adcode": 450521,
            "province": "广西壮族自治区",
            "city": "北海市",
            "district": "合浦县"
        }
    },
    {
        "id": "8111202416579349865",
        "title": "卫生间",
        "address": "广西壮族自治区北海市合浦县廉州大道与廉阳大道交叉口正东方向546米左右",
        "tel": "",
        "category": "基础设施:公共设施:公共厕所",
        "type": 0,
        "location": {
            "lat": 21.689667,
            "lng": 109.235537
        },
        "ad_info": {
            "adcode": 450521,
            "province": "广西壮族自治区",
            "city": "北海市",
            "district": "合浦县"
        }
    },
    {
        "id": "8271914477254661881",
        "title": "女洗手间",
        "address": "广西壮族自治区北海市海城区北部湾中路39号和安商港B1",
        "tel": "",
        "category": "基础设施:公共设施:女洗手间",
        "type": 0,
        "location": {
            "lat": 21.473536,
            "lng": 109.115267
        },
        "ad_info": {
            "adcode": 450502,
            "province": "广西壮族自治区",
            "city": "北海市",
            "district": "海城区"
        }
    },
    {
        "id": "11090831425663738611",
        "title": "公共厕所",
        "address": "广西壮族自治区北海市合浦县G325与上洋大桥交叉口正东方向93米左右",
        "tel": "",
        "category": "基础设施:公共设施:公共厕所",
        "type": 0,
        "location": {
            "lat": 21.708387,
            "lng": 109.142871
        },
        "ad_info": {
            "adcode": 450521,
            "province": "广西壮族自治区",
            "city": "北海市",
            "district": "合浦县"
        }
    },
    {
        "id": "13428417533481589428",
        "title": "公共厕所",
        "address": "广西壮族自治区北海市合浦县G209与廉州大道交叉口正东方向99米左右",
        "tel": "",
        "category": "基础设施:公共设施:公共厕所",
        "type": 0,
        "location": {
            "lat": 21.688374,
            "lng": 109.2284
        },
        "ad_info": {
            "adcode": 450521,
            "province": "广西壮族自治区",
            "city": "北海市",
            "district": "合浦县"
        }
    },
    {
        "id": "4378035903531334012",
        "title": "公共厕所",
        "address": "广西壮族自治区北海市海城区公园路与北部湾中路交叉口东南方向82米左右",
        "tel": "",
        "category": "基础设施:公共设施:公共厕所",
        "type": 0,
        "location": {
            "lat": 21.478342,
            "lng": 109.12073
        },
        "ad_info": {
            "adcode": 450502,
            "province": "广西壮族自治区",
            "city": "北海市",
            "district": "海城区"
        }
    },
    {
        "id": "2080858615076159946",
        "title": "公共厕所",
        "address": "广西壮族自治区北海市银海区东二巷与港口路交叉口西南方向70米左右",
        "tel": "",
        "category": "基础设施:公共设施:公共厕所",
        "type": 0,
        "location": {
            "lat": 21.41833,
            "lng": 109.12032
        },
        "ad_info": {
            "adcode": 450503,
            "province": "广西壮族自治区",
            "city": "北海市",
            "district": "银海区"
        }
    },
    {
        "id": "5343674707878643116",
        "title": "公共厕所",
        "address": "广西壮族自治区北海市海城区北部湾东路7号",
        "tel": "",
        "category": "基础设施:公共设施:公共厕所",
        "type": 0,
        "location": {
            "lat": 21.48423,
            "lng": 109.129729
        },
        "ad_info": {
            "adcode": 450502,
            "province": "广西壮族自治区",
            "city": "北海市",
            "district": "海城区"
        }
    },
    {
        "id": "3178578490169491336",
        "title": "公共厕所",
        "address": "广西壮族自治区北海市银海区上海路与浙江路交叉口正南方向110米左右",
        "tel": "",
        "category": "基础设施:公共设施:公共厕所",
        "type": 0,
        "location": {
            "lat": 21.442238,
            "lng": 109.160342
        },
        "ad_info": {
            "adcode": 450503,
            "province": "广西壮族自治区",
            "city": "北海市",
            "district": "银海区"
        }
    },
    {
        "id": "1374689259146265661",
        "title": "公共厕所",
        "address": "广西壮族自治区北海市海城区吉林路与香港路交叉口正南方向111米左右",
        "tel": "",
        "category": "基础设施:公共设施:公共厕所",
        "type": 0,
        "location": {
            "lat": 21.520216,
            "lng": 109.181566
        },
        "ad_info": {
            "adcode": 450502,
            "province": "广西壮族自治区",
            "city": "北海市",
            "district": "海城区"
        }
    },
    {
        "id": "6414495312475596968",
        "title": "公共厕所",
        "address": "广西壮族自治区北海市铁山港区广场路与环村东路交叉口正南方向210米左右",
        "tel": "",
        "category": "基础设施:公共设施:公共厕所",
        "type": 0,
        "location": {
            "lat": 21.45294,
            "lng": 109.426059
        },
        "ad_info": {
            "adcode": 450512,
            "province": "广西壮族自治区",
            "city": "北海市",
            "district": "铁山港区"
        }
    },
    {
        "id": "6674398493265362132",
        "title": "公共厕所",
        "address": "广西壮族自治区北海市海城区北海大道辅路与巴中路交叉口东北方向608米左右",
        "tel": "",
        "category": "基础设施:公共设施:公共厕所",
        "type": 0,
        "location": {
            "lat": 21.492733,
            "lng": 109.18679
        },
        "ad_info": {
            "adcode": 450502,
            "province": "广西壮族自治区",
            "city": "北海市",
            "district": "海城区"
        }
    },
    {
        "id": "6539761000593337275",
        "title": "公共厕所",
        "address": "广西壮族自治区北海市合浦县G228与城北路交叉口正西方向135米左右",
        "tel": "",
        "category": "基础设施:公共设施:公共厕所",
        "type": 0,
        "location": {
            "lat": 21.789559,
            "lng": 109.591861
        },
        "ad_info": {
            "adcode": 450521,
            "province": "广西壮族自治区",
            "city": "北海市",
            "district": "合浦县"
        }
    },
    {
        "id": "13669083416448064956",
        "title": "公共厕所",
        "address": "广西壮族自治区北海市合浦县丽景水上乐园西北侧220米",
        "tel": "",
        "category": "基础设施:公共设施:公共厕所",
        "type": 0,
        "location": {
            "lat": 21.718452,
            "lng": 109.681769
        },
        "ad_info": {
            "adcode": 450521,
            "province": "广西壮族自治区",
            "city": "北海市",
            "district": "合浦县"
        }
    },
    {
        "id": "427228934024802045",
        "title": "环保移动工厕",
        "address": "广西壮族自治区北海市银海区广东路与银滩大道交叉口正西方向51米左右",
        "tel": "",
        "category": "基础设施:公共设施:公共厕所",
        "type": 0,
        "location": {
            "lat": 21.423933,
            "lng": 109.145389
        },
        "ad_info": {
            "adcode": 450503,
            "province": "广西壮族自治区",
            "city": "北海市",
            "district": "银海区"
        }
    },
    {
        "id": "7821419898008177602",
        "title": "肯德基(合浦餐厅)-洗手间",
        "address": "广西壮族自治区北海市合浦县廉州镇还珠大道1号1楼",
        "tel": "",
        "category": "基础设施:公共设施:公共厕所",
        "type": 0,
        "location": {
            "lat": 21.661905,
            "lng": 109.198864
        },
        "ad_info": {
            "adcode": 450521,
            "province": "广西壮族自治区",
            "city": "北海市",
            "district": "合浦县"
        }
    },
    {
        "id": "4819794873296482099",
        "title": "公共厕所",
        "address": "广西壮族自治区北海市银海区南珠大道与金海岸大道交叉口正北方向454米左右",
        "tel": "",
        "category": "基础设施:公共设施:公共厕所",
        "type": 0,
        "location": {
            "lat": 21.427312,
            "lng": 109.180508
        },
        "ad_info": {
            "adcode": 450503,
            "province": "广西壮族自治区",
            "city": "北海市",
            "district": "银海区"
        }
    },
    {
        "id": "11399449986375595084",
        "title": "男洗手间",
        "address": "广西壮族自治区北海市海城区北部湾中路39号和安商港F5",
        "tel": "",
        "category": "基础设施:公共设施:男洗手间",
        "type": 0,
        "location": {
            "lat": 21.473499,
            "lng": 109.115289
        },
        "ad_info": {
            "adcode": 450502,
            "province": "广西壮族自治区",
            "city": "北海市",
            "district": "海城区"
        }
    },
    {
        "id": "1880306711794951818",
        "title": "公共厕所",
        "address": "广西壮族自治区北海市海城区文明二路与菜园路交叉口东南方向99米左右",
        "tel": "",
        "category": "基础设施:公共设施:公共厕所",
        "type": 0,
        "location": {
            "lat": 21.477466,
            "lng": 109.115276
        },
        "ad_info": {
            "adcode": 450502,
            "province": "广西壮族自治区",
            "city": "北海市",
            "district": "海城区"
        }
    },
    {
        "id": "5150728249485430153",
        "title": "公共厕所",
        "address": "广西壮族自治区北海市海城区北部湾东路与拥军路交叉口东南方向67米左右",
        "tel": "",
        "category": "基础设施:公共设施:公共厕所",
        "type": 0,
        "location": {
            "lat": 21.493305,
            "lng": 109.152401
        },
        "ad_info": {
            "adcode": 450502,
            "province": "广西壮族自治区",
            "city": "北海市",
            "district": "海城区"
        }
    },
    {
        "id": "17423533787808661443",
        "title": "公共厕所",
        "address": "广西壮族自治区北海市海城区滴水丹屏景区",
        "tel": "",
        "category": "基础设施:公共设施:公共厕所",
        "type": 0,
        "location": {
            "lat": 21.013681,
            "lng": 109.0917
        },
        "ad_info": {
            "adcode": 450502,
            "province": "广西壮族自治区",
            "city": "北海市",
            "district": "海城区"
        }
    },
    {
        "id": "12659645063467081489",
        "title": "公共厕所",
        "address": "广西壮族自治区北海市海城区太平洋路与独树根西五巷交叉口东北方向28米左右",
        "tel": "",
        "category": "基础设施:公共设施:公共厕所",
        "type": 0,
        "location": {
            "lat": 21.473363,
            "lng": 109.096332
        },
        "ad_info": {
            "adcode": 450502,
            "province": "广西壮族自治区",
            "city": "北海市",
            "district": "海城区"
        }
    },
    {
        "id": "10824975560780140359",
        "title": "公共厕所",
        "address": "广西壮族自治区北海市海城区幸福街与建文路交叉口正西方向72米左右",
        "tel": "",
        "category": "基础设施:公共设施:公共厕所",
        "type": 0,
        "location": {
            "lat": 21.476009,
            "lng": 109.114729
        },
        "ad_info": {
            "adcode": 450502,
            "province": "广西壮族自治区",
            "city": "北海市",
            "district": "海城区"
        }
    },
    {
        "id": "2761287757363527641",
        "title": "公共厕所",
        "address": "广西壮族自治区北海市合浦县金鸡大道与南北二级公路交接处龙湾名郡小区旁",
        "tel": "",
        "category": "基础设施:公共设施:公共厕所",
        "type": 0,
        "location": {
            "lat": 21.654745,
            "lng": 109.181798
        },
        "ad_info": {
            "adcode": 450521,
            "province": "广西壮族自治区",
            "city": "北海市",
            "district": "合浦县"
        }
    },
    {
        "id": "15262568197568076998",
        "title": "公共厕所",
        "address": "广西壮族自治区北海市合浦县G209与廉州大道交叉口东北方向686米左右",
        "tel": "",
        "category": "基础设施:公共设施:公共厕所",
        "type": 0,
        "location": {
            "lat": 21.701426,
            "lng": 109.266622
        },
        "ad_info": {
            "adcode": 450521,
            "province": "广西壮族自治区",
            "city": "北海市",
            "district": "合浦县"
        }
    },
    {
        "id": "8457234972091343844",
        "title": "公共厕所",
        "address": "广西壮族自治区北海市海城区新兴二巷与新兴巷交叉口正西方向60米左右",
        "tel": "",
        "category": "基础设施:公共设施:公共厕所",
        "type": 0,
        "location": {
            "lat": 21.481355,
            "lng": 109.106234
        },
        "ad_info": {
            "adcode": 450502,
            "province": "广西壮族自治区",
            "city": "北海市",
            "district": "海城区"
        }
    },
    {
        "id": "10194564347695653480",
        "title": "公共厕所",
        "address": "广西壮族自治区北海市合浦县沙窝街与车沟底路交叉口东南方向60米左右",
        "tel": "",
        "category": "基础设施:公共设施:公共厕所",
        "type": 0,
        "location": {
            "lat": 21.665375,
            "lng": 109.194376
        },
        "ad_info": {
            "adcode": 450521,
            "province": "广西壮族自治区",
            "city": "北海市",
            "district": "合浦县"
        }
    },
    {
        "id": "12788832702416185116",
        "title": "公共厕所",
        "address": "广西壮族自治区北海市合浦县学宫街与文蔚坊路交叉口正北方向83米左右",
        "tel": "",
        "category": "基础设施:公共设施:公共厕所",
        "type": 0,
        "location": {
            "lat": 21.669142,
            "lng": 109.191709
        },
        "ad_info": {
            "adcode": 450521,
            "province": "广西壮族自治区",
            "city": "北海市",
            "district": "合浦县"
        }
    },
    {
        "id": "14485354321486129229",
        "title": "公共厕所",
        "address": "广西壮族自治区北海市合浦县G325与兴江大道交叉口东北方向62米左右",
        "tel": "",
        "category": "基础设施:公共设施:公共厕所",
        "type": 0,
        "location": {
            "lat": 21.673564,
            "lng": 109.168488
        },
        "ad_info": {
            "adcode": 450521,
            "province": "广西壮族自治区",
            "city": "北海市",
            "district": "合浦县"
        }
    },
    {
        "id": "7515974503947138152",
        "title": "公共厕所",
        "address": "广西壮族自治区北海市铁山港区黄稍村卫生室西北侧210米",
        "tel": "",
        "category": "基础设施:公共设施:公共厕所",
        "type": 0,
        "location": {
            "lat": 21.485571,
            "lng": 109.499225
        },
        "ad_info": {
            "adcode": 450512,
            "province": "广西壮族自治区",
            "city": "北海市",
            "district": "铁山港区"
        }
    },
    {
        "id": "13109874535228206375",
        "title": "公共厕所",
        "address": "广西壮族自治区北海市海城区新村路与西藏路交叉口西南方向74米左右",
        "tel": "",
        "category": "基础设施:公共设施:公共厕所",
        "type": 0,
        "location": {
            "lat": 21.452835,
            "lng": 109.098132
        },
        "ad_info": {
            "adcode": 450502,
            "province": "广西壮族自治区",
            "city": "北海市",
            "district": "海城区"
        }
    },
    {
        "id": "11422313368715247138",
        "title": "公共厕所(双江桥)",
        "address": "广西壮族自治区北海市合浦县G325与双江大桥交叉口东北方向200米左右",
        "tel": "",
        "category": "基础设施:公共设施:公共厕所",
        "type": 0,
        "location": {
            "lat": 21.657207,
            "lng": 109.182013
        },
        "ad_info": {
            "adcode": 450521,
            "province": "广西壮族自治区",
            "city": "北海市",
            "district": "合浦县"
        }
    },
    {
        "id": "7838474268314653786",
        "title": "公共厕所",
        "address": "广西壮族自治区北海市银海区南珠大道与海景大道交叉口西南方向16米左右",
        "tel": "",
        "category": "基础设施:公共设施:公共厕所",
        "type": 0,
        "location": {
            "lat": 21.412791,
            "lng": 109.1856
        },
        "ad_info": {
            "adcode": 450503,
            "province": "广西壮族自治区",
            "city": "北海市",
            "district": "银海区"
        }
    },
    {
        "id": "7691273841890469552",
        "title": "公共厕所",
        "address": "广西壮族自治区北海市海城区四川路与居安里交叉口正东方向72米左右",
        "tel": "",
        "category": "基础设施:公共设施:公共厕所",
        "type": 0,
        "location": {
            "lat": 21.457455,
            "lng": 109.117651
        },
        "ad_info": {
            "adcode": 450502,
            "province": "广西壮族自治区",
            "city": "北海市",
            "district": "海城区"
        }
    },
    {
        "id": "12727363846881816396",
        "title": "公共厕所",
        "address": "广西壮族自治区北海市合浦县延安路与民生路交叉口正北方向55米左右",
        "tel": "",
        "category": "基础设施:公共设施:公共厕所",
        "type": 0,
        "location": {
            "lat": 21.680551,
            "lng": 109.211503
        },
        "ad_info": {
            "adcode": 450521,
            "province": "广西壮族自治区",
            "city": "北海市",
            "district": "合浦县"
        }
    },
    {
        "id": "13940086425165670113",
        "title": "公共厕所",
        "address": "广西壮族自治区北海市海城区独东直一巷与独树根东路交叉口西南方向77米左右",
        "tel": "",
        "category": "基础设施:公共设施:公共厕所",
        "type": 0,
        "location": {
            "lat": 21.473006,
            "lng": 109.098297
        },
        "ad_info": {
            "adcode": 450502,
            "province": "广西壮族自治区",
            "city": "北海市",
            "district": "海城区"
        }
    },
    {
        "id": "12581196327448938659",
        "title": "观音巷公共厕所",
        "address": "广西壮族自治区北海市合浦县旧房产局对面观音巷入去30米",
        "tel": "",
        "category": "基础设施:公共设施:公共厕所",
        "type": 0,
        "location": {
            "lat": 21.667366,
            "lng": 109.192942
        },
        "ad_info": {
            "adcode": 450521,
            "province": "广西壮族自治区",
            "city": "北海市",
            "district": "合浦县"
        }
    },
    {
        "id": "4846246287128927918",
        "title": "公共厕所",
        "address": "广西壮族自治区北海市海城区广东路与滨海路交叉口正西方向181米左右",
        "tel": "13977929085",
        "category": "基础设施:公共设施:公共厕所",
        "type": 0,
        "location": {
            "lat": 21.486803,
            "lng": 109.123552
        },
        "ad_info": {
            "adcode": 450502,
            "province": "广西壮族自治区",
            "city": "北海市",
            "district": "海城区"
        }
    },
    {
        "id": "8841061173608729341",
        "title": "公共厕所",
        "address": "广西壮族自治区北海市合浦县G325与Y443交叉口正北方向178米左右",
        "tel": "",
        "category": "基础设施:公共设施:公共厕所",
        "type": 0,
        "location": {
            "lat": 21.724996,
            "lng": 109.131472
        },
        "ad_info": {
            "adcode": 450521,
            "province": "广西壮族自治区",
            "city": "北海市",
            "district": "合浦县"
        }
    },
    {
        "id": "6666974329895958767",
        "title": "公共厕所",
        "address": "广西壮族自治区北海市海城区南珠大道辅路与城东路交叉口正西方向44米左右",
        "tel": "",
        "category": "基础设施:公共设施:公共厕所",
        "type": 0,
        "location": {
            "lat": 21.494217,
            "lng": 109.169141
        },
        "ad_info": {
            "adcode": 450502,
            "province": "广西壮族自治区",
            "city": "北海市",
            "district": "海城区"
        }
    },
    {
        "id": "17617393117386760970",
        "title": "生态厕所",
        "address": "广西壮族自治区北海市海城区体育路中山公园(东侧)",
        "tel": "",
        "category": "基础设施:公共设施:公共厕所",
        "type": 0,
        "location": {
            "lat": 21.478527,
            "lng": 109.124558
        },
        "ad_info": {
            "adcode": 450502,
            "province": "广西壮族自治区",
            "city": "北海市",
            "district": "海城区"
        }
    },
    {
        "id": "3632673070425158291",
        "title": "公共厕所",
        "address": "广西壮族自治区北海市银海区三合口蔬导点西北侧130米",
        "tel": "",
        "category": "基础设施:公共设施:公共厕所",
        "type": 0,
        "location": {
            "lat": 21.531452,
            "lng": 109.243789
        },
        "ad_info": {
            "adcode": 450503,
            "province": "广西壮族自治区",
            "city": "北海市",
            "district": "银海区"
        }
    },
    {
        "id": "5388600673722623558",
        "title": "公共厕所",
        "address": "广西壮族自治区北海市海城区和平路83号",
        "tel": "",
        "category": "基础设施:公共设施:公共厕所",
        "type": 0,
        "location": {
            "lat": 21.48135,
            "lng": 109.116403
        },
        "ad_info": {
            "adcode": 450502,
            "province": "广西壮族自治区",
            "city": "北海市",
            "district": "海城区"
        }
    },
    {
        "id": "11526356022665251429",
        "title": "公共厕所",
        "address": "广西壮族自治区北海市银海区新世纪大道与长沙路交叉口正北方向54米左右",
        "tel": "",
        "category": "基础设施:公共设施:公共厕所",
        "type": 0,
        "location": {
            "lat": 21.451426,
            "lng": 109.147628
        },
        "ad_info": {
            "adcode": 450503,
            "province": "广西壮族自治区",
            "city": "北海市",
            "district": "银海区"
        }
    },
    {
        "id": "13128342323633262118",
        "title": "公共厕所",
        "address": "广西壮族自治区北海市合浦县山口镇河面村委陂米河水库东端",
        "tel": "",
        "category": "基础设施:公共设施:公共厕所",
        "type": 0,
        "location": {
            "lat": 21.646969,
            "lng": 109.753967
        },
        "ad_info": {
            "adcode": 450521,
            "province": "广西壮族自治区",
            "city": "北海市",
            "district": "合浦县"
        }
    },
    {
        "id": "12356807434656391483",
        "title": "公共厕所",
        "address": "广西壮族自治区北海市合浦县G325与兴江大道交叉口西北方向428米左右",
        "tel": "",
        "category": "基础设施:公共设施:公共厕所",
        "type": 0,
        "location": {
            "lat": 21.675571,
            "lng": 109.165059
        },
        "ad_info": {
            "adcode": 450521,
            "province": "广西壮族自治区",
            "city": "北海市",
            "district": "合浦县"
        }
    },
    {
        "id": "17349424760728658114",
        "title": "公共厕所",
        "address": "广西壮族自治区北海市海城区河南路高德市场",
        "tel": "",
        "category": "基础设施:公共设施:公共厕所",
        "type": 0,
        "location": {
            "lat": 21.497682,
            "lng": 109.156279
        },
        "ad_info": {
            "adcode": 450502,
            "province": "广西壮族自治区",
            "city": "北海市",
            "district": "海城区"
        }
    },
    {
        "id": "15313771366145002569",
        "title": "公共厕所",
        "address": "广西壮族自治区北海市海城区北京路57号",
        "tel": "",
        "category": "基础设施:公共设施:公共厕所",
        "type": 0,
        "location": {
            "lat": 21.461839,
            "lng": 109.126056
        },
        "ad_info": {
            "adcode": 450502,
            "province": "广西壮族自治区",
            "city": "北海市",
            "district": "海城区"
        }
    },
    {
        "id": "7656278592053041875",
        "title": "公共厕所",
        "address": "广西壮族自治区北海市合浦县廉州大道与龙门西路交叉口东南方向72米左右",
        "tel": "",
        "category": "基础设施:公共设施:公共厕所",
        "type": 0,
        "location": {
            "lat": 21.672519,
            "lng": 109.217581
        },
        "ad_info": {
            "adcode": 450521,
            "province": "广西壮族自治区",
            "city": "北海市",
            "district": "合浦县"
        }
    },
    {
        "id": "15028980784008525938",
        "title": "公共厕所",
        "address": "广西壮族自治区北海市银海区冠岭奥特莱斯小镇北侧180米",
        "tel": "",
        "category": "基础设施:公共设施:公共厕所",
        "type": 0,
        "location": {
            "lat": 21.444221,
            "lng": 109.058846
        },
        "ad_info": {
            "adcode": 450503,
            "province": "广西壮族自治区",
            "city": "北海市",
            "district": "银海区"
        }
    },
    {
        "id": "9558145418766066678",
        "title": "北部湾广场-公共厕所",
        "address": "广西壮族自治区北海市海城区北部湾中路与广安路交叉口正南方向47米左右",
        "tel": "",
        "category": "基础设施:公共设施:公共厕所",
        "type": 0,
        "location": {
            "lat": 21.473331,
            "lng": 109.113624
        },
        "ad_info": {
            "adcode": 450502,
            "province": "广西壮族自治区",
            "city": "北海市",
            "district": "海城区"
        }
    },
    {
        "id": "11845657036630397641",
        "title": "公共厕所",
        "address": "广西壮族自治区北海市海城区和平里三巷与解放路交叉口正东方向76米左右",
        "tel": "",
        "category": "基础设施:公共设施:公共厕所",
        "type": 0,
        "location": {
            "lat": 21.481914,
            "lng": 109.118294
        },
        "ad_info": {
            "adcode": 450502,
            "province": "广西壮族自治区",
            "city": "北海市",
            "district": "海城区"
        }
    },
    {
        "id": "4501646248542419981",
        "title": "公共厕所",
        "address": "广西壮族自治区北海市海城区长青东路44号",
        "tel": "",
        "category": "基础设施:公共设施:公共厕所",
        "type": 0,
        "location": {
            "lat": 21.474554,
            "lng": 109.125622
        },
        "ad_info": {
            "adcode": 450502,
            "province": "广西壮族自治区",
            "city": "北海市",
            "district": "海城区"
        }
    },
    {
        "id": "12790219331615039546",
        "title": "公共厕所",
        "address": "广西壮族自治区北海市海城区林屋村三巷与海角路交叉口正南方向88米左右",
        "tel": "",
        "category": "基础设施:公共设施:公共厕所",
        "type": 0,
        "location": {
            "lat": 21.478585,
            "lng": 109.104546
        },
        "ad_info": {
            "adcode": 450502,
            "province": "广西壮族自治区",
            "city": "北海市",
            "district": "海城区"
        }
    },
    {
        "id": "16860059795078840349",
        "title": "公共厕所",
        "address": "广西壮族自治区北海市合浦县三区一街与中山路交叉口正北方向98米左右",
        "tel": "",
        "category": "基础设施:公共设施:公共厕所",
        "type": 0,
        "location": {
            "lat": 21.752491,
            "lng": 109.335742
        },
        "ad_info": {
            "adcode": 450521,
            "province": "广西壮族自治区",
            "city": "北海市",
            "district": "合浦县"
        }
    },
    {
        "id": "9063005634834135446",
        "title": "公共厕所",
        "address": "广西壮族自治区北海市银海区杭州路14号肯德基二楼",
        "tel": "",
        "category": "基础设施:公共设施:公共厕所",
        "type": 0,
        "location": {
            "lat": 21.431594,
            "lng": 109.143833
        },
        "ad_info": {
            "adcode": 450503,
            "province": "广西壮族自治区",
            "city": "北海市",
            "district": "银海区"
        }
    },
    {
        "id": "3080857836460846062",
        "title": "环保公共厕所",
        "address": "广西壮族自治区北海市海城区上海路与北海大道交叉口西北方向148米",
        "tel": "",
        "category": "基础设施:公共设施:公共厕所",
        "type": 0,
        "location": {
            "lat": 21.47719,
            "lng": 109.147442
        },
        "ad_info": {
            "adcode": 450502,
            "province": "广西壮族自治区",
            "city": "北海市",
            "district": "海城区"
        }
    },
    {
        "id": "13431273892695223532",
        "title": "公共厕所",
        "address": "广西壮族自治区北海市合浦县209国道与088乡道交叉口南20米",
        "tel": "",
        "category": "基础设施:公共设施:公共厕所",
        "type": 0,
        "location": {
            "lat": 21.77222,
            "lng": 109.343578
        },
        "ad_info": {
            "adcode": 450521,
            "province": "广西壮族自治区",
            "city": "北海市",
            "district": "合浦县"
        }
    },
    {
        "id": "12444713654679112163",
        "title": "公共厕所",
        "address": "广西壮族自治区北海市银海区冠山路与海景大道交叉口正北方向621米左右",
        "tel": "",
        "category": "基础设施:公共设施:公共厕所",
        "type": 0,
        "location": {
            "lat": 21.4492,
            "lng": 109.056987
        },
        "ad_info": {
            "adcode": 450503,
            "province": "广西壮族自治区",
            "city": "北海市",
            "district": "银海区"
        }
    },
    {
        "id": "14648971661643860774",
        "title": "公共厕所",
        "address": "广西壮族自治区北海市银海区杭州路与韶山路交叉口东南方向145米左右",
        "tel": "",
        "category": "基础设施:公共设施:公共厕所",
        "type": 0,
        "location": {
            "lat": 21.433113,
            "lng": 109.154302
        },
        "ad_info": {
            "adcode": 450503,
            "province": "广西壮族自治区",
            "city": "北海市",
            "district": "银海区"
        }
    },
    {
        "id": "14806853958664880331",
        "title": "公共厕所",
        "address": "广西壮族自治区北海市海城区文明南路72号",
        "tel": "",
        "category": "基础设施:公共设施:公共厕所",
        "type": 0,
        "location": {
            "lat": 21.476904,
            "lng": 109.119702
        },
        "ad_info": {
            "adcode": 450502,
            "province": "广西壮族自治区",
            "city": "北海市",
            "district": "海城区"
        }
    },
    {
        "id": "7309432408310871504",
        "title": "无障碍公共厕所",
        "address": "广西壮族自治区北海市银海区禾塘路与广东路辅路交叉口西南60米",
        "tel": "",
        "category": "基础设施:公共设施:公共厕所",
        "type": 0,
        "location": {
            "lat": 21.452493,
            "lng": 109.135421
        },
        "ad_info": {
            "adcode": 450503,
            "province": "广西壮族自治区",
            "city": "北海市",
            "district": "银海区"
        }
    },
    {
        "id": "15205052861393173844",
        "title": "公共厕所",
        "address": "广西壮族自治区北海市海城区武昌西路翰馨苑-南苑",
        "tel": "",
        "category": "基础设施:公共设施:公共厕所",
        "type": 0,
        "location": {
            "lat": 21.480006,
            "lng": 109.154658
        },
        "ad_info": {
            "adcode": 450502,
            "province": "广西壮族自治区",
            "city": "北海市",
            "district": "海城区"
        }
    },
    {
        "id": "13806917665252637093",
        "title": "公共厕所",
        "address": "广西壮族自治区北海市铁山港区银丰东路160号",
        "tel": "",
        "category": "基础设施:公共设施:公共厕所",
        "type": 0,
        "location": {
            "lat": 21.595299,
            "lng": 109.455086
        },
        "ad_info": {
            "adcode": 450512,
            "province": "广西壮族自治区",
            "city": "北海市",
            "district": "铁山港区"
        }
    },
    {
        "id": "5841040509894523061",
        "title": "公共厕所",
        "address": "广西壮族自治区北海市银海区广东路与海丝大道西路交叉口东南方向342米左右",
        "tel": "",
        "category": "基础设施:公共设施:公共厕所",
        "type": 0,
        "location": {
            "lat": 21.413621,
            "lng": 109.145289
        },
        "ad_info": {
            "adcode": 450503,
            "province": "广西壮族自治区",
            "city": "北海市",
            "district": "银海区"
        }
    },
    {
        "id": "10701709250673701543",
        "title": "公共厕所",
        "address": "广西壮族自治区北海市海城区沈四村路与阳光西里路交叉口正北方向57米左右",
        "tel": "",
        "category": "基础设施:公共设施:公共厕所",
        "type": 0,
        "location": {
            "lat": 21.465027,
            "lng": 109.113547
        },
        "ad_info": {
            "adcode": 450502,
            "province": "广西壮族自治区",
            "city": "北海市",
            "district": "海城区"
        }
    },
    {
        "id": "17742874179217967849",
        "title": "龙港停车区公共厕所",
        "address": "广西壮族自治区北海市合浦县S5923松铁高速与龙港停车区交叉口南280米",
        "tel": "",
        "category": "基础设施:公共设施:公共厕所",
        "type": 0,
        "location": {
            "lat": 21.69541,
            "lng": 109.653522
        },
        "ad_info": {
            "adcode": 450521,
            "province": "广西壮族自治区",
            "city": "北海市",
            "district": "合浦县"
        }
    },
    {
        "id": "14857913711470726708",
        "title": "公共厕所",
        "address": "广西壮族自治区北海市海城区北海大道辅路与平安街交叉口东南方向94米左右",
        "tel": "",
        "category": "基础设施:公共设施:公共厕所",
        "type": 0,
        "location": {
            "lat": 21.465401,
            "lng": 109.11298
        },
        "ad_info": {
            "adcode": 450502,
            "province": "广西壮族自治区",
            "city": "北海市",
            "district": "海城区"
        }
    },
    {
        "id": "15216874822407802372",
        "title": "公共厕所",
        "address": "广西壮族自治区北海市海城区一路东区一巷与昆明路交叉口西北方向17米左右",
        "tel": "",
        "category": "基础设施:公共设施:公共厕所",
        "type": 0,
        "location": {
            "lat": 21.468375,
            "lng": 109.082561
        },
        "ad_info": {
            "adcode": 450502,
            "province": "广西壮族自治区",
            "city": "北海市",
            "district": "海城区"
        }
    },
    {
        "id": "4990958747930017342",
        "title": "公共厕所",
        "address": "广西壮族自治区北海市海城区澳门路与辽宁路交叉口正北方向164米左右",
        "tel": "",
        "category": "基础设施:公共设施:公共厕所",
        "type": 0,
        "location": {
            "lat": 21.531261,
            "lng": 109.200187
        },
        "ad_info": {
            "adcode": 450502,
            "province": "广西壮族自治区",
            "city": "北海市",
            "district": "海城区"
        }
    },
    {
        "id": "12233624423568290337",
        "title": "公共厕所",
        "address": "广西壮族自治区北海市银海区广东路与江苏路交叉口西南方向87米左右",
        "tel": "",
        "category": "基础设施:公共设施:公共厕所",
        "type": 0,
        "location": {
            "lat": 21.443107,
            "lng": 109.138685
        },
        "ad_info": {
            "adcode": 450503,
            "province": "广西壮族自治区",
            "city": "北海市",
            "district": "银海区"
        }
    },
    {
        "id": "17737904794280592900",
        "title": "公共厕所",
        "address": "广西壮族自治区北海市海城区站北路5号",
        "tel": "",
        "category": "基础设施:公共设施:公共厕所",
        "type": 0,
        "location": {
            "lat": 21.453747,
            "lng": 109.129018
        },
        "ad_info": {
            "adcode": 450502,
            "province": "广西壮族自治区",
            "city": "北海市",
            "district": "海城区"
        }
    },
    {
        "id": "2465576485003676375",
        "title": "公共厕所",
        "address": "广西壮族自治区北海市海城区东区公园(北部湾东路北)",
        "tel": "",
        "category": "基础设施:公共设施:公共厕所",
        "type": 0,
        "location": {
            "lat": 21.488713,
            "lng": 109.139561
        },
        "ad_info": {
            "adcode": 450502,
            "province": "广西壮族自治区",
            "city": "北海市",
            "district": "海城区"
        }
    },
    {
        "id": "6708953516120332146",
        "title": "公共厕所",
        "address": "广西壮族自治区北海市银海区上海路与银滩大道交叉口西南方向60米左右",
        "tel": "",
        "category": "基础设施:公共设施:公共厕所",
        "type": 0,
        "location": {
            "lat": 21.426998,
            "lng": 109.162334
        },
        "ad_info": {
            "adcode": 450503,
            "province": "广西壮族自治区",
            "city": "北海市",
            "district": "银海区"
        }
    },
    {
        "id": "9504948582942210643",
        "title": "公共厕所",
        "address": "广西壮族自治区北海市银海区浙江路与银滩大道交叉口东南方向120米左右",
        "tel": "",
        "category": "基础设施:公共设施:公共厕所",
        "type": 0,
        "location": {
            "lat": 21.431833,
            "lng": 109.129967
        },
        "ad_info": {
            "adcode": 450503,
            "province": "广西壮族自治区",
            "city": "北海市",
            "district": "银海区"
        }
    },
    {
        "id": "1711260628696482357",
        "title": "男洗手间",
        "address": "广西壮族自治区北海市海城区北部湾中路39号和安商港B1",
        "tel": "",
        "category": "基础设施:公共设施:男洗手间",
        "type": 0,
        "location": {
            "lat": 21.473505,
            "lng": 109.115296
        },
        "ad_info": {
            "adcode": 450502,
            "province": "广西壮族自治区",
            "city": "北海市",
            "district": "海城区"
        }
    },
    {
        "id": "16339392208411631816",
        "title": "铁山服务区公共厕所",
        "address": "广西壮族自治区北海市合浦县闸口镇兰海高速公路铁山服务区附近",
        "tel": "",
        "category": "基础设施:公共设施:公共厕所",
        "type": 0,
        "location": {
            "lat": 21.674144,
            "lng": 109.527713
        },
        "ad_info": {
            "adcode": 450521,
            "province": "广西壮族自治区",
            "city": "北海市",
            "district": "合浦县"
        }
    },
    {
        "id": "17436855105195599793",
        "title": "公共厕所",
        "address": "广西壮族自治区北海市合浦县G228与振兴大道交叉口正北方向102米左右",
        "tel": "",
        "category": "基础设施:公共设施:公共厕所",
        "type": 0,
        "location": {
            "lat": 21.703188,
            "lng": 109.690497
        },
        "ad_info": {
            "adcode": 450521,
            "province": "广西壮族自治区",
            "city": "北海市",
            "district": "合浦县"
        }
    },
    {
        "id": "12143821190339684327",
        "title": "公共厕所",
        "address": "广西壮族自治区北海市海城区G209与北海大道交叉口东北方向292米左右",
        "tel": "",
        "category": "基础设施:公共设施:公共厕所",
        "type": 0,
        "location": {
            "lat": 21.578501,
            "lng": 109.192854
        },
        "ad_info": {
            "adcode": 450502,
            "province": "广西壮族自治区",
            "city": "北海市",
            "district": "海城区"
        }
    },
    {
        "id": "2924441530012661009",
        "title": "公共厕所",
        "address": "广西壮族自治区北海市银海区广东路与海丝大道西路交叉口西南方向666米左右",
        "tel": "",
        "category": "基础设施:公共设施:公共厕所",
        "type": 0,
        "location": {
            "lat": 21.410841,
            "lng": 109.138404
        },
        "ad_info": {
            "adcode": 450503,
            "province": "广西壮族自治区",
            "city": "北海市",
            "district": "银海区"
        }
    },
    {
        "id": "11507927811229003187",
        "title": "石湾北停车区公共厕所",
        "address": "广西壮族自治区北海市合浦县G7212柳北高速与石湾北停车区交叉口西南440米",
        "tel": "",
        "category": "基础设施:公共设施:公共厕所",
        "type": 0,
        "location": {
            "lat": 21.825404,
            "lng": 109.259231
        },
        "ad_info": {
            "adcode": 450521,
            "province": "广西壮族自治区",
            "city": "北海市",
            "district": "合浦县"
        }
    },
    {
        "id": "4492453806373456947",
        "title": "公共厕所",
        "address": "广西壮族自治区北海市海城区悦民路与湖北路交叉口西北方向272米左右",
        "tel": "",
        "category": "基础设施:公共设施:公共厕所",
        "type": 0,
        "location": {
            "lat": 21.486192,
            "lng": 109.151107
        },
        "ad_info": {
            "adcode": 450502,
            "province": "广西壮族自治区",
            "city": "北海市",
            "district": "海城区"
        }
    },
    {
        "id": "16743026168768225158",
        "title": "公共厕所",
        "address": "广西壮族自治区北海市海城区澳门路与科盛路交叉口正北方向168米左右",
        "tel": "",
        "category": "基础设施:公共设施:公共厕所",
        "type": 0,
        "location": {
            "lat": 21.5312,
            "lng": 109.197999
        },
        "ad_info": {
            "adcode": 450502,
            "province": "广西壮族自治区",
            "city": "北海市",
            "district": "海城区"
        }
    },
    {
        "id": "13806917665252637093",
        "title": "公共厕所",
        "address": "广西壮族自治区北海市铁山港区银丰东路160号",
        "tel": "",
        "category": "基础设施:公共设施:公共厕所",
        "type": 0,
        "location": {
            "lat": 21.595299,
            "lng": 109.455086
        },
        "ad_info": {
            "adcode": 450512,
            "province": "广西壮族自治区",
            "city": "北海市",
            "district": "铁山港区"
        }
    },
    {
        "id": "5841040509894523061",
        "title": "公共厕所",
        "address": "广西壮族自治区北海市银海区广东路与海丝大道西路交叉口东南方向342米左右",
        "tel": "",
        "category": "基础设施:公共设施:公共厕所",
        "type": 0,
        "location": {
            "lat": 21.413621,
            "lng": 109.145289
        },
        "ad_info": {
            "adcode": 450503,
            "province": "广西壮族自治区",
            "city": "北海市",
            "district": "银海区"
        }
    },
    {
        "id": "10701709250673701543",
        "title": "公共厕所",
        "address": "广西壮族自治区北海市海城区沈四村路与阳光西里路交叉口正北方向57米左右",
        "tel": "",
        "category": "基础设施:公共设施:公共厕所",
        "type": 0,
        "location": {
            "lat": 21.465027,
            "lng": 109.113547
        },
        "ad_info": {
            "adcode": 450502,
            "province": "广西壮族自治区",
            "city": "北海市",
            "district": "海城区"
        }
    },
    {
        "id": "17742874179217967849",
        "title": "龙港停车区公共厕所",
        "address": "广西壮族自治区北海市合浦县S5923松铁高速与龙港停车区交叉口南280米",
        "tel": "",
        "category": "基础设施:公共设施:公共厕所",
        "type": 0,
        "location": {
            "lat": 21.69541,
            "lng": 109.653522
        },
        "ad_info": {
            "adcode": 450521,
            "province": "广西壮族自治区",
            "city": "北海市",
            "district": "合浦县"
        }
    },
    {
        "id": "14857913711470726708",
        "title": "公共厕所",
        "address": "广西壮族自治区北海市海城区北海大道辅路与平安街交叉口东南方向94米左右",
        "tel": "",
        "category": "基础设施:公共设施:公共厕所",
        "type": 0,
        "location": {
            "lat": 21.465401,
            "lng": 109.11298
        },
        "ad_info": {
            "adcode": 450502,
            "province": "广西壮族自治区",
            "city": "北海市",
            "district": "海城区"
        }
    },
    {
        "id": "15216874822407802372",
        "title": "公共厕所",
        "address": "广西壮族自治区北海市海城区一路东区一巷与昆明路交叉口西北方向17米左右",
        "tel": "",
        "category": "基础设施:公共设施:公共厕所",
        "type": 0,
        "location": {
            "lat": 21.468375,
            "lng": 109.082561
        },
        "ad_info": {
            "adcode": 450502,
            "province": "广西壮族自治区",
            "city": "北海市",
            "district": "海城区"
        }
    },
    {
        "id": "4990958747930017342",
        "title": "公共厕所",
        "address": "广西壮族自治区北海市海城区澳门路与辽宁路交叉口正北方向164米左右",
        "tel": "",
        "category": "基础设施:公共设施:公共厕所",
        "type": 0,
        "location": {
            "lat": 21.531261,
            "lng": 109.200187
        },
        "ad_info": {
            "adcode": 450502,
            "province": "广西壮族自治区",
            "city": "北海市",
            "district": "海城区"
        }
    },
    {
        "id": "12233624423568290337",
        "title": "公共厕所",
        "address": "广西壮族自治区北海市银海区广东路与江苏路交叉口西南方向87米左右",
        "tel": "",
        "category": "基础设施:公共设施:公共厕所",
        "type": 0,
        "location": {
            "lat": 21.443107,
            "lng": 109.138685
        },
        "ad_info": {
            "adcode": 450503,
            "province": "广西壮族自治区",
            "city": "北海市",
            "district": "银海区"
        }
    },
    {
        "id": "17737904794280592900",
        "title": "公共厕所",
        "address": "广西壮族自治区北海市海城区站北路5号",
        "tel": "",
        "category": "基础设施:公共设施:公共厕所",
        "type": 0,
        "location": {
            "lat": 21.453747,
            "lng": 109.129018
        },
        "ad_info": {
            "adcode": 450502,
            "province": "广西壮族自治区",
            "city": "北海市",
            "district": "海城区"
        }
    },
    {
        "id": "2465576485003676375",
        "title": "公共厕所",
        "address": "广西壮族自治区北海市海城区东区公园(北部湾东路北)",
        "tel": "",
        "category": "基础设施:公共设施:公共厕所",
        "type": 0,
        "location": {
            "lat": 21.488713,
            "lng": 109.139561
        },
        "ad_info": {
            "adcode": 450502,
            "province": "广西壮族自治区",
            "city": "北海市",
            "district": "海城区"
        }
    },
    {
        "id": "6708953516120332146",
        "title": "公共厕所",
        "address": "广西壮族自治区北海市银海区上海路与银滩大道交叉口西南方向60米左右",
        "tel": "",
        "category": "基础设施:公共设施:公共厕所",
        "type": 0,
        "location": {
            "lat": 21.426998,
            "lng": 109.162334
        },
        "ad_info": {
            "adcode": 450503,
            "province": "广西壮族自治区",
            "city": "北海市",
            "district": "银海区"
        }
    },
    {
        "id": "9504948582942210643",
        "title": "公共厕所",
        "address": "广西壮族自治区北海市银海区浙江路与银滩大道交叉口东南方向120米左右",
        "tel": "",
        "category": "基础设施:公共设施:公共厕所",
        "type": 0,
        "location": {
            "lat": 21.431833,
            "lng": 109.129967
        },
        "ad_info": {
            "adcode": 450503,
            "province": "广西壮族自治区",
            "city": "北海市",
            "district": "银海区"
        }
    },
    {
        "id": "1711260628696482357",
        "title": "男洗手间",
        "address": "广西壮族自治区北海市海城区北部湾中路39号和安商港B1",
        "tel": "",
        "category": "基础设施:公共设施:男洗手间",
        "type": 0,
        "location": {
            "lat": 21.473505,
            "lng": 109.115296
        },
        "ad_info": {
            "adcode": 450502,
            "province": "广西壮族自治区",
            "city": "北海市",
            "district": "海城区"
        }
    },
    {
        "id": "16339392208411631816",
        "title": "铁山服务区公共厕所",
        "address": "广西壮族自治区北海市合浦县闸口镇兰海高速公路铁山服务区附近",
        "tel": "",
        "category": "基础设施:公共设施:公共厕所",
        "type": 0,
        "location": {
            "lat": 21.674144,
            "lng": 109.527713
        },
        "ad_info": {
            "adcode": 450521,
            "province": "广西壮族自治区",
            "city": "北海市",
            "district": "合浦县"
        }
    },
    {
        "id": "17436855105195599793",
        "title": "公共厕所",
        "address": "广西壮族自治区北海市合浦县G228与振兴大道交叉口正北方向102米左右",
        "tel": "",
        "category": "基础设施:公共设施:公共厕所",
        "type": 0,
        "location": {
            "lat": 21.703188,
            "lng": 109.690497
        },
        "ad_info": {
            "adcode": 450521,
            "province": "广西壮族自治区",
            "city": "北海市",
            "district": "合浦县"
        }
    },
    {
        "id": "12143821190339684327",
        "title": "公共厕所",
        "address": "广西壮族自治区北海市海城区G209与北海大道交叉口东北方向292米左右",
        "tel": "",
        "category": "基础设施:公共设施:公共厕所",
        "type": 0,
        "location": {
            "lat": 21.578501,
            "lng": 109.192854
        },
        "ad_info": {
            "adcode": 450502,
            "province": "广西壮族自治区",
            "city": "北海市",
            "district": "海城区"
        }
    },
    {
        "id": "2924441530012661009",
        "title": "公共厕所",
        "address": "广西壮族自治区北海市银海区广东路与海丝大道西路交叉口西南方向666米左右",
        "tel": "",
        "category": "基础设施:公共设施:公共厕所",
        "type": 0,
        "location": {
            "lat": 21.410841,
            "lng": 109.138404
        },
        "ad_info": {
            "adcode": 450503,
            "province": "广西壮族自治区",
            "city": "北海市",
            "district": "银海区"
        }
    },
    {
        "id": "11507927811229003187",
        "title": "石湾北停车区公共厕所",
        "address": "广西壮族自治区北海市合浦县G7212柳北高速与石湾北停车区交叉口西南440米",
        "tel": "",
        "category": "基础设施:公共设施:公共厕所",
        "type": 0,
        "location": {
            "lat": 21.825404,
            "lng": 109.259231
        },
        "ad_info": {
            "adcode": 450521,
            "province": "广西壮族自治区",
            "city": "北海市",
            "district": "合浦县"
        }
    },
    {
        "id": "4492453806373456947",
        "title": "公共厕所",
        "address": "广西壮族自治区北海市海城区悦民路与湖北路交叉口西北方向272米左右",
        "tel": "",
        "category": "基础设施:公共设施:公共厕所",
        "type": 0,
        "location": {
            "lat": 21.486192,
            "lng": 109.151107
        },
        "ad_info": {
            "adcode": 450502,
            "province": "广西壮族自治区",
            "city": "北海市",
            "district": "海城区"
        }
    },
    {
        "id": "16743026168768225158",
        "title": "公共厕所",
        "address": "广西壮族自治区北海市海城区澳门路与科盛路交叉口正北方向168米左右",
        "tel": "",
        "category": "基础设施:公共设施:公共厕所",
        "type": 0,
        "location": {
            "lat": 21.5312,
            "lng": 109.197999
        },
        "ad_info": {
            "adcode": 450502,
            "province": "广西壮族自治区",
            "city": "北海市",
            "district": "海城区"
        }
    },
    {
        "id": "13806917665252637093",
        "title": "公共厕所",
        "address": "广西壮族自治区北海市铁山港区银丰东路160号",
        "tel": "",
        "category": "基础设施:公共设施:公共厕所",
        "type": 0,
        "location": {
            "lat": 21.595299,
            "lng": 109.455086
        },
        "ad_info": {
            "adcode": 450512,
            "province": "广西壮族自治区",
            "city": "北海市",
            "district": "铁山港区"
        }
    },
    {
        "id": "5841040509894523061",
        "title": "公共厕所",
        "address": "广西壮族自治区北海市银海区广东路与海丝大道西路交叉口东南方向342米左右",
        "tel": "",
        "category": "基础设施:公共设施:公共厕所",
        "type": 0,
        "location": {
            "lat": 21.413621,
            "lng": 109.145289
        },
        "ad_info": {
            "adcode": 450503,
            "province": "广西壮族自治区",
            "city": "北海市",
            "district": "银海区"
        }
    },
    {
        "id": "10701709250673701543",
        "title": "公共厕所",
        "address": "广西壮族自治区北海市海城区沈四村路与阳光西里路交叉口正北方向57米左右",
        "tel": "",
        "category": "基础设施:公共设施:公共厕所",
        "type": 0,
        "location": {
            "lat": 21.465027,
            "lng": 109.113547
        },
        "ad_info": {
            "adcode": 450502,
            "province": "广西壮族自治区",
            "city": "北海市",
            "district": "海城区"
        }
    },
    {
        "id": "17742874179217967849",
        "title": "龙港停车区公共厕所",
        "address": "广西壮族自治区北海市合浦县S5923松铁高速与龙港停车区交叉口南280米",
        "tel": "",
        "category": "基础设施:公共设施:公共厕所",
        "type": 0,
        "location": {
            "lat": 21.69541,
            "lng": 109.653522
        },
        "ad_info": {
            "adcode": 450521,
            "province": "广西壮族自治区",
            "city": "北海市",
            "district": "合浦县"
        }
    },
    {
        "id": "14857913711470726708",
        "title": "公共厕所",
        "address": "广西壮族自治区北海市海城区北海大道辅路与平安街交叉口东南方向94米左右",
        "tel": "",
        "category": "基础设施:公共设施:公共厕所",
        "type": 0,
        "location": {
            "lat": 21.465401,
            "lng": 109.11298
        },
        "ad_info": {
            "adcode": 450502,
            "province": "广西壮族自治区",
            "city": "北海市",
            "district": "海城区"
        }
    },
    {
        "id": "15216874822407802372",
        "title": "公共厕所",
        "address": "广西壮族自治区北海市海城区一路东区一巷与昆明路交叉口西北方向17米左右",
        "tel": "",
        "category": "基础设施:公共设施:公共厕所",
        "type": 0,
        "location": {
            "lat": 21.468375,
            "lng": 109.082561
        },
        "ad_info": {
            "adcode": 450502,
            "province": "广西壮族自治区",
            "city": "北海市",
            "district": "海城区"
        }
    },
    {
        "id": "4990958747930017342",
        "title": "公共厕所",
        "address": "广西壮族自治区北海市海城区澳门路与辽宁路交叉口正北方向164米左右",
        "tel": "",
        "category": "基础设施:公共设施:公共厕所",
        "type": 0,
        "location": {
            "lat": 21.531261,
            "lng": 109.200187
        },
        "ad_info": {
            "adcode": 450502,
            "province": "广西壮族自治区",
            "city": "北海市",
            "district": "海城区"
        }
    },
    {
        "id": "12233624423568290337",
        "title": "公共厕所",
        "address": "广西壮族自治区北海市银海区广东路与江苏路交叉口西南方向87米左右",
        "tel": "",
        "category": "基础设施:公共设施:公共厕所",
        "type": 0,
        "location": {
            "lat": 21.443107,
            "lng": 109.138685
        },
        "ad_info": {
            "adcode": 450503,
            "province": "广西壮族自治区",
            "city": "北海市",
            "district": "银海区"
        }
    },
    {
        "id": "17737904794280592900",
        "title": "公共厕所",
        "address": "广西壮族自治区北海市海城区站北路5号",
        "tel": "",
        "category": "基础设施:公共设施:公共厕所",
        "type": 0,
        "location": {
            "lat": 21.453747,
            "lng": 109.129018
        },
        "ad_info": {
            "adcode": 450502,
            "province": "广西壮族自治区",
            "city": "北海市",
            "district": "海城区"
        }
    },
    {
        "id": "2465576485003676375",
        "title": "公共厕所",
        "address": "广西壮族自治区北海市海城区东区公园(北部湾东路北)",
        "tel": "",
        "category": "基础设施:公共设施:公共厕所",
        "type": 0,
        "location": {
            "lat": 21.488713,
            "lng": 109.139561
        },
        "ad_info": {
            "adcode": 450502,
            "province": "广西壮族自治区",
            "city": "北海市",
            "district": "海城区"
        }
    },
    {
        "id": "6708953516120332146",
        "title": "公共厕所",
        "address": "广西壮族自治区北海市银海区上海路与银滩大道交叉口西南方向60米左右",
        "tel": "",
        "category": "基础设施:公共设施:公共厕所",
        "type": 0,
        "location": {
            "lat": 21.426998,
            "lng": 109.162334
        },
        "ad_info": {
            "adcode": 450503,
            "province": "广西壮族自治区",
            "city": "北海市",
            "district": "银海区"
        }
    },
    {
        "id": "9504948582942210643",
        "title": "公共厕所",
        "address": "广西壮族自治区北海市银海区浙江路与银滩大道交叉口东南方向120米左右",
        "tel": "",
        "category": "基础设施:公共设施:公共厕所",
        "type": 0,
        "location": {
            "lat": 21.431833,
            "lng": 109.129967
        },
        "ad_info": {
            "adcode": 450503,
            "province": "广西壮族自治区",
            "city": "北海市",
            "district": "银海区"
        }
    },
    {
        "id": "1711260628696482357",
        "title": "男洗手间",
        "address": "广西壮族自治区北海市海城区北部湾中路39号和安商港B1",
        "tel": "",
        "category": "基础设施:公共设施:男洗手间",
        "type": 0,
        "location": {
            "lat": 21.473505,
            "lng": 109.115296
        },
        "ad_info": {
            "adcode": 450502,
            "province": "广西壮族自治区",
            "city": "北海市",
            "district": "海城区"
        }
    },
    {
        "id": "16339392208411631816",
        "title": "铁山服务区公共厕所",
        "address": "广西壮族自治区北海市合浦县闸口镇兰海高速公路铁山服务区附近",
        "tel": "",
        "category": "基础设施:公共设施:公共厕所",
        "type": 0,
        "location": {
            "lat": 21.674144,
            "lng": 109.527713
        },
        "ad_info": {
            "adcode": 450521,
            "province": "广西壮族自治区",
            "city": "北海市",
            "district": "合浦县"
        }
    },
    {
        "id": "17436855105195599793",
        "title": "公共厕所",
        "address": "广西壮族自治区北海市合浦县G228与振兴大道交叉口正北方向102米左右",
        "tel": "",
        "category": "基础设施:公共设施:公共厕所",
        "type": 0,
        "location": {
            "lat": 21.703188,
            "lng": 109.690497
        },
        "ad_info": {
            "adcode": 450521,
            "province": "广西壮族自治区",
            "city": "北海市",
            "district": "合浦县"
        }
    },
    {
        "id": "12143821190339684327",
        "title": "公共厕所",
        "address": "广西壮族自治区北海市海城区G209与北海大道交叉口东北方向292米左右",
        "tel": "",
        "category": "基础设施:公共设施:公共厕所",
        "type": 0,
        "location": {
            "lat": 21.578501,
            "lng": 109.192854
        },
        "ad_info": {
            "adcode": 450502,
            "province": "广西壮族自治区",
            "city": "北海市",
            "district": "海城区"
        }
    },
    {
        "id": "2924441530012661009",
        "title": "公共厕所",
        "address": "广西壮族自治区北海市银海区广东路与海丝大道西路交叉口西南方向666米左右",
        "tel": "",
        "category": "基础设施:公共设施:公共厕所",
        "type": 0,
        "location": {
            "lat": 21.410841,
            "lng": 109.138404
        },
        "ad_info": {
            "adcode": 450503,
            "province": "广西壮族自治区",
            "city": "北海市",
            "district": "银海区"
        }
    },
    {
        "id": "11507927811229003187",
        "title": "石湾北停车区公共厕所",
        "address": "广西壮族自治区北海市合浦县G7212柳北高速与石湾北停车区交叉口西南440米",
        "tel": "",
        "category": "基础设施:公共设施:公共厕所",
        "type": 0,
        "location": {
            "lat": 21.825404,
            "lng": 109.259231
        },
        "ad_info": {
            "adcode": 450521,
            "province": "广西壮族自治区",
            "city": "北海市",
            "district": "合浦县"
        }
    },
    {
        "id": "4492453806373456947",
        "title": "公共厕所",
        "address": "广西壮族自治区北海市海城区悦民路与湖北路交叉口西北方向272米左右",
        "tel": "",
        "category": "基础设施:公共设施:公共厕所",
        "type": 0,
        "location": {
            "lat": 21.486192,
            "lng": 109.151107
        },
        "ad_info": {
            "adcode": 450502,
            "province": "广西壮族自治区",
            "city": "北海市",
            "district": "海城区"
        }
    },
    {
        "id": "16743026168768225158",
        "title": "公共厕所",
        "address": "广西壮族自治区北海市海城区澳门路与科盛路交叉口正北方向168米左右",
        "tel": "",
        "category": "基础设施:公共设施:公共厕所",
        "type": 0,
        "location": {
            "lat": 21.5312,
            "lng": 109.197999
        },
        "ad_info": {
            "adcode": 450502,
            "province": "广西壮族自治区",
            "city": "北海市",
            "district": "海城区"
        }
    },
    {
        "id": "13806917665252637093",
        "title": "公共厕所",
        "address": "广西壮族自治区北海市铁山港区银丰东路160号",
        "tel": "",
        "category": "基础设施:公共设施:公共厕所",
        "type": 0,
        "location": {
            "lat": 21.595299,
            "lng": 109.455086
        },
        "ad_info": {
            "adcode": 450512,
            "province": "广西壮族自治区",
            "city": "北海市",
            "district": "铁山港区"
        }
    },
    {
        "id": "5841040509894523061",
        "title": "公共厕所",
        "address": "广西壮族自治区北海市银海区广东路与海丝大道西路交叉口东南方向342米左右",
        "tel": "",
        "category": "基础设施:公共设施:公共厕所",
        "type": 0,
        "location": {
            "lat": 21.413621,
            "lng": 109.145289
        },
        "ad_info": {
            "adcode": 450503,
            "province": "广西壮族自治区",
            "city": "北海市",
            "district": "银海区"
        }
    },
    {
        "id": "10701709250673701543",
        "title": "公共厕所",
        "address": "广西壮族自治区北海市海城区沈四村路与阳光西里路交叉口正北方向57米左右",
        "tel": "",
        "category": "基础设施:公共设施:公共厕所",
        "type": 0,
        "location": {
            "lat": 21.465027,
            "lng": 109.113547
        },
        "ad_info": {
            "adcode": 450502,
            "province": "广西壮族自治区",
            "city": "北海市",
            "district": "海城区"
        }
    },
    {
        "id": "17742874179217967849",
        "title": "龙港停车区公共厕所",
        "address": "广西壮族自治区北海市合浦县S5923松铁高速与龙港停车区交叉口南280米",
        "tel": "",
        "category": "基础设施:公共设施:公共厕所",
        "type": 0,
        "location": {
            "lat": 21.69541,
            "lng": 109.653522
        },
        "ad_info": {
            "adcode": 450521,
            "province": "广西壮族自治区",
            "city": "北海市",
            "district": "合浦县"
        }
    },
    {
        "id": "14857913711470726708",
        "title": "公共厕所",
        "address": "广西壮族自治区北海市海城区北海大道辅路与平安街交叉口东南方向94米左右",
        "tel": "",
        "category": "基础设施:公共设施:公共厕所",
        "type": 0,
        "location": {
            "lat": 21.465401,
            "lng": 109.11298
        },
        "ad_info": {
            "adcode": 450502,
            "province": "广西壮族自治区",
            "city": "北海市",
            "district": "海城区"
        }
    },
    {
        "id": "15216874822407802372",
        "title": "公共厕所",
        "address": "广西壮族自治区北海市海城区一路东区一巷与昆明路交叉口西北方向17米左右",
        "tel": "",
        "category": "基础设施:公共设施:公共厕所",
        "type": 0,
        "location": {
            "lat": 21.468375,
            "lng": 109.082561
        },
        "ad_info": {
            "adcode": 450502,
            "province": "广西壮族自治区",
            "city": "北海市",
            "district": "海城区"
        }
    },
    {
        "id": "4990958747930017342",
        "title": "公共厕所",
        "address": "广西壮族自治区北海市海城区澳门路与辽宁路交叉口正北方向164米左右",
        "tel": "",
        "category": "基础设施:公共设施:公共厕所",
        "type": 0,
        "location": {
            "lat": 21.531261,
            "lng": 109.200187
        },
        "ad_info": {
            "adcode": 450502,
            "province": "广西壮族自治区",
            "city": "北海市",
            "district": "海城区"
        }
    },
    {
        "id": "12233624423568290337",
        "title": "公共厕所",
        "address": "广西壮族自治区北海市银海区广东路与江苏路交叉口西南方向87米左右",
        "tel": "",
        "category": "基础设施:公共设施:公共厕所",
        "type": 0,
        "location": {
            "lat": 21.443107,
            "lng": 109.138685
        },
        "ad_info": {
            "adcode": 450503,
            "province": "广西壮族自治区",
            "city": "北海市",
            "district": "银海区"
        }
    },
    {
        "id": "17737904794280592900",
        "title": "公共厕所",
        "address": "广西壮族自治区北海市海城区站北路5号",
        "tel": "",
        "category": "基础设施:公共设施:公共厕所",
        "type": 0,
        "location": {
            "lat": 21.453747,
            "lng": 109.129018
        },
        "ad_info": {
            "adcode": 450502,
            "province": "广西壮族自治区",
            "city": "北海市",
            "district": "海城区"
        }
    },
    {
        "id": "2465576485003676375",
        "title": "公共厕所",
        "address": "广西壮族自治区北海市海城区东区公园(北部湾东路北)",
        "tel": "",
        "category": "基础设施:公共设施:公共厕所",
        "type": 0,
        "location": {
            "lat": 21.488713,
            "lng": 109.139561
        },
        "ad_info": {
            "adcode": 450502,
            "province": "广西壮族自治区",
            "city": "北海市",
            "district": "海城区"
        }
    },
    {
        "id": "6708953516120332146",
        "title": "公共厕所",
        "address": "广西壮族自治区北海市银海区上海路与银滩大道交叉口西南方向60米左右",
        "tel": "",
        "category": "基础设施:公共设施:公共厕所",
        "type": 0,
        "location": {
            "lat": 21.426998,
            "lng": 109.162334
        },
        "ad_info": {
            "adcode": 450503,
            "province": "广西壮族自治区",
            "city": "北海市",
            "district": "银海区"
        }
    },
    {
        "id": "9504948582942210643",
        "title": "公共厕所",
        "address": "广西壮族自治区北海市银海区浙江路与银滩大道交叉口东南方向120米左右",
        "tel": "",
        "category": "基础设施:公共设施:公共厕所",
        "type": 0,
        "location": {
            "lat": 21.431833,
            "lng": 109.129967
        },
        "ad_info": {
            "adcode": 450503,
            "province": "广西壮族自治区",
            "city": "北海市",
            "district": "银海区"
        }
    },
    {
        "id": "1711260628696482357",
        "title": "男洗手间",
        "address": "广西壮族自治区北海市海城区北部湾中路39号和安商港B1",
        "tel": "",
        "category": "基础设施:公共设施:男洗手间",
        "type": 0,
        "location": {
            "lat": 21.473505,
            "lng": 109.115296
        },
        "ad_info": {
            "adcode": 450502,
            "province": "广西壮族自治区",
            "city": "北海市",
            "district": "海城区"
        }
    },
    {
        "id": "16339392208411631816",
        "title": "铁山服务区公共厕所",
        "address": "广西壮族自治区北海市合浦县闸口镇兰海高速公路铁山服务区附近",
        "tel": "",
        "category": "基础设施:公共设施:公共厕所",
        "type": 0,
        "location": {
            "lat": 21.674144,
            "lng": 109.527713
        },
        "ad_info": {
            "adcode": 450521,
            "province": "广西壮族自治区",
            "city": "北海市",
            "district": "合浦县"
        }
    },
    {
        "id": "17436855105195599793",
        "title": "公共厕所",
        "address": "广西壮族自治区北海市合浦县G228与振兴大道交叉口正北方向102米左右",
        "tel": "",
        "category": "基础设施:公共设施:公共厕所",
        "type": 0,
        "location": {
            "lat": 21.703188,
            "lng": 109.690497
        },
        "ad_info": {
            "adcode": 450521,
            "province": "广西壮族自治区",
            "city": "北海市",
            "district": "合浦县"
        }
    },
    {
        "id": "12143821190339684327",
        "title": "公共厕所",
        "address": "广西壮族自治区北海市海城区G209与北海大道交叉口东北方向292米左右",
        "tel": "",
        "category": "基础设施:公共设施:公共厕所",
        "type": 0,
        "location": {
            "lat": 21.578501,
            "lng": 109.192854
        },
        "ad_info": {
            "adcode": 450502,
            "province": "广西壮族自治区",
            "city": "北海市",
            "district": "海城区"
        }
    },
    {
        "id": "2924441530012661009",
        "title": "公共厕所",
        "address": "广西壮族自治区北海市银海区广东路与海丝大道西路交叉口西南方向666米左右",
        "tel": "",
        "category": "基础设施:公共设施:公共厕所",
        "type": 0,
        "location": {
            "lat": 21.410841,
            "lng": 109.138404
        },
        "ad_info": {
            "adcode": 450503,
            "province": "广西壮族自治区",
            "city": "北海市",
            "district": "银海区"
        }
    },
    {
        "id": "11507927811229003187",
        "title": "石湾北停车区公共厕所",
        "address": "广西壮族自治区北海市合浦县G7212柳北高速与石湾北停车区交叉口西南440米",
        "tel": "",
        "category": "基础设施:公共设施:公共厕所",
        "type": 0,
        "location": {
            "lat": 21.825404,
            "lng": 109.259231
        },
        "ad_info": {
            "adcode": 450521,
            "province": "广西壮族自治区",
            "city": "北海市",
            "district": "合浦县"
        }
    },
    {
        "id": "4492453806373456947",
        "title": "公共厕所",
        "address": "广西壮族自治区北海市海城区悦民路与湖北路交叉口西北方向272米左右",
        "tel": "",
        "category": "基础设施:公共设施:公共厕所",
        "type": 0,
        "location": {
            "lat": 21.486192,
            "lng": 109.151107
        },
        "ad_info": {
            "adcode": 450502,
            "province": "广西壮族自治区",
            "city": "北海市",
            "district": "海城区"
        }
    },
    {
        "id": "16743026168768225158",
        "title": "公共厕所",
        "address": "广西壮族自治区北海市海城区澳门路与科盛路交叉口正北方向168米左右",
        "tel": "",
        "category": "基础设施:公共设施:公共厕所",
        "type": 0,
        "location": {
            "lat": 21.5312,
            "lng": 109.197999
        },
        "ad_info": {
            "adcode": 450502,
            "province": "广西壮族自治区",
            "city": "北海市",
            "district": "海城区"
        }
    },
    {
        "id": "13806917665252637093",
        "title": "公共厕所",
        "address": "广西壮族自治区北海市铁山港区银丰东路160号",
        "tel": "",
        "category": "基础设施:公共设施:公共厕所",
        "type": 0,
        "location": {
            "lat": 21.595299,
            "lng": 109.455086
        },
        "ad_info": {
            "adcode": 450512,
            "province": "广西壮族自治区",
            "city": "北海市",
            "district": "铁山港区"
        }
    },
    {
        "id": "5841040509894523061",
        "title": "公共厕所",
        "address": "广西壮族自治区北海市银海区广东路与海丝大道西路交叉口东南方向342米左右",
        "tel": "",
        "category": "基础设施:公共设施:公共厕所",
        "type": 0,
        "location": {
            "lat": 21.413621,
            "lng": 109.145289
        },
        "ad_info": {
            "adcode": 450503,
            "province": "广西壮族自治区",
            "city": "北海市",
            "district": "银海区"
        }
    },
    {
        "id": "10701709250673701543",
        "title": "公共厕所",
        "address": "广西壮族自治区北海市海城区沈四村路与阳光西里路交叉口正北方向57米左右",
        "tel": "",
        "category": "基础设施:公共设施:公共厕所",
        "type": 0,
        "location": {
            "lat": 21.465027,
            "lng": 109.113547
        },
        "ad_info": {
            "adcode": 450502,
            "province": "广西壮族自治区",
            "city": "北海市",
            "district": "海城区"
        }
    },
    {
        "id": "17742874179217967849",
        "title": "龙港停车区公共厕所",
        "address": "广西壮族自治区北海市合浦县S5923松铁高速与龙港停车区交叉口南280米",
        "tel": "",
        "category": "基础设施:公共设施:公共厕所",
        "type": 0,
        "location": {
            "lat": 21.69541,
            "lng": 109.653522
        },
        "ad_info": {
            "adcode": 450521,
            "province": "广西壮族自治区",
            "city": "北海市",
            "district": "合浦县"
        }
    },
    {
        "id": "14857913711470726708",
        "title": "公共厕所",
        "address": "广西壮族自治区北海市海城区北海大道辅路与平安街交叉口东南方向94米左右",
        "tel": "",
        "category": "基础设施:公共设施:公共厕所",
        "type": 0,
        "location": {
            "lat": 21.465401,
            "lng": 109.11298
        },
        "ad_info": {
            "adcode": 450502,
            "province": "广西壮族自治区",
            "city": "北海市",
            "district": "海城区"
        }
    },
    {
        "id": "15216874822407802372",
        "title": "公共厕所",
        "address": "广西壮族自治区北海市海城区一路东区一巷与昆明路交叉口西北方向17米左右",
        "tel": "",
        "category": "基础设施:公共设施:公共厕所",
        "type": 0,
        "location": {
            "lat": 21.468375,
            "lng": 109.082561
        },
        "ad_info": {
            "adcode": 450502,
            "province": "广西壮族自治区",
            "city": "北海市",
            "district": "海城区"
        }
    },
    {
        "id": "4990958747930017342",
        "title": "公共厕所",
        "address": "广西壮族自治区北海市海城区澳门路与辽宁路交叉口正北方向164米左右",
        "tel": "",
        "category": "基础设施:公共设施:公共厕所",
        "type": 0,
        "location": {
            "lat": 21.531261,
            "lng": 109.200187
        },
        "ad_info": {
            "adcode": 450502,
            "province": "广西壮族自治区",
            "city": "北海市",
            "district": "海城区"
        }
    },
    {
        "id": "12233624423568290337",
        "title": "公共厕所",
        "address": "广西壮族自治区北海市银海区广东路与江苏路交叉口西南方向87米左右",
        "tel": "",
        "category": "基础设施:公共设施:公共厕所",
        "type": 0,
        "location": {
            "lat": 21.443107,
            "lng": 109.138685
        },
        "ad_info": {
            "adcode": 450503,
            "province": "广西壮族自治区",
            "city": "北海市",
            "district": "银海区"
        }
    },
    {
        "id": "17737904794280592900",
        "title": "公共厕所",
        "address": "广西壮族自治区北海市海城区站北路5号",
        "tel": "",
        "category": "基础设施:公共设施:公共厕所",
        "type": 0,
        "location": {
            "lat": 21.453747,
            "lng": 109.129018
        },
        "ad_info": {
            "adcode": 450502,
            "province": "广西壮族自治区",
            "city": "北海市",
            "district": "海城区"
        }
    },
    {
        "id": "2465576485003676375",
        "title": "公共厕所",
        "address": "广西壮族自治区北海市海城区东区公园(北部湾东路北)",
        "tel": "",
        "category": "基础设施:公共设施:公共厕所",
        "type": 0,
        "location": {
            "lat": 21.488713,
            "lng": 109.139561
        },
        "ad_info": {
            "adcode": 450502,
            "province": "广西壮族自治区",
            "city": "北海市",
            "district": "海城区"
        }
    },
    {
        "id": "6708953516120332146",
        "title": "公共厕所",
        "address": "广西壮族自治区北海市银海区上海路与银滩大道交叉口西南方向60米左右",
        "tel": "",
        "category": "基础设施:公共设施:公共厕所",
        "type": 0,
        "location": {
            "lat": 21.426998,
            "lng": 109.162334
        },
        "ad_info": {
            "adcode": 450503,
            "province": "广西壮族自治区",
            "city": "北海市",
            "district": "银海区"
        }
    },
    {
        "id": "9504948582942210643",
        "title": "公共厕所",
        "address": "广西壮族自治区北海市银海区浙江路与银滩大道交叉口东南方向120米左右",
        "tel": "",
        "category": "基础设施:公共设施:公共厕所",
        "type": 0,
        "location": {
            "lat": 21.431833,
            "lng": 109.129967
        },
        "ad_info": {
            "adcode": 450503,
            "province": "广西壮族自治区",
            "city": "北海市",
            "district": "银海区"
        }
    },
    {
        "id": "1711260628696482357",
        "title": "男洗手间",
        "address": "广西壮族自治区北海市海城区北部湾中路39号和安商港B1",
        "tel": "",
        "category": "基础设施:公共设施:男洗手间",
        "type": 0,
        "location": {
            "lat": 21.473505,
            "lng": 109.115296
        },
        "ad_info": {
            "adcode": 450502,
            "province": "广西壮族自治区",
            "city": "北海市",
            "district": "海城区"
        }
    },
    {
        "id": "16339392208411631816",
        "title": "铁山服务区公共厕所",
        "address": "广西壮族自治区北海市合浦县闸口镇兰海高速公路铁山服务区附近",
        "tel": "",
        "category": "基础设施:公共设施:公共厕所",
        "type": 0,
        "location": {
            "lat": 21.674144,
            "lng": 109.527713
        },
        "ad_info": {
            "adcode": 450521,
            "province": "广西壮族自治区",
            "city": "北海市",
            "district": "合浦县"
        }
    },
    {
        "id": "17436855105195599793",
        "title": "公共厕所",
        "address": "广西壮族自治区北海市合浦县G228与振兴大道交叉口正北方向102米左右",
        "tel": "",
        "category": "基础设施:公共设施:公共厕所",
        "type": 0,
        "location": {
            "lat": 21.703188,
            "lng": 109.690497
        },
        "ad_info": {
            "adcode": 450521,
            "province": "广西壮族自治区",
            "city": "北海市",
            "district": "合浦县"
        }
    },
    {
        "id": "12143821190339684327",
        "title": "公共厕所",
        "address": "广西壮族自治区北海市海城区G209与北海大道交叉口东北方向292米左右",
        "tel": "",
        "category": "基础设施:公共设施:公共厕所",
        "type": 0,
        "location": {
            "lat": 21.578501,
            "lng": 109.192854
        },
        "ad_info": {
            "adcode": 450502,
            "province": "广西壮族自治区",
            "city": "北海市",
            "district": "海城区"
        }
    },
    {
        "id": "2924441530012661009",
        "title": "公共厕所",
        "address": "广西壮族自治区北海市银海区广东路与海丝大道西路交叉口西南方向666米左右",
        "tel": "",
        "category": "基础设施:公共设施:公共厕所",
        "type": 0,
        "location": {
            "lat": 21.410841,
            "lng": 109.138404
        },
        "ad_info": {
            "adcode": 450503,
            "province": "广西壮族自治区",
            "city": "北海市",
            "district": "银海区"
        }
    },
    {
        "id": "11507927811229003187",
        "title": "石湾北停车区公共厕所",
        "address": "广西壮族自治区北海市合浦县G7212柳北高速与石湾北停车区交叉口西南440米",
        "tel": "",
        "category": "基础设施:公共设施:公共厕所",
        "type": 0,
        "location": {
            "lat": 21.825404,
            "lng": 109.259231
        },
        "ad_info": {
            "adcode": 450521,
            "province": "广西壮族自治区",
            "city": "北海市",
            "district": "合浦县"
        }
    },
    {
        "id": "4492453806373456947",
        "title": "公共厕所",
        "address": "广西壮族自治区北海市海城区悦民路与湖北路交叉口西北方向272米左右",
        "tel": "",
        "category": "基础设施:公共设施:公共厕所",
        "type": 0,
        "location": {
            "lat": 21.486192,
            "lng": 109.151107
        },
        "ad_info": {
            "adcode": 450502,
            "province": "广西壮族自治区",
            "city": "北海市",
            "district": "海城区"
        }
    },
    {
        "id": "16743026168768225158",
        "title": "公共厕所",
        "address": "广西壮族自治区北海市海城区澳门路与科盛路交叉口正北方向168米左右",
        "tel": "",
        "category": "基础设施:公共设施:公共厕所",
        "type": 0,
        "location": {
            "lat": 21.5312,
            "lng": 109.197999
        },
        "ad_info": {
            "adcode": 450502,
            "province": "广西壮族自治区",
            "city": "北海市",
            "district": "海城区"
        }
    },
    {
        "id": "13806917665252637093",
        "title": "公共厕所",
        "address": "广西壮族自治区北海市铁山港区银丰东路160号",
        "tel": "",
        "category": "基础设施:公共设施:公共厕所",
        "type": 0,
        "location": {
            "lat": 21.595299,
            "lng": 109.455086
        },
        "ad_info": {
            "adcode": 450512,
            "province": "广西壮族自治区",
            "city": "北海市",
            "district": "铁山港区"
        }
    },
    {
        "id": "5841040509894523061",
        "title": "公共厕所",
        "address": "广西壮族自治区北海市银海区广东路与海丝大道西路交叉口东南方向342米左右",
        "tel": "",
        "category": "基础设施:公共设施:公共厕所",
        "type": 0,
        "location": {
            "lat": 21.413621,
            "lng": 109.145289
        },
        "ad_info": {
            "adcode": 450503,
            "province": "广西壮族自治区",
            "city": "北海市",
            "district": "银海区"
        }
    },
    {
        "id": "10701709250673701543",
        "title": "公共厕所",
        "address": "广西壮族自治区北海市海城区沈四村路与阳光西里路交叉口正北方向57米左右",
        "tel": "",
        "category": "基础设施:公共设施:公共厕所",
        "type": 0,
        "location": {
            "lat": 21.465027,
            "lng": 109.113547
        },
        "ad_info": {
            "adcode": 450502,
            "province": "广西壮族自治区",
            "city": "北海市",
            "district": "海城区"
        }
    },
    {
        "id": "17742874179217967849",
        "title": "龙港停车区公共厕所",
        "address": "广西壮族自治区北海市合浦县S5923松铁高速与龙港停车区交叉口南280米",
        "tel": "",
        "category": "基础设施:公共设施:公共厕所",
        "type": 0,
        "location": {
            "lat": 21.69541,
            "lng": 109.653522
        },
        "ad_info": {
            "adcode": 450521,
            "province": "广西壮族自治区",
            "city": "北海市",
            "district": "合浦县"
        }
    },
    {
        "id": "14857913711470726708",
        "title": "公共厕所",
        "address": "广西壮族自治区北海市海城区北海大道辅路与平安街交叉口东南方向94米左右",
        "tel": "",
        "category": "基础设施:公共设施:公共厕所",
        "type": 0,
        "location": {
            "lat": 21.465401,
            "lng": 109.11298
        },
        "ad_info": {
            "adcode": 450502,
            "province": "广西壮族自治区",
            "city": "北海市",
            "district": "海城区"
        }
    },
    {
        "id": "15216874822407802372",
        "title": "公共厕所",
        "address": "广西壮族自治区北海市海城区一路东区一巷与昆明路交叉口西北方向17米左右",
        "tel": "",
        "category": "基础设施:公共设施:公共厕所",
        "type": 0,
        "location": {
            "lat": 21.468375,
            "lng": 109.082561
        },
        "ad_info": {
            "adcode": 450502,
            "province": "广西壮族自治区",
            "city": "北海市",
            "district": "海城区"
        }
    },
    {
        "id": "4990958747930017342",
        "title": "公共厕所",
        "address": "广西壮族自治区北海市海城区澳门路与辽宁路交叉口正北方向164米左右",
        "tel": "",
        "category": "基础设施:公共设施:公共厕所",
        "type": 0,
        "location": {
            "lat": 21.531261,
            "lng": 109.200187
        },
        "ad_info": {
            "adcode": 450502,
            "province": "广西壮族自治区",
            "city": "北海市",
            "district": "海城区"
        }
    },
    {
        "id": "12233624423568290337",
        "title": "公共厕所",
        "address": "广西壮族自治区北海市银海区广东路与江苏路交叉口西南方向87米左右",
        "tel": "",
        "category": "基础设施:公共设施:公共厕所",
        "type": 0,
        "location": {
            "lat": 21.443107,
            "lng": 109.138685
        },
        "ad_info": {
            "adcode": 450503,
            "province": "广西壮族自治区",
            "city": "北海市",
            "district": "银海区"
        }
    },
    {
        "id": "17737904794280592900",
        "title": "公共厕所",
        "address": "广西壮族自治区北海市海城区站北路5号",
        "tel": "",
        "category": "基础设施:公共设施:公共厕所",
        "type": 0,
        "location": {
            "lat": 21.453747,
            "lng": 109.129018
        },
        "ad_info": {
            "adcode": 450502,
            "province": "广西壮族自治区",
            "city": "北海市",
            "district": "海城区"
        }
    },
    {
        "id": "2465576485003676375",
        "title": "公共厕所",
        "address": "广西壮族自治区北海市海城区东区公园(北部湾东路北)",
        "tel": "",
        "category": "基础设施:公共设施:公共厕所",
        "type": 0,
        "location": {
            "lat": 21.488713,
            "lng": 109.139561
        },
        "ad_info": {
            "adcode": 450502,
            "province": "广西壮族自治区",
            "city": "北海市",
            "district": "海城区"
        }
    },
    {
        "id": "6708953516120332146",
        "title": "公共厕所",
        "address": "广西壮族自治区北海市银海区上海路与银滩大道交叉口西南方向60米左右",
        "tel": "",
        "category": "基础设施:公共设施:公共厕所",
        "type": 0,
        "location": {
            "lat": 21.426998,
            "lng": 109.162334
        },
        "ad_info": {
            "adcode": 450503,
            "province": "广西壮族自治区",
            "city": "北海市",
            "district": "银海区"
        }
    },
    {
        "id": "9504948582942210643",
        "title": "公共厕所",
        "address": "广西壮族自治区北海市银海区浙江路与银滩大道交叉口东南方向120米左右",
        "tel": "",
        "category": "基础设施:公共设施:公共厕所",
        "type": 0,
        "location": {
            "lat": 21.431833,
            "lng": 109.129967
        },
        "ad_info": {
            "adcode": 450503,
            "province": "广西壮族自治区",
            "city": "北海市",
            "district": "银海区"
        }
    },
    {
        "id": "1711260628696482357",
        "title": "男洗手间",
        "address": "广西壮族自治区北海市海城区北部湾中路39号和安商港B1",
        "tel": "",
        "category": "基础设施:公共设施:男洗手间",
        "type": 0,
        "location": {
            "lat": 21.473505,
            "lng": 109.115296
        },
        "ad_info": {
            "adcode": 450502,
            "province": "广西壮族自治区",
            "city": "北海市",
            "district": "海城区"
        }
    },
    {
        "id": "16339392208411631816",
        "title": "铁山服务区公共厕所",
        "address": "广西壮族自治区北海市合浦县闸口镇兰海高速公路铁山服务区附近",
        "tel": "",
        "category": "基础设施:公共设施:公共厕所",
        "type": 0,
        "location": {
            "lat": 21.674144,
            "lng": 109.527713
        },
        "ad_info": {
            "adcode": 450521,
            "province": "广西壮族自治区",
            "city": "北海市",
            "district": "合浦县"
        }
    },
    {
        "id": "17436855105195599793",
        "title": "公共厕所",
        "address": "广西壮族自治区北海市合浦县G228与振兴大道交叉口正北方向102米左右",
        "tel": "",
        "category": "基础设施:公共设施:公共厕所",
        "type": 0,
        "location": {
            "lat": 21.703188,
            "lng": 109.690497
        },
        "ad_info": {
            "adcode": 450521,
            "province": "广西壮族自治区",
            "city": "北海市",
            "district": "合浦县"
        }
    },
    {
        "id": "12143821190339684327",
        "title": "公共厕所",
        "address": "广西壮族自治区北海市海城区G209与北海大道交叉口东北方向292米左右",
        "tel": "",
        "category": "基础设施:公共设施:公共厕所",
        "type": 0,
        "location": {
            "lat": 21.578501,
            "lng": 109.192854
        },
        "ad_info": {
            "adcode": 450502,
            "province": "广西壮族自治区",
            "city": "北海市",
            "district": "海城区"
        }
    },
    {
        "id": "2924441530012661009",
        "title": "公共厕所",
        "address": "广西壮族自治区北海市银海区广东路与海丝大道西路交叉口西南方向666米左右",
        "tel": "",
        "category": "基础设施:公共设施:公共厕所",
        "type": 0,
        "location": {
            "lat": 21.410841,
            "lng": 109.138404
        },
        "ad_info": {
            "adcode": 450503,
            "province": "广西壮族自治区",
            "city": "北海市",
            "district": "银海区"
        }
    },
    {
        "id": "11507927811229003187",
        "title": "石湾北停车区公共厕所",
        "address": "广西壮族自治区北海市合浦县G7212柳北高速与石湾北停车区交叉口西南440米",
        "tel": "",
        "category": "基础设施:公共设施:公共厕所",
        "type": 0,
        "location": {
            "lat": 21.825404,
            "lng": 109.259231
        },
        "ad_info": {
            "adcode": 450521,
            "province": "广西壮族自治区",
            "city": "北海市",
            "district": "合浦县"
        }
    },
    {
        "id": "4492453806373456947",
        "title": "公共厕所",
        "address": "广西壮族自治区北海市海城区悦民路与湖北路交叉口西北方向272米左右",
        "tel": "",
        "category": "基础设施:公共设施:公共厕所",
        "type": 0,
        "location": {
            "lat": 21.486192,
            "lng": 109.151107
        },
        "ad_info": {
            "adcode": 450502,
            "province": "广西壮族自治区",
            "city": "北海市",
            "district": "海城区"
        }
    },
    {
        "id": "16743026168768225158",
        "title": "公共厕所",
        "address": "广西壮族自治区北海市海城区澳门路与科盛路交叉口正北方向168米左右",
        "tel": "",
        "category": "基础设施:公共设施:公共厕所",
        "type": 0,
        "location": {
            "lat": 21.5312,
            "lng": 109.197999
        },
        "ad_info": {
            "adcode": 450502,
            "province": "广西壮族自治区",
            "city": "北海市",
            "district": "海城区"
        }
    }
]