[
    {
        "id": "3052497977927750194",
        "title": "公共厕所",
        "address": "江西省南昌市西湖区朝霞路与桃花路680号支路交叉口东北方向49米左右",
        "tel": "",
        "category": "基础设施:公共设施:公共厕所",
        "type": 0,
        "location": {
            "lat": 28.643187,
            "lng": 115.879237
        },
        "ad_info": {
            "adcode": 360103,
            "province": "江西省",
            "city": "南昌市",
            "district": "西湖区"
        }
    },
    {
        "id": "1665820041145624215",
        "title": "公共厕所",
        "address": "江西省南昌市西湖区八一大道与孺子东路交叉口正南方向113米左右",
        "tel": "",
        "category": "基础设施:公共设施:公共厕所",
        "type": 0,
        "location": {
            "lat": 28.671289,
            "lng": 115.903834
        },
        "ad_info": {
            "adcode": 360103,
            "province": "江西省",
            "city": "南昌市",
            "district": "西湖区"
        }
    },
    {
        "id": "1947619606730926458",
        "title": "公共厕所",
        "address": "江西省南昌市西湖区孺子路与蓼洲街交叉口正东方向79米左右",
        "tel": "",
        "category": "基础设施:公共设施:公共厕所",
        "type": 0,
        "location": {
            "lat": 28.669795,
            "lng": 115.887815
        },
        "ad_info": {
            "adcode": 360103,
            "province": "江西省",
            "city": "南昌市",
            "district": "西湖区"
        }
    },
    {
        "id": "2395535705387096723",
        "title": "公共厕所",
        "address": "江西省南昌市西湖区广场东路与时尚北路交叉口东南方向43米左右",
        "tel": "",
        "category": "基础设施:公共设施:公共厕所",
        "type": 0,
        "location": {
            "lat": 28.671032,
            "lng": 115.910166
        },
        "ad_info": {
            "adcode": 360103,
            "province": "江西省",
            "city": "南昌市",
            "district": "西湖区"
        }
    },
    {
        "id": "10627340169253169314",
        "title": "公共厕所",
        "address": "江西省南昌市西湖区桃苑中路与桃苑西路交叉口正东方向182米左右",
        "tel": "",
        "category": "基础设施:公共设施:公共厕所",
        "type": 0,
        "location": {
            "lat": 28.656703,
            "lng": 115.893552
        },
        "ad_info": {
            "adcode": 360103,
            "province": "江西省",
            "city": "南昌市",
            "district": "西湖区"
        }
    },
    {
        "id": "16908408239202681662",
        "title": "公共厕所",
        "address": "江西省南昌市东湖区广场北路与福州路交叉口正东方向58米左右",
        "tel": "",
        "category": "基础设施:公共设施:公共厕所",
        "type": 0,
        "location": {
            "lat": 28.68157,
            "lng": 115.905162
        },
        "ad_info": {
            "adcode": 360102,
            "province": "江西省",
            "city": "南昌市",
            "district": "东湖区"
        }
    },
    {
        "id": "2278389302218875865",
        "title": "公共厕所(南昌西站)",
        "address": "江西省南昌市红谷滩区西站大街1号南昌西站B1",
        "tel": "",
        "category": "基础设施:公共设施:公共厕所",
        "type": 0,
        "location": {
            "lat": 28.624024,
            "lng": 115.793251
        },
        "ad_info": {
            "adcode": 360113,
            "province": "江西省",
            "city": "南昌市",
            "district": "红谷滩区"
        }
    },
    {
        "id": "13781440423039875919",
        "title": "公共厕所",
        "address": "江西省南昌市东湖区贤士一路与阳明东路交叉口西南方向41米左右",
        "tel": "",
        "category": "基础设施:公共设施:公共厕所",
        "type": 0,
        "location": {
            "lat": 28.687665,
            "lng": 115.912017
        },
        "ad_info": {
            "adcode": 360102,
            "province": "江西省",
            "city": "南昌市",
            "district": "东湖区"
        }
    },
    {
        "id": "16973397289857016234",
        "title": "公共厕所",
        "address": "江西省南昌市东湖区半步街与大士院街交叉口东南方向56米左右",
        "tel": "",
        "category": "基础设施:公共设施:公共厕所",
        "type": 0,
        "location": {
            "lat": 28.684734,
            "lng": 115.885041
        },
        "ad_info": {
            "adcode": 360102,
            "province": "江西省",
            "city": "南昌市",
            "district": "东湖区"
        }
    },
    {
        "id": "16563893453218910488",
        "title": "公共厕所",
        "address": "江西省南昌市红谷滩区滨水公园健走步道望城滨水公园(东南角)",
        "tel": "",
        "category": "基础设施:公共设施:公共厕所",
        "type": 0,
        "location": {
            "lat": 28.625444,
            "lng": 115.740749
        },
        "ad_info": {
            "adcode": 360113,
            "province": "江西省",
            "city": "南昌市",
            "district": "红谷滩区"
        }
    },
    {
        "id": "16678361570850396446",
        "title": "公共厕所",
        "address": "江西省南昌市西湖区站前路1号",
        "tel": "",
        "category": "基础设施:公共设施:公共厕所",
        "type": 0,
        "location": {
            "lat": 28.661869,
            "lng": 115.91784
        },
        "ad_info": {
            "adcode": 360103,
            "province": "江西省",
            "city": "南昌市",
            "district": "西湖区"
        }
    },
    {
        "id": "10196333470727167992",
        "title": "公共厕所",
        "address": "江西省南昌市红谷滩区上饶大街与百丈山路交叉口东北方向159米左右",
        "tel": "",
        "category": "基础设施:公共设施:公共厕所",
        "type": 0,
        "location": {
            "lat": 28.61508,
            "lng": 115.756913
        },
        "ad_info": {
            "adcode": 360113,
            "province": "江西省",
            "city": "南昌市",
            "district": "红谷滩区"
        }
    },
    {
        "id": "5348139509504342695",
        "title": "公共厕所",
        "address": "江西省南昌市东湖区南湖路与民德路交叉口西南方向91米左右",
        "tel": "",
        "category": "基础设施:公共设施:公共厕所",
        "type": 0,
        "location": {
            "lat": 28.679171,
            "lng": 115.893989
        },
        "ad_info": {
            "adcode": 360102,
            "province": "江西省",
            "city": "南昌市",
            "district": "东湖区"
        }
    },
    {
        "id": "7689370899331397024",
        "title": "公共厕所",
        "address": "江西省南昌市东湖区二七北路与福州路交叉口正西方向119米左右",
        "tel": "",
        "category": "基础设施:公共设施:公共厕所",
        "type": 0,
        "location": {
            "lat": 28.684036,
            "lng": 115.917711
        },
        "ad_info": {
            "adcode": 360102,
            "province": "江西省",
            "city": "南昌市",
            "district": "东湖区"
        }
    },
    {
        "id": "15296914453170361336",
        "title": "公共厕所",
        "address": "江西省南昌市红谷滩区凤凰北大道与珠江路交叉口东南方向58米左右",
        "tel": "",
        "category": "基础设施:公共设施:公共厕所",
        "type": 0,
        "location": {
            "lat": 28.709063,
            "lng": 115.872643
        },
        "ad_info": {
            "adcode": 360113,
            "province": "江西省",
            "city": "南昌市",
            "district": "红谷滩区"
        }
    },
    {
        "id": "11466571424922207838",
        "title": "公共厕所",
        "address": "江西省南昌市西湖区松柏路与系马桩街交叉口正南方向30米左右",
        "tel": "",
        "category": "基础设施:公共设施:公共厕所",
        "type": 0,
        "location": {
            "lat": 28.668783,
            "lng": 115.899206
        },
        "ad_info": {
            "adcode": 360103,
            "province": "江西省",
            "city": "南昌市",
            "district": "西湖区"
        }
    },
    {
        "id": "9847164291238871967",
        "title": "公共厕所",
        "address": "江西省南昌市红谷滩区上饶大街与怀玉山大道交叉口东南方向84米左右",
        "tel": "",
        "category": "基础设施:公共设施:公共厕所",
        "type": 0,
        "location": {
            "lat": 28.607697,
            "lng": 115.796038
        },
        "ad_info": {
            "adcode": 360113,
            "province": "江西省",
            "city": "南昌市",
            "district": "红谷滩区"
        }
    },
    {
        "id": "1949632411354625190",
        "title": "公共厕所",
        "address": "江西省南昌市红谷滩区丽景路80号",
        "tel": "",
        "category": "基础设施:公共设施:公共厕所",
        "type": 0,
        "location": {
            "lat": 28.675265,
            "lng": 115.855391
        },
        "ad_info": {
            "adcode": 360113,
            "province": "江西省",
            "city": "南昌市",
            "district": "红谷滩区"
        }
    },
    {
        "id": "8905576873033326084",
        "title": "公共厕所",
        "address": "江西省南昌市红谷滩区五四中大道",
        "tel": "",
        "category": "基础设施:公共设施:公共厕所",
        "type": 0,
        "location": {
            "lat": 28.662016,
            "lng": 115.800617
        },
        "ad_info": {
            "adcode": 360113,
            "province": "江西省",
            "city": "南昌市",
            "district": "红谷滩区"
        }
    },
    {
        "id": "16617294697801095669",
        "title": "公共厕所",
        "address": "江西省南昌市红谷滩区丰和中大道与丽景路交叉口西南方向176米左右",
        "tel": "",
        "category": "基础设施:公共设施:公共厕所",
        "type": 0,
        "location": {
            "lat": 28.675351,
            "lng": 115.84788
        },
        "ad_info": {
            "adcode": 360113,
            "province": "江西省",
            "city": "南昌市",
            "district": "红谷滩区"
        }
    },
    {
        "id": "7024821300271255999",
        "title": "公共厕所",
        "address": "江西省南昌市青山湖区创新一路与艾溪湖南路交叉口正东方向105米左右",
        "tel": "",
        "category": "基础设施:公共设施:公共厕所",
        "type": 0,
        "location": {
            "lat": 28.668658,
            "lng": 115.991681
        },
        "ad_info": {
            "adcode": 360111,
            "province": "江西省",
            "city": "南昌市",
            "district": "青山湖区"
        }
    },
    {
        "id": "4893695968855781952",
        "title": "公共厕所",
        "address": "江西省南昌市西湖区商圈二路与大市场东路交叉口西南方向118米左右",
        "tel": "",
        "category": "基础设施:公共设施:公共厕所",
        "type": 0,
        "location": {
            "lat": 28.645001,
            "lng": 115.890083
        },
        "ad_info": {
            "adcode": 360103,
            "province": "江西省",
            "city": "南昌市",
            "district": "西湖区"
        }
    },
    {
        "id": "15321429303412844076",
        "title": "公共厕所",
        "address": "江西省南昌市青山湖区京东大道与高新五路交叉口正东方向70米左右",
        "tel": "",
        "category": "基础设施:公共设施:公共厕所",
        "type": 0,
        "location": {
            "lat": 28.683375,
            "lng": 115.968789
        },
        "ad_info": {
            "adcode": 360111,
            "province": "江西省",
            "city": "南昌市",
            "district": "青山湖区"
        }
    },
    {
        "id": "12119641973020055719",
        "title": "公共厕所",
        "address": "江西省南昌市西湖区二七南路212号",
        "tel": "",
        "category": "基础设施:公共设施:公共厕所",
        "type": 0,
        "location": {
            "lat": 28.66098,
            "lng": 115.917315
        },
        "ad_info": {
            "adcode": 360103,
            "province": "江西省",
            "city": "南昌市",
            "district": "西湖区"
        }
    },
    {
        "id": "2044748195180684686",
        "title": "男洗手间(万达广场)",
        "address": "江西省南昌市红谷滩区会展路999号万达广场(红谷滩店)F4",
        "tel": "",
        "category": "基础设施:公共设施:公共厕所",
        "type": 0,
        "location": {
            "lat": 28.692668,
            "lng": 115.848709
        },
        "ad_info": {
            "adcode": 360113,
            "province": "江西省",
            "city": "南昌市",
            "district": "红谷滩区"
        }
    },
    {
        "id": "6311706968686841882",
        "title": "公共厕所",
        "address": "江西省南昌市新建区文化大道与蕙兰路交叉口正南方向120米左右",
        "tel": "",
        "category": "基础设施:公共设施:公共厕所",
        "type": 0,
        "location": {
            "lat": 28.693712,
            "lng": 115.83925
        },
        "ad_info": {
            "adcode": 360112,
            "province": "江西省",
            "city": "南昌市",
            "district": "新建区"
        }
    },
    {
        "id": "8986982066645382064",
        "title": "公共厕所",
        "address": "江西省南昌市青山湖区上海路与京海横街交叉口正东方向366米左右",
        "tel": "",
        "category": "基础设施:公共设施:公共厕所",
        "type": 0,
        "location": {
            "lat": 28.672792,
            "lng": 115.944223
        },
        "ad_info": {
            "adcode": 360111,
            "province": "江西省",
            "city": "南昌市",
            "district": "青山湖区"
        }
    },
    {
        "id": "15200857571568466418",
        "title": "公共厕所",
        "address": "江西省南昌市东湖区南江路与鹏举路交叉口西北方向76米左右",
        "tel": "",
        "category": "基础设施:公共设施:公共厕所",
        "type": 0,
        "location": {
            "lat": 28.719662,
            "lng": 115.910482
        },
        "ad_info": {
            "adcode": 360102,
            "province": "江西省",
            "city": "南昌市",
            "district": "东湖区"
        }
    },
    {
        "id": "8877291924190031467",
        "title": "公共厕所",
        "address": "江西省南昌市东湖区广场北路八一广场(东北角)",
        "tel": "",
        "category": "基础设施:公共设施:公共厕所",
        "type": 0,
        "location": {
            "lat": 28.674485,
            "lng": 115.905248
        },
        "ad_info": {
            "adcode": 360102,
            "province": "江西省",
            "city": "南昌市",
            "district": "东湖区"
        }
    },
    {
        "id": "17934204489354187906",
        "title": "公共厕所",
        "address": "江西省南昌市新建区子实路与长麦南路交叉口正南方向181米左右",
        "tel": "",
        "category": "基础设施:公共设施:公共厕所",
        "type": 0,
        "location": {
            "lat": 28.683348,
            "lng": 115.81907
        },
        "ad_info": {
            "adcode": 360112,
            "province": "江西省",
            "city": "南昌市",
            "district": "新建区"
        }
    },
    {
        "id": "2052056072252313427",
        "title": "公共厕所",
        "address": "江西省南昌市新建区兴华路78号",
        "tel": "",
        "category": "基础设施:公共设施:公共厕所",
        "type": 0,
        "location": {
            "lat": 28.682363,
            "lng": 115.824171
        },
        "ad_info": {
            "adcode": 360112,
            "province": "江西省",
            "city": "南昌市",
            "district": "新建区"
        }
    },
    {
        "id": "3305097847794057019",
        "title": "公共厕所",
        "address": "江西省南昌市西湖区云飞路与永富路交叉口正南方向88米左右",
        "tel": "",
        "category": "基础设施:公共设施:公共厕所",
        "type": 0,
        "location": {
            "lat": 28.628042,
            "lng": 115.854556
        },
        "ad_info": {
            "adcode": 360103,
            "province": "江西省",
            "city": "南昌市",
            "district": "西湖区"
        }
    },
    {
        "id": "9650548448456198448",
        "title": "公共厕所",
        "address": "江西省南昌市青山湖区火炬二路与高新二路交叉口正南方向101米左右",
        "tel": "",
        "category": "基础设施:公共设施:公共厕所",
        "type": 0,
        "location": {
            "lat": 28.692383,
            "lng": 115.95402
        },
        "ad_info": {
            "adcode": 360111,
            "province": "江西省",
            "city": "南昌市",
            "district": "青山湖区"
        }
    },
    {
        "id": "13182243563164725482",
        "title": "男洗手间",
        "address": "江西省南昌市红谷滩区齐云二路与齐云路交叉口正南方向85米左右",
        "tel": "",
        "category": "基础设施:公共设施:公共厕所",
        "type": 0,
        "location": {
            "lat": 28.684124,
            "lng": 115.854902
        },
        "ad_info": {
            "adcode": 360113,
            "province": "江西省",
            "city": "南昌市",
            "district": "红谷滩区"
        }
    },
    {
        "id": "16546810058091189990",
        "title": "公共厕所",
        "address": "江西省南昌市红谷滩区春晖路与碟子湖大道交叉口正西方向110米左右",
        "tel": "",
        "category": "基础设施:公共设施:公共厕所",
        "type": 0,
        "location": {
            "lat": 28.703352,
            "lng": 115.85694
        },
        "ad_info": {
            "adcode": 360113,
            "province": "江西省",
            "city": "南昌市",
            "district": "红谷滩区"
        }
    },
    {
        "id": "17419191923528204133",
        "title": "公共厕所",
        "address": "江西省南昌市青山湖区工人新村二路南昌站东广场",
        "tel": "",
        "category": "基础设施:公共设施:公共厕所",
        "type": 0,
        "location": {
            "lat": 28.66237,
            "lng": 115.92183
        },
        "ad_info": {
            "adcode": 360111,
            "province": "江西省",
            "city": "南昌市",
            "district": "青山湖区"
        }
    },
    {
        "id": "13376915778651492686",
        "title": "公共厕所",
        "address": "江西省南昌市西湖区云飞路与桃花南路交叉口正北方向24米左右",
        "tel": "",
        "category": "基础设施:公共设施:公共厕所",
        "type": 0,
        "location": {
            "lat": 28.621071,
            "lng": 115.872594
        },
        "ad_info": {
            "adcode": 360103,
            "province": "江西省",
            "city": "南昌市",
            "district": "西湖区"
        }
    },
    {
        "id": "9262742257011802394",
        "title": "公共厕所",
        "address": "江西省南昌市东湖区永外正街与贤士横街交叉口东北方向36米左右",
        "tel": "",
        "category": "基础设施:公共设施:公共厕所",
        "type": 0,
        "location": {
            "lat": 28.689239,
            "lng": 115.90929
        },
        "ad_info": {
            "adcode": 360102,
            "province": "江西省",
            "city": "南昌市",
            "district": "东湖区"
        }
    },
    {
        "id": "1497350502264156896",
        "title": "公共厕所",
        "address": "江西省南昌市西湖区抚生南路与观洲街交叉口正南方向81米左右",
        "tel": "",
        "category": "基础设施:公共设施:公共厕所",
        "type": 0,
        "location": {
            "lat": 28.629957,
            "lng": 115.861467
        },
        "ad_info": {
            "adcode": 360103,
            "province": "江西省",
            "city": "南昌市",
            "district": "西湖区"
        }
    },
    {
        "id": "12138890816842746398",
        "title": "公共厕所",
        "address": "江西省南昌市红谷滩区世贸路与赣江中大道交叉口东南方向73米左右",
        "tel": "",
        "category": "基础设施:公共设施:公共厕所",
        "type": 0,
        "location": {
            "lat": 28.680239,
            "lng": 115.861033
        },
        "ad_info": {
            "adcode": 360113,
            "province": "江西省",
            "city": "南昌市",
            "district": "红谷滩区"
        }
    },
    {
        "id": "13318631966995364374",
        "title": "公共厕所",
        "address": "江西省南昌市新建区北山集贸市场内",
        "tel": "",
        "category": "基础设施:公共设施:公共厕所",
        "type": 0,
        "location": {
            "lat": 28.75827,
            "lng": 115.888579
        },
        "ad_info": {
            "adcode": 360112,
            "province": "江西省",
            "city": "南昌市",
            "district": "新建区"
        }
    },
    {
        "id": "15707113144079461837",
        "title": "公共厕所",
        "address": "江西省南昌市红谷滩区新府路28号(市政府隔壁)",
        "tel": "",
        "category": "基础设施:公共设施:公共厕所",
        "type": 0,
        "location": {
            "lat": 28.682394,
            "lng": 115.859531
        },
        "ad_info": {
            "adcode": 360113,
            "province": "江西省",
            "city": "南昌市",
            "district": "红谷滩区"
        }
    },
    {
        "id": "4078942769763527221",
        "title": "公共厕所",
        "address": "江西省南昌市青山湖区工人新村三路与洛阳路交叉口正东方向109米左右",
        "tel": "",
        "category": "基础设施:公共设施:公共厕所",
        "type": 0,
        "location": {
            "lat": 28.663716,
            "lng": 115.925572
        },
        "ad_info": {
            "adcode": 360111,
            "province": "江西省",
            "city": "南昌市",
            "district": "青山湖区"
        }
    },
    {
        "id": "17971503357914629127",
        "title": "公共厕所",
        "address": "江西省南昌市红谷滩区丰和中大道与芳华路交叉口正南方向67米左右",
        "tel": "",
        "category": "基础设施:公共设施:公共厕所",
        "type": 0,
        "location": {
            "lat": 28.689975,
            "lng": 115.855759
        },
        "ad_info": {
            "adcode": 360113,
            "province": "江西省",
            "city": "南昌市",
            "district": "红谷滩区"
        }
    },
    {
        "id": "8316251273917550431",
        "title": "公共厕所",
        "address": "江西省南昌市西湖区云海路与桃花南路交叉口正南方向52米左右",
        "tel": "",
        "category": "基础设施:公共设施:公共厕所",
        "type": 0,
        "location": {
            "lat": 28.618086,
            "lng": 115.868931
        },
        "ad_info": {
            "adcode": 360103,
            "province": "江西省",
            "city": "南昌市",
            "district": "西湖区"
        }
    },
    {
        "id": "11072536051500591393",
        "title": "公共厕所",
        "address": "江西省南昌市青云谱区丰收路与井冈山大道交叉口正东方向33米左右",
        "tel": "",
        "category": "基础设施:公共设施:公共厕所",
        "type": 0,
        "location": {
            "lat": 28.653594,
            "lng": 115.911426
        },
        "ad_info": {
            "adcode": 360104,
            "province": "江西省",
            "city": "南昌市",
            "district": "青云谱区"
        }
    },
    {
        "id": "15748734994128393524",
        "title": "公共厕所",
        "address": "江西省南昌市红谷滩区会展路999号万达广场(红谷滩店)F1",
        "tel": "",
        "category": "基础设施:公共设施:公共厕所",
        "type": 0,
        "location": {
            "lat": 28.694196,
            "lng": 115.848711
        },
        "ad_info": {
            "adcode": 360113,
            "province": "江西省",
            "city": "南昌市",
            "district": "红谷滩区"
        }
    },
    {
        "id": "18122548747517868145",
        "title": "公共厕所",
        "address": "江西省南昌市南昌县向阳路与康乐路交叉口正北方向88米左右",
        "tel": "",
        "category": "基础设施:公共设施:公共厕所",
        "type": 0,
        "location": {
            "lat": 28.543122,
            "lng": 115.936475
        },
        "ad_info": {
            "adcode": 360121,
            "province": "江西省",
            "city": "南昌市",
            "district": "南昌县"
        }
    },
    {
        "id": "18034483755282226976",
        "title": "公共厕所",
        "address": "江西省南昌市新建区建设路126号",
        "tel": "",
        "category": "基础设施:公共设施:公共厕所",
        "type": 0,
        "location": {
            "lat": 28.69022,
            "lng": 115.82686
        },
        "ad_info": {
            "adcode": 360112,
            "province": "江西省",
            "city": "南昌市",
            "district": "新建区"
        }
    },
    {
        "id": "12828854333445711748",
        "title": "公共厕所",
        "address": "江西省南昌市青云谱区井冈山大道江西火电北院住宅小区",
        "tel": "",
        "category": "基础设施:公共设施:公共厕所",
        "type": 0,
        "location": {
            "lat": 28.623765,
            "lng": 115.918097
        },
        "ad_info": {
            "adcode": 360104,
            "province": "江西省",
            "city": "南昌市",
            "district": "青云谱区"
        }
    },
    {
        "id": "5330722409648611603",
        "title": "公共厕所管理间",
        "address": "江西省南昌市东湖区子固路天泉水都(子固路馆)",
        "tel": "",
        "category": "基础设施:公共设施:公共厕所",
        "type": 0,
        "location": {
            "lat": 28.676797,
            "lng": 115.88543
        },
        "ad_info": {
            "adcode": 360102,
            "province": "江西省",
            "city": "南昌市",
            "district": "东湖区"
        }
    },
    {
        "id": "13622930528719878296",
        "title": "公共厕所",
        "address": "江西省南昌市红谷滩区丰和中大道与春晖路交叉口正东方向111米左右",
        "tel": "",
        "category": "基础设施:公共设施:公共厕所",
        "type": 0,
        "location": {
            "lat": 28.695213,
            "lng": 115.865298
        },
        "ad_info": {
            "adcode": 360113,
            "province": "江西省",
            "city": "南昌市",
            "district": "红谷滩区"
        }
    },
    {
        "id": "6903680681830188810",
        "title": "公共厕所",
        "address": "江西省南昌市青山湖区东升大道与谢佛路交叉口东南方向37米左右",
        "tel": "",
        "category": "基础设施:公共设施:公共厕所",
        "type": 0,
        "location": {
            "lat": 28.600466,
            "lng": 115.965311
        },
        "ad_info": {
            "adcode": 360111,
            "province": "江西省",
            "city": "南昌市",
            "district": "青山湖区"
        }
    },
    {
        "id": "7724725173968667666",
        "title": "公共厕所",
        "address": "江西省南昌市东湖区渊明北路28-1号",
        "tel": "",
        "category": "基础设施:公共设施:公共厕所",
        "type": 0,
        "location": {
            "lat": 28.676721,
            "lng": 115.89312
        },
        "ad_info": {
            "adcode": 360102,
            "province": "江西省",
            "city": "南昌市",
            "district": "东湖区"
        }
    },
    {
        "id": "1113102021917642313",
        "title": "维也纳酒店-洗手间",
        "address": "江西省南昌市西湖区站前路168号(火车站地区近二七南路)",
        "tel": "",
        "category": "基础设施:公共设施:公共厕所",
        "type": 0,
        "location": {
            "lat": 28.662581,
            "lng": 115.911998
        },
        "ad_info": {
            "adcode": 360103,
            "province": "江西省",
            "city": "南昌市",
            "district": "西湖区"
        }
    },
    {
        "id": "13331796399554156206",
        "title": "公共厕所",
        "address": "江西省南昌市南昌县小洲路芳华集贸市场",
        "tel": "",
        "category": "基础设施:公共设施:公共厕所",
        "type": 0,
        "location": {
            "lat": 28.594173,
            "lng": 115.879341
        },
        "ad_info": {
            "adcode": 360121,
            "province": "江西省",
            "city": "南昌市",
            "district": "南昌县"
        }
    },
    {
        "id": "5087305039487691733",
        "title": "公共厕所",
        "address": "江西省南昌市青山湖区699青创空间F1",
        "tel": "",
        "category": "基础设施:公共设施:公共厕所",
        "type": 0,
        "location": {
            "lat": 28.665155,
            "lng": 115.944039
        },
        "ad_info": {
            "adcode": 360111,
            "province": "江西省",
            "city": "南昌市",
            "district": "青山湖区"
        }
    },
    {
        "id": "4511887448421545769",
        "title": "公共厕所",
        "address": "江西省南昌市红谷滩区碟子湖大道与香江路交叉口东北方向35米左右",
        "tel": "",
        "category": "基础设施:公共设施:公共厕所",
        "type": 0,
        "location": {
            "lat": 28.706358,
            "lng": 115.864397
        },
        "ad_info": {
            "adcode": 360113,
            "province": "江西省",
            "city": "南昌市",
            "district": "红谷滩区"
        }
    },
    {
        "id": "17398849914293315075",
        "title": "公共厕所",
        "address": "江西省南昌市进贤县北门路与舒芬街交叉口正西方向12米左右",
        "tel": "",
        "category": "基础设施:公共设施:公共厕所",
        "type": 0,
        "location": {
            "lat": 28.371029,
            "lng": 116.270264
        },
        "ad_info": {
            "adcode": 360124,
            "province": "江西省",
            "city": "南昌市",
            "district": "进贤县"
        }
    },
    {
        "id": "12121049734628223899",
        "title": "公共厕所",
        "address": "江西省南昌市进贤县格力专卖店(嘉禾路与人民大道交叉口)正西方向125米左右",
        "tel": "",
        "category": "基础设施:公共设施:公共厕所",
        "type": 0,
        "location": {
            "lat": 28.374244,
            "lng": 116.255747
        },
        "ad_info": {
            "adcode": 360124,
            "province": "江西省",
            "city": "南昌市",
            "district": "进贤县"
        }
    },
    {
        "id": "14472694463213157456",
        "title": "公共厕所",
        "address": "江西省南昌市青山湖区江西大参林药业有限公司西侧190米",
        "tel": "",
        "category": "基础设施:公共设施:公共厕所",
        "type": 0,
        "location": {
            "lat": 28.597011,
            "lng": 115.962032
        },
        "ad_info": {
            "adcode": 360111,
            "province": "江西省",
            "city": "南昌市",
            "district": "青山湖区"
        }
    },
    {
        "id": "5909469171619941937",
        "title": "公共厕所",
        "address": "江西省南昌市南昌县富山二路与金沙大道交叉口西南方向277米左右",
        "tel": "",
        "category": "基础设施:公共设施:公共厕所",
        "type": 0,
        "location": {
            "lat": 28.532983,
            "lng": 115.886636
        },
        "ad_info": {
            "adcode": 360121,
            "province": "江西省",
            "city": "南昌市",
            "district": "南昌县"
        }
    },
    {
        "id": "5048999122084160163",
        "title": "公共厕所",
        "address": "江西省南昌市红谷滩区丽景路与金融大街交叉口正西方向45米左右",
        "tel": "",
        "category": "基础设施:公共设施:公共厕所",
        "type": 0,
        "location": {
            "lat": 28.677848,
            "lng": 115.845045
        },
        "ad_info": {
            "adcode": 360113,
            "province": "江西省",
            "city": "南昌市",
            "district": "红谷滩区"
        }
    },
    {
        "id": "17396993342448255692",
        "title": "赣江市民公园-公共厕所",
        "address": "江西省南昌市红谷滩区会展路与赣江中大道交叉口正北方向48米左右",
        "tel": "",
        "category": "基础设施:公共设施:公共厕所",
        "type": 0,
        "location": {
            "lat": 28.685449,
            "lng": 115.863278
        },
        "ad_info": {
            "adcode": 360113,
            "province": "江西省",
            "city": "南昌市",
            "district": "红谷滩区"
        }
    },
    {
        "id": "17671821830182129537",
        "title": "公共厕所",
        "address": "江西省南昌市东湖区苏圃路八一公园(东侧)",
        "tel": "",
        "category": "基础设施:公共设施:公共厕所",
        "type": 0,
        "location": {
            "lat": 28.678896,
            "lng": 115.898596
        },
        "ad_info": {
            "adcode": 360102,
            "province": "江西省",
            "city": "南昌市",
            "district": "东湖区"
        }
    },
    {
        "id": "2385497295828853327",
        "title": "公共厕所",
        "address": "江西省南昌市进贤县太阳城步行街与步行街交叉口正北方向132米左右",
        "tel": "",
        "category": "基础设施:公共设施:公共厕所",
        "type": 0,
        "location": {
            "lat": 28.370386,
            "lng": 116.266465
        },
        "ad_info": {
            "adcode": 360124,
            "province": "江西省",
            "city": "南昌市",
            "district": "进贤县"
        }
    },
    {
        "id": "4396314677265396609",
        "title": "公共厕所(南昌站)",
        "address": "江西省南昌市青山湖区二七南路213号南昌站F2",
        "tel": "",
        "category": "基础设施:公共设施:公共厕所",
        "type": 0,
        "location": {
            "lat": 28.661207,
            "lng": 115.91928
        },
        "ad_info": {
            "adcode": 360111,
            "province": "江西省",
            "city": "南昌市",
            "district": "青山湖区"
        }
    },
    {
        "id": "12154072453374237466",
        "title": "瑞都大酒店-洗手间",
        "address": "江西省南昌市西湖区广场南路399号(光大银行旁边)",
        "tel": "",
        "category": "基础设施:公共设施:公共厕所",
        "type": 0,
        "location": {
            "lat": 28.672,
            "lng": 115.906189
        },
        "ad_info": {
            "adcode": 360103,
            "province": "江西省",
            "city": "南昌市",
            "district": "西湖区"
        }
    },
    {
        "id": "3944822099832432642",
        "title": "公共厕所",
        "address": "江西省南昌市青云谱区尧顺路与警民路交叉口正东方向188米左右",
        "tel": "",
        "category": "基础设施:公共设施:公共厕所",
        "type": 0,
        "location": {
            "lat": 28.615412,
            "lng": 115.904485
        },
        "ad_info": {
            "adcode": 360104,
            "province": "江西省",
            "city": "南昌市",
            "district": "青云谱区"
        }
    },
    {
        "id": "11198322917176447689",
        "title": "公共厕所",
        "address": "江西省南昌市南昌县澄湖西路澄碧湖公园(西侧)",
        "tel": "",
        "category": "基础设施:公共设施:公共厕所",
        "type": 0,
        "location": {
            "lat": 28.54972,
            "lng": 115.932543
        },
        "ad_info": {
            "adcode": 360121,
            "province": "江西省",
            "city": "南昌市",
            "district": "南昌县"
        }
    },
    {
        "id": "18217195430335460645",
        "title": "公共厕所",
        "address": "江西省南昌市红谷滩区学府大道南昌大学(前湖校区)二号门东侧约60米",
        "tel": "",
        "category": "基础设施:公共设施:公共厕所",
        "type": 0,
        "location": {
            "lat": 28.658159,
            "lng": 115.811151
        },
        "ad_info": {
            "adcode": 360113,
            "province": "江西省",
            "city": "南昌市",
            "district": "红谷滩区"
        }
    },
    {
        "id": "1003342482763889028",
        "title": "公共厕所",
        "address": "江西省南昌市南昌县澄湖西路澄碧湖公园(西北角)",
        "tel": "",
        "category": "基础设施:公共设施:公共厕所",
        "type": 0,
        "location": {
            "lat": 28.555163,
            "lng": 115.92978
        },
        "ad_info": {
            "adcode": 360121,
            "province": "江西省",
            "city": "南昌市",
            "district": "南昌县"
        }
    },
    {
        "id": "6840789751896343521",
        "title": "公共厕所",
        "address": "江西省南昌市新建区昌北第二小学北侧120米",
        "tel": "",
        "category": "基础设施:公共设施:公共厕所",
        "type": 0,
        "location": {
            "lat": 28.736019,
            "lng": 115.846455
        },
        "ad_info": {
            "adcode": 360112,
            "province": "江西省",
            "city": "南昌市",
            "district": "新建区"
        }
    },
    {
        "id": "10310128555460026620",
        "title": "公共厕所",
        "address": "江西省南昌市青山湖区南京东路与青山湖大道交叉口正南方向399米左右",
        "tel": "",
        "category": "基础设施:公共设施:公共厕所",
        "type": 0,
        "location": {
            "lat": 28.678285,
            "lng": 115.948217
        },
        "ad_info": {
            "adcode": 360111,
            "province": "江西省",
            "city": "南昌市",
            "district": "青山湖区"
        }
    },
    {
        "id": "6424766058578467543",
        "title": "公共厕所",
        "address": "江西省南昌市东湖区滕王阁子固路上凤凰坡社区南门",
        "tel": "",
        "category": "基础设施:公共设施:公共厕所",
        "type": 0,
        "location": {
            "lat": 28.675659,
            "lng": 115.884875
        },
        "ad_info": {
            "adcode": 360102,
            "province": "江西省",
            "city": "南昌市",
            "district": "东湖区"
        }
    },
    {
        "id": "2471776295138956592",
        "title": "火炬广场公共厕所",
        "address": "江西省南昌市青山湖区高新开发区火炬广场",
        "tel": "",
        "category": "基础设施:公共设施:公共厕所",
        "type": 0,
        "location": {
            "lat": 28.687328,
            "lng": 115.949176
        },
        "ad_info": {
            "adcode": 360111,
            "province": "江西省",
            "city": "南昌市",
            "district": "青山湖区"
        }
    },
    {
        "id": "14560699107330255292",
        "title": "公共厕所",
        "address": "江西省南昌市红谷滩区丰和北大道与闽江路交叉口正北方向63米左右",
        "tel": "",
        "category": "基础设施:公共设施:公共厕所",
        "type": 0,
        "location": {
            "lat": 28.711292,
            "lng": 115.877656
        },
        "ad_info": {
            "adcode": 360113,
            "province": "江西省",
            "city": "南昌市",
            "district": "红谷滩区"
        }
    },
    {
        "id": "13328050674802954661",
        "title": "公共厕所",
        "address": "江西省南昌市青山湖区国安路与星光路交叉口正西方向119米左右",
        "tel": "",
        "category": "基础设施:公共设施:公共厕所",
        "type": 0,
        "location": {
            "lat": 28.682924,
            "lng": 115.93412
        },
        "ad_info": {
            "adcode": 360111,
            "province": "江西省",
            "city": "南昌市",
            "district": "青山湖区"
        }
    },
    {
        "id": "14454139857999591383",
        "title": "公共厕所",
        "address": "江西省南昌市东湖区民德路与胜利路步行街交叉口西南方向80米左右",
        "tel": "",
        "category": "基础设施:公共设施:公共厕所",
        "type": 0,
        "location": {
            "lat": 28.677044,
            "lng": 115.887713
        },
        "ad_info": {
            "adcode": 360102,
            "province": "江西省",
            "city": "南昌市",
            "district": "东湖区"
        }
    },
    {
        "id": "6311187670446529143",
        "title": "公共厕所",
        "address": "江西省南昌市青山湖区上海北路与上海路交叉口东北方向183米左右",
        "tel": "",
        "category": "基础设施:公共设施:公共厕所",
        "type": 0,
        "location": {
            "lat": 28.675637,
            "lng": 115.941792
        },
        "ad_info": {
            "adcode": 360111,
            "province": "江西省",
            "city": "南昌市",
            "district": "青山湖区"
        }
    },
    {
        "id": "9066738887521539147",
        "title": "公共厕所",
        "address": "江西省南昌市南昌县天祥大道江西师范大学(瑶湖校区)",
        "tel": "",
        "category": "基础设施:公共设施:公共厕所",
        "type": 0,
        "location": {
            "lat": 28.678327,
            "lng": 116.024305
        },
        "ad_info": {
            "adcode": 360121,
            "province": "江西省",
            "city": "南昌市",
            "district": "南昌县"
        }
    },
    {
        "id": "7162728634800097040",
        "title": "公共厕所",
        "address": "江西省南昌市青山湖区京东大道与金庐北路交叉口正西方向19米左右",
        "tel": "",
        "category": "基础设施:公共设施:公共厕所",
        "type": 0,
        "location": {
            "lat": 28.694209,
            "lng": 115.972665
        },
        "ad_info": {
            "adcode": 360111,
            "province": "江西省",
            "city": "南昌市",
            "district": "青山湖区"
        }
    },
    {
        "id": "4295849644873060133",
        "title": "女洗手间(百盛)",
        "address": "江西省南昌市东湖区中山路177号百盛F3层",
        "tel": "",
        "category": "基础设施:公共设施:公共厕所",
        "type": 0,
        "location": {
            "lat": 28.676876,
            "lng": 115.892206
        },
        "ad_info": {
            "adcode": 360102,
            "province": "江西省",
            "city": "南昌市",
            "district": "东湖区"
        }
    },
    {
        "id": "5098299617486092856",
        "title": "博览路公共厕所",
        "address": "江西省南昌市青云谱区博览路与广州路交叉口东北方向177米左右",
        "tel": "",
        "category": "基础设施:公共设施:公共厕所",
        "type": 0,
        "location": {
            "lat": 28.622262,
            "lng": 115.934611
        },
        "ad_info": {
            "adcode": 360104,
            "province": "江西省",
            "city": "南昌市",
            "district": "青云谱区"
        }
    },
    {
        "id": "16245424545968180270",
        "title": "艾溪湖森林湿地公园公共厕所",
        "address": "江西省南昌市青山湖区艾溪湖公园-次路口2西北方向337米左右",
        "tel": "",
        "category": "基础设施:公共设施:公共厕所",
        "type": 0,
        "location": {
            "lat": 28.695637,
            "lng": 115.992017
        },
        "ad_info": {
            "adcode": 360111,
            "province": "江西省",
            "city": "南昌市",
            "district": "青山湖区"
        }
    },
    {
        "id": "10937788169350346193",
        "title": "万达广场(八一广场店)-洗手间",
        "address": "江西省南昌市东湖区八一大道333号万达广场(八一大道店)F4",
        "tel": "",
        "category": "基础设施:公共设施:公共厕所",
        "type": 0,
        "location": {
            "lat": 28.676943,
            "lng": 115.903863
        },
        "ad_info": {
            "adcode": 360102,
            "province": "江西省",
            "city": "南昌市",
            "district": "东湖区"
        }
    },
    {
        "id": "13890234882461989566",
        "title": "公共厕所",
        "address": "江西省南昌市青山湖区福康路北侧巷子里",
        "tel": "",
        "category": "基础设施:公共设施:公共厕所",
        "type": 0,
        "location": {
            "lat": 28.655952,
            "lng": 115.938262
        },
        "ad_info": {
            "adcode": 360111,
            "province": "江西省",
            "city": "南昌市",
            "district": "青山湖区"
        }
    },
    {
        "id": "6058620834775839433",
        "title": "公共厕所",
        "address": "江西省南昌市南昌县向阳路与澄湖东路交叉口东南方向16米左右",
        "tel": "",
        "category": "基础设施:公共设施:公共厕所",
        "type": 0,
        "location": {
            "lat": 28.542612,
            "lng": 115.93883
        },
        "ad_info": {
            "adcode": 360121,
            "province": "江西省",
            "city": "南昌市",
            "district": "南昌县"
        }
    },
    {
        "id": "913919897510954425",
        "title": "公共卫生间",
        "address": "江西省南昌市青云谱区井冈山大道辅路与金联巷交叉口正东方向173米左右",
        "tel": "",
        "category": "基础设施:公共设施:公共厕所",
        "type": 0,
        "location": {
            "lat": 28.647161,
            "lng": 115.913555
        },
        "ad_info": {
            "adcode": 360104,
            "province": "江西省",
            "city": "南昌市",
            "district": "青云谱区"
        }
    },
    {
        "id": "1374669840174140733",
        "title": "公共厕所",
        "address": "江西省南昌市新建区枫林西大街东华理工大学(枫林校区)",
        "tel": "",
        "category": "基础设施:公共设施:公共厕所",
        "type": 0,
        "location": {
            "lat": 28.734241,
            "lng": 115.832633
        },
        "ad_info": {
            "adcode": 360112,
            "province": "江西省",
            "city": "南昌市",
            "district": "新建区"
        }
    },
    {
        "id": "7091014244553595924",
        "title": "公共厕所",
        "address": "江西省南昌市东湖区沿江北大道与龙沙路交叉口西南方向138米左右",
        "tel": "",
        "category": "基础设施:公共设施:公共厕所",
        "type": 0,
        "location": {
            "lat": 28.701877,
            "lng": 115.901353
        },
        "ad_info": {
            "adcode": 360102,
            "province": "江西省",
            "city": "南昌市",
            "district": "东湖区"
        }
    },
    {
        "id": "2440571063926760530",
        "title": "公共厕所",
        "address": "江西省南昌市青云谱区解放东路与青山湖南大道辅路交叉口正南方向58米",
        "tel": "",
        "category": "基础设施:公共设施:公共厕所",
        "type": 0,
        "location": {
            "lat": 28.647192,
            "lng": 115.949898
        },
        "ad_info": {
            "adcode": 360104,
            "province": "江西省",
            "city": "南昌市",
            "district": "青云谱区"
        }
    },
    {
        "id": "6105013149444886469",
        "title": "公共厕所",
        "address": "江西省南昌市南昌县瑶湖岱山三街与长隆路交叉口西北方向99米左右",
        "tel": "",
        "category": "基础设施:公共设施:公共厕所",
        "type": 0,
        "location": {
            "lat": 28.67216,
            "lng": 116.01051
        },
        "ad_info": {
            "adcode": 360121,
            "province": "江西省",
            "city": "南昌市",
            "district": "南昌县"
        }
    },
    {
        "id": "13737167877194647147",
        "title": "公共厕所",
        "address": "江西省南昌市青山湖区殷王路与龙竹路交叉口东北方向83米左右",
        "tel": "",
        "category": "基础设施:公共设施:公共厕所",
        "type": 0,
        "location": {
            "lat": 28.633873,
            "lng": 115.985501
        },
        "ad_info": {
            "adcode": 360111,
            "province": "江西省",
            "city": "南昌市",
            "district": "青山湖区"
        }
    },
    {
        "id": "16443796728215801835",
        "title": "公共厕所",
        "address": "江西省南昌市东湖区爱国路268号",
        "tel": "",
        "category": "基础设施:公共设施:公共厕所",
        "type": 0,
        "location": {
            "lat": 28.694037,
            "lng": 115.895593
        },
        "ad_info": {
            "adcode": 360102,
            "province": "江西省",
            "city": "南昌市",
            "district": "东湖区"
        }
    },
    {
        "id": "12267733282376397169",
        "title": "公共厕所",
        "address": "江西省南昌市青山湖区火炬三路与高新六路交叉口正西方向90米左右",
        "tel": "",
        "category": "基础设施:公共设施:公共厕所",
        "type": 0,
        "location": {
            "lat": 28.701492,
            "lng": 115.968722
        },
        "ad_info": {
            "adcode": 360111,
            "province": "江西省",
            "city": "南昌市",
            "district": "青山湖区"
        }
    },
    {
        "id": "18034120278181899629",
        "title": "蓝天公共厕所",
        "address": "江西省南昌市新建区凌波路与青岚大道交叉口正南方向105米",
        "tel": "",
        "category": "基础设施:公共设施:公共厕所",
        "type": 0,
        "location": {
            "lat": 28.706677,
            "lng": 115.821091
        },
        "ad_info": {
            "adcode": 360112,
            "province": "江西省",
            "city": "南昌市",
            "district": "新建区"
        }
    },
    {
        "id": "13844126824453414969",
        "title": "公共厕所",
        "address": "江西省南昌市青山湖区解放西路与香江西路交叉口正北方向386米左右",
        "tel": "",
        "category": "基础设施:公共设施:公共厕所",
        "type": 0,
        "location": {
            "lat": 28.653129,
            "lng": 115.945376
        },
        "ad_info": {
            "adcode": 360111,
            "province": "江西省",
            "city": "南昌市",
            "district": "青山湖区"
        }
    },
    {
        "id": "13059432282115934073",
        "title": "公共厕所",
        "address": "江西省南昌市新建区榴云路107号",
        "tel": "",
        "category": "基础设施:公共设施:公共厕所",
        "type": 0,
        "location": {
            "lat": 28.732693,
            "lng": 115.838288
        },
        "ad_info": {
            "adcode": 360112,
            "province": "江西省",
            "city": "南昌市",
            "district": "新建区"
        }
    },
    {
        "id": "13491046467840998124",
        "title": "公共厕所",
        "address": "江西省南昌市青云谱区尧顺路与警民路交叉口正南方向109米左右",
        "tel": "",
        "category": "基础设施:公共设施:公共厕所",
        "type": 0,
        "location": {
            "lat": 28.614918,
            "lng": 115.902275
        },
        "ad_info": {
            "adcode": 360104,
            "province": "江西省",
            "city": "南昌市",
            "district": "青云谱区"
        }
    },
    {
        "id": "7660361096378307877",
        "title": "菜市场卫生间",
        "address": "江西省南昌市青山湖区火炬二路与高新五路交叉口正东方向193米左右",
        "tel": "",
        "category": "基础设施:公共设施:公共厕所",
        "type": 0,
        "location": {
            "lat": 28.694528,
            "lng": 115.967108
        },
        "ad_info": {
            "adcode": 360111,
            "province": "江西省",
            "city": "南昌市",
            "district": "青山湖区"
        }
    },
    {
        "id": "9767859890930332463",
        "title": "公共厕所",
        "address": "江西省南昌市南昌县富山五路168号",
        "tel": "",
        "category": "基础设施:公共设施:公共厕所",
        "type": 0,
        "location": {
            "lat": 28.521248,
            "lng": 115.922964
        },
        "ad_info": {
            "adcode": 360121,
            "province": "江西省",
            "city": "南昌市",
            "district": "南昌县"
        }
    },
    {
        "id": "1570903933756480405",
        "title": "公共厕所",
        "address": "江西省南昌市青山湖区南京东路南昌市体育中心",
        "tel": "0791-88596609",
        "category": "基础设施:公共设施:公共厕所",
        "type": 0,
        "location": {
            "lat": 28.682782,
            "lng": 115.928623
        },
        "ad_info": {
            "adcode": 360111,
            "province": "江西省",
            "city": "南昌市",
            "district": "青山湖区"
        }
    },
    {
        "id": "17504840488200822433",
        "title": "公共厕所",
        "address": "江西省南昌市青山湖区东泰大道与昌丰路交叉口正北方向88米左右",
        "tel": "",
        "category": "基础设施:公共设施:公共厕所",
        "type": 0,
        "location": {
            "lat": 28.629928,
            "lng": 115.973854
        },
        "ad_info": {
            "adcode": 360111,
            "province": "江西省",
            "city": "南昌市",
            "district": "青山湖区"
        }
    },
    {
        "id": "8343895256171408988",
        "title": "雷公坳服务区公共厕所",
        "address": "江西省南昌市新建区松鹤路与长青路交叉口正南方向163米左右",
        "tel": "",
        "category": "基础设施:公共设施:公共厕所",
        "type": 0,
        "location": {
            "lat": 28.710026,
            "lng": 115.846721
        },
        "ad_info": {
            "adcode": 360112,
            "province": "江西省",
            "city": "南昌市",
            "district": "新建区"
        }
    },
    {
        "id": "6516479796097293469",
        "title": "公共厕所",
        "address": "江西省南昌市南昌县瑶湖西二路32号",
        "tel": "",
        "category": "基础设施:公共设施:公共厕所",
        "type": 0,
        "location": {
            "lat": 28.695421,
            "lng": 116.029577
        },
        "ad_info": {
            "adcode": 360121,
            "province": "江西省",
            "city": "南昌市",
            "district": "南昌县"
        }
    },
    {
        "id": "6755527667887262528",
        "title": "男洗手间",
        "address": "江西省南昌市南昌县紫阳大道988号天虹商场F2",
        "tel": "",
        "category": "基础设施:公共设施:公共厕所",
        "type": 0,
        "location": {
            "lat": 28.674095,
            "lng": 116.021709
        },
        "ad_info": {
            "adcode": 360121,
            "province": "江西省",
            "city": "南昌市",
            "district": "南昌县"
        }
    },
    {
        "id": "408195045973771376",
        "title": "公共厕所",
        "address": "江西省南昌市南昌县复兴大道与迎宾中大道交叉口正东方向222米左右",
        "tel": "",
        "category": "基础设施:公共设施:公共厕所",
        "type": 0,
        "location": {
            "lat": 28.577811,
            "lng": 115.914258
        },
        "ad_info": {
            "adcode": 360121,
            "province": "江西省",
            "city": "南昌市",
            "district": "南昌县"
        }
    },
    {
        "id": "2246252175520839956",
        "title": "公共厕所",
        "address": "江西省南昌市南昌县思强南路208号",
        "tel": "",
        "category": "基础设施:公共设施:公共厕所",
        "type": 0,
        "location": {
            "lat": 28.429998,
            "lng": 115.969943
        },
        "ad_info": {
            "adcode": 360121,
            "province": "江西省",
            "city": "南昌市",
            "district": "南昌县"
        }
    },
    {
        "id": "14852821247821541797",
        "title": "公共厕所",
        "address": "江西省南昌市南昌县太子殿地铁站C口西北(紫阳大道南)",
        "tel": "",
        "category": "基础设施:公共设施:公共厕所",
        "type": 0,
        "location": {
            "lat": 28.675356,
            "lng": 116.009472
        },
        "ad_info": {
            "adcode": 360121,
            "province": "江西省",
            "city": "南昌市",
            "district": "南昌县"
        }
    },
    {
        "id": "10740628745611522457",
        "title": "公共厕所",
        "address": "江西省南昌市南昌县团结中路50号",
        "tel": "",
        "category": "基础设施:公共设施:公共厕所",
        "type": 0,
        "location": {
            "lat": 28.547033,
            "lng": 115.942238
        },
        "ad_info": {
            "adcode": 360121,
            "province": "江西省",
            "city": "南昌市",
            "district": "南昌县"
        }
    },
    {
        "id": "10214552854022595959",
        "title": "湾里服务区第一公共厕所",
        "address": "江西省南昌市新建区桐木岭路与萧峰大道交叉口正南方向156米左右",
        "tel": "",
        "category": "基础设施:公共设施:公共厕所",
        "type": 0,
        "location": {
            "lat": 28.67662,
            "lng": 115.736613
        },
        "ad_info": {
            "adcode": 360112,
            "province": "江西省",
            "city": "南昌市",
            "district": "新建区"
        }
    },
    {
        "id": "9959681205496401743",
        "title": "公共厕所",
        "address": "江西省南昌市南昌县向阳路与揭家巷交叉口东北方向22米左右",
        "tel": "",
        "category": "基础设施:公共设施:公共厕所",
        "type": 0,
        "location": {
            "lat": 28.543179,
            "lng": 115.940645
        },
        "ad_info": {
            "adcode": 360121,
            "province": "江西省",
            "city": "南昌市",
            "district": "南昌县"
        }
    },
    {
        "id": "10224523922400552999",
        "title": "湾里服务区第二公共厕所",
        "address": "江西省南昌市新建区桐木岭路与萧峰大道交叉口正南方向287米左右",
        "tel": "",
        "category": "基础设施:公共设施:公共厕所",
        "type": 0,
        "location": {
            "lat": 28.675557,
            "lng": 115.73568
        },
        "ad_info": {
            "adcode": 360112,
            "province": "江西省",
            "city": "南昌市",
            "district": "新建区"
        }
    },
    {
        "id": "10081124834031515032",
        "title": "进贤服务区第一公共厕所",
        "address": "江西省南昌市进贤县坝泉段与学前路交叉口正北方向1287米左右",
        "tel": "",
        "category": "基础设施:公共设施:公共厕所",
        "type": 0,
        "location": {
            "lat": 28.390965,
            "lng": 116.105847
        },
        "ad_info": {
            "adcode": 360124,
            "province": "江西省",
            "city": "南昌市",
            "district": "进贤县"
        }
    },
    {
        "id": "12747579509723503959",
        "title": "泉岭服务区第一公共厕所",
        "address": "江西省南昌市进贤县坝泉段与学前路交叉口东北方向1263米左右",
        "tel": "",
        "category": "基础设施:公共设施:公共厕所",
        "type": 0,
        "location": {
            "lat": 28.389801,
            "lng": 116.108133
        },
        "ad_info": {
            "adcode": 360124,
            "province": "江西省",
            "city": "南昌市",
            "district": "进贤县"
        }
    },
    {
        "id": "13112209355193379212",
        "title": "军山湖服务区公共厕所",
        "address": "江西省南昌市进贤县S36德昌高速北150米",
        "tel": "",
        "category": "基础设施:公共设施:公共厕所",
        "type": 0,
        "location": {
            "lat": 28.687945,
            "lng": 116.352055
        },
        "ad_info": {
            "adcode": 360124,
            "province": "江西省",
            "city": "南昌市",
            "district": "进贤县"
        }
    },
    {
        "id": "13968159481803133508",
        "title": "公共厕所",
        "address": "江西省南昌市青山湖区中支桥路与解放西路交叉口正北方向53米左右",
        "tel": "",
        "category": "基础设施:公共设施:公共厕所",
        "type": 0,
        "location": {
            "lat": 28.654091,
            "lng": 115.935419
        },
        "ad_info": {
            "adcode": 360111,
            "province": "江西省",
            "city": "南昌市",
            "district": "青山湖区"
        }
    },
    {
        "id": "16681655477848785743",
        "title": "公共厕所",
        "address": "江西省南昌市红谷滩区春晖路与碟子湖大道交叉口西北方向65米左右",
        "tel": "",
        "category": "基础设施:公共设施:公共厕所",
        "type": 0,
        "location": {
            "lat": 28.703915,
            "lng": 115.857395
        },
        "ad_info": {
            "adcode": 360113,
            "province": "江西省",
            "city": "南昌市",
            "district": "红谷滩区"
        }
    },
    {
        "id": "14486085450070817775",
        "title": "女洗手间(恒茂梦时代广场)",
        "address": "江西省南昌市青山湖区北京东路308号恒茂梦时代广场4F层",
        "tel": "",
        "category": "基础设施:公共设施:公共厕所",
        "type": 0,
        "location": {
            "lat": 28.673685,
            "lng": 115.939098
        },
        "ad_info": {
            "adcode": 360111,
            "province": "江西省",
            "city": "南昌市",
            "district": "青山湖区"
        }
    },
    {
        "id": "4586566701607925122",
        "title": "湖景商务酒店-洗手间",
        "address": "江西省南昌市青山湖区汇文路与高新大道交叉口东南方向89米左右",
        "tel": "",
        "category": "基础设施:公共设施:公共厕所",
        "type": 0,
        "location": {
            "lat": 28.676492,
            "lng": 115.961011
        },
        "ad_info": {
            "adcode": 360111,
            "province": "江西省",
            "city": "南昌市",
            "district": "青山湖区"
        }
    },
    {
        "id": "7562616985973810825",
        "title": "公共厕所",
        "address": "江西省南昌市东湖区半步街与西万宜巷交叉口正北方向29米左右",
        "tel": "",
        "category": "基础设施:公共设施:公共厕所",
        "type": 0,
        "location": {
            "lat": 28.686488,
            "lng": 115.884435
        },
        "ad_info": {
            "adcode": 360102,
            "province": "江西省",
            "city": "南昌市",
            "district": "东湖区"
        }
    },
    {
        "id": "3716119507240450434",
        "title": "公共厕所",
        "address": "江西省南昌市西湖区上塘塍街与筷子街交叉口东南方向120米左右",
        "tel": "",
        "category": "基础设施:公共设施:公共厕所",
        "type": 0,
        "location": {
            "lat": 28.669474,
            "lng": 115.889683
        },
        "ad_info": {
            "adcode": 360103,
            "province": "江西省",
            "city": "南昌市",
            "district": "西湖区"
        }
    },
    {
        "id": "6232450584671620885",
        "title": "公共厕所",
        "address": "江西省南昌市新建区兴华路与新风路交叉口正东方向79米左右",
        "tel": "",
        "category": "基础设施:公共设施:公共厕所",
        "type": 0,
        "location": {
            "lat": 28.680419,
            "lng": 115.825444
        },
        "ad_info": {
            "adcode": 360112,
            "province": "江西省",
            "city": "南昌市",
            "district": "新建区"
        }
    },
    {
        "id": "10341134628767674847",
        "title": "公共厕所",
        "address": "江西省南昌市南昌县逸景路与金沙大道交叉口正东方向315米左右",
        "tel": "",
        "category": "基础设施:公共设施:公共厕所",
        "type": 0,
        "location": {
            "lat": 28.576671,
            "lng": 115.89382
        },
        "ad_info": {
            "adcode": 360121,
            "province": "江西省",
            "city": "南昌市",
            "district": "南昌县"
        }
    },
    {
        "id": "2275961570425608095",
        "title": "普瑞思酒店-洗手间",
        "address": "江西省南昌市南昌县澄湖中路与莲西大道交叉口西北方向95米左右",
        "tel": "",
        "category": "基础设施:公共设施:公共厕所",
        "type": 0,
        "location": {
            "lat": 28.5481,
            "lng": 115.92543
        },
        "ad_info": {
            "adcode": 360121,
            "province": "江西省",
            "city": "南昌市",
            "district": "南昌县"
        }
    },
    {
        "id": "4383814900900686232",
        "title": "公共厕所",
        "address": "江西省南昌市西湖区抚生路与灌婴路交叉口东北方向173米左右",
        "tel": "",
        "category": "基础设施:公共设施:公共厕所",
        "type": 0,
        "location": {
            "lat": 28.648514,
            "lng": 115.873327
        },
        "ad_info": {
            "adcode": 360103,
            "province": "江西省",
            "city": "南昌市",
            "district": "西湖区"
        }
    },
    {
        "id": "226637442893956186",
        "title": "公共厕所",
        "address": "江西省南昌市青云谱区佛塔路与博学路交叉口正北方向46米左右",
        "tel": "",
        "category": "基础设施:公共设施:公共厕所",
        "type": 0,
        "location": {
            "lat": 28.621105,
            "lng": 115.93802
        },
        "ad_info": {
            "adcode": 360104,
            "province": "江西省",
            "city": "南昌市",
            "district": "青云谱区"
        }
    },
    {
        "id": "1275296506643948262",
        "title": "公共厕所",
        "address": "江西省南昌市青山湖区秦凤路与解放东路辅路交叉口东北方向102米左右",
        "tel": "",
        "category": "基础设施:公共设施:公共厕所",
        "type": 0,
        "location": {
            "lat": 28.643625,
            "lng": 115.961973
        },
        "ad_info": {
            "adcode": 360111,
            "province": "江西省",
            "city": "南昌市",
            "district": "青山湖区"
        }
    },
    {
        "id": "13135769692987855021",
        "title": "公共厕所",
        "address": "江西省南昌市红谷滩区凤凰南大道与学府大道交叉口东北方向123米左右",
        "tel": "",
        "category": "基础设施:公共设施:公共厕所",
        "type": 0,
        "location": {
            "lat": 28.664144,
            "lng": 115.834068
        },
        "ad_info": {
            "adcode": 360113,
            "province": "江西省",
            "city": "南昌市",
            "district": "红谷滩区"
        }
    },
    {
        "id": "14428647679044962333",
        "title": "公共厕所",
        "address": "江西省南昌市东湖区铁街29号",
        "tel": "",
        "category": "基础设施:公共设施:公共厕所",
        "type": 0,
        "location": {
            "lat": 28.675748,
            "lng": 115.886438
        },
        "ad_info": {
            "adcode": 360102,
            "province": "江西省",
            "city": "南昌市",
            "district": "东湖区"
        }
    },
    {
        "id": "2264172063602094580",
        "title": "摩天轮公共厕所",
        "address": "江西省南昌市红谷滩区赣江南大道南昌之星广场内(西侧)",
        "tel": "",
        "category": "基础设施:公共设施:公共厕所",
        "type": 0,
        "location": {
            "lat": 28.656082,
            "lng": 115.850185
        },
        "ad_info": {
            "adcode": 360113,
            "province": "江西省",
            "city": "南昌市",
            "district": "红谷滩区"
        }
    },
    {
        "id": "5292614503620139801",
        "title": "公共厕所",
        "address": "江西省南昌市西湖区大市场东路与市场二路交叉口东南方向243米左右",
        "tel": "",
        "category": "基础设施:公共设施:公共厕所",
        "type": 0,
        "location": {
            "lat": 28.649951,
            "lng": 115.8925
        },
        "ad_info": {
            "adcode": 360103,
            "province": "江西省",
            "city": "南昌市",
            "district": "西湖区"
        }
    },
    {
        "id": "10777269758004186564",
        "title": "公共厕所",
        "address": "江西省南昌市青山湖区岔道口东路与洪都中大道辅路交叉口正西方向129米左右",
        "tel": "",
        "category": "基础设施:公共设施:公共厕所",
        "type": 0,
        "location": {
            "lat": 28.667889,
            "lng": 115.92657
        },
        "ad_info": {
            "adcode": 360111,
            "province": "江西省",
            "city": "南昌市",
            "district": "青山湖区"
        }
    },
    {
        "id": "18368833797925618796",
        "title": "公共厕所",
        "address": "江西省南昌市红谷滩区丹凤路新吉花园酒店(红谷滩花园店)",
        "tel": "",
        "category": "基础设施:公共设施:公共厕所",
        "type": 0,
        "location": {
            "lat": 28.704713,
            "lng": 115.875838
        },
        "ad_info": {
            "adcode": 360113,
            "province": "江西省",
            "city": "南昌市",
            "district": "红谷滩区"
        }
    },
    {
        "id": "14265463472888274211",
        "title": "公共厕所",
        "address": "江西省南昌市南昌县斗南路与澄湖东路交叉口东南方向70米左右",
        "tel": "",
        "category": "基础设施:公共设施:公共厕所",
        "type": 0,
        "location": {
            "lat": 28.531709,
            "lng": 115.939795
        },
        "ad_info": {
            "adcode": 360121,
            "province": "江西省",
            "city": "南昌市",
            "district": "南昌县"
        }
    },
    {
        "id": "1419697504283908603",
        "title": "公共厕所",
        "address": "江西省南昌市青云谱区井冈山大道辅路与新巷交叉口正北方向122米左右",
        "tel": "",
        "category": "基础设施:公共设施:公共厕所",
        "type": 0,
        "location": {
            "lat": 28.628772,
            "lng": 115.917063
        },
        "ad_info": {
            "adcode": 360104,
            "province": "江西省",
            "city": "南昌市",
            "district": "青云谱区"
        }
    },
    {
        "id": "5527410477738205054",
        "title": "艾溪湖森林湿地公园公共厕所",
        "address": "江西省南昌市青山湖区昌东大道与艾溪湖一路交叉口正西方向136米左右",
        "tel": "",
        "category": "基础设施:公共设施:公共厕所",
        "type": 0,
        "location": {
            "lat": 28.684133,
            "lng": 115.989344
        },
        "ad_info": {
            "adcode": 360111,
            "province": "江西省",
            "city": "南昌市",
            "district": "青山湖区"
        }
    },
    {
        "id": "13297755629353971504",
        "title": "公共厕所",
        "address": "江西省南昌市红谷滩区丽景路与凤凰中大道交叉口正北方向84米左右",
        "tel": "",
        "category": "基础设施:公共设施:公共厕所",
        "type": 0,
        "location": {
            "lat": 28.680092,
            "lng": 115.842129
        },
        "ad_info": {
            "adcode": 360113,
            "province": "江西省",
            "city": "南昌市",
            "district": "红谷滩区"
        }
    },
    {
        "id": "12775750502919697677",
        "title": "公共厕所",
        "address": "江西省南昌市西湖区东坛街与十字街交叉口正西方向96米左右",
        "tel": "",
        "category": "基础设施:公共设施:公共厕所",
        "type": 0,
        "location": {
            "lat": 28.655744,
            "lng": 115.904179
        },
        "ad_info": {
            "adcode": 360103,
            "province": "江西省",
            "city": "南昌市",
            "district": "西湖区"
        }
    },
    {
        "id": "10213495807216634400",
        "title": "公共厕所",
        "address": "江西省南昌市红谷滩区八一大桥与阳明路交叉口正东方向33米左右",
        "tel": "",
        "category": "基础设施:公共设施:公共厕所",
        "type": 0,
        "location": {
            "lat": 28.69446,
            "lng": 115.875295
        },
        "ad_info": {
            "adcode": 360113,
            "province": "江西省",
            "city": "南昌市",
            "district": "红谷滩区"
        }
    },
    {
        "id": "16680407461452168148",
        "title": "公共厕所",
        "address": "江西省南昌市青山湖区北京东路73号",
        "tel": "",
        "category": "基础设施:公共设施:公共厕所",
        "type": 0,
        "location": {
            "lat": 28.674556,
            "lng": 115.934452
        },
        "ad_info": {
            "adcode": 360111,
            "province": "江西省",
            "city": "南昌市",
            "district": "青山湖区"
        }
    },
    {
        "id": "5830178844449385047",
        "title": "公共厕所",
        "address": "江西省南昌市青山湖区上海路与福康路交叉口东南方向231米左右",
        "tel": "",
        "category": "基础设施:公共设施:公共厕所",
        "type": 0,
        "location": {
            "lat": 28.653958,
            "lng": 115.940679
        },
        "ad_info": {
            "adcode": 360111,
            "province": "江西省",
            "city": "南昌市",
            "district": "青山湖区"
        }
    },
    {
        "id": "3252204984808418978",
        "title": "女洗手间(恒茂梦时代广场)",
        "address": "江西省南昌市青山湖区北京东路408号恒茂梦时代广场F2",
        "tel": "",
        "category": "基础设施:公共设施:女洗手间",
        "type": 0,
        "location": {
            "lat": 28.672309,
            "lng": 115.939268
        },
        "ad_info": {
            "adcode": 360111,
            "province": "江西省",
            "city": "南昌市",
            "district": "青山湖区"
        }
    },
    {
        "id": "6866611165120247808",
        "title": "公共厕所",
        "address": "江西省南昌市青云谱区井冈山大道辅路与江东巷交叉口东北60米",
        "tel": "",
        "category": "基础设施:公共设施:公共厕所",
        "type": 0,
        "location": {
            "lat": 28.641699,
            "lng": 115.912994
        },
        "ad_info": {
            "adcode": 360104,
            "province": "江西省",
            "city": "南昌市",
            "district": "青云谱区"
        }
    },
    {
        "id": "13077390147545688880",
        "title": "公共厕所",
        "address": "江西省南昌市西湖区二七西街53号",
        "tel": "",
        "category": "基础设施:公共设施:公共厕所",
        "type": 0,
        "location": {
            "lat": 28.659588,
            "lng": 115.915443
        },
        "ad_info": {
            "adcode": 360103,
            "province": "江西省",
            "city": "南昌市",
            "district": "西湖区"
        }
    },
    {
        "id": "1506897577162608988",
        "title": "免费公共厕所",
        "address": "江西省南昌市红谷滩区会展路9号",
        "tel": "",
        "category": "基础设施:公共设施:公共厕所",
        "type": 0,
        "location": {
            "lat": 28.685485,
            "lng": 115.863303
        },
        "ad_info": {
            "adcode": 360113,
            "province": "江西省",
            "city": "南昌市",
            "district": "红谷滩区"
        }
    },
    {
        "id": "16786355742938613928",
        "title": "公共厕所",
        "address": "江西省南昌市南昌县小蓝南路与莲西大道交叉口正西方向18米左右",
        "tel": "",
        "category": "基础设施:公共设施:公共厕所",
        "type": 0,
        "location": {
            "lat": 28.565051,
            "lng": 115.920141
        },
        "ad_info": {
            "adcode": 360121,
            "province": "江西省",
            "city": "南昌市",
            "district": "南昌县"
        }
    },
    {
        "id": "1843678759727274973",
        "title": "公共厕所",
        "address": "江西省南昌市红谷滩区江报路与绿茵路交叉口正西方向40米左右",
        "tel": "",
        "category": "基础设施:公共设施:公共厕所",
        "type": 0,
        "location": {
            "lat": 28.691721,
            "lng": 115.861169
        },
        "ad_info": {
            "adcode": 360113,
            "province": "江西省",
            "city": "南昌市",
            "district": "红谷滩区"
        }
    },
    {
        "id": "11790710461315566087",
        "title": "公共厕所",
        "address": "江西省南昌市西湖区抚生路48号",
        "tel": "",
        "category": "基础设施:公共设施:公共厕所",
        "type": 0,
        "location": {
            "lat": 28.660448,
            "lng": 115.880052
        },
        "ad_info": {
            "adcode": 360103,
            "province": "江西省",
            "city": "南昌市",
            "district": "西湖区"
        }
    },
    {
        "id": "5585752222790858650",
        "title": "男洗手间(天虹商场京东店)",
        "address": "江西省南昌市青山湖区北京东路1819号天虹商场(京东店)F3",
        "tel": "",
        "category": "基础设施:公共设施:公共厕所",
        "type": 0,
        "location": {
            "lat": 28.675645,
            "lng": 115.968749
        },
        "ad_info": {
            "adcode": 360111,
            "province": "江西省",
            "city": "南昌市",
            "district": "青山湖区"
        }
    },
    {
        "id": "8487485386161712661",
        "title": "绳金塔公共厕所",
        "address": "江西省南昌市西湖区绳金塔街绳金塔(西侧)",
        "tel": "",
        "category": "基础设施:公共设施:公共厕所",
        "type": 0,
        "location": {
            "lat": 28.661008,
            "lng": 115.899456
        },
        "ad_info": {
            "adcode": 360103,
            "province": "江西省",
            "city": "南昌市",
            "district": "西湖区"
        }
    },
    {
        "id": "10282637338198901405",
        "title": "公共厕所",
        "address": "江西省南昌市东湖区东湖路8号",
        "tel": "",
        "category": "基础设施:公共设施:公共厕所",
        "type": 0,
        "location": {
            "lat": 28.680134,
            "lng": 115.896564
        },
        "ad_info": {
            "adcode": 360102,
            "province": "江西省",
            "city": "南昌市",
            "district": "东湖区"
        }
    },
    {
        "id": "2366260623322743495",
        "title": "孺子亭公园公共厕所",
        "address": "江西省南昌市西湖区园林管理所健走步道",
        "tel": "",
        "category": "基础设施:公共设施:公共厕所",
        "type": 0,
        "location": {
            "lat": 28.672212,
            "lng": 115.89542
        },
        "ad_info": {
            "adcode": 360103,
            "province": "江西省",
            "city": "南昌市",
            "district": "西湖区"
        }
    },
    {
        "id": "11162470643916230511",
        "title": "公共厕所",
        "address": "江西省南昌市东湖区省府东四路与省府北二路交叉口正北方向145米左右",
        "tel": "",
        "category": "基础设施:公共设施:公共厕所",
        "type": 0,
        "location": {
            "lat": 28.678739,
            "lng": 115.914206
        },
        "ad_info": {
            "adcode": 360102,
            "province": "江西省",
            "city": "南昌市",
            "district": "东湖区"
        }
    },
    {
        "id": "17147268945724862918",
        "title": "公共厕所",
        "address": "江西省南昌市南昌县复兴大道与复兴大道中交叉口正西方向76米左右",
        "tel": "",
        "category": "基础设施:公共设施:公共厕所",
        "type": 0,
        "location": {
            "lat": 28.5779,
            "lng": 115.889726
        },
        "ad_info": {
            "adcode": 360121,
            "province": "江西省",
            "city": "南昌市",
            "district": "南昌县"
        }
    },
    {
        "id": "13547033205672092098",
        "title": "公共厕所",
        "address": "江西省南昌市西湖区抚生路375号",
        "tel": "",
        "category": "基础设施:公共设施:公共厕所",
        "type": 0,
        "location": {
            "lat": 28.655458,
            "lng": 115.875238
        },
        "ad_info": {
            "adcode": 360103,
            "province": "江西省",
            "city": "南昌市",
            "district": "西湖区"
        }
    },
    {
        "id": "12679953178602818094",
        "title": "肯德基(万寿宫餐厅)-洗手间",
        "address": "江西省南昌市东湖区胜利路步行街与铁街交叉口西南方向17米左右",
        "tel": "",
        "category": "基础设施:公共设施:公共厕所",
        "type": 0,
        "location": {
            "lat": 28.67563,
            "lng": 115.888405
        },
        "ad_info": {
            "adcode": 360102,
            "province": "江西省",
            "city": "南昌市",
            "district": "东湖区"
        }
    },
    {
        "id": "1666714429245857964",
        "title": "公共厕所",
        "address": "江西省南昌市青山湖区顺外路与高新南大道交叉口正西方向232米左右",
        "tel": "",
        "category": "基础设施:公共设施:公共厕所",
        "type": 0,
        "location": {
            "lat": 28.659542,
            "lng": 115.957968
        },
        "ad_info": {
            "adcode": 360111,
            "province": "江西省",
            "city": "南昌市",
            "district": "青山湖区"
        }
    },
    {
        "id": "7288947703838615209",
        "title": "公共厕所",
        "address": "江西省南昌市西湖区沿江南大道出口与南一环路入口交叉口南20米",
        "tel": "",
        "category": "基础设施:公共设施:公共厕所",
        "type": 0,
        "location": {
            "lat": 28.639327,
            "lng": 115.85829
        },
        "ad_info": {
            "adcode": 360103,
            "province": "江西省",
            "city": "南昌市",
            "district": "西湖区"
        }
    },
    {
        "id": "3435255211420657999",
        "title": "公共厕所",
        "address": "江西省南昌市新建区同兴路与子实路交叉口西北方向54米左右",
        "tel": "",
        "category": "基础设施:公共设施:公共厕所",
        "type": 0,
        "location": {
            "lat": 28.686378,
            "lng": 115.811862
        },
        "ad_info": {
            "adcode": 360112,
            "province": "江西省",
            "city": "南昌市",
            "district": "新建区"
        }
    },
    {
        "id": "15449279078511679258",
        "title": "公共厕所",
        "address": "江西省南昌市红谷滩区沁园路与碟子湖大道交叉口正西方向32米左右",
        "tel": "",
        "category": "基础设施:公共设施:公共厕所",
        "type": 0,
        "location": {
            "lat": 28.679112,
            "lng": 115.835437
        },
        "ad_info": {
            "adcode": 360113,
            "province": "江西省",
            "city": "南昌市",
            "district": "红谷滩区"
        }
    },
    {
        "id": "17963950584255120890",
        "title": "公共厕所",
        "address": "江西省南昌市进贤县水乡宴农庄北侧70米",
        "tel": "",
        "category": "基础设施:公共设施:公共厕所",
        "type": 0,
        "location": {
            "lat": 28.365128,
            "lng": 116.282221
        },
        "ad_info": {
            "adcode": 360124,
            "province": "江西省",
            "city": "南昌市",
            "district": "进贤县"
        }
    },
    {
        "id": "15399923495547158229",
        "title": "公共厕所",
        "address": "江西省南昌市西湖区抚河中路与水文巷交叉口正北方向81米左右",
        "tel": "",
        "category": "基础设施:公共设施:公共厕所",
        "type": 0,
        "location": {
            "lat": 28.659488,
            "lng": 115.896255
        },
        "ad_info": {
            "adcode": 360103,
            "province": "江西省",
            "city": "南昌市",
            "district": "西湖区"
        }
    },
    {
        "id": "1310265942289340417",
        "title": "公共厕所",
        "address": "江西省南昌市青山湖区上海路与飞燕路交叉口东南方向403米左右",
        "tel": "",
        "category": "基础设施:公共设施:公共厕所",
        "type": 0,
        "location": {
            "lat": 28.666542,
            "lng": 115.943385
        },
        "ad_info": {
            "adcode": 360111,
            "province": "江西省",
            "city": "南昌市",
            "district": "青山湖区"
        }
    },
    {
        "id": "16088726105784254100",
        "title": "公共厕所",
        "address": "江西省南昌市东湖区南京西路与文教路交叉口东南方向96米左右",
        "tel": "",
        "category": "基础设施:公共设施:公共厕所",
        "type": 0,
        "location": {
            "lat": 28.684619,
            "lng": 115.924613
        },
        "ad_info": {
            "adcode": 360102,
            "province": "江西省",
            "city": "南昌市",
            "district": "东湖区"
        }
    },
    {
        "id": "4109679493739455305",
        "title": "男洗手间",
        "address": "江西省南昌市西湖区广场南路217号大润发F1",
        "tel": "",
        "category": "基础设施:公共设施:男洗手间",
        "type": 0,
        "location": {
            "lat": 28.6696,
            "lng": 115.907191
        },
        "ad_info": {
            "adcode": 360103,
            "province": "江西省",
            "city": "南昌市",
            "district": "西湖区"
        }
    },
    {
        "id": "11078269616916872362",
        "title": "公共厕所",
        "address": "江西省南昌市进贤县农夫路与祥云路交叉口正北方向12米左右",
        "tel": "",
        "category": "基础设施:公共设施:公共厕所",
        "type": 0,
        "location": {
            "lat": 28.372601,
            "lng": 116.257545
        },
        "ad_info": {
            "adcode": 360124,
            "province": "江西省",
            "city": "南昌市",
            "district": "进贤县"
        }
    },
    {
        "id": "17106350324295841564",
        "title": "公共厕所",
        "address": "江西省南昌市东湖区南永和路与青山南路交叉口正东方向66米左右",
        "tel": "",
        "category": "基础设施:公共设施:公共厕所",
        "type": 0,
        "location": {
            "lat": 28.690157,
            "lng": 115.903329
        },
        "ad_info": {
            "adcode": 360102,
            "province": "江西省",
            "city": "南昌市",
            "district": "东湖区"
        }
    },
    {
        "id": "10844484532549481546",
        "title": "公共厕所",
        "address": "江西省南昌市新建区东鲁路与礼步湖大道交叉口正西方向27米左右",
        "tel": "",
        "category": "基础设施:公共设施:公共厕所",
        "type": 0,
        "location": {
            "lat": 28.678971,
            "lng": 115.827939
        },
        "ad_info": {
            "adcode": 360112,
            "province": "江西省",
            "city": "南昌市",
            "district": "新建区"
        }
    },
    {
        "id": "15749070670376509894",
        "title": "公共厕所",
        "address": "江西省南昌市青云谱区江铃东二路与迎宾北大道交叉口正北方向171米左右",
        "tel": "",
        "category": "基础设施:公共设施:公共厕所",
        "type": 0,
        "location": {
            "lat": 28.617927,
            "lng": 115.907347
        },
        "ad_info": {
            "adcode": 360104,
            "province": "江西省",
            "city": "南昌市",
            "district": "青云谱区"
        }
    },
    {
        "id": "15640776562857638445",
        "title": "无障碍公共厕所",
        "address": "江西省南昌市东湖区渊明北路与肖公庙巷交叉口正南方向47米左右",
        "tel": "",
        "category": "基础设施:公共设施:公共厕所",
        "type": 0,
        "location": {
            "lat": 28.67922,
            "lng": 115.892356
        },
        "ad_info": {
            "adcode": 360102,
            "province": "江西省",
            "city": "南昌市",
            "district": "东湖区"
        }
    },
    {
        "id": "16435014632044030359",
        "title": "肯德基(上海北路餐厅)-洗手间",
        "address": "江西省南昌市青山湖区上海北路与南京东路交叉口正南方向368米左右",
        "tel": "",
        "category": "基础设施:公共设施:公共厕所",
        "type": 0,
        "location": {
            "lat": 28.678492,
            "lng": 115.940438
        },
        "ad_info": {
            "adcode": 360111,
            "province": "江西省",
            "city": "南昌市",
            "district": "青山湖区"
        }
    },
    {
        "id": "2530117520377497782",
        "title": "滕王阁公共厕所",
        "address": "江西省南昌市东湖区仿古街58号滕王阁景区滕王宴乐内",
        "tel": "",
        "category": "基础设施:公共设施:公共厕所",
        "type": 0,
        "location": {
            "lat": 28.679627,
            "lng": 115.880231
        },
        "ad_info": {
            "adcode": 360102,
            "province": "江西省",
            "city": "南昌市",
            "district": "东湖区"
        }
    },
    {
        "id": "1711325654257846107",
        "title": "公共厕所",
        "address": "江西省南昌市南昌县瑶湖西大道和紫阳大道交叉口瑶湖郊野森林公园内(东侧)",
        "tel": "",
        "category": "基础设施:公共设施:公共厕所",
        "type": 0,
        "location": {
            "lat": 28.673511,
            "lng": 116.069027
        },
        "ad_info": {
            "adcode": 360121,
            "province": "江西省",
            "city": "南昌市",
            "district": "南昌县"
        }
    },
    {
        "id": "501079634171936518",
        "title": "公共厕所",
        "address": "江西省南昌市西湖区抚生路与桃安路交叉口正西方向34米左右",
        "tel": "",
        "category": "基础设施:公共设施:公共厕所",
        "type": 0,
        "location": {
            "lat": 28.65233,
            "lng": 115.875141
        },
        "ad_info": {
            "adcode": 360103,
            "province": "江西省",
            "city": "南昌市",
            "district": "西湖区"
        }
    },
    {
        "id": "3161996521203699612",
        "title": "公共厕所",
        "address": "江西省南昌市西湖区建设西路江西工程职业学院",
        "tel": "",
        "category": "基础设施:公共设施:公共厕所",
        "type": 0,
        "location": {
            "lat": 28.647895,
            "lng": 115.896627
        },
        "ad_info": {
            "adcode": 360103,
            "province": "江西省",
            "city": "南昌市",
            "district": "西湖区"
        }
    },
    {
        "id": "1929248128791602586",
        "title": "公共厕所",
        "address": "江西省南昌市东湖区三经路与苏圃路交叉口正东方向143米左右",
        "tel": "",
        "category": "基础设施:公共设施:公共厕所",
        "type": 0,
        "location": {
            "lat": 28.688196,
            "lng": 115.898382
        },
        "ad_info": {
            "adcode": 360102,
            "province": "江西省",
            "city": "南昌市",
            "district": "东湖区"
        }
    },
    {
        "id": "8648702871961705305",
        "title": "公共厕所",
        "address": "江西省南昌市西湖区九洲大街与桃花南路交叉口正南方向123米左右",
        "tel": "",
        "category": "基础设施:公共设施:公共厕所",
        "type": 0,
        "location": {
            "lat": 28.625811,
            "lng": 115.877534
        },
        "ad_info": {
            "adcode": 360103,
            "province": "江西省",
            "city": "南昌市",
            "district": "西湖区"
        }
    },
    {
        "id": "2991513814782684676",
        "title": "公共厕所",
        "address": "江西省南昌市东湖区福州路与贤士二路交叉口正南方向89米左右",
        "tel": "",
        "category": "基础设施:公共设施:公共厕所",
        "type": 0,
        "location": {
            "lat": 28.682301,
            "lng": 115.914343
        },
        "ad_info": {
            "adcode": 360102,
            "province": "江西省",
            "city": "南昌市",
            "district": "东湖区"
        }
    },
    {
        "id": "7328907852605348963",
        "title": "无障碍公共厕所",
        "address": "江西省南昌市南昌县八月湖路与金沙二路交叉口正西方向256米左右",
        "tel": "",
        "category": "基础设施:公共设施:公共厕所",
        "type": 0,
        "location": {
            "lat": 28.600869,
            "lng": 115.879636
        },
        "ad_info": {
            "adcode": 360121,
            "province": "江西省",
            "city": "南昌市",
            "district": "南昌县"
        }
    },
    {
        "id": "4285319831435131638",
        "title": "公共厕所",
        "address": "江西省南昌市青山湖区北京东路与彭桥路交叉口西南方向213米左右",
        "tel": "",
        "category": "基础设施:公共设施:公共厕所",
        "type": 0,
        "location": {
            "lat": 28.672455,
            "lng": 115.932847
        },
        "ad_info": {
            "adcode": 360111,
            "province": "江西省",
            "city": "南昌市",
            "district": "青山湖区"
        }
    },
    {
        "id": "15265636137167197099",
        "title": "公共厕所",
        "address": "江西省南昌市新建区招贤路274-290号",
        "tel": "",
        "category": "基础设施:公共设施:公共厕所",
        "type": 0,
        "location": {
            "lat": 28.700671,
            "lng": 115.741163
        },
        "ad_info": {
            "adcode": 360112,
            "province": "江西省",
            "city": "南昌市",
            "district": "新建区"
        }
    },
    {
        "id": "14394131563849732653",
        "title": "公共厕所",
        "address": "江西省南昌市青山湖区东华大道与昌安路交叉口东北方向38米左右",
        "tel": "",
        "category": "基础设施:公共设施:公共厕所",
        "type": 0,
        "location": {
            "lat": 28.628145,
            "lng": 115.961095
        },
        "ad_info": {
            "adcode": 360111,
            "province": "江西省",
            "city": "南昌市",
            "district": "青山湖区"
        }
    },
    {
        "id": "12055439386277009227",
        "title": "公共厕所",
        "address": "江西省南昌市新建区文化大道与长麦路交叉口东南方向39米左右",
        "tel": "",
        "category": "基础设施:公共设施:公共厕所",
        "type": 0,
        "location": {
            "lat": 28.696464,
            "lng": 115.817239
        },
        "ad_info": {
            "adcode": 360112,
            "province": "江西省",
            "city": "南昌市",
            "district": "新建区"
        }
    },
    {
        "id": "10615216453892993373",
        "title": "公共厕所",
        "address": "江西省南昌市东湖区洪都北大道与湖滨南路交叉口东南方向78米左右",
        "tel": "",
        "category": "基础设施:公共设施:公共厕所",
        "type": 0,
        "location": {
            "lat": 28.691119,
            "lng": 115.925396
        },
        "ad_info": {
            "adcode": 360102,
            "province": "江西省",
            "city": "南昌市",
            "district": "东湖区"
        }
    },
    {
        "id": "17819656264477920140",
        "title": "公共厕所",
        "address": "江西省南昌市东湖区戴家路与讲武堂路交叉口正西方向142米左右",
        "tel": "",
        "category": "基础设施:公共设施:公共厕所",
        "type": 0,
        "location": {
            "lat": 28.683559,
            "lng": 115.898293
        },
        "ad_info": {
            "adcode": 360102,
            "province": "江西省",
            "city": "南昌市",
            "district": "东湖区"
        }
    },
    {
        "id": "7149709284235913660",
        "title": "公共厕所",
        "address": "江西省南昌市西湖区打缆洲路与朝阳洲中路交叉口正北方向30米左右",
        "tel": "",
        "category": "基础设施:公共设施:公共厕所",
        "type": 0,
        "location": {
            "lat": 28.666326,
            "lng": 115.886842
        },
        "ad_info": {
            "adcode": 360103,
            "province": "江西省",
            "city": "南昌市",
            "district": "西湖区"
        }
    },
    {
        "id": "13252079284487248731",
        "title": "公共厕所",
        "address": "江西省南昌市新建区南八西路与西一路交叉口西南方向51米左右",
        "tel": "",
        "category": "基础设施:公共设施:公共厕所",
        "type": 0,
        "location": {
            "lat": 28.839967,
            "lng": 115.906909
        },
        "ad_info": {
            "adcode": 360112,
            "province": "江西省",
            "city": "南昌市",
            "district": "新建区"
        }
    },
    {
        "id": "12068562585782082275",
        "title": "公共厕所",
        "address": "江西省南昌市西湖区南城仓巷与里洲路交叉口东南方向32米左右",
        "tel": "",
        "category": "基础设施:公共设施:公共厕所",
        "type": 0,
        "location": {
            "lat": 28.665851,
            "lng": 115.890572
        },
        "ad_info": {
            "adcode": 360103,
            "province": "江西省",
            "city": "南昌市",
            "district": "西湖区"
        }
    },
    {
        "id": "17177265389053917887",
        "title": "公共厕所",
        "address": "江西省南昌市东湖区右营街与马家池街交叉口正北方向21米左右",
        "tel": "",
        "category": "基础设施:公共设施:公共厕所",
        "type": 0,
        "location": {
            "lat": 28.686084,
            "lng": 115.891898
        },
        "ad_info": {
            "adcode": 360102,
            "province": "江西省",
            "city": "南昌市",
            "district": "东湖区"
        }
    },
    {
        "id": "3068638329387497245",
        "title": "公共厕所(南昌站)",
        "address": "江西省南昌市青山湖区二七南路213号南昌站F1层",
        "tel": "",
        "category": "基础设施:公共设施:公共厕所",
        "type": 0,
        "location": {
            "lat": 28.66162,
            "lng": 115.920379
        },
        "ad_info": {
            "adcode": 360111,
            "province": "江西省",
            "city": "南昌市",
            "district": "青山湖区"
        }
    },
    {
        "id": "8326833255534314206",
        "title": "公共厕所",
        "address": "江西省南昌市红谷滩区新力外滩9号东南侧170米",
        "tel": "",
        "category": "基础设施:公共设施:公共厕所",
        "type": 0,
        "location": {
            "lat": 28.708835,
            "lng": 115.885239
        },
        "ad_info": {
            "adcode": 360113,
            "province": "江西省",
            "city": "南昌市",
            "district": "红谷滩区"
        }
    },
    {
        "id": "17031010342443485985",
        "title": "公共厕所",
        "address": "江西省南昌市新建区南宝路与双马石路交叉口西南方向42米左右",
        "tel": "",
        "category": "基础设施:公共设施:公共厕所",
        "type": 0,
        "location": {
            "lat": 28.699467,
            "lng": 115.723754
        },
        "ad_info": {
            "adcode": 360112,
            "province": "江西省",
            "city": "南昌市",
            "district": "新建区"
        }
    },
    {
        "id": "1028051763792585545",
        "title": "公共厕所",
        "address": "江西省南昌市青山湖区南京东路165号西北方向40米",
        "tel": "",
        "category": "基础设施:公共设施:公共厕所",
        "type": 0,
        "location": {
            "lat": 28.682803,
            "lng": 115.932539
        },
        "ad_info": {
            "adcode": 360111,
            "province": "江西省",
            "city": "南昌市",
            "district": "青山湖区"
        }
    },
    {
        "id": "15130938960956095364",
        "title": "公共卫生间",
        "address": "江西省南昌市南昌县向阳路与莲塘中大道交叉口东南方向52米左右",
        "tel": "",
        "category": "基础设施:公共设施:公共厕所",
        "type": 0,
        "location": {
            "lat": 28.54313,
            "lng": 115.947039
        },
        "ad_info": {
            "adcode": 360121,
            "province": "江西省",
            "city": "南昌市",
            "district": "南昌县"
        }
    },
    {
        "id": "11705490494453688430",
        "title": "公共厕所",
        "address": "江西省南昌市西湖区朝农街与永富路交叉口西北方向55米左右",
        "tel": "",
        "category": "基础设施:公共设施:公共厕所",
        "type": 0,
        "location": {
            "lat": 28.622535,
            "lng": 115.851164
        },
        "ad_info": {
            "adcode": 360103,
            "province": "江西省",
            "city": "南昌市",
            "district": "西湖区"
        }
    },
    {
        "id": "16793676290599021528",
        "title": "公共厕所",
        "address": "江西省南昌市东湖区北京西路437号江西师范大学",
        "tel": "",
        "category": "基础设施:公共设施:公共厕所",
        "type": 0,
        "location": {
            "lat": 28.675343,
            "lng": 115.922805
        },
        "ad_info": {
            "adcode": 360102,
            "province": "江西省",
            "city": "南昌市",
            "district": "东湖区"
        }
    },
    {
        "id": "11479983259690701022",
        "title": "公共厕所",
        "address": "江西省南昌市青山湖区俊彦路与艾溪湖北路交叉口西北方向138米左右",
        "tel": "",
        "category": "基础设施:公共设施:公共厕所",
        "type": 0,
        "location": {
            "lat": 28.714162,
            "lng": 115.986497
        },
        "ad_info": {
            "adcode": 360111,
            "province": "江西省",
            "city": "南昌市",
            "district": "青山湖区"
        }
    },
    {
        "id": "16833759333203771121",
        "title": "公共厕所管理间",
        "address": "江西省南昌市新建区枫林西大街与紫荆路商业步行街交叉口东南方向52米左右",
        "tel": "",
        "category": "基础设施:公共设施:公共厕所",
        "type": 0,
        "location": {
            "lat": 28.734338,
            "lng": 115.833952
        },
        "ad_info": {
            "adcode": 360112,
            "province": "江西省",
            "city": "南昌市",
            "district": "新建区"
        }
    },
    {
        "id": "7328907852605348963",
        "title": "无障碍公共厕所",
        "address": "江西省南昌市南昌县八月湖路与金沙二路交叉口正西方向256米左右",
        "tel": "",
        "category": "基础设施:公共设施:公共厕所",
        "type": 0,
        "location": {
            "lat": 28.600869,
            "lng": 115.879636
        },
        "ad_info": {
            "adcode": 360121,
            "province": "江西省",
            "city": "南昌市",
            "district": "南昌县"
        }
    },
    {
        "id": "4285319831435131638",
        "title": "公共厕所",
        "address": "江西省南昌市青山湖区北京东路与彭桥路交叉口西南方向213米左右",
        "tel": "",
        "category": "基础设施:公共设施:公共厕所",
        "type": 0,
        "location": {
            "lat": 28.672455,
            "lng": 115.932847
        },
        "ad_info": {
            "adcode": 360111,
            "province": "江西省",
            "city": "南昌市",
            "district": "青山湖区"
        }
    },
    {
        "id": "15265636137167197099",
        "title": "公共厕所",
        "address": "江西省南昌市新建区招贤路274-290号",
        "tel": "",
        "category": "基础设施:公共设施:公共厕所",
        "type": 0,
        "location": {
            "lat": 28.700671,
            "lng": 115.741163
        },
        "ad_info": {
            "adcode": 360112,
            "province": "江西省",
            "city": "南昌市",
            "district": "新建区"
        }
    },
    {
        "id": "14394131563849732653",
        "title": "公共厕所",
        "address": "江西省南昌市青山湖区东华大道与昌安路交叉口东北方向38米左右",
        "tel": "",
        "category": "基础设施:公共设施:公共厕所",
        "type": 0,
        "location": {
            "lat": 28.628145,
            "lng": 115.961095
        },
        "ad_info": {
            "adcode": 360111,
            "province": "江西省",
            "city": "南昌市",
            "district": "青山湖区"
        }
    },
    {
        "id": "12055439386277009227",
        "title": "公共厕所",
        "address": "江西省南昌市新建区文化大道与长麦路交叉口东南方向39米左右",
        "tel": "",
        "category": "基础设施:公共设施:公共厕所",
        "type": 0,
        "location": {
            "lat": 28.696464,
            "lng": 115.817239
        },
        "ad_info": {
            "adcode": 360112,
            "province": "江西省",
            "city": "南昌市",
            "district": "新建区"
        }
    },
    {
        "id": "10615216453892993373",
        "title": "公共厕所",
        "address": "江西省南昌市东湖区洪都北大道与湖滨南路交叉口东南方向78米左右",
        "tel": "",
        "category": "基础设施:公共设施:公共厕所",
        "type": 0,
        "location": {
            "lat": 28.691119,
            "lng": 115.925396
        },
        "ad_info": {
            "adcode": 360102,
            "province": "江西省",
            "city": "南昌市",
            "district": "东湖区"
        }
    },
    {
        "id": "17819656264477920140",
        "title": "公共厕所",
        "address": "江西省南昌市东湖区戴家路与讲武堂路交叉口正西方向142米左右",
        "tel": "",
        "category": "基础设施:公共设施:公共厕所",
        "type": 0,
        "location": {
            "lat": 28.683559,
            "lng": 115.898293
        },
        "ad_info": {
            "adcode": 360102,
            "province": "江西省",
            "city": "南昌市",
            "district": "东湖区"
        }
    },
    {
        "id": "7149709284235913660",
        "title": "公共厕所",
        "address": "江西省南昌市西湖区打缆洲路与朝阳洲中路交叉口正北方向30米左右",
        "tel": "",
        "category": "基础设施:公共设施:公共厕所",
        "type": 0,
        "location": {
            "lat": 28.666326,
            "lng": 115.886842
        },
        "ad_info": {
            "adcode": 360103,
            "province": "江西省",
            "city": "南昌市",
            "district": "西湖区"
        }
    },
    {
        "id": "13252079284487248731",
        "title": "公共厕所",
        "address": "江西省南昌市新建区南八西路与西一路交叉口西南方向51米左右",
        "tel": "",
        "category": "基础设施:公共设施:公共厕所",
        "type": 0,
        "location": {
            "lat": 28.839967,
            "lng": 115.906909
        },
        "ad_info": {
            "adcode": 360112,
            "province": "江西省",
            "city": "南昌市",
            "district": "新建区"
        }
    },
    {
        "id": "12068562585782082275",
        "title": "公共厕所",
        "address": "江西省南昌市西湖区南城仓巷与里洲路交叉口东南方向32米左右",
        "tel": "",
        "category": "基础设施:公共设施:公共厕所",
        "type": 0,
        "location": {
            "lat": 28.665851,
            "lng": 115.890572
        },
        "ad_info": {
            "adcode": 360103,
            "province": "江西省",
            "city": "南昌市",
            "district": "西湖区"
        }
    },
    {
        "id": "17177265389053917887",
        "title": "公共厕所",
        "address": "江西省南昌市东湖区右营街与马家池街交叉口正北方向21米左右",
        "tel": "",
        "category": "基础设施:公共设施:公共厕所",
        "type": 0,
        "location": {
            "lat": 28.686084,
            "lng": 115.891898
        },
        "ad_info": {
            "adcode": 360102,
            "province": "江西省",
            "city": "南昌市",
            "district": "东湖区"
        }
    },
    {
        "id": "3068638329387497245",
        "title": "公共厕所(南昌站)",
        "address": "江西省南昌市青山湖区二七南路213号南昌站F1层",
        "tel": "",
        "category": "基础设施:公共设施:公共厕所",
        "type": 0,
        "location": {
            "lat": 28.66162,
            "lng": 115.920379
        },
        "ad_info": {
            "adcode": 360111,
            "province": "江西省",
            "city": "南昌市",
            "district": "青山湖区"
        }
    },
    {
        "id": "8326833255534314206",
        "title": "公共厕所",
        "address": "江西省南昌市红谷滩区新力外滩9号东南侧170米",
        "tel": "",
        "category": "基础设施:公共设施:公共厕所",
        "type": 0,
        "location": {
            "lat": 28.708835,
            "lng": 115.885239
        },
        "ad_info": {
            "adcode": 360113,
            "province": "江西省",
            "city": "南昌市",
            "district": "红谷滩区"
        }
    },
    {
        "id": "17031010342443485985",
        "title": "公共厕所",
        "address": "江西省南昌市新建区南宝路与双马石路交叉口西南方向42米左右",
        "tel": "",
        "category": "基础设施:公共设施:公共厕所",
        "type": 0,
        "location": {
            "lat": 28.699467,
            "lng": 115.723754
        },
        "ad_info": {
            "adcode": 360112,
            "province": "江西省",
            "city": "南昌市",
            "district": "新建区"
        }
    },
    {
        "id": "1028051763792585545",
        "title": "公共厕所",
        "address": "江西省南昌市青山湖区南京东路165号西北方向40米",
        "tel": "",
        "category": "基础设施:公共设施:公共厕所",
        "type": 0,
        "location": {
            "lat": 28.682803,
            "lng": 115.932539
        },
        "ad_info": {
            "adcode": 360111,
            "province": "江西省",
            "city": "南昌市",
            "district": "青山湖区"
        }
    },
    {
        "id": "15130938960956095364",
        "title": "公共卫生间",
        "address": "江西省南昌市南昌县向阳路与莲塘中大道交叉口东南方向52米左右",
        "tel": "",
        "category": "基础设施:公共设施:公共厕所",
        "type": 0,
        "location": {
            "lat": 28.54313,
            "lng": 115.947039
        },
        "ad_info": {
            "adcode": 360121,
            "province": "江西省",
            "city": "南昌市",
            "district": "南昌县"
        }
    },
    {
        "id": "11705490494453688430",
        "title": "公共厕所",
        "address": "江西省南昌市西湖区朝农街与永富路交叉口西北方向55米左右",
        "tel": "",
        "category": "基础设施:公共设施:公共厕所",
        "type": 0,
        "location": {
            "lat": 28.622535,
            "lng": 115.851164
        },
        "ad_info": {
            "adcode": 360103,
            "province": "江西省",
            "city": "南昌市",
            "district": "西湖区"
        }
    },
    {
        "id": "16793676290599021528",
        "title": "公共厕所",
        "address": "江西省南昌市东湖区北京西路437号江西师范大学",
        "tel": "",
        "category": "基础设施:公共设施:公共厕所",
        "type": 0,
        "location": {
            "lat": 28.675343,
            "lng": 115.922805
        },
        "ad_info": {
            "adcode": 360102,
            "province": "江西省",
            "city": "南昌市",
            "district": "东湖区"
        }
    },
    {
        "id": "11479983259690701022",
        "title": "公共厕所",
        "address": "江西省南昌市青山湖区俊彦路与艾溪湖北路交叉口西北方向138米左右",
        "tel": "",
        "category": "基础设施:公共设施:公共厕所",
        "type": 0,
        "location": {
            "lat": 28.714162,
            "lng": 115.986497
        },
        "ad_info": {
            "adcode": 360111,
            "province": "江西省",
            "city": "南昌市",
            "district": "青山湖区"
        }
    },
    {
        "id": "16833759333203771121",
        "title": "公共厕所管理间",
        "address": "江西省南昌市新建区枫林西大街与紫荆路商业步行街交叉口东南方向52米左右",
        "tel": "",
        "category": "基础设施:公共设施:公共厕所",
        "type": 0,
        "location": {
            "lat": 28.734338,
            "lng": 115.833952
        },
        "ad_info": {
            "adcode": 360112,
            "province": "江西省",
            "city": "南昌市",
            "district": "新建区"
        }
    },
    {
        "id": "7328907852605348963",
        "title": "无障碍公共厕所",
        "address": "江西省南昌市南昌县八月湖路与金沙二路交叉口正西方向256米左右",
        "tel": "",
        "category": "基础设施:公共设施:公共厕所",
        "type": 0,
        "location": {
            "lat": 28.600869,
            "lng": 115.879636
        },
        "ad_info": {
            "adcode": 360121,
            "province": "江西省",
            "city": "南昌市",
            "district": "南昌县"
        }
    },
    {
        "id": "4285319831435131638",
        "title": "公共厕所",
        "address": "江西省南昌市青山湖区北京东路与彭桥路交叉口西南方向213米左右",
        "tel": "",
        "category": "基础设施:公共设施:公共厕所",
        "type": 0,
        "location": {
            "lat": 28.672455,
            "lng": 115.932847
        },
        "ad_info": {
            "adcode": 360111,
            "province": "江西省",
            "city": "南昌市",
            "district": "青山湖区"
        }
    },
    {
        "id": "15265636137167197099",
        "title": "公共厕所",
        "address": "江西省南昌市新建区招贤路274-290号",
        "tel": "",
        "category": "基础设施:公共设施:公共厕所",
        "type": 0,
        "location": {
            "lat": 28.700671,
            "lng": 115.741163
        },
        "ad_info": {
            "adcode": 360112,
            "province": "江西省",
            "city": "南昌市",
            "district": "新建区"
        }
    },
    {
        "id": "14394131563849732653",
        "title": "公共厕所",
        "address": "江西省南昌市青山湖区东华大道与昌安路交叉口东北方向38米左右",
        "tel": "",
        "category": "基础设施:公共设施:公共厕所",
        "type": 0,
        "location": {
            "lat": 28.628145,
            "lng": 115.961095
        },
        "ad_info": {
            "adcode": 360111,
            "province": "江西省",
            "city": "南昌市",
            "district": "青山湖区"
        }
    },