[
    {
        "id": "72899902510481925",
        "title": "公共厕所",
        "address": "河南省南阳市卧龙区信臣中路与信臣路交叉口西北方向105米左右",
        "tel": "",
        "category": "基础设施:公共设施:公共厕所",
        "type": 0,
        "location": {
            "lat": 33.033379,
            "lng": 112.549096
        },
        "ad_info": {
            "adcode": 411303,
            "province": "河南省",
            "city": "南阳市",
            "district": "卧龙区"
        }
    },
    {
        "id": "1002717785787286351",
        "title": "公共厕所",
        "address": "河南省南阳市卧龙区车站北路与车站南路交叉口西南方向46米左右",
        "tel": "",
        "category": "基础设施:公共设施:公共厕所",
        "type": 0,
        "location": {
            "lat": 32.997852,
            "lng": 112.514465
        },
        "ad_info": {
            "adcode": 411303,
            "province": "河南省",
            "city": "南阳市",
            "district": "卧龙区"
        }
    },
    {
        "id": "15375864579448499052",
        "title": "公共厕所",
        "address": "河南省南阳市卧龙区中州西路639号",
        "tel": "",
        "category": "基础设施:公共设施:公共厕所",
        "type": 0,
        "location": {
            "lat": 32.99207,
            "lng": 112.499155
        },
        "ad_info": {
            "adcode": 411303,
            "province": "河南省",
            "city": "南阳市",
            "district": "卧龙区"
        }
    },
    {
        "id": "12191522071960564950",
        "title": "公共厕所",
        "address": "河南省南阳市卧龙区武侯路与红庙路交叉口正西方向61米左右",
        "tel": "",
        "category": "基础设施:公共设施:公共厕所",
        "type": 0,
        "location": {
            "lat": 32.983301,
            "lng": 112.511324
        },
        "ad_info": {
            "adcode": 411303,
            "province": "河南省",
            "city": "南阳市",
            "district": "卧龙区"
        }
    },
    {
        "id": "18264396471299192944",
        "title": "公共厕所",
        "address": "河南省南阳市卧龙区仲景大道辅路与信臣东路交叉口西南方向134米左右",
        "tel": "",
        "category": "基础设施:公共设施:公共厕所",
        "type": 0,
        "location": {
            "lat": 33.03085,
            "lng": 112.556839
        },
        "ad_info": {
            "adcode": 411303,
            "province": "河南省",
            "city": "南阳市",
            "district": "卧龙区"
        }
    },
    {
        "id": "5253121592126625172",
        "title": "洗手间",
        "address": "河南省南阳市卧龙区孔明北路天麒家园",
        "tel": "",
        "category": "基础设施:公共设施:公共厕所",
        "type": 0,
        "location": {
            "lat": 33.032417,
            "lng": 112.600184
        },
        "ad_info": {
            "adcode": 411303,
            "province": "河南省",
            "city": "南阳市",
            "district": "卧龙区"
        }
    },
    {
        "id": "11684186118902330387",
        "title": "公共厕所",
        "address": "河南省南阳市邓州市中州路与人民路交叉口东南方向423米左右",
        "tel": "",
        "category": "基础设施:公共设施:公共厕所",
        "type": 0,
        "location": {
            "lat": 32.667526,
            "lng": 112.112208
        },
        "ad_info": {
            "adcode": 411381,
            "province": "河南省",
            "city": "南阳市",
            "district": "邓州市"
        }
    },
    {
        "id": "8886066673087759251",
        "title": "公共厕所",
        "address": "河南省南阳市卧龙区明山路与范蠡东路交叉口正西方向312米左右",
        "tel": "",
        "category": "基础设施:公共设施:公共厕所",
        "type": 0,
        "location": {
            "lat": 33.017624,
            "lng": 112.556795
        },
        "ad_info": {
            "adcode": 411303,
            "province": "河南省",
            "city": "南阳市",
            "district": "卧龙区"
        }
    },
    {
        "id": "12226464154351871718",
        "title": "洗手间",
        "address": "河南省南阳市宛城区孔明南路万达坊",
        "tel": "",
        "category": "基础设施:公共设施:公共厕所",
        "type": 0,
        "location": {
            "lat": 32.994588,
            "lng": 112.57627
        },
        "ad_info": {
            "adcode": 411302,
            "province": "河南省",
            "city": "南阳市",
            "district": "宛城区"
        }
    },
    {
        "id": "11432150463356167052",
        "title": "公共厕所",
        "address": "河南省南阳市卧龙区信臣东路辅路与南都路辅路交叉口正东方向257米左右",
        "tel": "",
        "category": "基础设施:公共设施:公共厕所",
        "type": 0,
        "location": {
            "lat": 33.026745,
            "lng": 112.585841
        },
        "ad_info": {
            "adcode": 411303,
            "province": "河南省",
            "city": "南阳市",
            "district": "卧龙区"
        }
    },
    {
        "id": "10985259184798065517",
        "title": "公共厕所",
        "address": "河南省南阳市淅川县金政路与长安路交叉口正北方向86米左右",
        "tel": "",
        "category": "基础设施:公共设施:公共厕所",
        "type": 0,
        "location": {
            "lat": 33.129786,
            "lng": 111.469787
        },
        "ad_info": {
            "adcode": 411326,
            "province": "河南省",
            "city": "南阳市",
            "district": "淅川县"
        }
    },
    {
        "id": "8579228362209700413",
        "title": "公共厕所",
        "address": "河南省南阳市宛城区人民南路495号",
        "tel": "",
        "category": "基础设施:公共设施:公共厕所",
        "type": 0,
        "location": {
            "lat": 33.001204,
            "lng": 112.537042
        },
        "ad_info": {
            "adcode": 411302,
            "province": "河南省",
            "city": "南阳市",
            "district": "宛城区"
        }
    },
    {
        "id": "3023486778960411049",
        "title": "公共厕所",
        "address": "河南省南阳市宛城区人民南路与民主街交叉口东南方向95米左右",
        "tel": "",
        "category": "基础设施:公共设施:公共厕所",
        "type": 0,
        "location": {
            "lat": 32.992098,
            "lng": 112.536476
        },
        "ad_info": {
            "adcode": 411302,
            "province": "河南省",
            "city": "南阳市",
            "district": "宛城区"
        }
    },
    {
        "id": "18350924943482896782",
        "title": "公共厕所",
        "address": "河南省南阳市宛城区仲景大道与光武大道交叉口西南方向64米左右",
        "tel": "",
        "category": "基础设施:公共设施:公共厕所",
        "type": 0,
        "location": {
            "lat": 33.008724,
            "lng": 112.551973
        },
        "ad_info": {
            "adcode": 411302,
            "province": "河南省",
            "city": "南阳市",
            "district": "宛城区"
        }
    },
    {
        "id": "7911287871265782300",
        "title": "公共厕所",
        "address": "河南省南阳市邓州市尹巷街与文庙街交叉口正西方向35米左右",
        "tel": "",
        "category": "基础设施:公共设施:公共厕所",
        "type": 0,
        "location": {
            "lat": 32.685189,
            "lng": 112.08814
        },
        "ad_info": {
            "adcode": 411381,
            "province": "河南省",
            "city": "南阳市",
            "district": "邓州市"
        }
    },
    {
        "id": "15399042177113723131",
        "title": "公共厕所",
        "address": "河南省南阳市宛城区滨河大道与独山大道(中段)交叉口西北方向93米左右",
        "tel": "",
        "category": "基础设施:公共设施:公共厕所",
        "type": 0,
        "location": {
            "lat": 32.988693,
            "lng": 112.566347
        },
        "ad_info": {
            "adcode": 411302,
            "province": "河南省",
            "city": "南阳市",
            "district": "宛城区"
        }
    },
    {
        "id": "16822256603113737552",
        "title": "公共厕所",
        "address": "河南省南阳市卧龙区新华西路与永安路交叉口东北方向36米左右",
        "tel": "",
        "category": "基础设施:公共设施:公共厕所",
        "type": 0,
        "location": {
            "lat": 32.998196,
            "lng": 112.516996
        },
        "ad_info": {
            "adcode": 411303,
            "province": "河南省",
            "city": "南阳市",
            "district": "卧龙区"
        }
    },
    {
        "id": "8498971382503800313",
        "title": "公共厕所",
        "address": "河南省南阳市宛城区仲景大道辅路与建设东路交叉口东北方向51米左右",
        "tel": "",
        "category": "基础设施:公共设施:公共厕所",
        "type": 0,
        "location": {
            "lat": 33.003468,
            "lng": 112.553583
        },
        "ad_info": {
            "adcode": 411302,
            "province": "河南省",
            "city": "南阳市",
            "district": "宛城区"
        }
    },
    {
        "id": "15607416738531137034",
        "title": "公共厕所",
        "address": "河南省南阳市宛城区东关街道仲景北路铭座主题酒店东门",
        "tel": "",
        "category": "基础设施:公共设施:公共厕所",
        "type": 0,
        "location": {
            "lat": 33.013567,
            "lng": 112.552692
        },
        "ad_info": {
            "adcode": 411302,
            "province": "河南省",
            "city": "南阳市",
            "district": "宛城区"
        }
    },
    {
        "id": "6567349896544909035",
        "title": "公共厕所",
        "address": "河南省南阳市宛城区人民北路与人民南路交叉口东北方向74米左右",
        "tel": "",
        "category": "基础设施:公共设施:公共厕所",
        "type": 0,
        "location": {
            "lat": 33.009738,
            "lng": 112.538282
        },
        "ad_info": {
            "adcode": 411302,
            "province": "河南省",
            "city": "南阳市",
            "district": "宛城区"
        }
    },
    {
        "id": "13139370115769092189",
        "title": "公共厕所",
        "address": "河南省南阳市宛城区长江东路诚发书香苑",
        "tel": "",
        "category": "基础设施:公共设施:公共厕所",
        "type": 0,
        "location": {
            "lat": 32.975219,
            "lng": 112.577641
        },
        "ad_info": {
            "adcode": 411302,
            "province": "河南省",
            "city": "南阳市",
            "district": "宛城区"
        }
    },
    {
        "id": "18366904432608677932",
        "title": "公共厕所",
        "address": "河南省南阳市卧龙区北京路辅路与北京南路交叉口正西方向95米左右",
        "tel": "",
        "category": "基础设施:公共设施:公共厕所",
        "type": 0,
        "location": {
            "lat": 32.974086,
            "lng": 112.496852
        },
        "ad_info": {
            "adcode": 411303,
            "province": "河南省",
            "city": "南阳市",
            "district": "卧龙区"
        }
    },
    {
        "id": "1255999150799794847",
        "title": "公共厕所",
        "address": "河南省南阳市卧龙区工农路与张衡中路辅路交叉口西北方向110米",
        "tel": "",
        "category": "基础设施:公共设施:公共厕所",
        "type": 0,
        "location": {
            "lat": 33.023573,
            "lng": 112.544283
        },
        "ad_info": {
            "adcode": 411303,
            "province": "河南省",
            "city": "南阳市",
            "district": "卧龙区"
        }
    },
    {
        "id": "18236566596981076632",
        "title": "公共厕所",
        "address": "河南省南阳市宛城区建设东路1035号",
        "tel": "",
        "category": "基础设施:公共设施:公共厕所",
        "type": 0,
        "location": {
            "lat": 33.00318,
            "lng": 112.572793
        },
        "ad_info": {
            "adcode": 411302,
            "province": "河南省",
            "city": "南阳市",
            "district": "宛城区"
        }
    },
    {
        "id": "16598126334228888124",
        "title": "公共厕所",
        "address": "河南省南阳市卧龙区建设西路与百里奚南路交叉口东北方向116米左右",
        "tel": "",
        "category": "基础设施:公共设施:公共厕所",
        "type": 0,
        "location": {
            "lat": 33.010199,
            "lng": 112.517777
        },
        "ad_info": {
            "adcode": 411303,
            "province": "河南省",
            "city": "南阳市",
            "district": "卧龙区"
        }
    },
    {
        "id": "15126697103896740173",
        "title": "公共厕所",
        "address": "河南省南阳市卧龙区工业北路与梅溪派出所巷交叉口正南方向178米左右",
        "tel": "",
        "category": "基础设施:公共设施:公共厕所",
        "type": 0,
        "location": {
            "lat": 32.999042,
            "lng": 112.523672
        },
        "ad_info": {
            "adcode": 411303,
            "province": "河南省",
            "city": "南阳市",
            "district": "卧龙区"
        }
    },
    {
        "id": "528392351974033233",
        "title": "公共厕所",
        "address": "河南省南阳市卧龙区中州中路与中州大道交叉口东南方向73米左右",
        "tel": "",
        "category": "基础设施:公共设施:公共厕所",
        "type": 0,
        "location": {
            "lat": 32.991032,
            "lng": 112.513921
        },
        "ad_info": {
            "adcode": 411303,
            "province": "河南省",
            "city": "南阳市",
            "district": "卧龙区"
        }
    },
    {
        "id": "13579869116671577355",
        "title": "公共厕所",
        "address": "河南省南阳市宛城区民权街与联合街交叉口正北方向58米左右",
        "tel": "",
        "category": "基础设施:公共设施:公共厕所",
        "type": 0,
        "location": {
            "lat": 32.995543,
            "lng": 112.539528
        },
        "ad_info": {
            "adcode": 411302,
            "province": "河南省",
            "city": "南阳市",
            "district": "宛城区"
        }
    },
    {
        "id": "7403215707341899144",
        "title": "公共厕所",
        "address": "河南省南阳市卧龙区人民北路与仲先大街交叉口正东方向57米左右",
        "tel": "",
        "category": "基础设施:公共设施:公共厕所",
        "type": 0,
        "location": {
            "lat": 33.025535,
            "lng": 112.539667
        },
        "ad_info": {
            "adcode": 411303,
            "province": "河南省",
            "city": "南阳市",
            "district": "卧龙区"
        }
    },
    {
        "id": "2759028935491388114",
        "title": "公共厕所",
        "address": "河南省南阳市宛城区广苑街梅城公园(西侧)",
        "tel": "",
        "category": "基础设施:公共设施:公共厕所",
        "type": 0,
        "location": {
            "lat": 32.988443,
            "lng": 112.54534
        },
        "ad_info": {
            "adcode": 411302,
            "province": "河南省",
            "city": "南阳市",
            "district": "宛城区"
        }
    },
    {
        "id": "10397148058165834357",
        "title": "公共厕所",
        "address": "河南省南阳市宛城区徐燕口腔诊所东北侧60米",
        "tel": "",
        "category": "基础设施:公共设施:公共厕所",
        "type": 0,
        "location": {
            "lat": 32.979121,
            "lng": 112.574404
        },
        "ad_info": {
            "adcode": 411302,
            "province": "河南省",
            "city": "南阳市",
            "district": "宛城区"
        }
    },
    {
        "id": "10079573565665180403",
        "title": "公共厕所",
        "address": "河南省南阳市卧龙区裕华商城七一游园东北(南阳市委西)",
        "tel": "",
        "category": "基础设施:公共设施:公共厕所",
        "type": 0,
        "location": {
            "lat": 33.002399,
            "lng": 112.526283
        },
        "ad_info": {
            "adcode": 411303,
            "province": "河南省",
            "city": "南阳市",
            "district": "卧龙区"
        }
    },
    {
        "id": "17025522211608523165",
        "title": "公共厕所",
        "address": "河南省南阳市宛城区白河中路557号",
        "tel": "",
        "category": "基础设施:公共设施:公共厕所",
        "type": 0,
        "location": {
            "lat": 32.979916,
            "lng": 112.551502
        },
        "ad_info": {
            "adcode": 411302,
            "province": "河南省",
            "city": "南阳市",
            "district": "宛城区"
        }
    },
    {
        "id": "3089937549958695887",
        "title": "公共厕所",
        "address": "河南省南阳市卧龙区范蠡西路与车站北路交叉口西南方向255米左右",
        "tel": "",
        "category": "基础设施:公共设施:公共厕所",
        "type": 0,
        "location": {
            "lat": 33.016497,
            "lng": 112.52594
        },
        "ad_info": {
            "adcode": 411303,
            "province": "河南省",
            "city": "南阳市",
            "district": "卧龙区"
        }
    },
    {
        "id": "7839014545427249098",
        "title": "公共厕所",
        "address": "河南省南阳市宛城区人民南路与文化宫街交叉口正东方向73米左右",
        "tel": "",
        "category": "基础设施:公共设施:公共厕所",
        "type": 0,
        "location": {
            "lat": 32.994955,
            "lng": 112.536611
        },
        "ad_info": {
            "adcode": 411302,
            "province": "河南省",
            "city": "南阳市",
            "district": "宛城区"
        }
    },
    {
        "id": "2029926217779058331",
        "title": "公共厕所",
        "address": "河南省南阳市卧龙区南都巷与永安路交叉口正北方向83米左右",
        "tel": "",
        "category": "基础设施:公共设施:公共厕所",
        "type": 0,
        "location": {
            "lat": 32.996944,
            "lng": 112.516514
        },
        "ad_info": {
            "adcode": 411303,
            "province": "河南省",
            "city": "南阳市",
            "district": "卧龙区"
        }
    },
    {
        "id": "9439178647008252260",
        "title": "公共厕所",
        "address": "河南省南阳市邓州市三贤路与作黎路交叉口东南方向70米左右",
        "tel": "",
        "category": "基础设施:公共设施:公共厕所",
        "type": 0,
        "location": {
            "lat": 32.685513,
            "lng": 112.086499
        },
        "ad_info": {
            "adcode": 411381,
            "province": "河南省",
            "city": "南阳市",
            "district": "邓州市"
        }
    },
    {
        "id": "4809311240559286661",
        "title": "公共厕所",
        "address": "河南省南阳市卧龙区卧龙路99号",
        "tel": "",
        "category": "基础设施:公共设施:公共厕所",
        "type": 0,
        "location": {
            "lat": 32.978868,
            "lng": 112.515466
        },
        "ad_info": {
            "adcode": 411303,
            "province": "河南省",
            "city": "南阳市",
            "district": "卧龙区"
        }
    },
    {
        "id": "5562517828846566783",
        "title": "公共厕所",
        "address": "河南省南阳市卧龙区百里奚南路1178号",
        "tel": "",
        "category": "基础设施:公共设施:公共厕所",
        "type": 0,
        "location": {
            "lat": 32.998649,
            "lng": 112.506834
        },
        "ad_info": {
            "adcode": 411303,
            "province": "河南省",
            "city": "南阳市",
            "district": "卧龙区"
        }
    },
    {
        "id": "7077206039239753095",
        "title": "公共厕所",
        "address": "河南省南阳市镇平县玉源大道与黄金大道交叉口正南方向188米左右",
        "tel": "",
        "category": "基础设施:公共设施:公共厕所",
        "type": 0,
        "location": {
            "lat": 33.06797,
            "lng": 112.15566
        },
        "ad_info": {
            "adcode": 411324,
            "province": "河南省",
            "city": "南阳市",
            "district": "镇平县"
        }
    },
    {
        "id": "11137400589176218338",
        "title": "公共厕所",
        "address": "河南省南阳市新野县汉城路57号",
        "tel": "",
        "category": "基础设施:公共设施:公共厕所",
        "type": 0,
        "location": {
            "lat": 32.522121,
            "lng": 112.36584
        },
        "ad_info": {
            "adcode": 411329,
            "province": "河南省",
            "city": "南阳市",
            "district": "新野县"
        }
    },
    {
        "id": "11628378322546720975",
        "title": "公共厕所",
        "address": "河南省南阳市镇平县广场北路与黄金大道交叉口西北方向49米左右",
        "tel": "",
        "category": "基础设施:公共设施:公共厕所",
        "type": 0,
        "location": {
            "lat": 33.074061,
            "lng": 112.156199
        },
        "ad_info": {
            "adcode": 411324,
            "province": "河南省",
            "city": "南阳市",
            "district": "镇平县"
        }
    },
    {
        "id": "8175628480042590239",
        "title": "公共厕所",
        "address": "河南省南阳市新野县开放大学西侧210米",
        "tel": "",
        "category": "基础设施:公共设施:公共厕所",
        "type": 0,
        "location": {
            "lat": 32.531109,
            "lng": 112.364688
        },
        "ad_info": {
            "adcode": 411329,
            "province": "河南省",
            "city": "南阳市",
            "district": "新野县"
        }
    },
    {
        "id": "18337860526864666981",
        "title": "公共厕所",
        "address": "河南省南阳市宛城区长江中路188号",
        "tel": "",
        "category": "基础设施:公共设施:公共厕所",
        "type": 0,
        "location": {
            "lat": 32.974448,
            "lng": 112.569211
        },
        "ad_info": {
            "adcode": 411302,
            "province": "河南省",
            "city": "南阳市",
            "district": "宛城区"
        }
    },
    {
        "id": "8573420046183006216",
        "title": "公共厕所",
        "address": "河南省南阳市卧龙区两相东路与两相西路交叉口正西方向114米左右",
        "tel": "",
        "category": "基础设施:公共设施:公共厕所",
        "type": 0,
        "location": {
            "lat": 33.027601,
            "lng": 112.554494
        },
        "ad_info": {
            "adcode": 411303,
            "province": "河南省",
            "city": "南阳市",
            "district": "卧龙区"
        }
    },
    {
        "id": "2595718526950336512",
        "title": "公共厕所",
        "address": "河南省南阳市淅川县东风路与人民路交叉口东南方向139米左右",
        "tel": "",
        "category": "基础设施:公共设施:公共厕所",
        "type": 0,
        "location": {
            "lat": 33.136684,
            "lng": 111.492497
        },
        "ad_info": {
            "adcode": 411326,
            "province": "河南省",
            "city": "南阳市",
            "district": "淅川县"
        }
    },
    {
        "id": "10945985869043553493",
        "title": "公共厕所",
        "address": "河南省南阳市宛城区兴捷路与汉冶东路交叉口正东方向58米左右",
        "tel": "",
        "category": "基础设施:公共设施:公共厕所",
        "type": 0,
        "location": {
            "lat": 33.01082,
            "lng": 112.58625
        },
        "ad_info": {
            "adcode": 411302,
            "province": "河南省",
            "city": "南阳市",
            "district": "宛城区"
        }
    },
    {
        "id": "9383264140474225852",
        "title": "公共厕所",
        "address": "河南省南阳市宛城区兴业路与幸福路交叉口西北方向159米左右",
        "tel": "",
        "category": "基础设施:公共设施:公共厕所",
        "type": 0,
        "location": {
            "lat": 32.954727,
            "lng": 112.651546
        },
        "ad_info": {
            "adcode": 411302,
            "province": "河南省",
            "city": "南阳市",
            "district": "宛城区"
        }
    },
    {
        "id": "132636156843565234",
        "title": "公共厕所",
        "address": "河南省南阳市宛城区伏牛路与天冠大道交叉口正西方向359米左右",
        "tel": "",
        "category": "基础设施:公共设施:公共厕所",
        "type": 0,
        "location": {
            "lat": 32.9672,
            "lng": 112.539504
        },
        "ad_info": {
            "adcode": 411302,
            "province": "河南省",
            "city": "南阳市",
            "district": "宛城区"
        }
    },
    {
        "id": "5351384886791820901",
        "title": "公共厕所",
        "address": "河南省南阳市卧龙区建设中路与建设西路交叉口正南方向317米左右",
        "tel": "",
        "category": "基础设施:公共设施:公共厕所",
        "type": 0,
        "location": {
            "lat": 33.004925,
            "lng": 112.520809
        },
        "ad_info": {
            "adcode": 411303,
            "province": "河南省",
            "city": "南阳市",
            "district": "卧龙区"
        }
    },
    {
        "id": "1822447517201226190",
        "title": "公共厕所",
        "address": "河南省南阳市邓州市交通路与团结路交叉口正西方向372米左右",
        "tel": "",
        "category": "基础设施:公共设施:公共厕所",
        "type": 0,
        "location": {
            "lat": 32.683254,
            "lng": 112.07175
        },
        "ad_info": {
            "adcode": 411381,
            "province": "河南省",
            "city": "南阳市",
            "district": "邓州市"
        }
    },
    {
        "id": "10645396341721963934",
        "title": "公共厕所",
        "address": "河南省南阳市宛城区新华东路与马道街交叉口东北方向102米左右",
        "tel": "",
        "category": "基础设施:公共设施:公共厕所",
        "type": 0,
        "location": {
            "lat": 32.997838,
            "lng": 112.537623
        },
        "ad_info": {
            "adcode": 411302,
            "province": "河南省",
            "city": "南阳市",
            "district": "宛城区"
        }
    },
    {
        "id": "13546861531942450906",
        "title": "公共厕所",
        "address": "河南省南阳市镇平县平安大道与玉源大道交叉口正东方向181米左右",
        "tel": "",
        "category": "基础设施:公共设施:公共厕所",
        "type": 0,
        "location": {
            "lat": 33.023768,
            "lng": 112.183426
        },
        "ad_info": {
            "adcode": 411324,
            "province": "河南省",
            "city": "南阳市",
            "district": "镇平县"
        }
    },
    {
        "id": "11352064970902951494",
        "title": "无障碍公共厕所",
        "address": "河南省南阳市卧龙区工业北路与张衡大道交叉口正北方向58米左右",
        "tel": "",
        "category": "基础设施:公共设施:公共厕所",
        "type": 0,
        "location": {
            "lat": 33.022912,
            "lng": 112.534584
        },
        "ad_info": {
            "adcode": 411303,
            "province": "河南省",
            "city": "南阳市",
            "district": "卧龙区"
        }
    },
    {
        "id": "17376445457538296395",
        "title": "公共厕所",
        "address": "河南省南阳市镇平县佛光大道与玉佛大道交叉口正南方向147米左右",
        "tel": "",
        "category": "基础设施:公共设施:公共厕所",
        "type": 0,
        "location": {
            "lat": 33.070775,
            "lng": 112.154375
        },
        "ad_info": {
            "adcode": 411324,
            "province": "河南省",
            "city": "南阳市",
            "district": "镇平县"
        }
    },
    {
        "id": "14847971171997770587",
        "title": "公共厕所",
        "address": "河南省南阳市方城县荣昌路与金船路交叉口西南方向26米左右",
        "tel": "",
        "category": "基础设施:公共设施:公共厕所",
        "type": 0,
        "location": {
            "lat": 33.243788,
            "lng": 113.010677
        },
        "ad_info": {
            "adcode": 411322,
            "province": "河南省",
            "city": "南阳市",
            "district": "方城县"
        }
    },
    {
        "id": "10339324599530114608",
        "title": "公共厕所",
        "address": "河南省南阳市卧龙区卧龙路与知行大道交叉口正西方向207米左右",
        "tel": "",
        "category": "基础设施:公共设施:公共厕所",
        "type": 0,
        "location": {
            "lat": 32.972362,
            "lng": 112.488974
        },
        "ad_info": {
            "adcode": 411303,
            "province": "河南省",
            "city": "南阳市",
            "district": "卧龙区"
        }
    },
    {
        "id": "1194566693104701005",
        "title": "公共厕所",
        "address": "河南省南阳市卧龙区杏树庄前街与车站南路交叉口正南方向79米左右",
        "tel": "",
        "category": "基础设施:公共设施:公共厕所",
        "type": 0,
        "location": {
            "lat": 32.99289,
            "lng": 112.51236
        },
        "ad_info": {
            "adcode": 411303,
            "province": "河南省",
            "city": "南阳市",
            "district": "卧龙区"
        }
    },
    {
        "id": "8207913985567645801",
        "title": "公共厕所",
        "address": "河南省南阳市社旗县北京中路与北京南路交叉口正南方向122米左右",
        "tel": "",
        "category": "基础设施:公共设施:公共厕所",
        "type": 0,
        "location": {
            "lat": 33.044183,
            "lng": 112.927569
        },
        "ad_info": {
            "adcode": 411327,
            "province": "河南省",
            "city": "南阳市",
            "district": "社旗县"
        }
    },
    {
        "id": "7290515268914122611",
        "title": "无障碍公共厕所",
        "address": "河南省南阳市卧龙区北京北路与北京大道辅路交叉口正东方向103米左右",
        "tel": "",
        "category": "基础设施:公共设施:公共厕所",
        "type": 0,
        "location": {
            "lat": 32.993452,
            "lng": 112.499173
        },
        "ad_info": {
            "adcode": 411303,
            "province": "河南省",
            "city": "南阳市",
            "district": "卧龙区"
        }
    },
    {
        "id": "2881271098188065732",
        "title": "公共厕所",
        "address": "河南省南阳市卧龙区百里奚北巷与百里奚南路交叉口正西方向56米左右",
        "tel": "",
        "category": "基础设施:公共设施:公共厕所",
        "type": 0,
        "location": {
            "lat": 32.994669,
            "lng": 112.505482
        },
        "ad_info": {
            "adcode": 411303,
            "province": "河南省",
            "city": "南阳市",
            "district": "卧龙区"
        }
    },
    {
        "id": "14926158284342283282",
        "title": "公共厕所管理间",
        "address": "河南省南阳市宛城区伏牛路与白河大道交叉口正东方向80米左右",
        "tel": "",
        "category": "基础设施:公共设施:公共厕所",
        "type": 0,
        "location": {
            "lat": 32.975568,
            "lng": 112.533771
        },
        "ad_info": {
            "adcode": 411302,
            "province": "河南省",
            "city": "南阳市",
            "district": "宛城区"
        }
    },
    {
        "id": "8373048431874777137",
        "title": "公共厕所",
        "address": "河南省南阳市桐柏县大同路与新华路交叉口东南方向135米左右",
        "tel": "",
        "category": "基础设施:公共设施:公共厕所",
        "type": 0,
        "location": {
            "lat": 32.366139,
            "lng": 113.407434
        },
        "ad_info": {
            "adcode": 411330,
            "province": "河南省",
            "city": "南阳市",
            "district": "桐柏县"
        }
    },
    {
        "id": "15203846240767991263",
        "title": "公共厕所",
        "address": "河南省南阳市卧龙区光武中路1575号",
        "tel": "",
        "category": "基础设施:公共设施:公共厕所",
        "type": 0,
        "location": {
            "lat": 33.013566,
            "lng": 112.525885
        },
        "ad_info": {
            "adcode": 411303,
            "province": "河南省",
            "city": "南阳市",
            "district": "卧龙区"
        }
    },
    {
        "id": "12320790536218302255",
        "title": "公共厕所",
        "address": "河南省南阳市邓州市北京大道邓州市第一高级中学",
        "tel": "",
        "category": "基础设施:公共设施:公共厕所",
        "type": 0,
        "location": {
            "lat": 32.67663,
            "lng": 112.121202
        },
        "ad_info": {
            "adcode": 411381,
            "province": "河南省",
            "city": "南阳市",
            "district": "邓州市"
        }
    },
    {
        "id": "7686065847525320291",
        "title": "公共厕所",
        "address": "河南省南阳市卧龙区工业南路与赵东巷交叉口西北方向172米左右",
        "tel": "",
        "category": "基础设施:公共设施:公共厕所",
        "type": 0,
        "location": {
            "lat": 32.993009,
            "lng": 112.520509
        },
        "ad_info": {
            "adcode": 411303,
            "province": "河南省",
            "city": "南阳市",
            "district": "卧龙区"
        }
    },
    {
        "id": "3354448665407162533",
        "title": "公共厕所",
        "address": "河南省南阳市卧龙区京宛大道辅路与孔明大道辅路交叉口东北方向74米左右",
        "tel": "",
        "category": "基础设施:公共设施:公共厕所",
        "type": 0,
        "location": {
            "lat": 33.040581,
            "lng": 112.6039
        },
        "ad_info": {
            "adcode": 411303,
            "province": "河南省",
            "city": "南阳市",
            "district": "卧龙区"
        }
    },
    {
        "id": "14500365792346844930",
        "title": "公共厕所",
        "address": "河南省南阳市卧龙区七里园社区农贸市场门口东边",
        "tel": "",
        "category": "基础设施:公共设施:公共厕所",
        "type": 0,
        "location": {
            "lat": 33.028847,
            "lng": 112.549268
        },
        "ad_info": {
            "adcode": 411303,
            "province": "河南省",
            "city": "南阳市",
            "district": "卧龙区"
        }
    },
    {
        "id": "16089030941497664556",
        "title": "公共厕所",
        "address": "河南省南阳市社旗县建设中路与滨河北路交叉口正东方向139米左右",
        "tel": "",
        "category": "基础设施:公共设施:公共厕所",
        "type": 0,
        "location": {
            "lat": 33.047879,
            "lng": 112.935807
        },
        "ad_info": {
            "adcode": 411327,
            "province": "河南省",
            "city": "南阳市",
            "district": "社旗县"
        }
    },
    {
        "id": "11875563199558411619",
        "title": "公共厕所",
        "address": "河南省南阳市南召县阳光大道与黄洋南路交叉口正西方向272米左右",
        "tel": "",
        "category": "基础设施:公共设施:公共厕所",
        "type": 0,
        "location": {
            "lat": 33.46193,
            "lng": 112.44539
        },
        "ad_info": {
            "adcode": 411321,
            "province": "河南省",
            "city": "南阳市",
            "district": "南召县"
        }
    },
    {
        "id": "8031432093319167038",
        "title": "公共厕所",
        "address": "河南省南阳市卧龙区工业北路与汉冶路交叉口正南方向208米左右",
        "tel": "",
        "category": "基础设施:公共设施:公共厕所",
        "type": 0,
        "location": {
            "lat": 33.012276,
            "lng": 112.532195
        },
        "ad_info": {
            "adcode": 411303,
            "province": "河南省",
            "city": "南阳市",
            "district": "卧龙区"
        }
    },
    {
        "id": "18009136907329433327",
        "title": "公共厕所",
        "address": "河南省南阳市卧龙区北京北路与麒麟路辅路交叉口正西方向21米左右",
        "tel": "",
        "category": "基础设施:公共设施:公共厕所",
        "type": 0,
        "location": {
            "lat": 33.00562,
            "lng": 112.497702
        },
        "ad_info": {
            "adcode": 411303,
            "province": "河南省",
            "city": "南阳市",
            "district": "卧龙区"
        }
    },
    {
        "id": "11276163922169700578",
        "title": "花洲书院公共厕所",
        "address": "河南省南阳市邓州市穰城路花洲书院(东南角)",
        "tel": "",
        "category": "基础设施:公共设施:公共厕所",
        "type": 0,
        "location": {
            "lat": 32.672063,
            "lng": 112.100617
        },
        "ad_info": {
            "adcode": 411381,
            "province": "河南省",
            "city": "南阳市",
            "district": "邓州市"
        }
    },
    {
        "id": "2056065899422727136",
        "title": "公共厕所",
        "address": "河南省南阳市卧龙区车站南路与金岗巷交叉口西北方向232米左右",
        "tel": "",
        "category": "基础设施:公共设施:公共厕所",
        "type": 0,
        "location": {
            "lat": 32.966964,
            "lng": 112.50676
        },
        "ad_info": {
            "adcode": 411303,
            "province": "河南省",
            "city": "南阳市",
            "district": "卧龙区"
        }
    },
    {
        "id": "1926181665592102213",
        "title": "公共厕所",
        "address": "河南省南阳市南召县皇石大道与鲁南路交叉口正北方向108米左右",
        "tel": "",
        "category": "基础设施:公共设施:公共厕所",
        "type": 0,
        "location": {
            "lat": 33.251332,
            "lng": 112.641208
        },
        "ad_info": {
            "adcode": 411321,
            "province": "河南省",
            "city": "南阳市",
            "district": "南召县"
        }
    },
    {
        "id": "5762192738760973434",
        "title": "公共厕所",
        "address": "河南省南阳市宛城区工农北路151号",
        "tel": "",
        "category": "基础设施:公共设施:公共厕所",
        "type": 0,
        "location": {
            "lat": 33.01452,
            "lng": 112.53934
        },
        "ad_info": {
            "adcode": 411302,
            "province": "河南省",
            "city": "南阳市",
            "district": "宛城区"
        }
    },
    {
        "id": "2350585871152189271",
        "title": "公共厕所",
        "address": "河南省南阳市卧龙区中建七局医院向西50米",
        "tel": "",
        "category": "基础设施:公共设施:公共厕所",
        "type": 0,
        "location": {
            "lat": 33.004178,
            "lng": 112.505965
        },
        "ad_info": {
            "adcode": 411303,
            "province": "河南省",
            "city": "南阳市",
            "district": "卧龙区"
        }
    },
    {
        "id": "4128708097889860856",
        "title": "公共厕所",
        "address": "河南省南阳市邓州市南阁路与教育路交叉口正西方向63米左右",
        "tel": "",
        "category": "基础设施:公共设施:公共厕所",
        "type": 0,
        "location": {
            "lat": 32.675775,
            "lng": 112.096256
        },
        "ad_info": {
            "adcode": 411381,
            "province": "河南省",
            "city": "南阳市",
            "district": "邓州市"
        }
    },
    {
        "id": "14635856550622515459",
        "title": "公共厕所",
        "address": "河南省南阳市卧龙区车站北路83号",
        "tel": "",
        "category": "基础设施:公共设施:公共厕所",
        "type": 0,
        "location": {
            "lat": 33.002848,
            "lng": 112.517823
        },
        "ad_info": {
            "adcode": 411303,
            "province": "河南省",
            "city": "南阳市",
            "district": "卧龙区"
        }
    },
    {
        "id": "12438075562954687814",
        "title": "公共厕所",
        "address": "河南省南阳市卧龙区工业北路与范蠡西路交叉口正东方向29米左右",
        "tel": "",
        "category": "基础设施:公共设施:公共厕所",
        "type": 0,
        "location": {
            "lat": 33.018033,
            "lng": 112.53602
        },
        "ad_info": {
            "adcode": 411303,
            "province": "河南省",
            "city": "南阳市",
            "district": "卧龙区"
        }
    },
    {
        "id": "4865144813145889553",
        "title": "公共厕所",
        "address": "河南省南阳市南召县中华路与人民路交叉口正东方向119米左右",
        "tel": "",
        "category": "基础设施:公共设施:公共厕所",
        "type": 0,
        "location": {
            "lat": 33.490887,
            "lng": 112.432779
        },
        "ad_info": {
            "adcode": 411321,
            "province": "河南省",
            "city": "南阳市",
            "district": "南召县"
        }
    },
    {
        "id": "1603505945259581688",
        "title": "公共厕所",
        "address": "河南省南阳市宛城区S103与独山大道南段交叉口东北方向47米左右",
        "tel": "",
        "category": "基础设施:公共设施:公共厕所",
        "type": 0,
        "location": {
            "lat": 32.976135,
            "lng": 112.570491
        },
        "ad_info": {
            "adcode": 411302,
            "province": "河南省",
            "city": "南阳市",
            "district": "宛城区"
        }
    },
    {
        "id": "9185119025553070075",
        "title": "公共厕所",
        "address": "河南省南阳市方城县凤瑞路与富强路交叉口正南方向52米左右",
        "tel": "",
        "category": "基础设施:公共设施:公共厕所",
        "type": 0,
        "location": {
            "lat": 33.254536,
            "lng": 113.008292
        },
        "ad_info": {
            "adcode": 411322,
            "province": "河南省",
            "city": "南阳市",
            "district": "方城县"
        }
    },
    {
        "id": "3950312151849055558",
        "title": "公共厕所",
        "address": "河南省南阳市卧龙区汉江路与滨河大道交叉口东北方向277米左右",
        "tel": "",
        "category": "基础设施:公共设施:公共厕所",
        "type": 0,
        "location": {
            "lat": 32.964638,
            "lng": 112.515939
        },
        "ad_info": {
            "adcode": 411303,
            "province": "河南省",
            "city": "南阳市",
            "district": "卧龙区"
        }
    },
    {
        "id": "8785430564410950441",
        "title": "公共厕所",
        "address": "河南省南阳市西峡县农商路与春风路交叉口西北方向339米左右",
        "tel": "",
        "category": "基础设施:公共设施:公共厕所",
        "type": 0,
        "location": {
            "lat": 33.281007,
            "lng": 111.492411
        },
        "ad_info": {
            "adcode": 411323,
            "province": "河南省",
            "city": "南阳市",
            "district": "西峡县"
        }
    },
    {
        "id": "5718478630464328311",
        "title": "公共厕所",
        "address": "河南省南阳市邓州市小城南街与邓襄路交叉口正西方向284米左右",
        "tel": "",
        "category": "基础设施:公共设施:公共厕所",
        "type": 0,
        "location": {
            "lat": 32.667192,
            "lng": 112.085206
        },
        "ad_info": {
            "adcode": 411381,
            "province": "河南省",
            "city": "南阳市",
            "district": "邓州市"
        }
    },
    {
        "id": "15197718496943960439",
        "title": "公共厕所",
        "address": "河南省南阳市宛城区经十路中关村小区",
        "tel": "",
        "category": "基础设施:公共设施:公共厕所",
        "type": 0,
        "location": {
            "lat": 32.940801,
            "lng": 112.580804
        },
        "ad_info": {
            "adcode": 411302,
            "province": "河南省",
            "city": "南阳市",
            "district": "宛城区"
        }
    },
    {
        "id": "7538915368648999492",
        "title": "公共厕所",
        "address": "河南省南阳市宛城区兴隆路与华山路交叉口西北方向33米左右",
        "tel": "",
        "category": "基础设施:公共设施:公共厕所",
        "type": 0,
        "location": {
            "lat": 32.974765,
            "lng": 112.542746
        },
        "ad_info": {
            "adcode": 411302,
            "province": "河南省",
            "city": "南阳市",
            "district": "宛城区"
        }
    },
    {
        "id": "2965468619991692335",
        "title": "公共厕所",
        "address": "河南省南阳市卧龙区明山路与范蠡东路交叉口东北方向43米左右",
        "tel": "",
        "category": "基础设施:公共设施:公共厕所",
        "type": 0,
        "location": {
            "lat": 33.017642,
            "lng": 112.560462
        },
        "ad_info": {
            "adcode": 411303,
            "province": "河南省",
            "city": "南阳市",
            "district": "卧龙区"
        }
    },
    {
        "id": "15186727072571741583",
        "title": "公共厕所",
        "address": "河南省南阳市卧龙区杜诗路与独山大道(北段)交叉口正东方向487米左右",
        "tel": "",
        "category": "基础设施:公共设施:公共厕所",
        "type": 0,
        "location": {
            "lat": 33.038314,
            "lng": 112.574261
        },
        "ad_info": {
            "adcode": 411303,
            "province": "河南省",
            "city": "南阳市",
            "district": "卧龙区"
        }
    },
    {
        "id": "10001532331674172378",
        "title": "公共厕所",
        "address": "河南省南阳市宛城区兴隆路与枣林街交叉口正西方向162米左右",
        "tel": "",
        "category": "基础设施:公共设施:公共厕所",
        "type": 0,
        "location": {
            "lat": 32.979351,
            "lng": 112.542266
        },
        "ad_info": {
            "adcode": 411302,
            "province": "河南省",
            "city": "南阳市",
            "district": "宛城区"
        }
    },
    {
        "id": "8777557216039803681",
        "title": "公共厕所",
        "address": "河南省南阳市卧龙区工业南路与桐东巷交叉口西北方向21米左右",
        "tel": "",
        "category": "基础设施:公共设施:公共厕所",
        "type": 0,
        "location": {
            "lat": 32.994272,
            "lng": 112.521657
        },
        "ad_info": {
            "adcode": 411303,
            "province": "河南省",
            "city": "南阳市",
            "district": "卧龙区"
        }
    },
    {
        "id": "10209976693926339855",
        "title": "公共厕所",
        "address": "河南省南阳市方城县玉金加油站西北侧70米",
        "tel": "",
        "category": "基础设施:公共设施:公共厕所",
        "type": 0,
        "location": {
            "lat": 33.243906,
            "lng": 113.00803
        },
        "ad_info": {
            "adcode": 411322,
            "province": "河南省",
            "city": "南阳市",
            "district": "方城县"
        }
    },
    {
        "id": "16067365559532415961",
        "title": "公共厕所",
        "address": "河南省南阳市镇平县城皇庙下街与府前街交叉口正北方向81米左右",
        "tel": "",
        "category": "基础设施:公共设施:公共厕所",
        "type": 0,
        "location": {
            "lat": 33.034492,
            "lng": 112.236167
        },
        "ad_info": {
            "adcode": 411324,
            "province": "河南省",
            "city": "南阳市",
            "district": "镇平县"
        }
    },
    {
        "id": "13747935621739936923",
        "title": "公共厕所",
        "address": "河南省南阳市宛城区康庄新村南侧",
        "tel": "",
        "category": "基础设施:公共设施:公共厕所",
        "type": 0,
        "location": {
            "lat": 32.935364,
            "lng": 112.580583
        },
        "ad_info": {
            "adcode": 411302,
            "province": "河南省",
            "city": "南阳市",
            "district": "宛城区"
        }
    },
    {
        "id": "15790368777319971275",
        "title": "公共厕所",
        "address": "河南省南阳市西峡县莲花北路与迎宾大道交叉口东南方向69米左右",
        "tel": "",
        "category": "基础设施:公共设施:公共厕所",
        "type": 0,
        "location": {
            "lat": 33.325675,
            "lng": 111.492826
        },
        "ad_info": {
            "adcode": 411323,
            "province": "河南省",
            "city": "南阳市",
            "district": "西峡县"
        }
    },
    {
        "id": "13896524040315723805",
        "title": "公共厕所",
        "address": "河南省南阳市唐河县新春南路292号",
        "tel": "",
        "category": "基础设施:公共设施:公共厕所",
        "type": 0,
        "location": {
            "lat": 32.678705,
            "lng": 112.83668
        },
        "ad_info": {
            "adcode": 411328,
            "province": "河南省",
            "city": "南阳市",
            "district": "唐河县"
        }
    },
    {
        "id": "8767670236997666668",
        "title": "公共厕所",
        "address": "河南省南阳市宛城区张衡大道与滨河大道交叉口西南方向73米左右",
        "tel": "",
        "category": "基础设施:公共设施:公共厕所",
        "type": 0,
        "location": {
            "lat": 33.012671,
            "lng": 112.601127
        },
        "ad_info": {
            "adcode": 411302,
            "province": "河南省",
            "city": "南阳市",
            "district": "宛城区"
        }
    },
    {
        "id": "9587733269996829872",
        "title": "公共厕所",
        "address": "河南省南阳市宛城区工农南路71号",
        "tel": "",
        "category": "基础设施:公共设施:公共厕所",
        "type": 0,
        "location": {
            "lat": 33.007372,
            "lng": 112.544213
        },
        "ad_info": {
            "adcode": 411302,
            "province": "河南省",
            "city": "南阳市",
            "district": "宛城区"
        }
    },
    {
        "id": "941363812018250180",
        "title": "公共厕所",
        "address": "河南省南阳市宛城区医圣祠路与滨河大道交叉口正西方向98米左右",
        "tel": "",
        "category": "基础设施:公共设施:公共厕所",
        "type": 0,
        "location": {
            "lat": 32.993344,
            "lng": 112.581894
        },
        "ad_info": {
            "adcode": 411302,
            "province": "河南省",
            "city": "南阳市",
            "district": "宛城区"
        }
    },
    {
        "id": "513190356460607199",
        "title": "公共厕所",
        "address": "河南省南阳市邓州市湍滨北路与滨河东支路交叉口正南方向391米左右",
        "tel": "",
        "category": "基础设施:公共设施:公共厕所",
        "type": 0,
        "location": {
            "lat": 32.700287,
            "lng": 112.116039
        },
        "ad_info": {
            "adcode": 411381,
            "province": "河南省",
            "city": "南阳市",
            "district": "邓州市"
        }
    },
    {
        "id": "13959976625739976464",
        "title": "免费公共厕所",
        "address": "河南省南阳市西峡县白羽南路180号",
        "tel": "",
        "category": "基础设施:公共设施:公共厕所",
        "type": 0,
        "location": {
            "lat": 33.302723,
            "lng": 111.484884
        },
        "ad_info": {
            "adcode": 411323,
            "province": "河南省",
            "city": "南阳市",
            "district": "西峡县"
        }
    },
    {
        "id": "14656179849859604433",
        "title": "南阳北服务区公共厕所",
        "address": "河南省南阳市卧龙区G55二广高速附近",
        "tel": "",
        "category": "基础设施:公共设施:公共厕所",
        "type": 0,
        "location": {
            "lat": 33.169047,
            "lng": 112.452376
        },
        "ad_info": {
            "adcode": 411303,
            "province": "河南省",
            "city": "南阳市",
            "district": "卧龙区"
        }
    },
    {
        "id": "4209527594326680123",
        "title": "公共厕所",
        "address": "河南省南阳市西峡县仲景大道西段与白羽南路交叉口正北方向78米左右",
        "tel": "",
        "category": "基础设施:公共设施:公共厕所",
        "type": 0,
        "location": {
            "lat": 33.289488,
            "lng": 111.487374
        },
        "ad_info": {
            "adcode": 411323,
            "province": "河南省",
            "city": "南阳市",
            "district": "西峡县"
        }
    },
    {
        "id": "2637144213942273641",
        "title": "唐河服务区公共厕所",
        "address": "河南省南阳市唐河县G312与草店桥交叉口正南方向1416米左右",
        "tel": "",
        "category": "基础设施:公共设施:公共厕所",
        "type": 0,
        "location": {
            "lat": 32.756415,
            "lng": 112.763725
        },
        "ad_info": {
            "adcode": 411328,
            "province": "河南省",
            "city": "南阳市",
            "district": "唐河县"
        }
    },
    {
        "id": "370837236221911894",
        "title": "公共厕所",
        "address": "河南省南阳市南召县新世纪大道与黄洋路交叉口东北方向250米左右",
        "tel": "",
        "category": "基础设施:公共设施:公共厕所",
        "type": 0,
        "location": {
            "lat": 33.474878,
            "lng": 112.446642
        },
        "ad_info": {
            "adcode": 411321,
            "province": "河南省",
            "city": "南阳市",
            "district": "南召县"
        }
    },
    {
        "id": "17141992421346717452",
        "title": "公共厕所",
        "address": "河南省南阳市西峡县农商路与新村路交叉口正东方向47米左右",
        "tel": "",
        "category": "基础设施:公共设施:公共厕所",
        "type": 0,
        "location": {
            "lat": 33.285961,
            "lng": 111.488872
        },
        "ad_info": {
            "adcode": 411323,
            "province": "河南省",
            "city": "南阳市",
            "district": "西峡县"
        }
    },
    {
        "id": "14660721717672676413",
        "title": "新野服务区公共厕所",
        "address": "河南省南阳市新野县S239与肖庄桥交叉口正东方向1588米左右",
        "tel": "",
        "category": "基础设施:公共设施:公共厕所",
        "type": 0,
        "location": {
            "lat": 32.648772,
            "lng": 112.309523
        },
        "ad_info": {
            "adcode": 411329,
            "province": "河南省",
            "city": "南阳市",
            "district": "新野县"
        }
    },
    {
        "id": "10033119763185727683",
        "title": "县衙右署街南公厕",
        "address": "河南省南阳市内乡县菊潭大街北10号",
        "tel": "",
        "category": "基础设施:公共设施:公共厕所",
        "type": 0,
        "location": {
            "lat": 33.047699,
            "lng": 111.848748
        },
        "ad_info": {
            "adcode": 411325,
            "province": "河南省",
            "city": "南阳市",
            "district": "内乡县"
        }
    },
    {
        "id": "15116513273936418181",
        "title": "新野服务区第一公共厕所",
        "address": "河南省南阳市新野县S239与肖庄桥交叉口东北方向1531米左右",
        "tel": "",
        "category": "基础设施:公共设施:公共厕所",
        "type": 0,
        "location": {
            "lat": 32.650544,
            "lng": 112.307895
        },
        "ad_info": {
            "adcode": 411329,
            "province": "河南省",
            "city": "南阳市",
            "district": "新野县"
        }
    },
    {
        "id": "1150576356918692420",
        "title": "桐柏服务区公共厕所",
        "address": "河南省南阳市桐柏县吴城镇焦桐高速公路桐柏服务区",
        "tel": "",
        "category": "基础设施:公共设施:公共厕所",
        "type": 0,
        "location": {
            "lat": 32.470894,
            "lng": 113.486809
        },
        "ad_info": {
            "adcode": 411330,
            "province": "河南省",
            "city": "南阳市",
            "district": "桐柏县"
        }
    },
    {
        "id": "310131606267342454",
        "title": "南阳北服务区公共厕所",
        "address": "河南省南阳市卧龙区G55二广高速东150米",
        "tel": "",
        "category": "基础设施:公共设施:公共厕所",
        "type": 0,
        "location": {
            "lat": 33.168249,
            "lng": 112.454605
        },
        "ad_info": {
            "adcode": 411303,
            "province": "河南省",
            "city": "南阳市",
            "district": "卧龙区"
        }
    },
    {
        "id": "18346448056905039379",
        "title": "桐柏服务区公共厕所",
        "address": "河南省南阳市桐柏县焦桐高速桐柏服务区",
        "tel": "",
        "category": "基础设施:公共设施:公共厕所",
        "type": 0,
        "location": {
            "lat": 32.469845,
            "lng": 113.488963
        },
        "ad_info": {
            "adcode": 411330,
            "province": "河南省",
            "city": "南阳市",
            "district": "桐柏县"
        }
    },
    {
        "id": "7152283351212770729",
        "title": "免费公共厕所",
        "address": "河南省南阳市西峡县白羽南路杏花李幼儿园",
        "tel": "",
        "category": "基础设施:公共设施:公共厕所",
        "type": 0,
        "location": {
            "lat": 33.301141,
            "lng": 111.48562
        },
        "ad_info": {
            "adcode": 411323,
            "province": "河南省",
            "city": "南阳市",
            "district": "西峡县"
        }
    },
    {
        "id": "3713738681151108942",
        "title": "方城服务区公共厕所",
        "address": "河南省南阳市方城县清河乡万岗兰南高速公路方城服务区",
        "tel": "",
        "category": "基础设施:公共设施:公共厕所",
        "type": 0,
        "location": {
            "lat": 33.217957,
            "lng": 112.895487
        },
        "ad_info": {
            "adcode": 411322,
            "province": "河南省",
            "city": "南阳市",
            "district": "方城县"
        }
    },
    {
        "id": "3705307664583964345",
        "title": "西峡服务区第一公共厕所",
        "address": "河南省南阳市西峡县沪陕高速西峡服务区",
        "tel": "",
        "category": "基础设施:公共设施:公共厕所",
        "type": 0,
        "location": {
            "lat": 33.312678,
            "lng": 111.526579
        },
        "ad_info": {
            "adcode": 411323,
            "province": "河南省",
            "city": "南阳市",
            "district": "西峡县"
        }
    },
    {
        "id": "5391593381046864219",
        "title": "镇平服务区第一公共厕所",
        "address": "河南省南阳市镇平县G312与中户杨小桥交叉口正东方向1482米左右",
        "tel": "",
        "category": "基础设施:公共设施:公共厕所",
        "type": 0,
        "location": {
            "lat": 33.020754,
            "lng": 112.138076
        },
        "ad_info": {
            "adcode": 411324,
            "province": "河南省",
            "city": "南阳市",
            "district": "镇平县"
        }
    },
    {
        "id": "406725930755554804",
        "title": "方城服务区公共厕所",
        "address": "河南省南阳市方城县兰南高速方城服务区",
        "tel": "",
        "category": "基础设施:公共设施:公共厕所",
        "type": 0,
        "location": {
            "lat": 33.220038,
            "lng": 112.893685
        },
        "ad_info": {
            "adcode": 411322,
            "province": "河南省",
            "city": "南阳市",
            "district": "方城县"
        }
    },
    {
        "id": "2330089966304363347",
        "title": "镇平服务区公共厕所",
        "address": "河南省南阳市镇平县G312与中户杨小桥交叉口正东方向1426米左右",
        "tel": "",
        "category": "基础设施:公共设施:公共厕所",
        "type": 0,
        "location": {
            "lat": 33.018962,
            "lng": 112.137262
        },
        "ad_info": {
            "adcode": 411324,
            "province": "河南省",
            "city": "南阳市",
            "district": "镇平县"
        }
    },
    {
        "id": "9990484239962315971",
        "title": "公共厕所",
        "address": "河南省南阳市淅川县前进路与解放街交叉口西南方向49米左右",
        "tel": "",
        "category": "基础设施:公共设施:公共厕所",
        "type": 0,
        "location": {
            "lat": 33.142489,
            "lng": 111.487023
        },
        "ad_info": {
            "adcode": 411326,
            "province": "河南省",
            "city": "南阳市",
            "district": "淅川县"
        }
    },
    {
        "id": "5663778282418883013",
        "title": "公共厕所",
        "address": "河南省南阳市卧龙区仲景大道与南泰路交叉口正西方向50米左右",
        "tel": "",
        "category": "基础设施:公共设施:公共厕所",
        "type": 0,
        "location": {
            "lat": 33.036897,
            "lng": 112.558435
        },
        "ad_info": {
            "adcode": 411303,
            "province": "河南省",
            "city": "南阳市",
            "district": "卧龙区"
        }
    },
    {
        "id": "5849778792456940548",
        "title": "公共厕所",
        "address": "河南省南阳市方城县张骞大道与龙泉路交叉口正东方向247米左右",
        "tel": "",
        "category": "基础设施:公共设施:公共厕所",
        "type": 0,
        "location": {
            "lat": 33.258771,
            "lng": 113.031947
        },
        "ad_info": {
            "adcode": 411322,
            "province": "河南省",
            "city": "南阳市",
            "district": "方城县"
        }
    },
    {
        "id": "1777781378103907370",
        "title": "公共厕所",
        "address": "河南省南阳市邓州市人民路与文化路交叉口西北方向142米左右",
        "tel": "",
        "category": "基础设施:公共设施:公共厕所",
        "type": 0,
        "location": {
            "lat": 32.67265,
            "lng": 112.092203
        },
        "ad_info": {
            "adcode": 411381,
            "province": "河南省",
            "city": "南阳市",
            "district": "邓州市"
        }
    },
    {
        "id": "3061172801603592332",
        "title": "公共厕所",
        "address": "河南省南阳市邓州市团结西路邓州站",
        "tel": "",
        "category": "基础设施:公共设施:公共厕所",
        "type": 0,
        "location": {
            "lat": 32.682877,
            "lng": 112.070863
        },
        "ad_info": {
            "adcode": 411381,
            "province": "河南省",
            "city": "南阳市",
            "district": "邓州市"
        }
    },
    {
        "id": "3184650447252637573",
        "title": "公共厕所",
        "address": "河南省南阳市宛城区联合街与马道街交叉口正东方向47米左右",
        "tel": "",
        "category": "基础设施:公共设施:公共厕所",
        "type": 0,
        "location": {
            "lat": 32.99562,
            "lng": 112.537532
        },
        "ad_info": {
            "adcode": 411302,
            "province": "河南省",
            "city": "南阳市",
            "district": "宛城区"
        }
    },
    {
        "id": "9918141926383487570",
        "title": "公共厕所",
        "address": "河南省南阳市宛城区天冠大道与涧河路交叉口正东方向196米左右",
        "tel": "",
        "category": "基础设施:公共设施:公共厕所",
        "type": 0,
        "location": {
            "lat": 32.940924,
            "lng": 112.541368
        },
        "ad_info": {
            "adcode": 411302,
            "province": "河南省",
            "city": "南阳市",
            "district": "宛城区"
        }
    },
    {
        "id": "13032810194560362859",
        "title": "公共厕所",
        "address": "河南省南阳市邓州市东一环路辅路与中州路辅路交叉口正北方向220米左右",
        "tel": "",
        "category": "基础设施:公共设施:公共厕所",
        "type": 0,
        "location": {
            "lat": 32.683711,
            "lng": 112.110558
        },
        "ad_info": {
            "adcode": 411381,
            "province": "河南省",
            "city": "南阳市",
            "district": "邓州市"
        }
    },
    {
        "id": "13944207175724310247",
        "title": "公共厕所",
        "address": "河南省南阳市社旗县北骡店街与南骡店街交叉口东北方向67米左右",
        "tel": "",
        "category": "基础设施:公共设施:公共厕所",
        "type": 0,
        "location": {
            "lat": 33.055936,
            "lng": 112.944471
        },
        "ad_info": {
            "adcode": 411327,
            "province": "河南省",
            "city": "南阳市",
            "district": "社旗县"
        }
    },
    {
        "id": "13763048623816797564",
        "title": "公共厕所",
        "address": "河南省南阳市卧龙区张衡东路辅路与独山大道交叉口东南方向116米左右",
        "tel": "",
        "category": "基础设施:公共设施:公共厕所",
        "type": 0,
        "location": {
            "lat": 33.022086,
            "lng": 112.567315
        },
        "ad_info": {
            "adcode": 411303,
            "province": "河南省",
            "city": "南阳市",
            "district": "卧龙区"
        }
    },
    {
        "id": "5708599390231801015",
        "title": "公共厕所",
        "address": "河南省南阳市镇平县健康路与站前路交叉口西北方向175米左右",
        "tel": "",
        "category": "基础设施:公共设施:公共厕所",
        "type": 0,
        "location": {
            "lat": 33.053062,
            "lng": 112.224382
        },
        "ad_info": {
            "adcode": 411324,
            "province": "河南省",
            "city": "南阳市",
            "district": "镇平县"
        }
    },
    {
        "id": "6292719373173005759",
        "title": "公共厕所",
        "address": "河南省南阳市宛城区南都路与汉冶东路交叉口东南方向54米左右",
        "tel": "",
        "category": "基础设施:公共设施:公共厕所",
        "type": 0,
        "location": {
            "lat": 33.011129,
            "lng": 112.581695
        },
        "ad_info": {
            "adcode": 411302,
            "province": "河南省",
            "city": "南阳市",
            "district": "宛城区"
        }
    },
    {
        "id": "6482528801459442856",
        "title": "公共厕所",
        "address": "河南省南阳市镇平县广场北路与玉博路交叉口东北方向101米左右",
        "tel": "",
        "category": "基础设施:公共设施:公共厕所",
        "type": 0,
        "location": {
            "lat": 33.074966,
            "lng": 112.160275
        },
        "ad_info": {
            "adcode": 411324,
            "province": "河南省",
            "city": "南阳市",
            "district": "镇平县"
        }
    },
    {
        "id": "14044427012496119782",
        "title": "公共厕所",
        "address": "河南省南阳市宛城区明山南路399号",
        "tel": "",
        "category": "基础设施:公共设施:公共厕所",
        "type": 0,
        "location": {
            "lat": 33.002256,
            "lng": 112.55859
        },
        "ad_info": {
            "adcode": 411302,
            "province": "河南省",
            "city": "南阳市",
            "district": "宛城区"
        }
    },
    {
        "id": "9347021983219249025",
        "title": "公共厕所",
        "address": "河南省南阳市卧龙区中州大道与博望路交叉口正北方向126米左右",
        "tel": "",
        "category": "基础设施:公共设施:公共厕所",
        "type": 0,
        "location": {
            "lat": 32.993333,
            "lng": 112.492078
        },
        "ad_info": {
            "adcode": 411303,
            "province": "河南省",
            "city": "南阳市",
            "district": "卧龙区"
        }
    },
    {
        "id": "8141955663942844870",
        "title": "卧龙岗公共厕所",
        "address": "河南省南阳市卧龙区卧龙路624号",
        "tel": "",
        "category": "基础设施:公共设施:公共厕所",
        "type": 0,
        "location": {
            "lat": 32.978447,
            "lng": 112.509362
        },
        "ad_info": {
            "adcode": 411303,
            "province": "河南省",
            "city": "南阳市",
            "district": "卧龙区"
        }
    },
    {
        "id": "7320634903899835658",
        "title": "公共厕所",
        "address": "河南省南阳市方城县文卫街与裕州路交叉口西南方向39米左右",
        "tel": "",
        "category": "基础设施:公共设施:公共厕所",
        "type": 0,
        "location": {
            "lat": 33.260425,
            "lng": 113.011156
        },
        "ad_info": {
            "adcode": 411322,
            "province": "河南省",
            "city": "南阳市",
            "district": "方城县"
        }
    },
    {
        "id": "2436985659280363739",
        "title": "公共厕所",
        "address": "河南省南阳市宛城区建设东路与滨河大道交叉口西南方向83米左右",
        "tel": "",
        "category": "基础设施:公共设施:公共厕所",
        "type": 0,
        "location": {
            "lat": 33.001826,
            "lng": 112.585212
        },
        "ad_info": {
            "adcode": 411302,
            "province": "河南省",
            "city": "南阳市",
            "district": "宛城区"
        }
    },
    {
        "id": "5155361682307555690",
        "title": "公共厕所",
        "address": "河南省南阳市卧龙区广安汽车销售服务有限公司东北侧190米",
        "tel": "",
        "category": "基础设施:公共设施:公共厕所",
        "type": 0,
        "location": {
            "lat": 33.037572,
            "lng": 112.535642
        },
        "ad_info": {
            "adcode": 411303,
            "province": "河南省",
            "city": "南阳市",
            "district": "卧龙区"
        }
    },
    {
        "id": "8461732610787000396",
        "title": "公共厕所",
        "address": "河南省南阳市卧龙区七里园一街与工农北路交叉口正北方向163米左右",
        "tel": "",
        "category": "基础设施:公共设施:公共厕所",
        "type": 0,
        "location": {
            "lat": 33.031632,
            "lng": 112.547601
        },
        "ad_info": {
            "adcode": 411303,
            "province": "河南省",
            "city": "南阳市",
            "district": "卧龙区"
        }
    },
    {
        "id": "1215381409396786575",
        "title": "公共厕所",
        "address": "河南省南阳市西峡县世纪大道西段与礼堂路交叉口西北方向95米左右",
        "tel": "",
        "category": "基础设施:公共设施:公共厕所",
        "type": 0,
        "location": {
            "lat": 33.313155,
            "lng": 111.481375
        },
        "ad_info": {
            "adcode": 411323,
            "province": "河南省",
            "city": "南阳市",
            "district": "西峡县"
        }
    },
    {
        "id": "6576789418157381470",
        "title": "公共厕所",
        "address": "河南省南阳市镇平县S240与民族东街交叉口东北方向256米左右",
        "tel": "",
        "category": "基础设施:公共设施:公共厕所",
        "type": 0,
        "location": {
            "lat": 32.94693,
            "lng": 112.082002
        },
        "ad_info": {
            "adcode": 411324,
            "province": "河南省",
            "city": "南阳市",
            "district": "镇平县"
        }
    },
    {
        "id": "17266961962679738080",
        "title": "公共厕所",
        "address": "河南省南阳市社旗县中兴隆街与北兴隆街交叉口东北方向34米左右",
        "tel": "",
        "category": "基础设施:公共设施:公共厕所",
        "type": 0,
        "location": {
            "lat": 33.055933,
            "lng": 112.942656
        },
        "ad_info": {
            "adcode": 411327,
            "province": "河南省",
            "city": "南阳市",
            "district": "社旗县"
        }
    },
    {
        "id": "6952778797964180059",
        "title": "公共厕所",
        "address": "河南省南阳市内乡县菊潭大街10号",
        "tel": "",
        "category": "基础设施:公共设施:公共厕所",
        "type": 0,
        "location": {
            "lat": 33.069177,
            "lng": 111.83083
        },
        "ad_info": {
            "adcode": 411325,
            "province": "河南省",
            "city": "南阳市",
            "district": "内乡县"
        }
    },
    {
        "id": "16258668017507685992",
        "title": "公共厕所",
        "address": "河南省南阳市宛城区兴隆路与嵩山路交叉口正西方向158米左右",
        "tel": "",
        "category": "基础设施:公共设施:公共厕所",
        "type": 0,
        "location": {
            "lat": 32.976942,
            "lng": 112.549434
        },
        "ad_info": {
            "adcode": 411302,
            "province": "河南省",
            "city": "南阳市",
            "district": "宛城区"
        }
    },
    {
        "id": "11230740154193735608",
        "title": "公共厕所",
        "address": "河南省南阳市唐河县滨河南路与花园西路交叉口正西方向36米左右",
        "tel": "",
        "category": "基础设施:公共设施:公共厕所",
        "type": 0,
        "location": {
            "lat": 32.680311,
            "lng": 112.81878
        },
        "ad_info": {
            "adcode": 411328,
            "province": "河南省",
            "city": "南阳市",
            "district": "唐河县"
        }
    },
    {
        "id": "13506305066281211935",
        "title": "生态公共厕所",
        "address": "河南省南阳市方城县S103与花亭路交叉口正南方向90米左右",
        "tel": "",
        "category": "基础设施:公共设施:公共厕所",
        "type": 0,
        "location": {
            "lat": 33.240824,
            "lng": 113.018473
        },
        "ad_info": {
            "adcode": 411322,
            "province": "河南省",
            "city": "南阳市",
            "district": "方城县"
        }
    },
    {
        "id": "9017845719812122903",
        "title": "公共厕所",
        "address": "河南省南阳市新野县中兴路与大桥路交叉口正北方向130米左右",
        "tel": "",
        "category": "基础设施:公共设施:公共厕所",
        "type": 0,
        "location": {
            "lat": 32.506632,
            "lng": 112.379007
        },
        "ad_info": {
            "adcode": 411329,
            "province": "河南省",
            "city": "南阳市",
            "district": "新野县"
        }
    },
    {
        "id": "726177010969393251",
        "title": "公共厕所",
        "address": "河南省南阳市镇平县中山街与察院街交叉口正北方向96米左右",
        "tel": "",
        "category": "基础设施:公共设施:公共厕所",
        "type": 0,
        "location": {
            "lat": 33.03657,
            "lng": 112.237611
        },
        "ad_info": {
            "adcode": 411324,
            "province": "河南省",
            "city": "南阳市",
            "district": "镇平县"
        }
    },
    {
        "id": "1950738868951465463",
        "title": "公共厕所",
        "address": "河南省南阳市西峡县人民西路与紫金路交叉口正东方向47米左右",
        "tel": "",
        "category": "基础设施:公共设施:公共厕所",
        "type": 0,
        "location": {
            "lat": 33.305476,
            "lng": 111.47733
        },
        "ad_info": {
            "adcode": 411323,
            "province": "河南省",
            "city": "南阳市",
            "district": "西峡县"
        }
    },
    {
        "id": "4821281169755158536",
        "title": "公共厕所",
        "address": "河南省南阳市桐柏县淮安路与淮河路交叉口东南方向134米左右",
        "tel": "",
        "category": "基础设施:公共设施:公共厕所",
        "type": 0,
        "location": {
            "lat": 32.369458,
            "lng": 113.411447
        },
        "ad_info": {
            "adcode": 411330,
            "province": "河南省",
            "city": "南阳市",
            "district": "桐柏县"
        }
    },
    {
        "id": "1669842153721621833",
        "title": "公共厕所",
        "address": "河南省南阳市宛城区商苑步行街与独山大道(南段)交叉口正南方向609米左右",
        "tel": "",
        "category": "基础设施:公共设施:公共厕所",
        "type": 0,
        "location": {
            "lat": 32.968059,
            "lng": 112.571171
        },
        "ad_info": {
            "adcode": 411302,
            "province": "河南省",
            "city": "南阳市",
            "district": "宛城区"
        }
    },
    {
        "id": "17862404736597380987",
        "title": "公共厕所",
        "address": "河南省南阳市宛城区张衡东路与邓禹路交叉口正东方向119米左右",
        "tel": "",
        "category": "基础设施:公共设施:公共厕所",
        "type": 0,
        "location": {
            "lat": 33.018049,
            "lng": 112.589539
        },
        "ad_info": {
            "adcode": 411302,
            "province": "河南省",
            "city": "南阳市",
            "district": "宛城区"
        }
    },
    {
        "id": "2324147351455484563",
        "title": "公共厕所",
        "address": "河南省南阳市唐河县人民北路与建设中路交叉口西北方向77米左右",
        "tel": "",
        "category": "基础设施:公共设施:公共厕所",
        "type": 0,
        "location": {
            "lat": 32.688539,
            "lng": 112.837542
        },
        "ad_info": {
            "adcode": 411328,
            "province": "河南省",
            "city": "南阳市",
            "district": "唐河县"
        }
    },
    {
        "id": "3933654378445111123",
        "title": "公共厕所",
        "address": "河南省南阳市宛城区S103与中原路交叉口正南方向50米左右",
        "tel": "",
        "category": "基础设施:公共设施:公共厕所",
        "type": 0,
        "location": {
            "lat": 33.058616,
            "lng": 112.717865
        },
        "ad_info": {
            "adcode": 411302,
            "province": "河南省",
            "city": "南阳市",
            "district": "宛城区"
        }
    },
    {
        "id": "11351358619044869950",
        "title": "公共厕所",
        "address": "河南省南阳市西峡县白羽北路83号",
        "tel": "",
        "category": "基础设施:公共设施:公共厕所",
        "type": 0,
        "location": {
            "lat": 33.308768,
            "lng": 111.485092
        },
        "ad_info": {
            "adcode": 411323,
            "province": "河南省",
            "city": "南阳市",
            "district": "西峡县"
        }
    },
    {
        "id": "6512371169106238982",
        "title": "公共厕所",
        "address": "河南省南阳市西峡县卫校路与建设东路交叉口正西方向136米左右",
        "tel": "",
        "category": "基础设施:公共设施:公共厕所",
        "type": 0,
        "location": {
            "lat": 33.297452,
            "lng": 111.493406
        },
        "ad_info": {
            "adcode": 411323,
            "province": "河南省",
            "city": "南阳市",
            "district": "西峡县"
        }
    },
    {
        "id": "2943721495400174949",
        "title": "公共厕所",
        "address": "河南省南阳市宛城区工农路与建设中路交叉口正北方向67米左右",
        "tel": "",
        "category": "基础设施:公共设施:公共厕所",
        "type": 0,
        "location": {
            "lat": 33.003973,
            "lng": 112.543043
        },
        "ad_info": {
            "adcode": 411302,
            "province": "河南省",
            "city": "南阳市",
            "district": "宛城区"
        }
    },
    {
        "id": "11344734834167235254",
        "title": "公共厕所",
        "address": "河南省南阳市西峡县工业大道南段与张洼路交叉口西南方向139米左右",
        "tel": "",
        "category": "基础设施:公共设施:公共厕所",
        "type": 0,
        "location": {
            "lat": 33.304667,
            "lng": 111.499989
        },
        "ad_info": {
            "adcode": 411323,
            "province": "河南省",
            "city": "南阳市",
            "district": "西峡县"
        }
    },
    {
        "id": "10248095366243267059",
        "title": "火车站公共厕所",
        "address": "河南省南阳市卧龙区新华西路与车站北路辅路交叉口西160米",
        "tel": "",
        "category": "基础设施:公共设施:公共厕所",
        "type": 0,
        "location": {
            "lat": 32.998456,
            "lng": 112.513077
        },
        "ad_info": {
            "adcode": 411303,
            "province": "河南省",
            "city": "南阳市",
            "district": "卧龙区"
        }
    },
    {
        "id": "1818853644583220451",
        "title": "公共厕所",
        "address": "河南省南阳市镇平县新华路与涅阳路交叉口正南方向182米左右",
        "tel": "",
        "category": "基础设施:公共设施:公共厕所",
        "type": 0,
        "location": {
            "lat": 33.028486,
            "lng": 112.238237
        },
        "ad_info": {
            "adcode": 411324,
            "province": "河南省",
            "city": "南阳市",
            "district": "镇平县"
        }
    },
    {
        "id": "17198344479789674712",
        "title": "公共厕所",
        "address": "河南省南阳市宛城区嵩山路与长江中路交叉口西南方向18米左右",
        "tel": "",
        "category": "基础设施:公共设施:公共厕所",
        "type": 0,
        "location": {
            "lat": 32.974406,
            "lng": 112.551363
        },
        "ad_info": {
            "adcode": 411302,
            "province": "河南省",
            "city": "南阳市",
            "district": "宛城区"
        }
    },
    {
        "id": "881009233473277021",
        "title": "公共厕所",
        "address": "河南省南阳市卧龙区工业北路与梅溪派出所巷交叉口正西方向101米左右",
        "tel": "",
        "category": "基础设施:公共设施:公共厕所",
        "type": 0,
        "location": {
            "lat": 33.000598,
            "lng": 112.522938
        },
        "ad_info": {
            "adcode": 411303,
            "province": "河南省",
            "city": "南阳市",
            "district": "卧龙区"
        }
    },
    {
        "id": "8719281252567980690",
        "title": "公共卫生间",
        "address": "河南省南阳市卧龙区新华西路与梅溪路交叉口正东方向161米左右",
        "tel": "",
        "category": "基础设施:公共设施:公共厕所",
        "type": 0,
        "location": {
            "lat": 32.997848,
            "lng": 112.533692
        },
        "ad_info": {
            "adcode": 411303,
            "province": "河南省",
            "city": "南阳市",
            "district": "卧龙区"
        }
    },
    {
        "id": "15682401440902634857",
        "title": "无障碍公共厕所",
        "address": "河南省南阳市西峡县西峡站售票处东北侧180米",
        "tel": "",
        "category": "基础设施:公共设施:公共厕所",
        "type": 0,
        "location": {
            "lat": 33.272103,
            "lng": 111.513957
        },
        "ad_info": {
            "adcode": 411323,
            "province": "河南省",
            "city": "南阳市",
            "district": "西峡县"
        }
    },
    {
        "id": "719697077449513276",
        "title": "洗手间",
        "address": "河南省南阳市宛城区五里堡巷与民族示范巷交叉口正西方向446米左右",
        "tel": "",
        "category": "基础设施:公共设施:公共厕所",
        "type": 0,
        "location": {
            "lat": 32.961441,
            "lng": 112.524402
        },
        "ad_info": {
            "adcode": 411302,
            "province": "河南省",
            "city": "南阳市",
            "district": "宛城区"
        }
    },
    {
        "id": "17584682580997405412",
        "title": "县衙观世音堂公厕",
        "address": "河南省南阳市内乡县署右街",
        "tel": "",
        "category": "基础设施:公共设施:公共厕所",
        "type": 0,
        "location": {
            "lat": 33.049385,
            "lng": 111.848126
        },
        "ad_info": {
            "adcode": 411325,
            "province": "河南省",
            "city": "南阳市",
            "district": "内乡县"
        }
    },
    {
        "id": "2259708214427105079",
        "title": "公共厕所",
        "address": "河南省南阳市宛城区独山大道(南段)辅路与长江中路交叉口正西方向359米左右",
        "tel": "",
        "category": "基础设施:公共设施:公共厕所",
        "type": 0,
        "location": {
            "lat": 32.97548,
            "lng": 112.563492
        },
        "ad_info": {
            "adcode": 411302,
            "province": "河南省",
            "city": "南阳市",
            "district": "宛城区"
        }
    },
    {
        "id": "2815305407722974972",
        "title": "公共厕所",
        "address": "河南省南阳市淅川县渠首大道祥瑞首府",
        "tel": "",
        "category": "基础设施:公共设施:公共厕所",
        "type": 0,
        "location": {
            "lat": 33.144794,
            "lng": 111.480704
        },
        "ad_info": {
            "adcode": 411326,
            "province": "河南省",
            "city": "南阳市",
            "district": "淅川县"
        }
    },
    {
        "id": "11204298467996355397",
        "title": "公共厕所",
        "address": "河南省南阳市宛城区滨河大道与释之路交叉口东南方向152米左右",
        "tel": "",
        "category": "基础设施:公共设施:公共厕所",
        "type": 0,
        "location": {
            "lat": 33.034321,
            "lng": 112.612919
        },
        "ad_info": {
            "adcode": 411302,
            "province": "河南省",
            "city": "南阳市",
            "district": "宛城区"
        }
    },
    {
        "id": "15862964945480026084",
        "title": "公共厕所",
        "address": "河南省南阳市宛城区独山大道(南段)辅路与长江中路交叉口西北方向185米左右",
        "tel": "",
        "category": "基础设施:公共设施:公共厕所",
        "type": 0,
        "location": {
            "lat": 32.977612,
            "lng": 112.565969
        },
        "ad_info": {
            "adcode": 411302,
            "province": "河南省",
            "city": "南阳市",
            "district": "宛城区"
        }
    },
    {
        "id": "18084654316046476657",
        "title": "公共厕所",
        "address": "河南省南阳市淅川县东风路与南阳路交叉口正西方向103米左右",
        "tel": "",
        "category": "基础设施:公共设施:公共厕所",
        "type": 0,
        "location": {
            "lat": 33.131361,
            "lng": 111.49221
        },
        "ad_info": {
            "adcode": 411326,
            "province": "河南省",
            "city": "南阳市",
            "district": "淅川县"
        }
    },
    {
        "id": "8947557722647406215",
        "title": "公共厕所",
        "address": "河南省南阳市卧龙区福临门商务酒店(北京路东)",
        "tel": "",
        "category": "基础设施:公共设施:公共厕所",
        "type": 0,
        "location": {
            "lat": 32.982069,
            "lng": 112.498702
        },
        "ad_info": {
            "adcode": 411303,
            "province": "河南省",
            "city": "南阳市",
            "district": "卧龙区"
        }
    },
    {
        "id": "14025787167159247367",
        "title": "公共厕所",
        "address": "河南省南阳市宛城区伏牛路与天冠大道交叉口正东方向94米左右",
        "tel": "",
        "category": "基础设施:公共设施:公共厕所",
        "type": 0,
        "location": {
            "lat": 32.966012,
            "lng": 112.544133
        },
        "ad_info": {
            "adcode": 411302,
            "province": "河南省",
            "city": "南阳市",
            "district": "宛城区"
        }
    },
    {
        "id": "2566679025823441182",
        "title": "公共厕所",
        "address": "河南省南阳市宛城区建设东路与独山大道(中段)交叉口西南120米",
        "tel": "",
        "category": "基础设施:公共设施:公共厕所",
        "type": 0,
        "location": {
            "lat": 33.002235,
            "lng": 112.565667
        },
        "ad_info": {
            "adcode": 411302,
            "province": "河南省",
            "city": "南阳市",
            "district": "宛城区"
        }
    },
    {
        "id": "9182596629786687084",
        "title": "公共厕所",
        "address": "河南省南阳市方城县市场路与盛世巷交叉口正北方向16米左右",
        "tel": "",
        "category": "基础设施:公共设施:公共厕所",
        "type": 0,
        "location": {
            "lat": 33.251119,
            "lng": 113.014754
        },
        "ad_info": {
            "adcode": 411322,
            "province": "河南省",
            "city": "南阳市",
            "district": "方城县"
        }
    },
    {
        "id": "4221374680898073944",
        "title": "公共厕所",
        "address": "河南省南阳市唐河县北京大道与滨河南路交叉口西南方向48米左右",
        "tel": "",
        "category": "基础设施:公共设施:公共厕所",
        "type": 0,
        "location": {
            "lat": 32.676929,
            "lng": 112.817769
        },
        "ad_info": {
            "adcode": 411328,
            "province": "河南省",
            "city": "南阳市",
            "district": "唐河县"
        }
    },
    {
        "id": "7392774564500728828",
        "title": "文化宫广场公共厕所",
        "address": "河南省南阳市卧龙区文化宫街文化宫广场(西南角)",
        "tel": "",
        "category": "基础设施:公共设施:公共厕所",
        "type": 0,
        "location": {
            "lat": 32.995171,
            "lng": 112.53481
        },
        "ad_info": {
            "adcode": 411303,
            "province": "河南省",
            "city": "南阳市",
            "district": "卧龙区"
        }
    },
    {
        "id": "14037467318844847975",
        "title": "公共厕所",
        "address": "河南省南阳市镇平县安国路与涅阳路交叉口正北方向236米左右",
        "tel": "",
        "category": "基础设施:公共设施:公共厕所",
        "type": 0,
        "location": {
            "lat": 33.032947,
            "lng": 112.248106
        },
        "ad_info": {
            "adcode": 411324,
            "province": "河南省",
            "city": "南阳市",
            "district": "镇平县"
        }
    },
    {
        "id": "5879225365241184994",
        "title": "公共厕所",
        "address": "河南省南阳市邓州市南京路与涅阳路交叉口正南方向41米左右",
        "tel": "",
        "category": "基础设施:公共设施:公共厕所",
        "type": 0,
        "location": {
            "lat": 32.854588,
            "lng": 112.29463
        },
        "ad_info": {
            "adcode": 411381,
            "province": "河南省",
            "city": "南阳市",
            "district": "邓州市"
        }
    },
    {
        "id": "11636070476250953576",
        "title": "公共厕所",
        "address": "河南省南阳市卧龙区百里奚北路与百里奚路交叉口东南方向220米左右",
        "tel": "",
        "category": "基础设施:公共设施:公共厕所",
        "type": 0,
        "location": {
            "lat": 33.025217,
            "lng": 112.520073
        },
        "ad_info": {
            "adcode": 411303,
            "province": "河南省",
            "city": "南阳市",
            "district": "卧龙区"
        }
    },
    {
        "id": "10395418362736130269",
        "title": "公共厕所",
        "address": "河南省南阳市宛城区商苑路与蒲山路交叉口正东方向487米左右",
        "tel": "",
        "category": "基础设施:公共设施:公共厕所",
        "type": 0,
        "location": {
            "lat": 32.97264,
            "lng": 112.584285
        },
        "ad_info": {
            "adcode": 411302,
            "province": "河南省",
            "city": "南阳市",
            "district": "宛城区"
        }
    },
    {
        "id": "6192238577493655771",
        "title": "肯德基(大统餐厅)-洗手间",
        "address": "河南省南阳市宛城区中州东路510号大统百货1楼(人民路口)",
        "tel": "",
        "category": "基础设施:公共设施:公共厕所",
        "type": 0,
        "location": {
            "lat": 32.991224,
            "lng": 112.535894
        },
        "ad_info": {
            "adcode": 411302,
            "province": "河南省",
            "city": "南阳市",
            "district": "宛城区"
        }
    },
    {
        "id": "10778160566177697693",
        "title": "公共厕所",
        "address": "河南省南阳市卧龙区新华西路346号",
        "tel": "",
        "category": "基础设施:公共设施:公共厕所",
        "type": 0,
        "location": {
            "lat": 32.997634,
            "lng": 112.528671
        },
        "ad_info": {
            "adcode": 411303,
            "province": "河南省",
            "city": "南阳市",
            "district": "卧龙区"
        }
    },
    {
        "id": "13442924664308352720",
        "title": "公共厕所",
        "address": "河南省南阳市镇平县独山路与玉仙路交叉口东南方向84米左右",
        "tel": "",
        "category": "基础设施:公共设施:公共厕所",
        "type": 0,
        "location": {
            "lat": 33.064252,
            "lng": 112.159081
        },
        "ad_info": {
            "adcode": 411324,
            "province": "河南省",
            "city": "南阳市",
            "district": "镇平县"
        }
    },
    {
        "id": "7738372041159353234",
        "title": "公共厕所",
        "address": "河南省南阳市邓州市雷锋路六高中东侧",
        "tel": "",
        "category": "基础设施:公共设施:公共厕所",
        "type": 0,
        "location": {
            "lat": 32.693718,
            "lng": 112.108013
        },
        "ad_info": {
            "adcode": 411381,
            "province": "河南省",
            "city": "南阳市",
            "district": "邓州市"
        }
    },
    {
        "id": "5204859233874065864",
        "title": "公共厕所",
        "address": "河南省南阳市宛城区华山路与淯阳桥交叉口正西方向66米左右",
        "tel": "",
        "category": "基础设施:公共设施:公共厕所",
        "type": 0,
        "location": {
            "lat": 32.979196,
            "lng": 112.539799
        },
        "ad_info": {
            "adcode": 411302,
            "province": "河南省",
            "city": "南阳市",
            "district": "宛城区"
        }
    },
    {
        "id": "11281913906298231794",
        "title": "公共厕所",
        "address": "河南省南阳市淅川县丹江大道与荆楚路交叉口正北方向343米左右",
        "tel": "",
        "category": "基础设施:公共设施:公共厕所",
        "type": 0,
        "location": {
            "lat": 33.117934,
            "lng": 111.483902
        },
        "ad_info": {
            "adcode": 411326,
            "province": "河南省",
            "city": "南阳市",
            "district": "淅川县"
        }
    },
    {
        "id": "10933560561908654418",
        "title": "公共厕所",
        "address": "河南省南阳市桐柏县新华街龙翔苑中心商贸城",
        "tel": "",
        "category": "基础设施:公共设施:公共厕所",
        "type": 0,
        "location": {
            "lat": 32.368203,
            "lng": 113.405399
        },
        "ad_info": {
            "adcode": 411330,
            "province": "河南省",
            "city": "南阳市",
            "district": "桐柏县"
        }
    },
    {
        "id": "16258540477595987870",
        "title": "公共厕所",
        "address": "河南省南阳市方城县七峰大道与江淮大道交叉口正北方向164米左右",
        "tel": "",
        "category": "基础设施:公共设施:公共厕所",
        "type": 0,
        "location": {
            "lat": 33.276527,
            "lng": 113.032464
        },
        "ad_info": {
            "adcode": 411322,
            "province": "河南省",
            "city": "南阳市",
            "district": "方城县"
        }
    },
    {
        "id": "17695886115504991039",
        "title": "公共厕所",
        "address": "河南省南阳市卧龙区北京大道辅路与卧龙路交叉口正北方向211米左右",
        "tel": "",
        "category": "基础设施:公共设施:公共厕所",
        "type": 0,
        "location": {
            "lat": 32.976863,
            "lng": 112.498595
        },
        "ad_info": {
            "adcode": 411303,
            "province": "河南省",
            "city": "南阳市",
            "district": "卧龙区"
        }
    },
    {
        "id": "10391354290049404232",
        "title": "公共厕所",
        "address": "河南省南阳市宛城区杜诗路与滨河大道交叉口正南方向188米左右",
        "tel": "",
        "category": "基础设施:公共设施:公共厕所",
        "type": 0,
        "location": {
            "lat": 33.029831,
            "lng": 112.61083
        },
        "ad_info": {
            "adcode": 411302,
            "province": "河南省",
            "city": "南阳市",
            "district": "宛城区"
        }
    },
    {
        "id": "3393248869043297300",
        "title": "公共厕所",
        "address": "河南省南阳市内乡县湍河西路北19号",
        "tel": "",
        "category": "基础设施:公共设施:公共厕所",
        "type": 0,
        "location": {
            "lat": 33.050323,
            "lng": 111.852951
        },
        "ad_info": {
            "adcode": 411325,
            "province": "河南省",
            "city": "南阳市",
            "district": "内乡县"
        }
    },
    {
        "id": "10745294575509502022",
        "title": "公共厕所",
        "address": "河南省南阳市社旗县建设中路与陈南路交叉口正东方向140米左右",
        "tel": "",
        "category": "基础设施:公共设施:公共厕所",
        "type": 0,
        "location": {
            "lat": 33.052968,
            "lng": 112.937743
        },
        "ad_info": {
            "adcode": 411327,
            "province": "河南省",
            "city": "南阳市",
            "district": "社旗县"
        }
    },
    {
        "id": "6537694479240201976",
        "title": "公共厕所",
        "address": "河南省南阳市宛城区九龙路与独山大道(南段)交叉口东北方向60米左右",
        "tel": "",
        "category": "基础设施:公共设施:公共厕所",
        "type": 0,
        "location": {
            "lat": 32.979323,
            "lng": 112.567953
        },
        "ad_info": {
            "adcode": 411302,
            "province": "河南省",
            "city": "南阳市",
            "district": "宛城区"
        }
    },
    {
        "id": "2377354368932142619",
        "title": "公共厕所",
        "address": "河南省南阳市邓州市北京大道与南一环交叉口西南方向71米左右",
        "tel": "",
        "category": "基础设施:公共设施:公共厕所",
        "type": 0,
        "location": {
            "lat": 32.661927,
            "lng": 112.119526
        },
        "ad_info": {
            "adcode": 411381,
            "province": "河南省",
            "city": "南阳市",
            "district": "邓州市"
        }
    },
    {
        "id": "14608106987908655689",
        "title": "公共厕所",
        "address": "河南省南阳市宛城区医圣祠街366巷与医圣祠路交叉口正北方向300米左右",
        "tel": "",
        "category": "基础设施:公共设施:公共厕所",
        "type": 0,
        "location": {
            "lat": 32.999565,
            "lng": 112.560524
        },
        "ad_info": {
            "adcode": 411302,
            "province": "河南省",
            "city": "南阳市",
            "district": "宛城区"
        }
    },
    {
        "id": "16278994911686273246",
        "title": "公共厕所",
        "address": "河南省南阳市卧龙区光彩二路光彩大市场",
        "tel": "",
        "category": "基础设施:公共设施:公共厕所",
        "type": 0,
        "location": {
            "lat": 33.021633,
            "lng": 112.513413
        },
        "ad_info": {
            "adcode": 411303,
            "province": "河南省",
            "city": "南阳市",
            "district": "卧龙区"
        }
    },
    {
        "id": "4953296030926573409",
        "title": "公共厕所",
        "address": "河南省南阳市方城县裕州路与裕滨路交叉口正南方向89米左右",
        "tel": "",
        "category": "基础设施:公共设施:公共厕所",
        "type": 0,
        "location": {
            "lat": 33.249239,
            "lng": 113.009069
        },
        "ad_info": {
            "adcode": 411322,
            "province": "河南省",
            "city": "南阳市",
            "district": "方城县"
        }
    },
    {
        "id": "1650928330607610545",
        "title": "公共厕所",
        "address": "河南省南阳市卧龙区工业南路与工业北路辅路交叉口东南140米",
        "tel": "",
        "category": "基础设施:公共设施:公共厕所",
        "type": 0,
        "location": {
            "lat": 32.999451,
            "lng": 112.524742
        },
        "ad_info": {
            "adcode": 411303,
            "province": "河南省",
            "city": "南阳市",
            "district": "卧龙区"
        }
    },
    {
        "id": "9049726630488954116",
        "title": "公共厕所",
        "address": "河南省南阳市宛城区医圣祠路与明山路交叉口正北方向91米左右",
        "tel": "",
        "category": "基础设施:公共设施:公共厕所",
        "type": 0,
        "location": {
            "lat": 32.99759,
            "lng": 112.558504
        },
        "ad_info": {
            "adcode": 411302,
            "province": "河南省",
            "city": "南阳市",
            "district": "宛城区"
        }
    },
    {
        "id": "10395418362736130269",
        "title": "公共厕所",
        "address": "河南省南阳市宛城区商苑路与蒲山路交叉口正东方向487米左右",
        "tel": "",
        "category": "基础设施:公共设施:公共厕所",
        "type": 0,
        "location": {
            "lat": 32.97264,
            "lng": 112.584285
        },
        "ad_info": {
            "adcode": 411302,
            "province": "河南省",
            "city": "南阳市",
            "district": "宛城区"
        }
    },
    {
        "id": "6192238577493655771",
        "title": "肯德基(大统餐厅)-洗手间",
        "address": "河南省南阳市宛城区中州东路510号大统百货1楼(人民路口)",
        "tel": "",
        "category": "基础设施:公共设施:公共厕所",
        "type": 0,
        "location": {
            "lat": 32.991224,
            "lng": 112.535894
        },
        "ad_info": {
            "adcode": 411302,
            "province": "河南省",
            "city": "南阳市",
            "district": "宛城区"
        }
    },
    {
        "id": "10778160566177697693",
        "title": "公共厕所",
        "address": "河南省南阳市卧龙区新华西路346号",
        "tel": "",
        "category": "基础设施:公共设施:公共厕所",
        "type": 0,
        "location": {
            "lat": 32.997634,
            "lng": 112.528671
        },
        "ad_info": {
            "adcode": 411303,
            "province": "河南省",
            "city": "南阳市",
            "district": "卧龙区"
        }
    },
    {
        "id": "13442924664308352720",
        "title": "公共厕所",
        "address": "河南省南阳市镇平县独山路与玉仙路交叉口东南方向84米左右",
        "tel": "",
        "category": "基础设施:公共设施:公共厕所",
        "type": 0,
        "location": {
            "lat": 33.064252,
            "lng": 112.159081
        },
        "ad_info": {
            "adcode": 411324,
            "province": "河南省",
            "city": "南阳市",
            "district": "镇平县"
        }
    },
    {
        "id": "7738372041159353234",
        "title": "公共厕所",
        "address": "河南省南阳市邓州市雷锋路六高中东侧",
        "tel": "",
        "category": "基础设施:公共设施:公共厕所",
        "type": 0,
        "location": {
            "lat": 32.693718,
            "lng": 112.108013
        },
        "ad_info": {
            "adcode": 411381,
            "province": "河南省",
            "city": "南阳市",
            "district": "邓州市"
        }
    },
    {
        "id": "5204859233874065864",
        "title": "公共厕所",
        "address": "河南省南阳市宛城区华山路与淯阳桥交叉口正西方向66米左右",
        "tel": "",
        "category": "基础设施:公共设施:公共厕所",
        "type": 0,
        "location": {
            "lat": 32.979196,
            "lng": 112.539799
        },
        "ad_info": {
            "adcode": 411302,
            "province": "河南省",
            "city": "南阳市",
            "district": "宛城区"
        }
    },
    {
        "id": "11281913906298231794",
        "title": "公共厕所",
        "address": "河南省南阳市淅川县丹江大道与荆楚路交叉口正北方向343米左右",
        "tel": "",
        "category": "基础设施:公共设施:公共厕所",
        "type": 0,
        "location": {
            "lat": 33.117934,
            "lng": 111.483902
        },
        "ad_info": {
            "adcode": 411326,
            "province": "河南省",
            "city": "南阳市",
            "district": "淅川县"
        }
    },
    {
        "id": "10933560561908654418",
        "title": "公共厕所",
        "address": "河南省南阳市桐柏县新华街龙翔苑中心商贸城",
        "tel": "",
        "category": "基础设施:公共设施:公共厕所",
        "type": 0,
        "location": {
            "lat": 32.368203,
            "lng": 113.405399
        },
        "ad_info": {
            "adcode": 411330,
            "province": "河南省",
            "city": "南阳市",
            "district": "桐柏县"
        }
    },
    {
        "id": "16258540477595987870",
        "title": "公共厕所",
        "address": "河南省南阳市方城县七峰大道与江淮大道交叉口正北方向164米左右",
        "tel": "",
        "category": "基础设施:公共设施:公共厕所",
        "type": 0,
        "location": {
            "lat": 33.276527,
            "lng": 113.032464
        },
        "ad_info": {
            "adcode": 411322,
            "province": "河南省",
            "city": "南阳市",
            "district": "方城县"
        }
    },
    {
        "id": "17695886115504991039",
        "title": "公共厕所",
        "address": "河南省南阳市卧龙区北京大道辅路与卧龙路交叉口正北方向211米左右",
        "tel": "",
        "category": "基础设施:公共设施:公共厕所",
        "type": 0,
        "location": {
            "lat": 32.976863,
            "lng": 112.498595
        },
        "ad_info": {
            "adcode": 411303,
            "province": "河南省",
            "city": "南阳市",
            "district": "卧龙区"
        }
    },
    {
        "id": "10391354290049404232",
        "title": "公共厕所",
        "address": "河南省南阳市宛城区杜诗路与滨河大道交叉口正南方向188米左右",
        "tel": "",
        "category": "基础设施:公共设施:公共厕所",
        "type": 0,
        "location": {
            "lat": 33.029831,
            "lng": 112.61083
        },
        "ad_info": {
            "adcode": 411302,
            "province": "河南省",
            "city": "南阳市",
            "district": "宛城区"
        }
    },
    {
        "id": "3393248869043297300",
        "title": "公共厕所",
        "address": "河南省南阳市内乡县湍河西路北19号",
        "tel": "",
        "category": "基础设施:公共设施:公共厕所",
        "type": 0,
        "location": {
            "lat": 33.050323,
            "lng": 111.852951
        },
        "ad_info": {
            "adcode": 411325,
            "province": "河南省",
            "city": "南阳市",
            "district": "内乡县"
        }
    },
    {
        "id": "10745294575509502022",
        "title": "公共厕所",
        "address": "河南省南阳市社旗县建设中路与陈南路交叉口正东方向140米左右",
        "tel": "",
        "category": "基础设施:公共设施:公共厕所",
        "type": 0,
        "location": {
            "lat": 33.052968,
            "lng": 112.937743
        },
        "ad_info": {
            "adcode": 411327,
            "province": "河南省",
            "city": "南阳市",
            "district": "社旗县"
        }
    },
    {
        "id": "6537694479240201976",
        "title": "公共厕所",
        "address": "河南省南阳市宛城区九龙路与独山大道(南段)交叉口东北方向60米左右",
        "tel": "",
        "category": "基础设施:公共设施:公共厕所",
        "type": 0,
        "location": {
            "lat": 32.979323,
            "lng": 112.567953
        },
        "ad_info": {
            "adcode": 411302,
            "province": "河南省",
            "city": "南阳市",
            "district": "宛城区"
        }
    },
    {
        "id": "2377354368932142619",
        "title": "公共厕所",
        "address": "河南省南阳市邓州市北京大道与南一环交叉口西南方向71米左右",
        "tel": "",
        "category": "基础设施:公共设施:公共厕所",
        "type": 0,
        "location": {
            "lat": 32.661927,
            "lng": 112.119526
        },
        "ad_info": {
            "adcode": 411381,
            "province": "河南省",
            "city": "南阳市",
            "district": "邓州市"
        }
    },
    {
        "id": "14608106987908655689",
        "title": "公共厕所",
        "address": "河南省南阳市宛城区医圣祠街366巷与医圣祠路交叉口正北方向300米左右",
        "tel": "",
        "category": "基础设施:公共设施:公共厕所",
        "type": 0,
        "location": {
            "lat": 32.999565,
            "lng": 112.560524
        },
        "ad_info": {
            "adcode": 411302,
            "province": "河南省",
            "city": "南阳市",
            "district": "宛城区"
        }
    },
    {
        "id": "16278994911686273246",
        "title": "公共厕所",
        "address": "河南省南阳市卧龙区光彩二路光彩大市场",
        "tel": "",
        "category": "基础设施:公共设施:公共厕所",
        "type": 0,
        "location": {
            "lat": 33.021633,
            "lng": 112.513413
        },
        "ad_info": {
            "adcode": 411303,
            "province": "河南省",
            "city": "南阳市",
            "district": "卧龙区"
        }
    },
    {
        "id": "4953296030926573409",
        "title": "公共厕所",
        "address": "河南省南阳市方城县裕州路与裕滨路交叉口正南方向89米左右",
        "tel": "",
        "category": "基础设施:公共设施:公共厕所",
        "type": 0,
        "location": {
            "lat": 33.249239,
            "lng": 113.009069
        },
        "ad_info": {
            "adcode": 411322,
            "province": "河南省",
            "city": "南阳市",
            "district": "方城县"
        }
    },
    {
        "id": "1650928330607610545",
        "title": "公共厕所",
        "address": "河南省南阳市卧龙区工业南路与工业北路辅路交叉口东南140米",
        "tel": "",
        "category": "基础设施:公共设施:公共厕所",
        "type": 0,
        "location": {
            "lat": 32.999451,
            "lng": 112.524742
        },
        "ad_info": {
            "adcode": 411303,
            "province": "河南省",
            "city": "南阳市",
            "district": "卧龙区"
        }
    },
    {
        "id": "9049726630488954116",
        "title": "公共厕所",
        "address": "河南省南阳市宛城区医圣祠路与明山路交叉口正北方向91米左右",
        "tel": "",
        "category": "基础设施:公共设施:公共厕所",
        "type": 0,
        "location": {
            "lat": 32.99759,
            "lng": 112.558504
        },
        "ad_info": {
            "adcode": 411302,
            "province": "河南省",
            "city": "南阳市",
            "district": "宛城区"
        }
    },
    {
        "id": "10395418362736130269",
        "title": "公共厕所",
        "address": "河南省南阳市宛城区商苑路与蒲山路交叉口正东方向487米左右",
        "tel": "",
        "category": "基础设施:公共设施:公共厕所",
        "type": 0,
        "location": {
            "lat": 32.97264,
            "lng": 112.584285
        },
        "ad_info": {
            "adcode": 411302,
            "province": "河南省",
            "city": "南阳市",
            "district": "宛城区"
        }
    },
    {
        "id": "6192238577493655771",
        "title": "肯德基(大统餐厅)-洗手间",
        "address": "河南省南阳市宛城区中州东路510号大统百货1楼(人民路口)",
        "tel": "",
        "category": "基础设施:公共设施:公共厕所",
        "type": 0,
        "location": {
            "lat": 32.991224,
            "lng": 112.535894
        },
        "ad_info": {
            "adcode": 411302,
            "province": "河南省",
            "city": "南阳市",
            "district": "宛城区"
        }
    },
    {
        "id": "10778160566177697693",
        "title": "公共厕所",
        "address": "河南省南阳市卧龙区新华西路346号",
        "tel": "",
        "category": "基础设施:公共设施:公共厕所",
        "type": 0,
        "location": {
            "lat": 32.997634,
            "lng": 112.528671
        },
        "ad_info": {
            "adcode": 411303,
            "province": "河南省",
            "city": "南阳市",
            "district": "卧龙区"
        }
    },
    {
        "id": "13442924664308352720",
        "title": "公共厕所",
        "address": "河南省南阳市镇平县独山路与玉仙路交叉口东南方向84米左右",
        "tel": "",
        "category": "基础设施:公共设施:公共厕所",
        "type": 0,
        "location": {
            "lat": 33.064252,
            "lng": 112.159081
        },
        "ad_info": {
            "adcode": 411324,
            "province": "河南省",
            "city": "南阳市",
            "district": "镇平县"
        }
    },
    {
        "id": "7738372041159353234",
        "title": "公共厕所",
        "address": "河南省南阳市邓州市雷锋路六高中东侧",
        "tel": "",
        "category": "基础设施:公共设施:公共厕所",
        "type": 0,
        "location": {
            "lat": 32.693718,
            "lng": 112.108013
        },
        "ad_info": {
            "adcode": 411381,
            "province": "河南省",
            "city": "南阳市",
            "district": "邓州市"
        }
    },