[
    {
        "id": "3899460197311747387",
        "title": "公共厕所(XJ-BE-0299)",
        "address": "新疆维吾尔自治区博尔塔拉蒙古自治州博乐市赛里木湖游客中心",
        "tel": "",
        "category": "基础设施:公共设施:公共厕所",
        "type": 0,
        "location": {
            "lat": 44.602298,
            "lng": 81.394517
        },
        "ad_info": {
            "adcode": 652701,
            "province": "新疆维吾尔自治区",
            "city": "博尔塔拉蒙古自治州",
            "district": "博乐市"
        }
    },
    {
        "id": "9440269051409860555",
        "title": "公共厕所(XJ-BE-0355)",
        "address": "新疆维吾尔自治区博尔塔拉蒙古自治州博乐市文化南路与温泉路交叉口正东方向217米左右",
        "tel": "",
        "category": "基础设施:公共设施:公共厕所",
        "type": 0,
        "location": {
            "lat": 44.859387,
            "lng": 82.052864
        },
        "ad_info": {
            "adcode": 652701,
            "province": "新疆维吾尔自治区",
            "city": "博尔塔拉蒙古自治州",
            "district": "博乐市"
        }
    },
    {
        "id": "12721903047085339530",
        "title": "公共厕所",
        "address": "新疆维吾尔自治区博尔塔拉蒙古自治州博乐市赛里木湖景区亲水滩",
        "tel": "",
        "category": "基础设施:公共设施:公共厕所",
        "type": 0,
        "location": {
            "lat": 44.686021,
            "lng": 81.210615
        },
        "ad_info": {
            "adcode": 652701,
            "province": "新疆维吾尔自治区",
            "city": "博尔塔拉蒙古自治州",
            "district": "博乐市"
        }
    },
    {
        "id": "8026784031689263547",
        "title": "公共厕所",
        "address": "新疆维吾尔自治区博尔塔拉蒙古自治州博乐市青得里大街108号",
        "tel": "",
        "category": "基础设施:公共设施:公共厕所",
        "type": 0,
        "location": {
            "lat": 44.905334,
            "lng": 82.072873
        },
        "ad_info": {
            "adcode": 652701,
            "province": "新疆维吾尔自治区",
            "city": "博尔塔拉蒙古自治州",
            "district": "博乐市"
        }
    },
    {
        "id": "6004980873233545033",
        "title": "公共厕所",
        "address": "新疆维吾尔自治区博尔塔拉蒙古自治州博乐市新华路141号",
        "tel": "",
        "category": "基础设施:公共设施:公共厕所",
        "type": 0,
        "location": {
            "lat": 44.891066,
            "lng": 82.060615
        },
        "ad_info": {
            "adcode": 652701,
            "province": "新疆维吾尔自治区",
            "city": "博尔塔拉蒙古自治州",
            "district": "博乐市"
        }
    },
    {
        "id": "13142753631619193951",
        "title": "公共厕所",
        "address": "新疆维吾尔自治区博尔塔拉蒙古自治州博乐市博乐商业步行街与青得里大街交叉口西南方向158米左右",
        "tel": "",
        "category": "基础设施:公共设施:公共厕所",
        "type": 0,
        "location": {
            "lat": 44.902693,
            "lng": 82.07655
        },
        "ad_info": {
            "adcode": 652701,
            "province": "新疆维吾尔自治区",
            "city": "博尔塔拉蒙古自治州",
            "district": "博乐市"
        }
    },
    {
        "id": "13291806043882768414",
        "title": "卫生间",
        "address": "新疆维吾尔自治区博尔塔拉蒙古自治州博乐市天山圣湖茶餐厅东侧",
        "tel": "",
        "category": "基础设施:公共设施:公共厕所",
        "type": 0,
        "location": {
            "lat": 44.503376,
            "lng": 81.144219
        },
        "ad_info": {
            "adcode": 652701,
            "province": "新疆维吾尔自治区",
            "city": "博尔塔拉蒙古自治州",
            "district": "博乐市"
        }
    },
    {
        "id": "4947565228924313774",
        "title": "公共厕所",
        "address": "新疆维吾尔自治区博尔塔拉蒙古自治州博乐市友谊路兴乐广场",
        "tel": "",
        "category": "基础设施:公共设施:公共厕所",
        "type": 0,
        "location": {
            "lat": 44.894463,
            "lng": 82.073047
        },
        "ad_info": {
            "adcode": 652701,
            "province": "新疆维吾尔自治区",
            "city": "博尔塔拉蒙古自治州",
            "district": "博乐市"
        }
    },
    {
        "id": "8052272513969894411",
        "title": "公共厕所",
        "address": "新疆维吾尔自治区博尔塔拉蒙古自治州博乐市八一路76号",
        "tel": "",
        "category": "基础设施:公共设施:公共厕所",
        "type": 0,
        "location": {
            "lat": 44.881639,
            "lng": 82.05451
        },
        "ad_info": {
            "adcode": 652701,
            "province": "新疆维吾尔自治区",
            "city": "博尔塔拉蒙古自治州",
            "district": "博乐市"
        }
    },
    {
        "id": "13706017368551479791",
        "title": "公共厕所",
        "address": "新疆维吾尔自治区博尔塔拉蒙古自治州博乐市新华路北87号",
        "tel": "",
        "category": "基础设施:公共设施:公共厕所",
        "type": 0,
        "location": {
            "lat": 44.88774,
            "lng": 82.070896
        },
        "ad_info": {
            "adcode": 652701,
            "province": "新疆维吾尔自治区",
            "city": "博尔塔拉蒙古自治州",
            "district": "博乐市"
        }
    },
    {
        "id": "1218302914287479408",
        "title": "公共厕所",
        "address": "新疆维吾尔自治区博尔塔拉蒙古自治州博乐市红星路156号",
        "tel": "",
        "category": "基础设施:公共设施:公共厕所",
        "type": 0,
        "location": {
            "lat": 44.886028,
            "lng": 82.069575
        },
        "ad_info": {
            "adcode": 652701,
            "province": "新疆维吾尔自治区",
            "city": "博尔塔拉蒙古自治州",
            "district": "博乐市"
        }
    },
    {
        "id": "2043438803951048954",
        "title": "公共厕所",
        "address": "新疆维吾尔自治区博尔塔拉蒙古自治州博乐市中亚花海露营地餐吧西北侧70米",
        "tel": "",
        "category": "基础设施:公共设施:公共厕所",
        "type": 0,
        "location": {
            "lat": 44.52224,
            "lng": 81.091891
        },
        "ad_info": {
            "adcode": 652701,
            "province": "新疆维吾尔自治区",
            "city": "博尔塔拉蒙古自治州",
            "district": "博乐市"
        }
    },
    {
        "id": "3168002421213614660",
        "title": "公共厕所",
        "address": "新疆维吾尔自治区博尔塔拉蒙古自治州温泉县哈夏林场",
        "tel": "",
        "category": "基础设施:公共设施:公共厕所",
        "type": 0,
        "location": {
            "lat": 44.778181,
            "lng": 81.241752
        },
        "ad_info": {
            "adcode": 652723,
            "province": "新疆维吾尔自治区",
            "city": "博尔塔拉蒙古自治州",
            "district": "温泉县"
        }
    },
    {
        "id": "9704870204619360514",
        "title": "公共厕所",
        "address": "新疆维吾尔自治区博尔塔拉蒙古自治州博乐市友谊路与红星路交叉口正西方向85米左右",
        "tel": "",
        "category": "基础设施:公共设施:公共厕所",
        "type": 0,
        "location": {
            "lat": 44.894667,
            "lng": 82.069847
        },
        "ad_info": {
            "adcode": 652701,
            "province": "新疆维吾尔自治区",
            "city": "博尔塔拉蒙古自治州",
            "district": "博乐市"
        }
    },
    {
        "id": "8559879131037268924",
        "title": "公共厕所",
        "address": "新疆维吾尔自治区博尔塔拉蒙古自治州博乐市青得里大街205号",
        "tel": "",
        "category": "基础设施:公共设施:公共厕所",
        "type": 0,
        "location": {
            "lat": 44.906573,
            "lng": 82.062839
        },
        "ad_info": {
            "adcode": 652701,
            "province": "新疆维吾尔自治区",
            "city": "博尔塔拉蒙古自治州",
            "district": "博乐市"
        }
    },
    {
        "id": "7819932737816727679",
        "title": "公共厕所",
        "address": "新疆维吾尔自治区博尔塔拉蒙古自治州博乐市健康路与红星路交叉口正南方向62米左右",
        "tel": "",
        "category": "基础设施:公共设施:公共厕所",
        "type": 0,
        "location": {
            "lat": 44.891651,
            "lng": 82.070873
        },
        "ad_info": {
            "adcode": 652701,
            "province": "新疆维吾尔自治区",
            "city": "博尔塔拉蒙古自治州",
            "district": "博乐市"
        }
    },
    {
        "id": "11372068974842707873",
        "title": "公共厕所",
        "address": "新疆维吾尔自治区博尔塔拉蒙古自治州博乐市友谊路198号",
        "tel": "",
        "category": "基础设施:公共设施:公共厕所",
        "type": 0,
        "location": {
            "lat": 44.894835,
            "lng": 82.065424
        },
        "ad_info": {
            "adcode": 652701,
            "province": "新疆维吾尔自治区",
            "city": "博尔塔拉蒙古自治州",
            "district": "博乐市"
        }
    },
    {
        "id": "3303805852066224573",
        "title": "公共厕所",
        "address": "新疆维吾尔自治区博尔塔拉蒙古自治州博乐市第五师双河市怪石峪风景区",
        "tel": "",
        "category": "基础设施:公共设施:公共厕所",
        "type": 0,
        "location": {
            "lat": 45.180073,
            "lng": 82.271435
        },
        "ad_info": {
            "adcode": 652701,
            "province": "新疆维吾尔自治区",
            "city": "博尔塔拉蒙古自治州",
            "district": "博乐市"
        }
    },
    {
        "id": "8145665303146226532",
        "title": "公共厕所",
        "address": "新疆维吾尔自治区博尔塔拉蒙古自治州博乐市西环路与青得里大街交叉口正东方向307米左右",
        "tel": "",
        "category": "基础设施:公共设施:公共厕所",
        "type": 0,
        "location": {
            "lat": 44.909477,
            "lng": 82.053587
        },
        "ad_info": {
            "adcode": 652701,
            "province": "新疆维吾尔自治区",
            "city": "博尔塔拉蒙古自治州",
            "district": "博乐市"
        }
    },
    {
        "id": "7305701079413136772",
        "title": "公共厕所",
        "address": "新疆维吾尔自治区博尔塔拉蒙古自治州博乐市水岸丽景西南",
        "tel": "",
        "category": "基础设施:公共设施:公共厕所",
        "type": 0,
        "location": {
            "lat": 44.87382,
            "lng": 82.069461
        },
        "ad_info": {
            "adcode": 652701,
            "province": "新疆维吾尔自治区",
            "city": "博尔塔拉蒙古自治州",
            "district": "博乐市"
        }
    },
    {
        "id": "12487320394010389977",
        "title": "公共厕所",
        "address": "新疆维吾尔自治区博尔塔拉蒙古自治州博乐市赛里木湖景区影视城内",
        "tel": "",
        "category": "基础设施:公共设施:公共厕所",
        "type": 0,
        "location": {
            "lat": 44.726407,
            "lng": 81.138291
        },
        "ad_info": {
            "adcode": 652701,
            "province": "新疆维吾尔自治区",
            "city": "博尔塔拉蒙古自治州",
            "district": "博乐市"
        }
    },
    {
        "id": "10847526550628840596",
        "title": "公共厕所",
        "address": "新疆维吾尔自治区博尔塔拉蒙古自治州温泉县团结西路与红岩巷交叉口正北方向86米左右",
        "tel": "",
        "category": "基础设施:公共设施:公共厕所",
        "type": 0,
        "location": {
            "lat": 44.972531,
            "lng": 81.023781
        },
        "ad_info": {
            "adcode": 652723,
            "province": "新疆维吾尔自治区",
            "city": "博尔塔拉蒙古自治州",
            "district": "温泉县"
        }
    },
    {
        "id": "8871642290083266857",
        "title": "公共厕所",
        "address": "新疆维吾尔自治区博尔塔拉蒙古自治州博乐市X208与察哈尔路交叉口正西方向572米左右",
        "tel": "",
        "category": "基础设施:公共设施:公共厕所",
        "type": 0,
        "location": {
            "lat": 44.857845,
            "lng": 82.032282
        },
        "ad_info": {
            "adcode": 652701,
            "province": "新疆维吾尔自治区",
            "city": "博尔塔拉蒙古自治州",
            "district": "博乐市"
        }
    },
    {
        "id": "8700392606469252136",
        "title": "公共厕所",
        "address": "新疆维吾尔自治区博尔塔拉蒙古自治州博乐市X200与红旗路交叉口正西方向441米左右",
        "tel": "",
        "category": "基础设施:公共设施:公共厕所",
        "type": 0,
        "location": {
            "lat": 44.810686,
            "lng": 82.258883
        },
        "ad_info": {
            "adcode": 652701,
            "province": "新疆维吾尔自治区",
            "city": "博尔塔拉蒙古自治州",
            "district": "博乐市"
        }
    },
    {
        "id": "6819171593416106532",
        "title": "公共厕所",
        "address": "新疆维吾尔自治区博尔塔拉蒙古自治州博乐市G312与X203交叉口西北方向1839米左右",
        "tel": "",
        "category": "基础设施:公共设施:公共厕所",
        "type": 0,
        "location": {
            "lat": 44.503656,
            "lng": 81.14483
        },
        "ad_info": {
            "adcode": 652701,
            "province": "新疆维吾尔自治区",
            "city": "博尔塔拉蒙古自治州",
            "district": "博乐市"
        }
    },
    {
        "id": "8388625509687149079",
        "title": "公共厕所",
        "address": "新疆维吾尔自治区博尔塔拉蒙古自治州博乐市健康路与天山路交叉口正西方向122米左右",
        "tel": "",
        "category": "基础设施:公共设施:公共厕所",
        "type": 0,
        "location": {
            "lat": 44.89217,
            "lng": 82.073542
        },
        "ad_info": {
            "adcode": 652701,
            "province": "新疆维吾尔自治区",
            "city": "博尔塔拉蒙古自治州",
            "district": "博乐市"
        }
    },
    {
        "id": "10777365126320637370",
        "title": "公共厕所",
        "address": "新疆维吾尔自治区博尔塔拉蒙古自治州博乐市金光大道6号",
        "tel": "",
        "category": "基础设施:公共设施:公共厕所",
        "type": 0,
        "location": {
            "lat": 44.900745,
            "lng": 82.081959
        },
        "ad_info": {
            "adcode": 652701,
            "province": "新疆维吾尔自治区",
            "city": "博尔塔拉蒙古自治州",
            "district": "博乐市"
        }
    },
    {
        "id": "9973953006055745084",
        "title": "公共厕所",
        "address": "新疆维吾尔自治区博尔塔拉蒙古自治州博乐市光明路与青得里大街交叉口正南方向52米左右",
        "tel": "",
        "category": "基础设施:公共设施:公共厕所",
        "type": 0,
        "location": {
            "lat": 44.902525,
            "lng": 82.086687
        },
        "ad_info": {
            "adcode": 652701,
            "province": "新疆维吾尔自治区",
            "city": "博尔塔拉蒙古自治州",
            "district": "博乐市"
        }
    },
    {
        "id": "15572024593337719329",
        "title": "公共厕所",
        "address": "新疆维吾尔自治区博尔塔拉蒙古自治州博乐市北京路人民公园",
        "tel": "",
        "category": "基础设施:公共设施:公共厕所",
        "type": 0,
        "location": {
            "lat": 44.876129,
            "lng": 82.057666
        },
        "ad_info": {
            "adcode": 652701,
            "province": "新疆维吾尔自治区",
            "city": "博尔塔拉蒙古自治州",
            "district": "博乐市"
        }
    },
    {
        "id": "6861747146797306927",
        "title": "公共厕所",
        "address": "新疆维吾尔自治区博尔塔拉蒙古自治州温泉县安镇香紫苏基地",
        "tel": "",
        "category": "基础设施:公共设施:公共厕所",
        "type": 0,
        "location": {
            "lat": 44.958777,
            "lng": 81.187641
        },
        "ad_info": {
            "adcode": 652723,
            "province": "新疆维吾尔自治区",
            "city": "博尔塔拉蒙古自治州",
            "district": "温泉县"
        }
    },
    {
        "id": "17782142049801885926",
        "title": "公共厕所",
        "address": "新疆维吾尔自治区博尔塔拉蒙古自治州博乐市健康路与北京北路交叉口西南方向95米左右",
        "tel": "",
        "category": "基础设施:公共设施:公共厕所",
        "type": 0,
        "location": {
            "lat": 44.891757,
            "lng": 82.066302
        },
        "ad_info": {
            "adcode": 652701,
            "province": "新疆维吾尔自治区",
            "city": "博尔塔拉蒙古自治州",
            "district": "博乐市"
        }
    },
    {
        "id": "9436758950544704981",
        "title": "公共厕所",
        "address": "新疆维吾尔自治区博尔塔拉蒙古自治州博乐市S304与向阳路交叉口正西方向120米左右",
        "tel": "",
        "category": "基础设施:公共设施:公共厕所",
        "type": 0,
        "location": {
            "lat": 44.943074,
            "lng": 81.876307
        },
        "ad_info": {
            "adcode": 652701,
            "province": "新疆维吾尔自治区",
            "city": "博尔塔拉蒙古自治州",
            "district": "博乐市"
        }
    },
    {
        "id": "8948246810319768976",
        "title": "公共厕所",
        "address": "新疆维吾尔自治区博尔塔拉蒙古自治州博乐市光明路与联通街交叉口正南方向75米左右",
        "tel": "",
        "category": "基础设施:公共设施:公共厕所",
        "type": 0,
        "location": {
            "lat": 44.897476,
            "lng": 82.086686
        },
        "ad_info": {
            "adcode": 652701,
            "province": "新疆维吾尔自治区",
            "city": "博尔塔拉蒙古自治州",
            "district": "博乐市"
        }
    },
    {
        "id": "7759316984125348940",
        "title": "公共厕所",
        "address": "新疆维吾尔自治区博尔塔拉蒙古自治州博乐市Y001与致富路交叉口正西方向983米左右",
        "tel": "",
        "category": "基础设施:公共设施:公共厕所",
        "type": 0,
        "location": {
            "lat": 44.702423,
            "lng": 82.423486
        },
        "ad_info": {
            "adcode": 652701,
            "province": "新疆维吾尔自治区",
            "city": "博尔塔拉蒙古自治州",
            "district": "博乐市"
        }
    },
    {
        "id": "8050288656866369138",
        "title": "公共厕所",
        "address": "新疆维吾尔自治区博尔塔拉蒙古自治州温泉县哈日布呼镇阿日夏特景区察哈尔庄园",
        "tel": "",
        "category": "基础设施:公共设施:公共厕所",
        "type": 0,
        "location": {
            "lat": 45.159174,
            "lng": 81.550906
        },
        "ad_info": {
            "adcode": 652723,
            "province": "新疆维吾尔自治区",
            "city": "博尔塔拉蒙古自治州",
            "district": "温泉县"
        }
    },
    {
        "id": "11311924932831618362",
        "title": "赛里木湖景区三台草原公共厕所",
        "address": "新疆维吾尔自治区博尔塔拉蒙古自治州博乐市赛里木湖景区三台草原",
        "tel": "",
        "category": "基础设施:公共设施:公共厕所",
        "type": 0,
        "location": {
            "lat": 44.629558,
            "lng": 81.339345
        },
        "ad_info": {
            "adcode": 652701,
            "province": "新疆维吾尔自治区",
            "city": "博尔塔拉蒙古自治州",
            "district": "博乐市"
        }
    },
    {
        "id": "2043171749238499524",
        "title": "公共厕所",
        "address": "新疆维吾尔自治区博尔塔拉蒙古自治州阿拉山口市阿拉山口英吉沙巷",
        "tel": "",
        "category": "基础设施:公共设施:公共厕所",
        "type": 0,
        "location": {
            "lat": 45.172865,
            "lng": 82.56782
        },
        "ad_info": {
            "adcode": 652702,
            "province": "新疆维吾尔自治区",
            "city": "博尔塔拉蒙古自治州",
            "district": "阿拉山口市"
        }
    },
    {
        "id": "12280148494805173242",
        "title": "公共厕所",
        "address": "新疆维吾尔自治区博尔塔拉蒙古自治州阿拉山口市火车站",
        "tel": "",
        "category": "基础设施:公共设施:公共厕所",
        "type": 0,
        "location": {
            "lat": 45.170709,
            "lng": 82.571752
        },
        "ad_info": {
            "adcode": 652702,
            "province": "新疆维吾尔自治区",
            "city": "博尔塔拉蒙古自治州",
            "district": "阿拉山口市"
        }
    },
    {
        "id": "14456171661359289330",
        "title": "公共厕所",
        "address": "新疆维吾尔自治区博尔塔拉蒙古自治州温泉县河谷林",
        "tel": "",
        "category": "基础设施:公共设施:公共厕所",
        "type": 0,
        "location": {
            "lat": 44.987309,
            "lng": 81.009316
        },
        "ad_info": {
            "adcode": 652723,
            "province": "新疆维吾尔自治区",
            "city": "博尔塔拉蒙古自治州",
            "district": "温泉县"
        }
    },
    {
        "id": "12945134009649940605",
        "title": "公共厕所",
        "address": "新疆维吾尔自治区博尔塔拉蒙古自治州温泉县友谊巷与团结路交叉口正南方向38米左右",
        "tel": "",
        "category": "基础设施:公共设施:公共厕所",
        "type": 0,
        "location": {
            "lat": 44.971553,
            "lng": 81.028563
        },
        "ad_info": {
            "adcode": 652723,
            "province": "新疆维吾尔自治区",
            "city": "博尔塔拉蒙古自治州",
            "district": "温泉县"
        }
    },
    {
        "id": "5131579951895030610",
        "title": "公共厕所",
        "address": "新疆维吾尔自治区博尔塔拉蒙古自治州博乐市G219与S209交叉口正西方向135米左右",
        "tel": "",
        "category": "基础设施:公共设施:公共厕所",
        "type": 0,
        "location": {
            "lat": 44.912238,
            "lng": 82.207524
        },
        "ad_info": {
            "adcode": 652701,
            "province": "新疆维吾尔自治区",
            "city": "博尔塔拉蒙古自治州",
            "district": "博乐市"
        }
    },
    {
        "id": "8550230526115037761",
        "title": "公共厕所",
        "address": "新疆维吾尔自治区博尔塔拉蒙古自治州博乐市沿河路46号",
        "tel": "",
        "category": "基础设施:公共设施:公共厕所",
        "type": 0,
        "location": {
            "lat": 44.875804,
            "lng": 82.072465
        },
        "ad_info": {
            "adcode": 652701,
            "province": "新疆维吾尔自治区",
            "city": "博尔塔拉蒙古自治州",
            "district": "博乐市"
        }
    },
    {
        "id": "10039117098239690434",
        "title": "公共厕所",
        "address": "新疆维吾尔自治区博尔塔拉蒙古自治州阿拉山口市阿拉山口友好路阿拉山口口岸",
        "tel": "",
        "category": "基础设施:公共设施:公共厕所",
        "type": 0,
        "location": {
            "lat": 45.191726,
            "lng": 82.568379
        },
        "ad_info": {
            "adcode": 652702,
            "province": "新疆维吾尔自治区",
            "city": "博尔塔拉蒙古自治州",
            "district": "阿拉山口市"
        }
    },
    {
        "id": "16623939799485700193",
        "title": "旅游厕所",
        "address": "新疆维吾尔自治区博尔塔拉蒙古自治州博乐市夏尔希里路与温泉路交叉口西北方向99米左右",
        "tel": "",
        "category": "基础设施:公共设施:公共厕所",
        "type": 0,
        "location": {
            "lat": 44.85915,
            "lng": 82.062719
        },
        "ad_info": {
            "adcode": 652701,
            "province": "新疆维吾尔自治区",
            "city": "博尔塔拉蒙古自治州",
            "district": "博乐市"
        }
    },
    {
        "id": "16939134260197445410",
        "title": "公共厕所",
        "address": "新疆维吾尔自治区博尔塔拉蒙古自治州温泉县X208与丝绸北路交叉口东北方向1996米左右",
        "tel": "",
        "category": "基础设施:公共设施:公共厕所",
        "type": 0,
        "location": {
            "lat": 45.007553,
            "lng": 81.622809
        },
        "ad_info": {
            "adcode": 652723,
            "province": "新疆维吾尔自治区",
            "city": "博尔塔拉蒙古自治州",
            "district": "温泉县"
        }
    },
    {
        "id": "16235458462475704868",
        "title": "赛里木湖服务区公共厕所",
        "address": "新疆维吾尔自治区博尔塔拉蒙古自治州博乐市G30连霍高速附近",
        "tel": "",
        "category": "基础设施:公共设施:公共厕所",
        "type": 0,
        "location": {
            "lat": 44.604207,
            "lng": 81.430101
        },
        "ad_info": {
            "adcode": 652701,
            "province": "新疆维吾尔自治区",
            "city": "博尔塔拉蒙古自治州",
            "district": "博乐市"
        }
    },
    {
        "id": "2612472453207568172",
        "title": "公共厕所",
        "address": "新疆维吾尔自治区博尔塔拉蒙古自治州精河县乌伊路与友谊路交叉口正南方向117米左右",
        "tel": "",
        "category": "基础设施:公共设施:公共厕所",
        "type": 0,
        "location": {
            "lat": 44.603207,
            "lng": 82.894096
        },
        "ad_info": {
            "adcode": 652722,
            "province": "新疆维吾尔自治区",
            "city": "博尔塔拉蒙古自治州",
            "district": "精河县"
        }
    },
    {
        "id": "4200034439160179366",
        "title": "公共厕所",
        "address": "新疆维吾尔自治区博尔塔拉蒙古自治州精河县1号路中间支线与文化路交叉口西南方向281米左右",
        "tel": "",
        "category": "基础设施:公共设施:公共厕所",
        "type": 0,
        "location": {
            "lat": 44.601528,
            "lng": 82.881093
        },
        "ad_info": {
            "adcode": 652722,
            "province": "新疆维吾尔自治区",
            "city": "博尔塔拉蒙古自治州",
            "district": "精河县"
        }
    },
    {
        "id": "4227236132692476812",
        "title": "赛里木湖服务区公共厕所",
        "address": "新疆维吾尔自治区博尔塔拉蒙古自治州博乐市",
        "tel": "",
        "category": "基础设施:公共设施:公共厕所",
        "type": 0,
        "location": {
            "lat": 44.606927,
            "lng": 81.429067
        },
        "ad_info": {
            "adcode": 652701,
            "province": "新疆维吾尔自治区",
            "city": "博尔塔拉蒙古自治州",
            "district": "博乐市"
        }
    },
    {
        "id": "8578881247036764776",
        "title": "赛里木湖服务区公共厕所",
        "address": "新疆维吾尔自治区博尔塔拉蒙古自治州博乐市中国石油赛里木湖服务区LNG加气站东北侧180米",
        "tel": "",
        "category": "基础设施:公共设施:公共厕所",
        "type": 0,
        "location": {
            "lat": 44.606919,
            "lng": 81.428663
        },
        "ad_info": {
            "adcode": 652701,
            "province": "新疆维吾尔自治区",
            "city": "博尔塔拉蒙古自治州",
            "district": "博乐市"
        }
    },
    {
        "id": "3579359393143503614",
        "title": "公共厕所",
        "address": "新疆维吾尔自治区博尔塔拉蒙古自治州精河县X200(迎宾南路)",
        "tel": "",
        "category": "基础设施:公共设施:公共厕所",
        "type": 0,
        "location": {
            "lat": 44.579015,
            "lng": 82.316692
        },
        "ad_info": {
            "adcode": 652722,
            "province": "新疆维吾尔自治区",
            "city": "博尔塔拉蒙古自治州",
            "district": "精河县"
        }
    },
    {
        "id": "678005097453373138",
        "title": "公共厕所",
        "address": "新疆维吾尔自治区博尔塔拉蒙古自治州精河县沙漠胡杨林景区",
        "tel": "",
        "category": "基础设施:公共设施:公共厕所",
        "type": 0,
        "location": {
            "lat": 44.581484,
            "lng": 83.546158
        },
        "ad_info": {
            "adcode": 652722,
            "province": "新疆维吾尔自治区",
            "city": "博尔塔拉蒙古自治州",
            "district": "精河县"
        }
    },
    {
        "id": "13716453701509437157",
        "title": "公共厕所",
        "address": "新疆维吾尔自治区博尔塔拉蒙古自治州博乐市精河街与精河路交叉口正北方向313米左右",
        "tel": "",
        "category": "基础设施:公共设施:公共厕所",
        "type": 0,
        "location": {
            "lat": 44.871843,
            "lng": 82.055551
        },
        "ad_info": {
            "adcode": 652701,
            "province": "新疆维吾尔自治区",
            "city": "博尔塔拉蒙古自治州",
            "district": "博乐市"
        }
    },
    {
        "id": "4605009790035596912",
        "title": "公共厕所",
        "address": "新疆维吾尔自治区博尔塔拉蒙古自治州精河县乌伊路与团结路交叉口东北方向54米左右",
        "tel": "",
        "category": "基础设施:公共设施:公共厕所",
        "type": 0,
        "location": {
            "lat": 44.604705,
            "lng": 82.896243
        },
        "ad_info": {
            "adcode": 652722,
            "province": "新疆维吾尔自治区",
            "city": "博尔塔拉蒙古自治州",
            "district": "精河县"
        }
    },
    {
        "id": "1782874158198617131",
        "title": "公共厕所",
        "address": "新疆维吾尔自治区博尔塔拉蒙古自治州博乐市前进路121号",
        "tel": "",
        "category": "基础设施:公共设施:公共厕所",
        "type": 0,
        "location": {
            "lat": 44.909042,
            "lng": 82.068799
        },
        "ad_info": {
            "adcode": 652701,
            "province": "新疆维吾尔自治区",
            "city": "博尔塔拉蒙古自治州",
            "district": "博乐市"
        }
    },
    {
        "id": "6638583791666389472",
        "title": "公共厕所(都市驿站)",
        "address": "新疆维吾尔自治区博尔塔拉蒙古自治州博乐市北京路31号",
        "tel": "",
        "category": "基础设施:公共设施:公共厕所",
        "type": 0,
        "location": {
            "lat": 44.907296,
            "lng": 82.075463
        },
        "ad_info": {
            "adcode": 652701,
            "province": "新疆维吾尔自治区",
            "city": "博尔塔拉蒙古自治州",
            "district": "博乐市"
        }
    },
    {
        "id": "9745925897336885022",
        "title": "风帆广场公共厕所",
        "address": "新疆维吾尔自治区博尔塔拉蒙古自治州博乐市北京南路与大庆路交叉口正西方向216米左右",
        "tel": "",
        "category": "基础设施:公共设施:公共厕所",
        "type": 0,
        "location": {
            "lat": 44.87378,
            "lng": 82.057309
        },
        "ad_info": {
            "adcode": 652701,
            "province": "新疆维吾尔自治区",
            "city": "博尔塔拉蒙古自治州",
            "district": "博乐市"
        }
    },
    {
        "id": "8591361885098903705",
        "title": "公共厕所",
        "address": "新疆维吾尔自治区博尔塔拉蒙古自治州精河县沙城西街与花园西路交叉口正南方向107米左右",
        "tel": "",
        "category": "基础设施:公共设施:公共厕所",
        "type": 0,
        "location": {
            "lat": 44.533918,
            "lng": 82.572975
        },
        "ad_info": {
            "adcode": 652722,
            "province": "新疆维吾尔自治区",
            "city": "博尔塔拉蒙古自治州",
            "district": "精河县"
        }
    },
    {
        "id": "12804542857766814990",
        "title": "公共厕所",
        "address": "新疆维吾尔自治区博尔塔拉蒙古自治州精河县G312与健康路交叉口东北方向65米左右",
        "tel": "",
        "category": "基础设施:公共设施:公共厕所",
        "type": 0,
        "location": {
            "lat": 44.533975,
            "lng": 82.583825
        },
        "ad_info": {
            "adcode": 652722,
            "province": "新疆维吾尔自治区",
            "city": "博尔塔拉蒙古自治州",
            "district": "精河县"
        }
    },
    {
        "id": "13729757323130543834",
        "title": "公共厕所",
        "address": "新疆维吾尔自治区博尔塔拉蒙古自治州博乐市光明路与金光街交叉口正南方向127米左右",
        "tel": "",
        "category": "基础设施:公共设施:公共厕所",
        "type": 0,
        "location": {
            "lat": 44.899426,
            "lng": 82.087384
        },
        "ad_info": {
            "adcode": 652701,
            "province": "新疆维吾尔自治区",
            "city": "博尔塔拉蒙古自治州",
            "district": "博乐市"
        }
    },
    {
        "id": "10210759705329469230",
        "title": "公共厕所",
        "address": "新疆维吾尔自治区博尔塔拉蒙古自治州精河县乌伊路与文化路交叉口正东方向194米左右",
        "tel": "",
        "category": "基础设施:公共设施:公共厕所",
        "type": 0,
        "location": {
            "lat": 44.603811,
            "lng": 82.887087
        },
        "ad_info": {
            "adcode": 652722,
            "province": "新疆维吾尔自治区",
            "city": "博尔塔拉蒙古自治州",
            "district": "精河县"
        }
    },
    {
        "id": "14450618343339413870",
        "title": "公共厕所",
        "address": "新疆维吾尔自治区博尔塔拉蒙古自治州精河县友谊路与幸福西路交叉口西南方向34米左右",
        "tel": "",
        "category": "基础设施:公共设施:公共厕所",
        "type": 0,
        "location": {
            "lat": 44.606334,
            "lng": 82.893265
        },
        "ad_info": {
            "adcode": 652722,
            "province": "新疆维吾尔自治区",
            "city": "博尔塔拉蒙古自治州",
            "district": "精河县"
        }
    },
    {
        "id": "6217887167511791659",
        "title": "公共厕所",
        "address": "新疆维吾尔自治区博尔塔拉蒙古自治州精河县幸福一巷与幸福西路交叉口东北方向23米左右",
        "tel": "",
        "category": "基础设施:公共设施:公共厕所",
        "type": 0,
        "location": {
            "lat": 44.60689,
            "lng": 82.892063
        },
        "ad_info": {
            "adcode": 652722,
            "province": "新疆维吾尔自治区",
            "city": "博尔塔拉蒙古自治州",
            "district": "精河县"
        }
    },
    {
        "id": "2425504003742242094",
        "title": "公共厕所",
        "address": "新疆维吾尔自治区博尔塔拉蒙古自治州精河县沙城中路与沙苑街交叉口西北方向78米左右",
        "tel": "",
        "category": "基础设施:公共设施:公共厕所",
        "type": 0,
        "location": {
            "lat": 44.533575,
            "lng": 82.573802
        },
        "ad_info": {
            "adcode": 652722,
            "province": "新疆维吾尔自治区",
            "city": "博尔塔拉蒙古自治州",
            "district": "精河县"
        }
    },
    {
        "id": "11174634554611451020",
        "title": "公共厕所",
        "address": "新疆维吾尔自治区博尔塔拉蒙古自治州精河县花园东路2号楼",
        "tel": "",
        "category": "基础设施:公共设施:公共厕所",
        "type": 0,
        "location": {
            "lat": 44.536194,
            "lng": 82.573911
        },
        "ad_info": {
            "adcode": 652722,
            "province": "新疆维吾尔自治区",
            "city": "博尔塔拉蒙古自治州",
            "district": "精河县"
        }
    },
    {
        "id": "3535483333808762170",
        "title": "塔里木巷旅游公共厕所",
        "address": "新疆维吾尔自治区博尔塔拉蒙古自治州阿拉山口市艾比湖南路6号",
        "tel": "",
        "category": "基础设施:公共设施:公共厕所",
        "type": 0,
        "location": {
            "lat": 45.167249,
            "lng": 82.570149
        },
        "ad_info": {
            "adcode": 652702,
            "province": "新疆维吾尔自治区",
            "city": "博尔塔拉蒙古自治州",
            "district": "阿拉山口市"
        }
    },
    {
        "id": "11154569940055906047",
        "title": "旅游无障碍公共厕所",
        "address": "新疆维吾尔自治区博尔塔拉蒙古自治州博乐市友好路与银桥路交叉口正南方向113米左右",
        "tel": "",
        "category": "基础设施:公共设施:公共厕所",
        "type": 0,
        "location": {
            "lat": 44.908919,
            "lng": 82.20945
        },
        "ad_info": {
            "adcode": 652701,
            "province": "新疆维吾尔自治区",
            "city": "博尔塔拉蒙古自治州",
            "district": "博乐市"
        }
    },
    {
        "id": "9201992826740912422",
        "title": "博州精河县巴音阿门景区旅游厕所",
        "address": "新疆维吾尔自治区博尔塔拉蒙古自治州精河县",
        "tel": "",
        "category": "基础设施:公共设施:公共厕所",
        "type": 0,
        "location": {
            "lat": 44.284256,
            "lng": 83.142297
        },
        "ad_info": {
            "adcode": 652722,
            "province": "新疆维吾尔自治区",
            "city": "博尔塔拉蒙古自治州",
            "district": "精河县"
        }
    },
    {
        "id": "15582211602594530132",
        "title": "博州博乐市乌镇格尼登新村旅游厕所",
        "address": "新疆维吾尔自治区博尔塔拉蒙古自治州博乐市花儿庭院农家餐饮北侧60米",
        "tel": "",
        "category": "基础设施:公共设施:公共厕所",
        "type": 0,
        "location": {
            "lat": 44.905533,
            "lng": 82.133092
        },
        "ad_info": {
            "adcode": 652701,
            "province": "新疆维吾尔自治区",
            "city": "博尔塔拉蒙古自治州",
            "district": "博乐市"
        }
    },
    {
        "id": "4964745118084132567",
        "title": "厕所WC",
        "address": "新疆维吾尔自治区博尔塔拉蒙古自治州博乐市亚中商城东北侧(万里鞋城后侧)",
        "tel": "",
        "category": "基础设施:公共设施:公共厕所",
        "type": 0,
        "location": {
            "lat": 44.906101,
            "lng": 82.073762
        },
        "ad_info": {
            "adcode": 652701,
            "province": "新疆维吾尔自治区",
            "city": "博尔塔拉蒙古自治州",
            "district": "博乐市"
        }
    },
    {
        "id": "13354022968024514604",
        "title": "加油站公共厕所",
        "address": "新疆维吾尔自治区博尔塔拉蒙古自治州精河县博乐立交桥与连霍高速交叉口正西方向508米左右",
        "tel": "",
        "category": "基础设施:公共设施:公共厕所",
        "type": 0,
        "location": {
            "lat": 44.629698,
            "lng": 82.073222
        },
        "ad_info": {
            "adcode": 652722,
            "province": "新疆维吾尔自治区",
            "city": "博尔塔拉蒙古自治州",
            "district": "精河县"
        }
    },
    {
        "id": "1350967520466697403",
        "title": "托托服务区公共厕所",
        "address": "新疆维吾尔自治区博尔塔拉蒙古自治州精河县中国石油托托服务区北加油站东侧150米",
        "tel": "",
        "category": "基础设施:公共设施:公共厕所",
        "type": 0,
        "location": {
            "lat": 44.540593,
            "lng": 83.5603
        },
        "ad_info": {
            "adcode": 652722,
            "province": "新疆维吾尔自治区",
            "city": "博尔塔拉蒙古自治州",
            "district": "精河县"
        }
    },
    {
        "id": "12925681022726360350",
        "title": "五台服务区公共厕所",
        "address": "新疆维吾尔自治区博尔塔拉蒙古自治州精河县博乐立交桥与连霍高速交叉口正西方向1159米左右",
        "tel": "",
        "category": "基础设施:公共设施:公共厕所",
        "type": 0,
        "location": {
            "lat": 44.629809,
            "lng": 82.06502
        },
        "ad_info": {
            "adcode": 652722,
            "province": "新疆维吾尔自治区",
            "city": "博尔塔拉蒙古自治州",
            "district": "精河县"
        }
    },
    {
        "id": "1917399363305244101",
        "title": "八家户服务区公共厕所",
        "address": "新疆维吾尔自治区博尔塔拉蒙古自治州精河县G30连霍高速南50米",
        "tel": "",
        "category": "基础设施:公共设施:公共厕所",
        "type": 0,
        "location": {
            "lat": 44.563338,
            "lng": 82.795275
        },
        "ad_info": {
            "adcode": 652722,
            "province": "新疆维吾尔自治区",
            "city": "博尔塔拉蒙古自治州",
            "district": "精河县"
        }
    },
    {
        "id": "16328587229156440694",
        "title": "五台服务区公共厕所",
        "address": "新疆维吾尔自治区博尔塔拉蒙古自治州精河县博乐立交桥与连霍高速交叉口正西方向1072米左右",
        "tel": "",
        "category": "基础设施:公共设施:公共厕所",
        "type": 0,
        "location": {
            "lat": 44.631228,
            "lng": 82.066304
        },
        "ad_info": {
            "adcode": 652722,
            "province": "新疆维吾尔自治区",
            "city": "博尔塔拉蒙古自治州",
            "district": "精河县"
        }
    },
    {
        "id": "3437841136104180764",
        "title": "托托服务区公共厕所",
        "address": "新疆维吾尔自治区博尔塔拉蒙古自治州精河县友谊街与建工路交叉口正西方向1575米左右",
        "tel": "",
        "category": "基础设施:公共设施:公共厕所",
        "type": 0,
        "location": {
            "lat": 44.540619,
            "lng": 83.558253
        },
        "ad_info": {
            "adcode": 652722,
            "province": "新疆维吾尔自治区",
            "city": "博尔塔拉蒙古自治州",
            "district": "精河县"
        }
    },
    {
        "id": "12384046836595227078",
        "title": "托托服务区公共厕所",
        "address": "新疆维吾尔自治区博尔塔拉蒙古自治州精河县友谊街与建工路交叉口正西方向1619米左右",
        "tel": "",
        "category": "基础设施:公共设施:公共厕所",
        "type": 0,
        "location": {
            "lat": 44.538914,
            "lng": 83.558478
        },
        "ad_info": {
            "adcode": 652722,
            "province": "新疆维吾尔自治区",
            "city": "博尔塔拉蒙古自治州",
            "district": "精河县"
        }
    },
    {
        "id": "7078235254787764360",
        "title": "精河服务区第一公共卫厕所",
        "address": "新疆维吾尔自治区博尔塔拉蒙古自治州精河县连霍高速",
        "tel": "",
        "category": "基础设施:公共设施:公共厕所",
        "type": 0,
        "location": {
            "lat": 44.562308,
            "lng": 82.794337
        },
        "ad_info": {
            "adcode": 652722,
            "province": "新疆维吾尔自治区",
            "city": "博尔塔拉蒙古自治州",
            "district": "精河县"
        }
    },
    {
        "id": "11366611933828920583",
        "title": "五台服务区第一公共厕所",
        "address": "新疆维吾尔自治区博尔塔拉蒙古自治州精河县博乐立交桥与连霍高速交叉口正西方向1200米左右",
        "tel": "",
        "category": "基础设施:公共设施:公共厕所",
        "type": 0,
        "location": {
            "lat": 44.631675,
            "lng": 82.064783
        },
        "ad_info": {
            "adcode": 652722,
            "province": "新疆维吾尔自治区",
            "city": "博尔塔拉蒙古自治州",
            "district": "精河县"
        }
    },
    {
        "id": "8784147109163283646",
        "title": "精河服务区第二公共厕所",
        "address": "新疆维吾尔自治区博尔塔拉蒙古自治州精河县中国石化精河北加油站东北侧150米",
        "tel": "",
        "category": "基础设施:公共设施:公共厕所",
        "type": 0,
        "location": {
            "lat": 44.564926,
            "lng": 82.795646
        },
        "ad_info": {
            "adcode": 652722,
            "province": "新疆维吾尔自治区",
            "city": "博尔塔拉蒙古自治州",
            "district": "精河县"
        }
    },
    {
        "id": "1400475703121520167",
        "title": "精河服务区第二公共厕所",
        "address": "新疆维吾尔自治区博尔塔拉蒙古自治州精河县G30连霍高速附近",
        "tel": "",
        "category": "基础设施:公共设施:公共厕所",
        "type": 0,
        "location": {
            "lat": 44.562458,
            "lng": 82.794989
        },
        "ad_info": {
            "adcode": 652722,
            "province": "新疆维吾尔自治区",
            "city": "博尔塔拉蒙古自治州",
            "district": "精河县"
        }
    },
    {
        "id": "2727058004433587351",
        "title": "五台服务区第二公共厕所",
        "address": "新疆维吾尔自治区博尔塔拉蒙古自治州精河县博乐立交桥与连霍高速交叉口正西方向1101米左右",
        "tel": "",
        "category": "基础设施:公共设施:公共厕所",
        "type": 0,
        "location": {
            "lat": 44.63132,
            "lng": 82.065955
        },
        "ad_info": {
            "adcode": 652722,
            "province": "新疆维吾尔自治区",
            "city": "博尔塔拉蒙古自治州",
            "district": "精河县"
        }
    },
    {
        "id": "8541212207656843693",
        "title": "公共厕所",
        "address": "新疆维吾尔自治区博尔塔拉蒙古自治州博乐市天山路与延安路交叉口西南方向27米左右",
        "tel": "",
        "category": "基础设施:公共设施:公共厕所",
        "type": 0,
        "location": {
            "lat": 44.890475,
            "lng": 82.074566
        },
        "ad_info": {
            "adcode": 652701,
            "province": "新疆维吾尔自治区",
            "city": "博尔塔拉蒙古自治州",
            "district": "博乐市"
        }
    }
]