[
    {
        "id": "9728182231417031359",
        "title": "公共厕所",
        "address": "新疆维吾尔自治区双河市育才街与西环路交叉口西南方向482米左右",
        "tel": "",
        "category": "基础设施:公共设施:公共厕所",
        "type": 0,
        "location": {
            "lat": 44.772372,
            "lng": 82.471829
        },
        "ad_info": {
            "adcode": 659007,
            "province": "新疆维吾尔自治区",
            "city": "",
            "district": "双河市"
        }
    },
    {
        "id": "1232968619350692928",
        "title": "公共厕所",
        "address": "新疆维吾尔自治区双河市团结西路40号",
        "tel": "",
        "category": "基础设施:公共设施:公共厕所",
        "type": 0,
        "location": {
            "lat": 44.840774,
            "lng": 82.357095
        },
        "ad_info": {
            "adcode": 659007,
            "province": "新疆维吾尔自治区",
            "city": "",
            "district": "双河市"
        }
    },
    {
        "id": "12604912336933613635",
        "title": "公共厕所",
        "address": "新疆维吾尔自治区双河市前进路与友谊路交叉口正北方向68米左右",
        "tel": "",
        "category": "基础设施:公共设施:公共厕所",
        "type": 0,
        "location": {
            "lat": 44.846411,
            "lng": 82.357221
        },
        "ad_info": {
            "adcode": 659007,
            "province": "新疆维吾尔自治区",
            "city": "",
            "district": "双河市"
        }
    },
    {
        "id": "2755029235497671410",
        "title": "公共厕所",
        "address": "新疆维吾尔自治区双河市团结西路与育才路交叉口西南方向36米左右",
        "tel": "",
        "category": "基础设施:公共设施:公共厕所",
        "type": 0,
        "location": {
            "lat": 44.840732,
            "lng": 82.352099
        },
        "ad_info": {
            "adcode": 659007,
            "province": "新疆维吾尔自治区",
            "city": "",
            "district": "双河市"
        }
    },
    {
        "id": "2641636567406064262",
        "title": "公共厕所",
        "address": "新疆维吾尔自治区双河市八一路与天山路交叉口西北方向140米左右",
        "tel": "",
        "category": "基础设施:公共设施:公共厕所",
        "type": 0,
        "location": {
            "lat": 44.835539,
            "lng": 82.347317
        },
        "ad_info": {
            "adcode": 659007,
            "province": "新疆维吾尔自治区",
            "city": "",
            "district": "双河市"
        }
    }
]