[
    {
        "id": "2511601810949220317",
        "title": "公共厕所",
        "address": "黑龙江省双鸭山市尖山区民生大街南山小区-B区",
        "tel": "",
        "category": "基础设施:公共设施:公共厕所",
        "type": 0,
        "location": {
            "lat": 46.678696,
            "lng": 131.149273
        },
        "ad_info": {
            "adcode": 230502,
            "province": "黑龙江省",
            "city": "双鸭山市",
            "district": "尖山区"
        }
    },
    {
        "id": "370165196065609755",
        "title": "公共厕所",
        "address": "黑龙江省双鸭山市尖山区西平行路与黑鱼泡路交叉口正北方向92米左右",
        "tel": "",
        "category": "基础设施:公共设施:公共厕所",
        "type": 0,
        "location": {
            "lat": 46.653333,
            "lng": 131.157929
        },
        "ad_info": {
            "adcode": 230502,
            "province": "黑龙江省",
            "city": "双鸭山市",
            "district": "尖山区"
        }
    },
    {
        "id": "6648733861772608501",
        "title": "公共厕所",
        "address": "黑龙江省双鸭山市尖山区南山中路与南海路交叉口东南方向190米左右",
        "tel": "",
        "category": "基础设施:公共设施:公共厕所",
        "type": 0,
        "location": {
            "lat": 46.62743,
            "lng": 131.176606
        },
        "ad_info": {
            "adcode": 230502,
            "province": "黑龙江省",
            "city": "双鸭山市",
            "district": "尖山区"
        }
    },
    {
        "id": "8411813287713599987",
        "title": "公共卫生间",
        "address": "黑龙江省双鸭山市尖山区新兴大街211号",
        "tel": "",
        "category": "基础设施:公共设施:公共厕所",
        "type": 0,
        "location": {
            "lat": 46.649154,
            "lng": 131.158939
        },
        "ad_info": {
            "adcode": 230502,
            "province": "黑龙江省",
            "city": "双鸭山市",
            "district": "尖山区"
        }
    },
    {
        "id": "4173521504416485270",
        "title": "公共厕所",
        "address": "黑龙江省双鸭山市尖山区东平行路与六马路交叉口正西方向41米左右",
        "tel": "",
        "category": "基础设施:公共设施:公共厕所",
        "type": 0,
        "location": {
            "lat": 46.644848,
            "lng": 131.16128
        },
        "ad_info": {
            "adcode": 230502,
            "province": "黑龙江省",
            "city": "双鸭山市",
            "district": "尖山区"
        }
    },
    {
        "id": "12251661886822566345",
        "title": "公共厕所",
        "address": "黑龙江省双鸭山市尖山区七马路与东平行路交叉口东北方向21米左右",
        "tel": "",
        "category": "基础设施:公共设施:公共厕所",
        "type": 0,
        "location": {
            "lat": 46.647728,
            "lng": 131.163195
        },
        "ad_info": {
            "adcode": 230502,
            "province": "黑龙江省",
            "city": "双鸭山市",
            "district": "尖山区"
        }
    },
    {
        "id": "3041114276737443916",
        "title": "公共厕所",
        "address": "黑龙江省双鸭山市尖山区净水路与育龙街交叉口东南方向42米左右",
        "tel": "",
        "category": "基础设施:公共设施:公共厕所",
        "type": 0,
        "location": {
            "lat": 46.658446,
            "lng": 131.159939
        },
        "ad_info": {
            "adcode": 230502,
            "province": "黑龙江省",
            "city": "双鸭山市",
            "district": "尖山区"
        }
    },
    {
        "id": "1839589725160089613",
        "title": "公共厕所",
        "address": "黑龙江省双鸭山市尖山区新城路与窑地路交叉口正西方向190米左右",
        "tel": "",
        "category": "基础设施:公共设施:公共厕所",
        "type": 0,
        "location": {
            "lat": 46.620476,
            "lng": 131.168931
        },
        "ad_info": {
            "adcode": 230502,
            "province": "黑龙江省",
            "city": "双鸭山市",
            "district": "尖山区"
        }
    },
    {
        "id": "5467890128396982388",
        "title": "公共厕所",
        "address": "黑龙江省双鸭山市尖山区七马路与益人路交叉口正西方向176米左右",
        "tel": "",
        "category": "基础设施:公共设施:公共厕所",
        "type": 0,
        "location": {
            "lat": 46.645404,
            "lng": 131.171444
        },
        "ad_info": {
            "adcode": 230502,
            "province": "黑龙江省",
            "city": "双鸭山市",
            "district": "尖山区"
        }
    },
    {
        "id": "254303773880881480",
        "title": "公共厕所",
        "address": "黑龙江省双鸭山市尖山区南环路与双西路交叉口西南方向160米左右",
        "tel": "",
        "category": "基础设施:公共设施:公共厕所",
        "type": 0,
        "location": {
            "lat": 46.628967,
            "lng": 131.126354
        },
        "ad_info": {
            "adcode": 230502,
            "province": "黑龙江省",
            "city": "双鸭山市",
            "district": "尖山区"
        }
    },
    {
        "id": "1307224338401818384",
        "title": "公共厕所",
        "address": "黑龙江省双鸭山市尖山区三马路与国贸路交叉口东南方向48米左右",
        "tel": "",
        "category": "基础设施:公共设施:公共厕所",
        "type": 0,
        "location": {
            "lat": 46.63601,
            "lng": 131.155966
        },
        "ad_info": {
            "adcode": 230502,
            "province": "黑龙江省",
            "city": "双鸭山市",
            "district": "尖山区"
        }
    },
    {
        "id": "2384951081765703627",
        "title": "公共厕所",
        "address": "黑龙江省双鸭山市尖山区三马路与东平行路交叉口正北方向55米左右",
        "tel": "",
        "category": "基础设施:公共设施:公共厕所",
        "type": 0,
        "location": {
            "lat": 46.636407,
            "lng": 131.159381
        },
        "ad_info": {
            "adcode": 230502,
            "province": "黑龙江省",
            "city": "双鸭山市",
            "district": "尖山区"
        }
    },
    {
        "id": "10230446799775108420",
        "title": "公共厕所",
        "address": "黑龙江省双鸭山市尖山区净水路与和谐路交叉口正南方向79米左右",
        "tel": "",
        "category": "基础设施:公共设施:公共厕所",
        "type": 0,
        "location": {
            "lat": 46.660636,
            "lng": 131.16186
        },
        "ad_info": {
            "adcode": 230502,
            "province": "黑龙江省",
            "city": "双鸭山市",
            "district": "尖山区"
        }
    },
    {
        "id": "6037139807521989699",
        "title": "公共卫生间",
        "address": "黑龙江省双鸭山市尖山区电缆厂路",
        "tel": "",
        "category": "基础设施:公共设施:公共厕所",
        "type": 0,
        "location": {
            "lat": 46.631811,
            "lng": 131.140153
        },
        "ad_info": {
            "adcode": 230502,
            "province": "黑龙江省",
            "city": "双鸭山市",
            "district": "尖山区"
        }
    },
    {
        "id": "2742271504865492499",
        "title": "公共厕所",
        "address": "黑龙江省双鸭山市尖山区电大路与石材路交叉口东北方向1085米左右",
        "tel": "",
        "category": "基础设施:公共设施:公共厕所",
        "type": 0,
        "location": {
            "lat": 46.665793,
            "lng": 131.182563
        },
        "ad_info": {
            "adcode": 230502,
            "province": "黑龙江省",
            "city": "双鸭山市",
            "district": "尖山区"
        }
    },
    {
        "id": "7776671229458696069",
        "title": "公共卫生间",
        "address": "黑龙江省双鸭山市尖山区宝泰家园东南侧100米",
        "tel": "",
        "category": "基础设施:公共设施:公共厕所",
        "type": 0,
        "location": {
            "lat": 46.654326,
            "lng": 131.165528
        },
        "ad_info": {
            "adcode": 230502,
            "province": "黑龙江省",
            "city": "双鸭山市",
            "district": "尖山区"
        }
    },
    {
        "id": "1191342907165534685",
        "title": "公共厕所",
        "address": "黑龙江省双鸭山市尖山区五马路与西平行路交叉口东南方向105米左右",
        "tel": "",
        "category": "基础设施:公共设施:公共厕所",
        "type": 0,
        "location": {
            "lat": 46.642692,
            "lng": 131.156022
        },
        "ad_info": {
            "adcode": 230502,
            "province": "黑龙江省",
            "city": "双鸭山市",
            "district": "尖山区"
        }
    },
    {
        "id": "11278790789238192433",
        "title": "公共厕所",
        "address": "黑龙江省双鸭山市尖山区二马路与新兴大街交叉口正西方向84米左右",
        "tel": "",
        "category": "基础设施:公共设施:公共厕所",
        "type": 0,
        "location": {
            "lat": 46.635485,
            "lng": 131.155682
        },
        "ad_info": {
            "adcode": 230502,
            "province": "黑龙江省",
            "city": "双鸭山市",
            "district": "尖山区"
        }
    },
    {
        "id": "1920609789731045182",
        "title": "公共厕所",
        "address": "黑龙江省双鸭山市尖山区保险住宅北侧50米",
        "tel": "",
        "category": "基础设施:公共设施:公共厕所",
        "type": 0,
        "location": {
            "lat": 46.648713,
            "lng": 131.15739
        },
        "ad_info": {
            "adcode": 230502,
            "province": "黑龙江省",
            "city": "双鸭山市",
            "district": "尖山区"
        }
    },
    {
        "id": "7490425639489237046",
        "title": "公共厕所",
        "address": "黑龙江省双鸭山市友谊县新城路与邮政街交叉口正北方向119米左右",
        "tel": "",
        "category": "基础设施:公共设施:公共厕所",
        "type": 0,
        "location": {
            "lat": 46.773529,
            "lng": 131.800152
        },
        "ad_info": {
            "adcode": 230522,
            "province": "黑龙江省",
            "city": "双鸭山市",
            "district": "友谊县"
        }
    },
    {
        "id": "7513520619762675840",
        "title": "公共厕所",
        "address": "黑龙江省双鸭山市四方台区X132与双七公路交叉口西北方向120米左右",
        "tel": "",
        "category": "基础设施:公共设施:公共厕所",
        "type": 0,
        "location": {
            "lat": 46.593893,
            "lng": 131.331689
        },
        "ad_info": {
            "adcode": 230505,
            "province": "黑龙江省",
            "city": "双鸭山市",
            "district": "四方台区"
        }
    },
    {
        "id": "4624843730170516521",
        "title": "公共厕所",
        "address": "黑龙江省双鸭山市尖山区九阳路与八马路交叉口正东方向149米左右",
        "tel": "",
        "category": "基础设施:公共设施:公共厕所",
        "type": 0,
        "location": {
            "lat": 46.648759,
            "lng": 131.180091
        },
        "ad_info": {
            "adcode": 230502,
            "province": "黑龙江省",
            "city": "双鸭山市",
            "district": "尖山区"
        }
    },
    {
        "id": "1170112977034159915",
        "title": "公共厕所",
        "address": "黑龙江省双鸭山市尖山区银苑街南山小区A区",
        "tel": "",
        "category": "基础设施:公共设施:公共厕所",
        "type": 0,
        "location": {
            "lat": 46.680502,
            "lng": 131.147372
        },
        "ad_info": {
            "adcode": 230502,
            "province": "黑龙江省",
            "city": "双鸭山市",
            "district": "尖山区"
        }
    },
    {
        "id": "11129190553667109976",
        "title": "公共厕所",
        "address": "黑龙江省双鸭山市友谊县中兴路与建设路交叉口正东方向118米左右",
        "tel": "",
        "category": "基础设施:公共设施:公共厕所",
        "type": 0,
        "location": {
            "lat": 46.720591,
            "lng": 131.57518
        },
        "ad_info": {
            "adcode": 230522,
            "province": "黑龙江省",
            "city": "双鸭山市",
            "district": "友谊县"
        }
    },
    {
        "id": "2844114426193705610",
        "title": "公共厕所",
        "address": "黑龙江省双鸭山市友谊县康乐路与校园街交叉口正西方向150米左右",
        "tel": "",
        "category": "基础设施:公共设施:公共厕所",
        "type": 0,
        "location": {
            "lat": 46.770551,
            "lng": 131.808373
        },
        "ad_info": {
            "adcode": 230522,
            "province": "黑龙江省",
            "city": "双鸭山市",
            "district": "友谊县"
        }
    },
    {
        "id": "13678501600193185661",
        "title": "公共厕所",
        "address": "黑龙江省双鸭山市友谊县厂融路与融贸路交叉口正东方向60米左右",
        "tel": "",
        "category": "基础设施:公共设施:公共厕所",
        "type": 0,
        "location": {
            "lat": 46.711174,
            "lng": 131.576166
        },
        "ad_info": {
            "adcode": 230522,
            "province": "黑龙江省",
            "city": "双鸭山市",
            "district": "友谊县"
        }
    },
    {
        "id": "8540215765622515023",
        "title": "公共厕所",
        "address": "黑龙江省双鸭山市尖山区六马路与西平行路交叉口西北方向142米左右",
        "tel": "",
        "category": "基础设施:公共设施:公共厕所",
        "type": 0,
        "location": {
            "lat": 46.647178,
            "lng": 131.155029
        },
        "ad_info": {
            "adcode": 230502,
            "province": "黑龙江省",
            "city": "双鸭山市",
            "district": "尖山区"
        }
    },
    {
        "id": "14756729516922685699",
        "title": "公共厕所",
        "address": "黑龙江省双鸭山市尖山区站前路双鸭山客运中心站",
        "tel": "",
        "category": "基础设施:公共设施:公共厕所",
        "type": 0,
        "location": {
            "lat": 46.644896,
            "lng": 131.153279
        },
        "ad_info": {
            "adcode": 230502,
            "province": "黑龙江省",
            "city": "双鸭山市",
            "district": "尖山区"
        }
    },
    {
        "id": "5334792052084637352",
        "title": "公共厕所",
        "address": "黑龙江省双鸭山市尖山区园林路与新兴大街辅路交叉口正西方向37米左右",
        "tel": "",
        "category": "基础设施:公共设施:公共厕所",
        "type": 0,
        "location": {
            "lat": 46.63103,
            "lng": 131.155696
        },
        "ad_info": {
            "adcode": 230502,
            "province": "黑龙江省",
            "city": "双鸭山市",
            "district": "尖山区"
        }
    },
    {
        "id": "9356812156201573194",
        "title": "公共厕所",
        "address": "黑龙江省双鸭山市尖山区园林路与马鞍山路交叉口东南方向68米左右",
        "tel": "",
        "category": "基础设施:公共设施:公共厕所",
        "type": 0,
        "location": {
            "lat": 46.633432,
            "lng": 131.151314
        },
        "ad_info": {
            "adcode": 230502,
            "province": "黑龙江省",
            "city": "双鸭山市",
            "district": "尖山区"
        }
    },
    {
        "id": "17749533582326824999",
        "title": "公共厕所",
        "address": "黑龙江省双鸭山市饶河县G229与口岸路交叉口东南方向96米左右",
        "tel": "",
        "category": "基础设施:公共设施:公共厕所",
        "type": 0,
        "location": {
            "lat": 46.732616,
            "lng": 134.015007
        },
        "ad_info": {
            "adcode": 230524,
            "province": "黑龙江省",
            "city": "双鸭山市",
            "district": "饶河县"
        }
    },
    {
        "id": "11785962679585361968",
        "title": "公共厕所",
        "address": "黑龙江省双鸭山市友谊县东直路与挹娄大街交叉口正东方向143米左右",
        "tel": "",
        "category": "基础设施:公共设施:公共厕所",
        "type": 0,
        "location": {
            "lat": 46.769156,
            "lng": 131.824491
        },
        "ad_info": {
            "adcode": 230522,
            "province": "黑龙江省",
            "city": "双鸭山市",
            "district": "友谊县"
        }
    },
    {
        "id": "4602819548389405184",
        "title": "公共厕所",
        "address": "黑龙江省双鸭山市饶河县新阳北路6-16号",
        "tel": "",
        "category": "基础设施:公共设施:公共厕所",
        "type": 0,
        "location": {
            "lat": 46.800739,
            "lng": 134.014774
        },
        "ad_info": {
            "adcode": 230524,
            "province": "黑龙江省",
            "city": "双鸭山市",
            "district": "饶河县"
        }
    },
    {
        "id": "13416119184954805883",
        "title": "公共厕所",
        "address": "黑龙江省双鸭山市饶河县兴旺街与振兴路交叉口正西方向31米左右",
        "tel": "",
        "category": "基础设施:公共设施:公共厕所",
        "type": 0,
        "location": {
            "lat": 47.214798,
            "lng": 133.74051
        },
        "ad_info": {
            "adcode": 230524,
            "province": "黑龙江省",
            "city": "双鸭山市",
            "district": "饶河县"
        }
    },
    {
        "id": "11457788289092898367",
        "title": "公共厕所",
        "address": "黑龙江省双鸭山市友谊县Y025与Y030交叉口正北方向108米左右",
        "tel": "",
        "category": "基础设施:公共设施:公共厕所",
        "type": 0,
        "location": {
            "lat": 46.797118,
            "lng": 131.75294
        },
        "ad_info": {
            "adcode": 230522,
            "province": "黑龙江省",
            "city": "双鸭山市",
            "district": "友谊县"
        }
    },
    {
        "id": "1679455790167693116",
        "title": "公共厕所",
        "address": "黑龙江省双鸭山市饶河县新阳路与迎春街交叉口正南方向35米左右",
        "tel": "",
        "category": "基础设施:公共设施:公共厕所",
        "type": 0,
        "location": {
            "lat": 46.798849,
            "lng": 134.014577
        },
        "ad_info": {
            "adcode": 230524,
            "province": "黑龙江省",
            "city": "双鸭山市",
            "district": "饶河县"
        }
    },
    {
        "id": "6443744976196271048",
        "title": "公共厕所",
        "address": "黑龙江省双鸭山市尖山区站北路与铁东胡同交叉口西北方向46米左右",
        "tel": "",
        "category": "基础设施:公共设施:公共厕所",
        "type": 0,
        "location": {
            "lat": 46.650035,
            "lng": 131.153564
        },
        "ad_info": {
            "adcode": 230502,
            "province": "黑龙江省",
            "city": "双鸭山市",
            "district": "尖山区"
        }
    },
    {
        "id": "12969631214801925157",
        "title": "公共厕所",
        "address": "黑龙江省双鸭山市尖山区庆和街与盛和路交叉口西南方向552米左右",
        "tel": "",
        "category": "基础设施:公共设施:公共厕所",
        "type": 0,
        "location": {
            "lat": 46.664109,
            "lng": 131.127679
        },
        "ad_info": {
            "adcode": 230502,
            "province": "黑龙江省",
            "city": "双鸭山市",
            "district": "尖山区"
        }
    },
    {
        "id": "12380517674875028578",
        "title": "公共厕所",
        "address": "黑龙江省双鸭山市尖山区兴东大道与窑地路交叉口正北方向244米左右",
        "tel": "",
        "category": "基础设施:公共设施:公共厕所",
        "type": 0,
        "location": {
            "lat": 46.60151,
            "lng": 131.169688
        },
        "ad_info": {
            "adcode": 230502,
            "province": "黑龙江省",
            "city": "双鸭山市",
            "district": "尖山区"
        }
    },
    {
        "id": "9955324051799606816",
        "title": "公共厕所",
        "address": "黑龙江省双鸭山市岭东区博爱园小区中山小学校西南门对面",
        "tel": "",
        "category": "基础设施:公共设施:公共厕所",
        "type": 0,
        "location": {
            "lat": 46.579856,
            "lng": 131.146957
        },
        "ad_info": {
            "adcode": 230503,
            "province": "黑龙江省",
            "city": "双鸭山市",
            "district": "岭东区"
        }
    },
    {
        "id": "5263768874704947889",
        "title": "公共厕所",
        "address": "黑龙江省双鸭山市饶河县楛矢大街与欣城大街交叉口正东方向44米左右",
        "tel": "",
        "category": "基础设施:公共设施:公共厕所",
        "type": 0,
        "location": {
            "lat": 47.086862,
            "lng": 133.934317
        },
        "ad_info": {
            "adcode": 230524,
            "province": "黑龙江省",
            "city": "双鸭山市",
            "district": "饶河县"
        }
    },
    {
        "id": "11353719881481545362",
        "title": "公共厕所",
        "address": "黑龙江省双鸭山市宝山区宝林路与新宝大街交叉口正北方向127米左右",
        "tel": "",
        "category": "基础设施:公共设施:公共厕所",
        "type": 0,
        "location": {
            "lat": 46.565803,
            "lng": 131.41095
        },
        "ad_info": {
            "adcode": 230506,
            "province": "黑龙江省",
            "city": "双鸭山市",
            "district": "宝山区"
        }
    },
    {
        "id": "15030891567029826933",
        "title": "公共厕所",
        "address": "黑龙江省双鸭山市宝清县向阳路与新民街交叉口正东方向50米左右",
        "tel": "",
        "category": "基础设施:公共设施:公共厕所",
        "type": 0,
        "location": {
            "lat": 46.328392,
            "lng": 132.206606
        },
        "ad_info": {
            "adcode": 230523,
            "province": "黑龙江省",
            "city": "双鸭山市",
            "district": "宝清县"
        }
    },
    {
        "id": "2911755486419143294",
        "title": "公共厕所",
        "address": "黑龙江省双鸭山市友谊县康乐路与迎宾街交叉口西北方向167米左右",
        "tel": "",
        "category": "基础设施:公共设施:公共厕所",
        "type": 0,
        "location": {
            "lat": 46.772566,
            "lng": 131.807902
        },
        "ad_info": {
            "adcode": 230522,
            "province": "黑龙江省",
            "city": "双鸭山市",
            "district": "友谊县"
        }
    },
    {
        "id": "4973430030262783858",
        "title": "公共厕所",
        "address": "黑龙江省双鸭山市饶河县南湖一道街与翠屏路交叉口西北方向453米左右",
        "tel": "",
        "category": "基础设施:公共设施:公共厕所",
        "type": 0,
        "location": {
            "lat": 47.373287,
            "lng": 133.864026
        },
        "ad_info": {
            "adcode": 230524,
            "province": "黑龙江省",
            "city": "双鸭山市",
            "district": "饶河县"
        }
    },
    {
        "id": "4412614935130423693",
        "title": "公共厕所",
        "address": "黑龙江省双鸭山市饶河县民意街与知青路交叉口正西方向151米左右",
        "tel": "",
        "category": "基础设施:公共设施:公共厕所",
        "type": 0,
        "location": {
            "lat": 46.941729,
            "lng": 133.932232
        },
        "ad_info": {
            "adcode": 230524,
            "province": "黑龙江省",
            "city": "双鸭山市",
            "district": "饶河县"
        }
    },
    {
        "id": "511048193892942591",
        "title": "公共厕所",
        "address": "黑龙江省双鸭山市宝清县307省道北50米",
        "tel": "",
        "category": "基础设施:公共设施:公共厕所",
        "type": 0,
        "location": {
            "lat": 46.313564,
            "lng": 132.797905
        },
        "ad_info": {
            "adcode": 230523,
            "province": "黑龙江省",
            "city": "双鸭山市",
            "district": "宝清县"
        }
    },
    {
        "id": "7522043995600926902",
        "title": "公共厕所",
        "address": "黑龙江省双鸭山市宝清县中央路与雁窝岛大街交叉口正南方向137米左右",
        "tel": "",
        "category": "基础设施:公共设施:公共厕所",
        "type": 0,
        "location": {
            "lat": 46.523842,
            "lng": 133.01097
        },
        "ad_info": {
            "adcode": 230523,
            "province": "黑龙江省",
            "city": "双鸭山市",
            "district": "宝清县"
        }
    },
    {
        "id": "6070876278837215569",
        "title": "公共厕所",
        "address": "黑龙江省双鸭山市友谊县学府路与工商北路交叉口正北方向105米左右",
        "tel": "",
        "category": "基础设施:公共设施:公共厕所",
        "type": 0,
        "location": {
            "lat": 46.719331,
            "lng": 131.576256
        },
        "ad_info": {
            "adcode": 230522,
            "province": "黑龙江省",
            "city": "双鸭山市",
            "district": "友谊县"
        }
    },
    {
        "id": "17960700329061295049",
        "title": "公共厕所",
        "address": "黑龙江省双鸭山市饶河县通江街110号",
        "tel": "",
        "category": "基础设施:公共设施:公共厕所",
        "type": 0,
        "location": {
            "lat": 46.795757,
            "lng": 133.986054
        },
        "ad_info": {
            "adcode": 230524,
            "province": "黑龙江省",
            "city": "双鸭山市",
            "district": "饶河县"
        }
    },
    {
        "id": "13179975369569279239",
        "title": "公共厕所",
        "address": "黑龙江省双鸭山市四方台区G501与X132交叉口正西方向34米左右",
        "tel": "",
        "category": "基础设施:公共设施:公共厕所",
        "type": 0,
        "location": {
            "lat": 46.595944,
            "lng": 131.35296
        },
        "ad_info": {
            "adcode": 230505,
            "province": "黑龙江省",
            "city": "双鸭山市",
            "district": "四方台区"
        }
    },
    {
        "id": "9397519043460687030",
        "title": "公共厕所",
        "address": "黑龙江省双鸭山市宝山区杨迪内科诊所北侧",
        "tel": "",
        "category": "基础设施:公共设施:公共厕所",
        "type": 0,
        "location": {
            "lat": 46.570314,
            "lng": 131.685749
        },
        "ad_info": {
            "adcode": 230506,
            "province": "黑龙江省",
            "city": "双鸭山市",
            "district": "宝山区"
        }
    },
    {
        "id": "16635908972823428122",
        "title": "公共厕所",
        "address": "黑龙江省双鸭山市集贤县体育街与福宁路交叉口正北方向34米左右",
        "tel": "",
        "category": "基础设施:公共设施:公共厕所",
        "type": 0,
        "location": {
            "lat": 46.729162,
            "lng": 131.128598
        },
        "ad_info": {
            "adcode": 230521,
            "province": "黑龙江省",
            "city": "双鸭山市",
            "district": "集贤县"
        }
    },
    {
        "id": "14293815012298046780",
        "title": "公共厕所",
        "address": "黑龙江省双鸭山市宝山区第三十三中学东南440米",
        "tel": "",
        "category": "基础设施:公共设施:公共厕所",
        "type": 0,
        "location": {
            "lat": 46.516915,
            "lng": 131.624967
        },
        "ad_info": {
            "adcode": 230506,
            "province": "黑龙江省",
            "city": "双鸭山市",
            "district": "宝山区"
        }
    },
    {
        "id": "5426462185827475000",
        "title": "公共厕所",
        "address": "黑龙江省双鸭山市友谊县中兴路与建设路交叉口正西方向104米左右",
        "tel": "",
        "category": "基础设施:公共设施:公共厕所",
        "type": 0,
        "location": {
            "lat": 46.720155,
            "lng": 131.572354
        },
        "ad_info": {
            "adcode": 230522,
            "province": "黑龙江省",
            "city": "双鸭山市",
            "district": "友谊县"
        }
    },
    {
        "id": "5539826995801701382",
        "title": "公共厕所",
        "address": "黑龙江省双鸭山市友谊县东兴路与北环路交叉口东北方向745米左右",
        "tel": "",
        "category": "基础设施:公共设施:公共厕所",
        "type": 0,
        "location": {
            "lat": 46.729539,
            "lng": 131.589383
        },
        "ad_info": {
            "adcode": 230522,
            "province": "黑龙江省",
            "city": "双鸭山市",
            "district": "友谊县"
        }
    },
    {
        "id": "13245355499648416070",
        "title": "公共厕所",
        "address": "黑龙江省双鸭山市集贤县Y401与友谊路交叉口西北方向1154米左右",
        "tel": "",
        "category": "基础设施:公共设施:公共厕所",
        "type": 0,
        "location": {
            "lat": 46.88888,
            "lng": 131.433339
        },
        "ad_info": {
            "adcode": 230521,
            "province": "黑龙江省",
            "city": "双鸭山市",
            "district": "集贤县"
        }
    },
    {
        "id": "2194425922650739114",
        "title": "公共厕所",
        "address": "黑龙江省双鸭山市友谊县新民路与迎宾街交叉口西南方向33米左右",
        "tel": "",
        "category": "基础设施:公共设施:公共厕所",
        "type": 0,
        "location": {
            "lat": 46.7726,
            "lng": 131.817422
        },
        "ad_info": {
            "adcode": 230522,
            "province": "黑龙江省",
            "city": "双鸭山市",
            "district": "友谊县"
        }
    },
    {
        "id": "201070734841356600",
        "title": "公共厕所",
        "address": "黑龙江省双鸭山市岭东区宝石路与滨水大道交叉口正南方向358米左右",
        "tel": "",
        "category": "基础设施:公共设施:公共厕所",
        "type": 0,
        "location": {
            "lat": 46.569116,
            "lng": 131.130877
        },
        "ad_info": {
            "adcode": 230503,
            "province": "黑龙江省",
            "city": "双鸭山市",
            "district": "岭东区"
        }
    },
    {
        "id": "6123669001785764011",
        "title": "公共厕所",
        "address": "黑龙江省双鸭山市宝山区同心路与银河大街交叉口正东方向34米左右",
        "tel": "",
        "category": "基础设施:公共设施:公共厕所",
        "type": 0,
        "location": {
            "lat": 46.580792,
            "lng": 131.399624
        },
        "ad_info": {
            "adcode": 230506,
            "province": "黑龙江省",
            "city": "双鸭山市",
            "district": "宝山区"
        }
    },
    {
        "id": "16090211382933616100",
        "title": "公共厕所",
        "address": "黑龙江省双鸭山市四方台区G501与X132交叉口东南方向1091米左右",
        "tel": "",
        "category": "基础设施:公共设施:公共厕所",
        "type": 0,
        "location": {
            "lat": 46.601542,
            "lng": 131.324349
        },
        "ad_info": {
            "adcode": 230505,
            "province": "黑龙江省",
            "city": "双鸭山市",
            "district": "四方台区"
        }
    },
    {
        "id": "10421676885905103449",
        "title": "公共厕所",
        "address": "黑龙江省双鸭山市友谊县Y009与Y024交叉口正南方向375米左右",
        "tel": "",
        "category": "基础设施:公共设施:公共厕所",
        "type": 0,
        "location": {
            "lat": 46.782687,
            "lng": 131.929719
        },
        "ad_info": {
            "adcode": 230522,
            "province": "黑龙江省",
            "city": "双鸭山市",
            "district": "友谊县"
        }
    },
    {
        "id": "8811875517413224320",
        "title": "公共厕所",
        "address": "黑龙江省双鸭山市宝清县东直街与黎明路交叉口东北方向47米左右",
        "tel": "",
        "category": "基础设施:公共设施:公共厕所",
        "type": 0,
        "location": {
            "lat": 46.526842,
            "lng": 133.013857
        },
        "ad_info": {
            "adcode": 230523,
            "province": "黑龙江省",
            "city": "双鸭山市",
            "district": "宝清县"
        }
    },
    {
        "id": "17797233094775250379",
        "title": "公共厕所",
        "address": "黑龙江省双鸭山市宝清县307省道南100米",
        "tel": "",
        "category": "基础设施:公共设施:公共厕所",
        "type": 0,
        "location": {
            "lat": 46.20467,
            "lng": 132.543315
        },
        "ad_info": {
            "adcode": 230523,
            "province": "黑龙江省",
            "city": "双鸭山市",
            "district": "宝清县"
        }
    },
    {
        "id": "4107718325299540463",
        "title": "公共厕所",
        "address": "黑龙江省双鸭山市宝山区人和街与扁石河路交叉口东北方向67米左右",
        "tel": "",
        "category": "基础设施:公共设施:公共厕所",
        "type": 0,
        "location": {
            "lat": 46.539313,
            "lng": 131.480007
        },
        "ad_info": {
            "adcode": 230506,
            "province": "黑龙江省",
            "city": "双鸭山市",
            "district": "宝山区"
        }
    },
    {
        "id": "412454474832122157",
        "title": "公共厕所",
        "address": "黑龙江省双鸭山市宝山区宝林路与新宝大街交叉口西北方向95米左右",
        "tel": "",
        "category": "基础设施:公共设施:公共厕所",
        "type": 0,
        "location": {
            "lat": 46.565321,
            "lng": 131.410538
        },
        "ad_info": {
            "adcode": 230506,
            "province": "黑龙江省",
            "city": "双鸭山市",
            "district": "宝山区"
        }
    },
    {
        "id": "3022432624611163032",
        "title": "公共厕所",
        "address": "黑龙江省双鸭山市友谊县307省道东50米",
        "tel": "",
        "category": "基础设施:公共设施:公共厕所",
        "type": 0,
        "location": {
            "lat": 46.683917,
            "lng": 131.623516
        },
        "ad_info": {
            "adcode": 230522,
            "province": "黑龙江省",
            "city": "双鸭山市",
            "district": "友谊县"
        }
    },
    {
        "id": "2795688229099163540",
        "title": "公共厕所",
        "address": "黑龙江省双鸭山市岭东区北矿路与运矿路交叉口东北方向611米左右",
        "tel": "",
        "category": "基础设施:公共设施:公共厕所",
        "type": 0,
        "location": {
            "lat": 46.59621,
            "lng": 131.07489
        },
        "ad_info": {
            "adcode": 230503,
            "province": "黑龙江省",
            "city": "双鸭山市",
            "district": "岭东区"
        }
    },
    {
        "id": "8135446557649033080",
        "title": "公共厕所",
        "address": "黑龙江省双鸭山市宝清县G229与Y414交叉口东北方向242米左右",
        "tel": "",
        "category": "基础设施:公共设施:公共厕所",
        "type": 0,
        "location": {
            "lat": 46.252456,
            "lng": 132.691834
        },
        "ad_info": {
            "adcode": 230523,
            "province": "黑龙江省",
            "city": "双鸭山市",
            "district": "宝清县"
        }
    },
    {
        "id": "5357260762647012318",
        "title": "公共厕所",
        "address": "黑龙江省双鸭山市集贤县保卫路与安邦街交叉口正西方向164米左右",
        "tel": "",
        "category": "基础设施:公共设施:公共厕所",
        "type": 0,
        "location": {
            "lat": 46.722851,
            "lng": 131.134018
        },
        "ad_info": {
            "adcode": 230521,
            "province": "黑龙江省",
            "city": "双鸭山市",
            "district": "集贤县"
        }
    },
    {
        "id": "3842523606145749094",
        "title": "公共厕所",
        "address": "黑龙江省双鸭山市宝清县501国道与Z456交叉口东南180米",
        "tel": "",
        "category": "基础设施:公共设施:公共厕所",
        "type": 0,
        "location": {
            "lat": 45.857289,
            "lng": 132.049862
        },
        "ad_info": {
            "adcode": 230523,
            "province": "黑龙江省",
            "city": "双鸭山市",
            "district": "宝清县"
        }
    },
    {
        "id": "17165123350718336967",
        "title": "公共厕所",
        "address": "黑龙江省双鸭山市集贤县新发街与福双路交叉口正东方向264米左右",
        "tel": "",
        "category": "基础设施:公共设施:公共厕所",
        "type": 0,
        "location": {
            "lat": 46.705084,
            "lng": 131.144929
        },
        "ad_info": {
            "adcode": 230521,
            "province": "黑龙江省",
            "city": "双鸭山市",
            "district": "集贤县"
        }
    },
    {
        "id": "12570208917781663388",
        "title": "公共厕所",
        "address": "黑龙江省双鸭山市友谊县东直路与振兴街交叉口正南方向140米左右",
        "tel": "",
        "category": "基础设施:公共设施:公共厕所",
        "type": 0,
        "location": {
            "lat": 46.783522,
            "lng": 131.817989
        },
        "ad_info": {
            "adcode": 230522,
            "province": "黑龙江省",
            "city": "双鸭山市",
            "district": "友谊县"
        }
    },
    {
        "id": "11502561448763152870",
        "title": "公共厕所",
        "address": "黑龙江省双鸭山市饶河县G331与仁和街交叉口正北方向690米左右",
        "tel": "",
        "category": "基础设施:公共设施:公共厕所",
        "type": 0,
        "location": {
            "lat": 47.223572,
            "lng": 133.747793
        },
        "ad_info": {
            "adcode": 230524,
            "province": "黑龙江省",
            "city": "双鸭山市",
            "district": "饶河县"
        }
    },
    {
        "id": "17256629970164356774",
        "title": "公共厕所",
        "address": "黑龙江省双鸭山市友谊县东直路与市场街交叉口正南方向58米左右",
        "tel": "",
        "category": "基础设施:公共设施:公共厕所",
        "type": 0,
        "location": {
            "lat": 46.776307,
            "lng": 131.820218
        },
        "ad_info": {
            "adcode": 230522,
            "province": "黑龙江省",
            "city": "双鸭山市",
            "district": "友谊县"
        }
    },
    {
        "id": "12479291869950745393",
        "title": "公共厕所",
        "address": "黑龙江省双鸭山市集贤县221国道南50米",
        "tel": "",
        "category": "基础设施:公共设施:公共厕所",
        "type": 0,
        "location": {
            "lat": 46.787847,
            "lng": 131.007219
        },
        "ad_info": {
            "adcode": 230521,
            "province": "黑龙江省",
            "city": "双鸭山市",
            "district": "集贤县"
        }
    },
    {
        "id": "15552346886671367153",
        "title": "公共厕所",
        "address": "黑龙江省双鸭山市尖山区建设路与育龙街交叉口东南方向28米左右",
        "tel": "",
        "category": "基础设施:公共设施:公共厕所",
        "type": 0,
        "location": {
            "lat": 46.658649,
            "lng": 131.165582
        },
        "ad_info": {
            "adcode": 230502,
            "province": "黑龙江省",
            "city": "双鸭山市",
            "district": "尖山区"
        }
    },
    {
        "id": "1882034372054095590",
        "title": "公共厕所",
        "address": "黑龙江省双鸭山市宝清县G229与朝阳桥交叉口正南方向1001米左右",
        "tel": "",
        "category": "基础设施:公共设施:公共厕所",
        "type": 0,
        "location": {
            "lat": 46.210336,
            "lng": 132.373229
        },
        "ad_info": {
            "adcode": 230523,
            "province": "黑龙江省",
            "city": "双鸭山市",
            "district": "宝清县"
        }
    },
    {
        "id": "296391162603484306",
        "title": "公共厕所",
        "address": "黑龙江省双鸭山市集贤县卫生街与福宁路交叉口西南方向157米左右",
        "tel": "",
        "category": "基础设施:公共设施:公共厕所",
        "type": 0,
        "location": {
            "lat": 46.729895,
            "lng": 131.127072
        },
        "ad_info": {
            "adcode": 230521,
            "province": "黑龙江省",
            "city": "双鸭山市",
            "district": "集贤县"
        }
    },
    {
        "id": "6420496323767302760",
        "title": "公共厕所",
        "address": "黑龙江省双鸭山市集贤县体育街与向阳路交叉口西北方向24米左右",
        "tel": "",
        "category": "基础设施:公共设施:公共厕所",
        "type": 0,
        "location": {
            "lat": 46.729843,
            "lng": 131.143234
        },
        "ad_info": {
            "adcode": 230521,
            "province": "黑龙江省",
            "city": "双鸭山市",
            "district": "集贤县"
        }
    },
    {
        "id": "17561128886345383232",
        "title": "公共厕所",
        "address": "黑龙江省双鸭山市集贤县卫生街与向阳路交叉口正北方向62米左右",
        "tel": "",
        "category": "基础设施:公共设施:公共厕所",
        "type": 0,
        "location": {
            "lat": 46.732303,
            "lng": 131.142944
        },
        "ad_info": {
            "adcode": 230521,
            "province": "黑龙江省",
            "city": "双鸭山市",
            "district": "集贤县"
        }
    },
    {
        "id": "1143585828513936633",
        "title": "公共厕所",
        "address": "黑龙江省双鸭山市集贤县南方小区东北侧170米",
        "tel": "",
        "category": "基础设施:公共设施:公共厕所",
        "type": 0,
        "location": {
            "lat": 46.888851,
            "lng": 131.445206
        },
        "ad_info": {
            "adcode": 230521,
            "province": "黑龙江省",
            "city": "双鸭山市",
            "district": "集贤县"
        }
    },
    {
        "id": "7482014393776966858",
        "title": "公共厕所",
        "address": "黑龙江省双鸭山市集贤县七星街与福西路交叉口正北方向297米左右",
        "tel": "",
        "category": "基础设施:公共设施:公共厕所",
        "type": 0,
        "location": {
            "lat": 46.73815,
            "lng": 131.12417
        },
        "ad_info": {
            "adcode": 230521,
            "province": "黑龙江省",
            "city": "双鸭山市",
            "district": "集贤县"
        }
    },
    {
        "id": "5932226792399419435",
        "title": "公共厕所",
        "address": "黑龙江省双鸭山市集贤县七星街与福西路交叉口西南方向39米左右",
        "tel": "",
        "category": "基础设施:公共设施:公共厕所",
        "type": 0,
        "location": {
            "lat": 46.735182,
            "lng": 131.124413
        },
        "ad_info": {
            "adcode": 230521,
            "province": "黑龙江省",
            "city": "双鸭山市",
            "district": "集贤县"
        }
    },
    {
        "id": "6442149945634870102",
        "title": "公共厕所",
        "address": "黑龙江省双鸭山市集贤县卫生街与福西路交叉口正北方向201米左右",
        "tel": "",
        "category": "基础设施:公共设施:公共厕所",
        "type": 0,
        "location": {
            "lat": 46.732463,
            "lng": 131.124663
        },
        "ad_info": {
            "adcode": 230521,
            "province": "黑龙江省",
            "city": "双鸭山市",
            "district": "集贤县"
        }
    },
    {
        "id": "18359020304553996104",
        "title": "公共厕所",
        "address": "黑龙江省双鸭山市集贤县南方小区南侧220米",
        "tel": "",
        "category": "基础设施:公共设施:公共厕所",
        "type": 0,
        "location": {
            "lat": 46.885506,
            "lng": 131.443439
        },
        "ad_info": {
            "adcode": 230521,
            "province": "黑龙江省",
            "city": "双鸭山市",
            "district": "集贤县"
        }
    },
    {
        "id": "2734977118492131583",
        "title": "公共厕所",
        "address": "黑龙江省双鸭山市集贤县工业街与裕丰街交叉口西北方向184米左右",
        "tel": "",
        "category": "基础设施:公共设施:公共厕所",
        "type": 0,
        "location": {
            "lat": 46.716089,
            "lng": 131.14444
        },
        "ad_info": {
            "adcode": 230521,
            "province": "黑龙江省",
            "city": "双鸭山市",
            "district": "集贤县"
        }
    },
    {
        "id": "12701490073958514716",
        "title": "公共厕所",
        "address": "黑龙江省双鸭山市集贤县友谊街与同汪公路交叉口正北方向52米左右",
        "tel": "",
        "category": "基础设施:公共设施:公共厕所",
        "type": 0,
        "location": {
            "lat": 46.812345,
            "lng": 131.238441
        },
        "ad_info": {
            "adcode": 230521,
            "province": "黑龙江省",
            "city": "双鸭山市",
            "district": "集贤县"
        }
    },
    {
        "id": "2843545423049065067",
        "title": "公共厕所",
        "address": "黑龙江省双鸭山市集贤县升平街与文化路交叉口正南方向144米左右",
        "tel": "",
        "category": "基础设施:公共设施:公共厕所",
        "type": 0,
        "location": {
            "lat": 46.788071,
            "lng": 131.202313
        },
        "ad_info": {
            "adcode": 230521,
            "province": "黑龙江省",
            "city": "双鸭山市",
            "district": "集贤县"
        }
    },
    {
        "id": "15236256624797971358",
        "title": "公共厕所",
        "address": "黑龙江省双鸭山市集贤县七星街与福西路交叉口正南方向160米左右",
        "tel": "",
        "category": "基础设施:公共设施:公共厕所",
        "type": 0,
        "location": {
            "lat": 46.734055,
            "lng": 131.124521
        },
        "ad_info": {
            "adcode": 230521,
            "province": "黑龙江省",
            "city": "双鸭山市",
            "district": "集贤县"
        }
    },
    {
        "id": "11573053695925227187",
        "title": "公共厕所",
        "address": "黑龙江省双鸭山市集贤县园丁街与福双路交叉口正南方向76米左右",
        "tel": "",
        "category": "基础设施:公共设施:公共厕所",
        "type": 0,
        "location": {
            "lat": 46.73809,
            "lng": 131.137313
        },
        "ad_info": {
            "adcode": 230521,
            "province": "黑龙江省",
            "city": "双鸭山市",
            "district": "集贤县"
        }
    },
    {
        "id": "6135917612101436917",
        "title": "公共厕所",
        "address": "黑龙江省双鸭山市集贤县兴源路与友谊街交叉口西北方向280米左右",
        "tel": "",
        "category": "基础设施:公共设施:公共厕所",
        "type": 0,
        "location": {
            "lat": 46.817203,
            "lng": 131.247437
        },
        "ad_info": {
            "adcode": 230521,
            "province": "黑龙江省",
            "city": "双鸭山市",
            "district": "集贤县"
        }
    },
    {
        "id": "10689234649924950847",
        "title": "公共厕所",
        "address": "黑龙江省双鸭山市集贤县G221与安邦河立交桥交叉口东南方向589米左右",
        "tel": "",
        "category": "基础设施:公共设施:公共厕所",
        "type": 0,
        "location": {
            "lat": 46.733764,
            "lng": 131.161488
        },
        "ad_info": {
            "adcode": 230521,
            "province": "黑龙江省",
            "city": "双鸭山市",
            "district": "集贤县"
        }
    },
    {
        "id": "8514256313629346357",
        "title": "公共厕所",
        "address": "黑龙江省双鸭山市集贤县友谊街与向阳路交叉口正北方向81米左右",
        "tel": "",
        "category": "基础设施:公共设施:公共厕所",
        "type": 0,
        "location": {
            "lat": 46.726837,
            "lng": 131.143646
        },
        "ad_info": {
            "adcode": 230521,
            "province": "黑龙江省",
            "city": "双鸭山市",
            "district": "集贤县"
        }
    },
    {
        "id": "13280761127056177514",
        "title": "无障碍公共厕所",
        "address": "黑龙江省双鸭山市尖山区司法大厦(站前路)西南侧50米",
        "tel": "",
        "category": "基础设施:公共设施:公共厕所",
        "type": 0,
        "location": {
            "lat": 46.644921,
            "lng": 131.153403
        },
        "ad_info": {
            "adcode": 230502,
            "province": "黑龙江省",
            "city": "双鸭山市",
            "district": "尖山区"
        }
    },
    {
        "id": "8846847870951595626",
        "title": "公共厕所",
        "address": "黑龙江省双鸭山市集贤县交通街与福双路交叉口正东方向66米左右",
        "tel": "",
        "category": "基础设施:公共设施:公共厕所",
        "type": 0,
        "location": {
            "lat": 46.723892,
            "lng": 131.140121
        },
        "ad_info": {
            "adcode": 230521,
            "province": "黑龙江省",
            "city": "双鸭山市",
            "district": "集贤县"
        }
    },
    {
        "id": "13349202340544226849",
        "title": "八五二服务区公共厕所",
        "address": "黑龙江省双鸭山市宝清县建鸡高速八五二服务区",
        "tel": "",
        "category": "基础设施:公共设施:公共厕所",
        "type": 0,
        "location": {
            "lat": 46.207069,
            "lng": 132.813869
        },
        "ad_info": {
            "adcode": 230523,
            "province": "黑龙江省",
            "city": "双鸭山市",
            "district": "宝清县"
        }
    },
    {
        "id": "18108513691336373340",
        "title": "太平服务区公共厕所",
        "address": "黑龙江省双鸭山市集贤县Y017与通荣路交叉口西北方向1070米左右",
        "tel": "",
        "category": "基础设施:公共设施:公共厕所",
        "type": 0,
        "location": {
            "lat": 46.771401,
            "lng": 130.699487
        },
        "ad_info": {
            "adcode": 230521,
            "province": "黑龙江省",
            "city": "双鸭山市",
            "district": "集贤县"
        }
    },
    {
        "id": "8280935091377563442",
        "title": "八五三服务区公共厕所",
        "address": "黑龙江省双鸭山市宝清县建鸡高速八五三服务区",
        "tel": "",
        "category": "基础设施:公共设施:公共厕所",
        "type": 0,
        "location": {
            "lat": 46.572701,
            "lng": 132.948885
        },
        "ad_info": {
            "adcode": 230523,
            "province": "黑龙江省",
            "city": "双鸭山市",
            "district": "宝清县"
        }
    },
    {
        "id": "14682630254583331834",
        "title": "集贤服务区公共厕所",
        "address": "黑龙江省双鸭山市集贤县Y015与升集路交叉口正南方向1898米左右",
        "tel": "",
        "category": "基础设施:公共设施:公共厕所",
        "type": 0,
        "location": {
            "lat": 46.774238,
            "lng": 131.188625
        },
        "ad_info": {
            "adcode": 230521,
            "province": "黑龙江省",
            "city": "双鸭山市",
            "district": "集贤县"
        }
    }
]