[
    {
        "id": "18061895216662989690",
        "title": "公共卫生间",
        "address": "新疆维吾尔自治区可克达拉市长江西路",
        "tel": "",
        "category": "基础设施:公共设施:公共厕所",
        "type": 0,
        "location": {
            "lat": 43.932435,
            "lng": 81.005984
        },
        "ad_info": {
            "adcode": 659008,
            "province": "新疆维吾尔自治区",
            "city": "",
            "district": "可克达拉市"
        }
    },
    {
        "id": "7526024069806652369",
        "title": "公共厕所",
        "address": "新疆维吾尔自治区可克达拉市悦麓山南路1888号",
        "tel": "",
        "category": "基础设施:公共设施:公共厕所",
        "type": 0,
        "location": {
            "lat": 43.913736,
            "lng": 81.000393
        },
        "ad_info": {
            "adcode": 659008,
            "province": "新疆维吾尔自治区",
            "city": "",
            "district": "可克达拉市"
        }
    },
    {
        "id": "7966304149766079226",
        "title": "公共厕所",
        "address": "新疆维吾尔自治区可克达拉市友好北路与友好南路交叉口正东方向700米左右",
        "tel": "",
        "category": "基础设施:公共设施:公共厕所",
        "type": 0,
        "location": {
            "lat": 43.801519,
            "lng": 80.766586
        },
        "ad_info": {
            "adcode": 659008,
            "province": "新疆维吾尔自治区",
            "city": "",
            "district": "可克达拉市"
        }
    },
    {
        "id": "13754131820167246645",
        "title": "公共厕所",
        "address": "新疆维吾尔自治区可克达拉市友好南路六十七团中学",
        "tel": "",
        "category": "基础设施:公共设施:公共厕所",
        "type": 0,
        "location": {
            "lat": 43.799201,
            "lng": 80.758104
        },
        "ad_info": {
            "adcode": 659008,
            "province": "新疆维吾尔自治区",
            "city": "",
            "district": "可克达拉市"
        }
    },
    {
        "id": "1529669793903346536",
        "title": "人名公园公厕",
        "address": "新疆维吾尔自治区可克达拉市镇江路与香飘路交叉口东南",
        "tel": "",
        "category": "基础设施:公共设施:公共厕所",
        "type": 0,
        "location": {
            "lat": 43.92974,
            "lng": 80.982666
        },
        "ad_info": {
            "adcode": 659008,
            "province": "新疆维吾尔自治区",
            "city": "",
            "district": "可克达拉市"
        }
    },
    {
        "id": "17814675110666601133",
        "title": "公共厕所",
        "address": "新疆维吾尔自治区可克达拉市人民北路与新荣东路交叉口正南方向116米左右",
        "tel": "",
        "category": "基础设施:公共设施:公共厕所",
        "type": 0,
        "location": {
            "lat": 43.967123,
            "lng": 80.547917
        },
        "ad_info": {
            "adcode": 659008,
            "province": "新疆维吾尔自治区",
            "city": "",
            "district": "可克达拉市"
        }
    },
    {
        "id": "9581396722774570350",
        "title": "公共厕所",
        "address": "新疆维吾尔自治区可克达拉市S213与X407交叉口正北方向1728米左右",
        "tel": "",
        "category": "基础设施:公共设施:公共厕所",
        "type": 0,
        "location": {
            "lat": 43.815663,
            "lng": 80.716729
        },
        "ad_info": {
            "adcode": 659008,
            "province": "新疆维吾尔自治区",
            "city": "",
            "district": "可克达拉市"
        }
    },
    {
        "id": "9005683619549373252",
        "title": "公共厕所",
        "address": "新疆维吾尔自治区可克达拉市长江西路",
        "tel": "",
        "category": "基础设施:公共设施:公共厕所",
        "type": 0,
        "location": {
            "lat": 43.931082,
            "lng": 81.009604
        },
        "ad_info": {
            "adcode": 659008,
            "province": "新疆维吾尔自治区",
            "city": "",
            "district": "可克达拉市"
        }
    },
    {
        "id": "12511009557963937211",
        "title": "公共厕所",
        "address": "新疆维吾尔自治区可克达拉市",
        "tel": "",
        "category": "基础设施:公共设施:公共厕所",
        "type": 0,
        "location": {
            "lat": 43.939674,
            "lng": 81.07216
        },
        "ad_info": {
            "adcode": 659008,
            "province": "新疆维吾尔自治区",
            "city": "",
            "district": "可克达拉市"
        }
    },
    {
        "id": "12328650659673591253",
        "title": "公共卫生间",
        "address": "新疆维吾尔自治区可克达拉市迎宾路",
        "tel": "",
        "category": "基础设施:公共设施:公共厕所",
        "type": 0,
        "location": {
            "lat": 43.963166,
            "lng": 81.023994
        },
        "ad_info": {
            "adcode": 659008,
            "province": "新疆维吾尔自治区",
            "city": "",
            "district": "可克达拉市"
        }
    },
    {
        "id": "17577519744361372099",
        "title": "公共厕所",
        "address": "新疆维吾尔自治区可克达拉市",
        "tel": "",
        "category": "基础设施:公共设施:公共厕所",
        "type": 0,
        "location": {
            "lat": 43.967745,
            "lng": 80.985904
        },
        "ad_info": {
            "adcode": 659008,
            "province": "新疆维吾尔自治区",
            "city": "",
            "district": "可克达拉市"
        }
    },
    {
        "id": "1536781589879539583",
        "title": "公共卫生间",
        "address": "新疆维吾尔自治区可克达拉市迎宾路",
        "tel": "",
        "category": "基础设施:公共设施:公共厕所",
        "type": 0,
        "location": {
            "lat": 43.963612,
            "lng": 81.023035
        },
        "ad_info": {
            "adcode": 659008,
            "province": "新疆维吾尔自治区",
            "city": "",
            "district": "可克达拉市"
        }
    },
    {
        "id": "1829390920436104008",
        "title": "七连公共厕所",
        "address": "新疆维吾尔自治区可克达拉市",
        "tel": "",
        "category": "基础设施:公共设施:公共厕所",
        "type": 0,
        "location": {
            "lat": 43.876572,
            "lng": 81.088209
        },
        "ad_info": {
            "adcode": 659008,
            "province": "新疆维吾尔自治区",
            "city": "",
            "district": "可克达拉市"
        }
    }
]