[
    {
        "id": "12206902265274445308",
        "title": "公共厕所",
        "address": "新疆维吾尔自治区吐鲁番市鄯善县新城东路北五巷与蒲昌路交叉口东南方向26米左右",
        "tel": "",
        "category": "基础设施:公共设施:公共厕所",
        "type": 0,
        "location": {
            "lat": 42.898443,
            "lng": 90.228606
        },
        "ad_info": {
            "adcode": 650421,
            "province": "新疆维吾尔自治区",
            "city": "吐鲁番市",
            "district": "鄯善县"
        }
    },
    {
        "id": "1786567404025502761",
        "title": "公共厕所",
        "address": "新疆维吾尔自治区吐鲁番市鄯善县光明东路与光明路交叉口正北方向147米左右",
        "tel": "",
        "category": "基础设施:公共设施:公共厕所",
        "type": 0,
        "location": {
            "lat": 42.87351,
            "lng": 90.214338
        },
        "ad_info": {
            "adcode": 650421,
            "province": "新疆维吾尔自治区",
            "city": "吐鲁番市",
            "district": "鄯善县"
        }
    },
    {
        "id": "16386082153667708514",
        "title": "公共厕所",
        "address": "新疆维吾尔自治区吐鲁番市鄯善县广场路与文化路交叉口东北方向119米左右",
        "tel": "",
        "category": "基础设施:公共设施:公共厕所",
        "type": 0,
        "location": {
            "lat": 42.863881,
            "lng": 90.214279
        },
        "ad_info": {
            "adcode": 650421,
            "province": "新疆维吾尔自治区",
            "city": "吐鲁番市",
            "district": "鄯善县"
        }
    },
    {
        "id": "12979334041091211714",
        "title": "公共厕所",
        "address": "新疆维吾尔自治区吐鲁番市鄯善县新城东路与新城东路南四巷交叉口正北方向106米左右",
        "tel": "",
        "category": "基础设施:公共设施:公共厕所",
        "type": 0,
        "location": {
            "lat": 42.895901,
            "lng": 90.229851
        },
        "ad_info": {
            "adcode": 650421,
            "province": "新疆维吾尔自治区",
            "city": "吐鲁番市",
            "district": "鄯善县"
        }
    },
    {
        "id": "8533531044953475460",
        "title": "公共厕所",
        "address": "新疆维吾尔自治区吐鲁番市鄯善县新城东路与柳中路交叉口西南方向142米左右",
        "tel": "",
        "category": "基础设施:公共设施:公共厕所",
        "type": 0,
        "location": {
            "lat": 42.894292,
            "lng": 90.225271
        },
        "ad_info": {
            "adcode": 650421,
            "province": "新疆维吾尔自治区",
            "city": "吐鲁番市",
            "district": "鄯善县"
        }
    },
    {
        "id": "7004314998081587727",
        "title": "公共厕所",
        "address": "新疆维吾尔自治区吐鲁番市鄯善县新城东路与柳中路交叉口东北方向57米左右",
        "tel": "",
        "category": "基础设施:公共设施:公共厕所",
        "type": 0,
        "location": {
            "lat": 42.895241,
            "lng": 90.227292
        },
        "ad_info": {
            "adcode": 650421,
            "province": "新疆维吾尔自治区",
            "city": "吐鲁番市",
            "district": "鄯善县"
        }
    },
    {
        "id": "5376983844361344243",
        "title": "公共厕所",
        "address": "新疆维吾尔自治区吐鲁番市鄯善县沙海路与高铁路交叉口西北方向30米左右",
        "tel": "",
        "category": "基础设施:公共设施:公共厕所",
        "type": 0,
        "location": {
            "lat": 42.917185,
            "lng": 90.194216
        },
        "ad_info": {
            "adcode": 650421,
            "province": "新疆维吾尔自治区",
            "city": "吐鲁番市",
            "district": "鄯善县"
        }
    },
    {
        "id": "12517549952795185444",
        "title": "公共厕所",
        "address": "新疆维吾尔自治区吐鲁番市鄯善县幸福路与老城南路交叉口正东方向218米左右",
        "tel": "",
        "category": "基础设施:公共设施:公共厕所",
        "type": 0,
        "location": {
            "lat": 42.876939,
            "lng": 90.217984
        },
        "ad_info": {
            "adcode": 650421,
            "province": "新疆维吾尔自治区",
            "city": "吐鲁番市",
            "district": "鄯善县"
        }
    },
    {
        "id": "797482945524917226",
        "title": "公共厕所",
        "address": "新疆维吾尔自治区吐鲁番市鄯善县木卡姆路与老城南路交叉口西南方向69米左右",
        "tel": "",
        "category": "基础设施:公共设施:公共厕所",
        "type": 0,
        "location": {
            "lat": 42.865806,
            "lng": 90.2117
        },
        "ad_info": {
            "adcode": 650421,
            "province": "新疆维吾尔自治区",
            "city": "吐鲁番市",
            "district": "鄯善县"
        }
    },
    {
        "id": "16867063637928710183",
        "title": "公共厕所",
        "address": "新疆维吾尔自治区吐鲁番市鄯善县新城北路57号",
        "tel": "",
        "category": "基础设施:公共设施:公共厕所",
        "type": 0,
        "location": {
            "lat": 42.893864,
            "lng": 90.220071
        },
        "ad_info": {
            "adcode": 650421,
            "province": "新疆维吾尔自治区",
            "city": "吐鲁番市",
            "district": "鄯善县"
        }
    },
    {
        "id": "9978640452265754443",
        "title": "公共厕所",
        "address": "新疆维吾尔自治区吐鲁番市鄯善县柳中路3497号",
        "tel": "",
        "category": "基础设施:公共设施:公共厕所",
        "type": 0,
        "location": {
            "lat": 42.864357,
            "lng": 90.222744
        },
        "ad_info": {
            "adcode": 650421,
            "province": "新疆维吾尔自治区",
            "city": "吐鲁番市",
            "district": "鄯善县"
        }
    },
    {
        "id": "16072967186304759913",
        "title": "公共厕所",
        "address": "新疆维吾尔自治区吐鲁番市鄯善县柳中路1288号",
        "tel": "",
        "category": "基础设施:公共设施:公共厕所",
        "type": 0,
        "location": {
            "lat": 42.881408,
            "lng": 90.224653
        },
        "ad_info": {
            "adcode": 650421,
            "province": "新疆维吾尔自治区",
            "city": "吐鲁番市",
            "district": "鄯善县"
        }
    },
    {
        "id": "9891774673868439169",
        "title": "公共厕所",
        "address": "新疆维吾尔自治区吐鲁番市鄯善县吐鲁番路与解放北路交叉口西南方向149米左右",
        "tel": "",
        "category": "基础设施:公共设施:公共厕所",
        "type": 0,
        "location": {
            "lat": 43.092523,
            "lng": 90.486144
        },
        "ad_info": {
            "adcode": 650421,
            "province": "新疆维吾尔自治区",
            "city": "吐鲁番市",
            "district": "鄯善县"
        }
    },
    {
        "id": "14203027680913475210",
        "title": "公共厕所",
        "address": "新疆维吾尔自治区吐鲁番市鄯善县X058与X065交叉口东南方向97米左右",
        "tel": "",
        "category": "基础设施:公共设施:公共厕所",
        "type": 0,
        "location": {
            "lat": 42.830977,
            "lng": 89.689446
        },
        "ad_info": {
            "adcode": 650421,
            "province": "新疆维吾尔自治区",
            "city": "吐鲁番市",
            "district": "鄯善县"
        }
    },
    {
        "id": "3085919429834629984",
        "title": "公共厕所",
        "address": "新疆维吾尔自治区吐鲁番市鄯善县克其克路与庭子路交叉口正西方向80米左右",
        "tel": "",
        "category": "基础设施:公共设施:公共厕所",
        "type": 0,
        "location": {
            "lat": 42.860688,
            "lng": 90.20929
        },
        "ad_info": {
            "adcode": 650421,
            "province": "新疆维吾尔自治区",
            "city": "吐鲁番市",
            "district": "鄯善县"
        }
    },
    {
        "id": "2808823628265781104",
        "title": "公共厕所",
        "address": "新疆维吾尔自治区吐鲁番市鄯善县X069与连霍高速交叉口正北方向527米左右",
        "tel": "",
        "category": "基础设施:公共设施:公共厕所",
        "type": 0,
        "location": {
            "lat": 43.020359,
            "lng": 90.526164
        },
        "ad_info": {
            "adcode": 650421,
            "province": "新疆维吾尔自治区",
            "city": "吐鲁番市",
            "district": "鄯善县"
        }
    },
    {
        "id": "5396749957435365065",
        "title": "公共厕所",
        "address": "新疆维吾尔自治区吐鲁番市高昌区老城西路与老城路交叉口西南方向35米左右",
        "tel": "18609956239",
        "category": "基础设施:公共设施:公共厕所",
        "type": 0,
        "location": {
            "lat": 42.941956,
            "lng": 89.180928
        },
        "ad_info": {
            "adcode": 650402,
            "province": "新疆维吾尔自治区",
            "city": "吐鲁番市",
            "district": "高昌区"
        }
    },
    {
        "id": "5182234066853076168",
        "title": "公共厕所",
        "address": "新疆维吾尔自治区吐鲁番市托克逊县天山路与迎春路交叉口正西方向203米左右",
        "tel": "",
        "category": "基础设施:公共设施:公共厕所",
        "type": 0,
        "location": {
            "lat": 42.787315,
            "lng": 88.621415
        },
        "ad_info": {
            "adcode": 650422,
            "province": "新疆维吾尔自治区",
            "city": "吐鲁番市",
            "district": "托克逊县"
        }
    },
    {
        "id": "16857252335220005352",
        "title": "公共厕所",
        "address": "新疆维吾尔自治区吐鲁番市托克逊县文化路与永安路交叉口正南方向574米左右",
        "tel": "",
        "category": "基础设施:公共设施:公共厕所",
        "type": 0,
        "location": {
            "lat": 42.800692,
            "lng": 88.629746
        },
        "ad_info": {
            "adcode": 650422,
            "province": "新疆维吾尔自治区",
            "city": "吐鲁番市",
            "district": "托克逊县"
        }
    },
    {
        "id": "72758304143315483",
        "title": "公共厕所",
        "address": "新疆维吾尔自治区吐鲁番市托克逊县北大街与和谐北路交叉口东南方向198米左右",
        "tel": "",
        "category": "基础设施:公共设施:公共厕所",
        "type": 0,
        "location": {
            "lat": 42.805518,
            "lng": 88.649759
        },
        "ad_info": {
            "adcode": 650422,
            "province": "新疆维吾尔自治区",
            "city": "吐鲁番市",
            "district": "托克逊县"
        }
    },
    {
        "id": "15838782302735963851",
        "title": "公共厕所",
        "address": "新疆维吾尔自治区吐鲁番市托克逊县和谐北路与团结中路交叉口正南方向83米左右",
        "tel": "",
        "category": "基础设施:公共设施:公共厕所",
        "type": 0,
        "location": {
            "lat": 42.793871,
            "lng": 88.637877
        },
        "ad_info": {
            "adcode": 650422,
            "province": "新疆维吾尔自治区",
            "city": "吐鲁番市",
            "district": "托克逊县"
        }
    },
    {
        "id": "14454797937899539688",
        "title": "公共厕所(胡杨公园)",
        "address": "新疆维吾尔自治区吐鲁番市托克逊县团结西路与天山北路交叉口正西方向31米左右",
        "tel": "",
        "category": "基础设施:公共设施:公共厕所",
        "type": 0,
        "location": {
            "lat": 42.795246,
            "lng": 88.622407
        },
        "ad_info": {
            "adcode": 650422,
            "province": "新疆维吾尔自治区",
            "city": "吐鲁番市",
            "district": "托克逊县"
        }
    },
    {
        "id": "18076474831570273331",
        "title": "公共厕所",
        "address": "新疆维吾尔自治区吐鲁番市托克逊县中渠路与人民东路交叉口正西方向26米左右",
        "tel": "",
        "category": "基础设施:公共设施:公共厕所",
        "type": 0,
        "location": {
            "lat": 42.791747,
            "lng": 88.66416
        },
        "ad_info": {
            "adcode": 650422,
            "province": "新疆维吾尔自治区",
            "city": "吐鲁番市",
            "district": "托克逊县"
        }
    },
    {
        "id": "4330220217774489536",
        "title": "公共厕所",
        "address": "新疆维吾尔自治区吐鲁番市高昌区绿洲东路平安小区",
        "tel": "",
        "category": "基础设施:公共设施:公共厕所",
        "type": 0,
        "location": {
            "lat": 42.951905,
            "lng": 89.190206
        },
        "ad_info": {
            "adcode": 650402,
            "province": "新疆维吾尔自治区",
            "city": "吐鲁番市",
            "district": "高昌区"
        }
    },
    {
        "id": "13107195816781651912",
        "title": "公共厕所",
        "address": "新疆维吾尔自治区吐鲁番市托克逊县华视步行街与解放南路交叉口正西方向102米左右",
        "tel": "",
        "category": "基础设施:公共设施:公共厕所",
        "type": 0,
        "location": {
            "lat": 42.792132,
            "lng": 88.655709
        },
        "ad_info": {
            "adcode": 650422,
            "province": "新疆维吾尔自治区",
            "city": "吐鲁番市",
            "district": "托克逊县"
        }
    },
    {
        "id": "15045684618504752132",
        "title": "公共厕所(南湖杏花村)",
        "address": "新疆维吾尔自治区吐鲁番市托克逊县Y061与南湖路交叉口西南方向502米左右",
        "tel": "",
        "category": "基础设施:公共设施:公共厕所",
        "type": 0,
        "location": {
            "lat": 42.735769,
            "lng": 88.716432
        },
        "ad_info": {
            "adcode": 650422,
            "province": "新疆维吾尔自治区",
            "city": "吐鲁番市",
            "district": "托克逊县"
        }
    },
    {
        "id": "8674930256555081510",
        "title": "公共厕所",
        "address": "新疆维吾尔自治区吐鲁番市高昌区麦西莱普酒店",
        "tel": "",
        "category": "基础设施:公共设施:公共厕所",
        "type": 0,
        "location": {
            "lat": 42.964468,
            "lng": 89.183812
        },
        "ad_info": {
            "adcode": 650402,
            "province": "新疆维吾尔自治区",
            "city": "吐鲁番市",
            "district": "高昌区"
        }
    },
    {
        "id": "735319901598300158",
        "title": "公共厕所(XJ-TL-0268)",
        "address": "新疆维吾尔自治区吐鲁番市高昌区吐鲁番利驰运输服务有限公司西北侧190米",
        "tel": "",
        "category": "基础设施:公共设施:公共厕所",
        "type": 0,
        "location": {
            "lat": 42.992126,
            "lng": 89.12594
        },
        "ad_info": {
            "adcode": 650402,
            "province": "新疆维吾尔自治区",
            "city": "吐鲁番市",
            "district": "高昌区"
        }
    },
    {
        "id": "12202562868165545065",
        "title": "公共厕所(郭勒布依乡杏花园)",
        "address": "新疆维吾尔自治区吐鲁番市托克逊县X050与白杨河东路交叉口东南方向1313米左右",
        "tel": "",
        "category": "基础设施:公共设施:公共厕所",
        "type": 0,
        "location": {
            "lat": 42.833829,
            "lng": 88.627632
        },
        "ad_info": {
            "adcode": 650422,
            "province": "新疆维吾尔自治区",
            "city": "吐鲁番市",
            "district": "托克逊县"
        }
    },
    {
        "id": "9775924723858094457",
        "title": "公共厕所",
        "address": "新疆维吾尔自治区吐鲁番市高昌区绿洲中路与绿洲西路交叉口正北方向103米左右",
        "tel": "",
        "category": "基础设施:公共设施:公共厕所",
        "type": 0,
        "location": {
            "lat": 42.952382,
            "lng": 89.181159
        },
        "ad_info": {
            "adcode": 650402,
            "province": "新疆维吾尔自治区",
            "city": "吐鲁番市",
            "district": "高昌区"
        }
    },
    {
        "id": "18423196906544227291",
        "title": "公共厕所",
        "address": "新疆维吾尔自治区吐鲁番市高昌区吐鲁番北站广场",
        "tel": "",
        "category": "基础设施:公共设施:公共厕所",
        "type": 0,
        "location": {
            "lat": 43.021696,
            "lng": 89.110518
        },
        "ad_info": {
            "adcode": 650402,
            "province": "新疆维吾尔自治区",
            "city": "吐鲁番市",
            "district": "高昌区"
        }
    },
    {
        "id": "16709499091293250896",
        "title": "公共厕所",
        "address": "新疆维吾尔自治区吐鲁番市托克逊县和谐北路与河滨北路交叉口正东方向236米左右",
        "tel": "",
        "category": "基础设施:公共设施:公共厕所",
        "type": 0,
        "location": {
            "lat": 42.798823,
            "lng": 88.640976
        },
        "ad_info": {
            "adcode": 650422,
            "province": "新疆维吾尔自治区",
            "city": "吐鲁番市",
            "district": "托克逊县"
        }
    },
    {
        "id": "2255510482597424002",
        "title": "公共厕所",
        "address": "新疆维吾尔自治区吐鲁番市高昌区高昌中路315号",
        "tel": "",
        "category": "基础设施:公共设施:公共厕所",
        "type": 0,
        "location": {
            "lat": 42.948632,
            "lng": 89.181373
        },
        "ad_info": {
            "adcode": 650402,
            "province": "新疆维吾尔自治区",
            "city": "吐鲁番市",
            "district": "高昌区"
        }
    },
    {
        "id": "6693629283038386075",
        "title": "公共厕所",
        "address": "新疆维吾尔自治区吐鲁番市高昌区库木塔格路与永平西街交叉口西南方向251米左右",
        "tel": "",
        "category": "基础设施:公共设施:公共厕所",
        "type": 0,
        "location": {
            "lat": 42.96658,
            "lng": 89.225961
        },
        "ad_info": {
            "adcode": 650402,
            "province": "新疆维吾尔自治区",
            "city": "吐鲁番市",
            "district": "高昌区"
        }
    },
    {
        "id": "16524771329542720495",
        "title": "公共厕所",
        "address": "新疆维吾尔自治区吐鲁番市高昌区三湾巷与老城西路交叉口正南方向44米左右",
        "tel": "",
        "category": "基础设施:公共设施:公共厕所",
        "type": 0,
        "location": {
            "lat": 42.943353,
            "lng": 89.176976
        },
        "ad_info": {
            "adcode": 650402,
            "province": "新疆维吾尔自治区",
            "city": "吐鲁番市",
            "district": "高昌区"
        }
    },
    {
        "id": "10184914928750855692",
        "title": "公共厕所(托克逊县文化活动中心)",
        "address": "新疆维吾尔自治区吐鲁番市托克逊县文化活动中心一楼",
        "tel": "",
        "category": "基础设施:公共设施:公共厕所",
        "type": 0,
        "location": {
            "lat": 42.802839,
            "lng": 88.639437
        },
        "ad_info": {
            "adcode": 650422,
            "province": "新疆维吾尔自治区",
            "city": "吐鲁番市",
            "district": "托克逊县"
        }
    },
    {
        "id": "10265302561021320756",
        "title": "公共厕所",
        "address": "新疆维吾尔自治区吐鲁番市高昌区西环北路2791号",
        "tel": "",
        "category": "基础设施:公共设施:公共厕所",
        "type": 0,
        "location": {
            "lat": 42.954078,
            "lng": 89.169843
        },
        "ad_info": {
            "adcode": 650402,
            "province": "新疆维吾尔自治区",
            "city": "吐鲁番市",
            "district": "高昌区"
        }
    },
    {
        "id": "17811133962625015602",
        "title": "公共厕所",
        "address": "新疆维吾尔自治区吐鲁番市高昌区广场北路与青年路交叉口正北方向63米左右",
        "tel": "",
        "category": "基础设施:公共设施:公共厕所",
        "type": 0,
        "location": {
            "lat": 42.945492,
            "lng": 89.184874
        },
        "ad_info": {
            "adcode": 650402,
            "province": "新疆维吾尔自治区",
            "city": "吐鲁番市",
            "district": "高昌区"
        }
    },
    {
        "id": "16520637200849345352",
        "title": "公共厕所",
        "address": "新疆维吾尔自治区吐鲁番市高昌区高昌绿洲西路459号",
        "tel": "",
        "category": "基础设施:公共设施:公共厕所",
        "type": 0,
        "location": {
            "lat": 42.950965,
            "lng": 89.175963
        },
        "ad_info": {
            "adcode": 650402,
            "province": "新疆维吾尔自治区",
            "city": "吐鲁番市",
            "district": "高昌区"
        }
    },
    {
        "id": "4632691122223766061",
        "title": "太阳岛公共厕所",
        "address": "新疆维吾尔自治区吐鲁番市鄯善县柳中路3497号",
        "tel": "",
        "category": "基础设施:公共设施:公共厕所",
        "type": 0,
        "location": {
            "lat": 42.86962,
            "lng": 90.229237
        },
        "ad_info": {
            "adcode": 650421,
            "province": "新疆维吾尔自治区",
            "city": "吐鲁番市",
            "district": "鄯善县"
        }
    },
    {
        "id": "6330509970120675680",
        "title": "流云小区公共厕所",
        "address": "新疆维吾尔自治区吐鲁番市鄯善县光明路与西环路交叉口东南方向188米左右",
        "tel": "",
        "category": "基础设施:公共设施:公共厕所",
        "type": 0,
        "location": {
            "lat": 42.872198,
            "lng": 90.211355
        },
        "ad_info": {
            "adcode": 650421,
            "province": "新疆维吾尔自治区",
            "city": "吐鲁番市",
            "district": "鄯善县"
        }
    },
    {
        "id": "16053325048439806720",
        "title": "公共厕所",
        "address": "新疆维吾尔自治区吐鲁番市高昌区广场北路与青年路交叉口正南方向139米左右",
        "tel": "",
        "category": "基础设施:公共设施:公共厕所",
        "type": 0,
        "location": {
            "lat": 42.943705,
            "lng": 89.185373
        },
        "ad_info": {
            "adcode": 650402,
            "province": "新疆维吾尔自治区",
            "city": "吐鲁番市",
            "district": "高昌区"
        }
    },
    {
        "id": "266873569150358782",
        "title": "公共厕所",
        "address": "新疆维吾尔自治区吐鲁番市高昌区柏孜克勒克路181号",
        "tel": "",
        "category": "基础设施:公共设施:公共厕所",
        "type": 0,
        "location": {
            "lat": 42.95659,
            "lng": 89.188621
        },
        "ad_info": {
            "adcode": 650402,
            "province": "新疆维吾尔自治区",
            "city": "吐鲁番市",
            "district": "高昌区"
        }
    },
    {
        "id": "8162162243813366302",
        "title": "公共厕所",
        "address": "新疆维吾尔自治区吐鲁番市托克逊县河滨南路与解放北路交叉口正南方向98米左右",
        "tel": "",
        "category": "基础设施:公共设施:公共厕所",
        "type": 0,
        "location": {
            "lat": 42.799117,
            "lng": 88.655641
        },
        "ad_info": {
            "adcode": 650422,
            "province": "新疆维吾尔自治区",
            "city": "吐鲁番市",
            "district": "托克逊县"
        }
    },
    {
        "id": "13776794893223892361",
        "title": "公共厕所",
        "address": "新疆维吾尔自治区吐鲁番市高昌区柏孜克里克路与老城东路交叉口正北方向156米左右",
        "tel": "",
        "category": "基础设施:公共设施:公共厕所",
        "type": 0,
        "location": {
            "lat": 42.943562,
            "lng": 89.188648
        },
        "ad_info": {
            "adcode": 650402,
            "province": "新疆维吾尔自治区",
            "city": "吐鲁番市",
            "district": "高昌区"
        }
    },
    {
        "id": "12595806209931545702",
        "title": "公共厕所",
        "address": "新疆维吾尔自治区吐鲁番市高昌区文化路与沙河子路交叉口西南方向36米左右",
        "tel": "",
        "category": "基础设施:公共设施:公共厕所",
        "type": 0,
        "location": {
            "lat": 42.94634,
            "lng": 89.192463
        },
        "ad_info": {
            "adcode": 650402,
            "province": "新疆维吾尔自治区",
            "city": "吐鲁番市",
            "district": "高昌区"
        }
    },
    {
        "id": "10623859307070829559",
        "title": "公共厕所",
        "address": "新疆维吾尔自治区吐鲁番市托克逊县小康路与红山南路交叉口西北方向461米左右",
        "tel": "",
        "category": "基础设施:公共设施:公共厕所",
        "type": 0,
        "location": {
            "lat": 42.824681,
            "lng": 88.619404
        },
        "ad_info": {
            "adcode": 650422,
            "province": "新疆维吾尔自治区",
            "city": "吐鲁番市",
            "district": "托克逊县"
        }
    },
    {
        "id": "3893924218492843544",
        "title": "公共厕所",
        "address": "新疆维吾尔自治区吐鲁番市托克逊县X079与Y075交叉口西南方向98米左右",
        "tel": "",
        "category": "基础设施:公共设施:公共厕所",
        "type": 0,
        "location": {
            "lat": 43.073214,
            "lng": 88.247178
        },
        "ad_info": {
            "adcode": 650422,
            "province": "新疆维吾尔自治区",
            "city": "吐鲁番市",
            "district": "托克逊县"
        }
    },
    {
        "id": "12865512984891806942",
        "title": "公共厕所",
        "address": "新疆维吾尔自治区吐鲁番市托克逊县Y075",
        "tel": "",
        "category": "基础设施:公共设施:公共厕所",
        "type": 0,
        "location": {
            "lat": 43.241457,
            "lng": 88.040451
        },
        "ad_info": {
            "adcode": 650422,
            "province": "新疆维吾尔自治区",
            "city": "吐鲁番市",
            "district": "托克逊县"
        }
    },
    {
        "id": "11012682118647920432",
        "title": "加油站公共厕所",
        "address": "新疆维吾尔自治区吐鲁番市鄯善县G7京新高速附近",
        "tel": "",
        "category": "基础设施:公共设施:公共厕所",
        "type": 0,
        "location": {
            "lat": 43.051006,
            "lng": 90.743909
        },
        "ad_info": {
            "adcode": 650421,
            "province": "新疆维吾尔自治区",
            "city": "吐鲁番市",
            "district": "鄯善县"
        }
    },
    {
        "id": "17684842417166677150",
        "title": "公共厕所",
        "address": "新疆维吾尔自治区吐鲁番市高昌区张静亚尔镇上湖村尚林苑",
        "tel": "",
        "category": "基础设施:公共设施:公共厕所",
        "type": 0,
        "location": {
            "lat": 42.981824,
            "lng": 89.082888
        },
        "ad_info": {
            "adcode": 650402,
            "province": "新疆维吾尔自治区",
            "city": "吐鲁番市",
            "district": "高昌区"
        }
    },
    {
        "id": "2015051488801680976",
        "title": "公共厕所",
        "address": "新疆维吾尔自治区吐鲁番市高昌区东环路与光明东路交叉口正西方向179米左右",
        "tel": "",
        "category": "基础设施:公共设施:公共厕所",
        "type": 0,
        "location": {
            "lat": 42.955133,
            "lng": 89.194055
        },
        "ad_info": {
            "adcode": 650402,
            "province": "新疆维吾尔自治区",
            "city": "吐鲁番市",
            "district": "高昌区"
        }
    },
    {
        "id": "14572314880857529929",
        "title": "服务区公共厕所",
        "address": "新疆维吾尔自治区吐鲁番市鄯善县加气站北侧",
        "tel": "",
        "category": "基础设施:公共设施:公共厕所",
        "type": 0,
        "location": {
            "lat": 43.059612,
            "lng": 90.753904
        },
        "ad_info": {
            "adcode": 650421,
            "province": "新疆维吾尔自治区",
            "city": "吐鲁番市",
            "district": "鄯善县"
        }
    },
    {
        "id": "9691077710933241383",
        "title": "公共厕所",
        "address": "新疆维吾尔自治区吐鲁番市高昌区东环路与丝绸路交叉口正北方向30米左右",
        "tel": "",
        "category": "基础设施:公共设施:公共厕所",
        "type": 0,
        "location": {
            "lat": 42.968581,
            "lng": 89.195712
        },
        "ad_info": {
            "adcode": 650402,
            "province": "新疆维吾尔自治区",
            "city": "吐鲁番市",
            "district": "高昌区"
        }
    },
    {
        "id": "6590932635124155820",
        "title": "公共厕所",
        "address": "新疆维吾尔自治区吐鲁番市高昌区张静312国道东避险区",
        "tel": "",
        "category": "基础设施:公共设施:公共厕所",
        "type": 0,
        "location": {
            "lat": 42.950224,
            "lng": 89.262164
        },
        "ad_info": {
            "adcode": 650402,
            "province": "新疆维吾尔自治区",
            "city": "吐鲁番市",
            "district": "高昌区"
        }
    },
    {
        "id": "18071713177493976121",
        "title": "公共厕所",
        "address": "新疆维吾尔自治区吐鲁番市高昌区丝绸路与高昌北路交叉口正东方向90米左右",
        "tel": "",
        "category": "基础设施:公共设施:公共厕所",
        "type": 0,
        "location": {
            "lat": 42.967327,
            "lng": 89.180506
        },
        "ad_info": {
            "adcode": 650402,
            "province": "新疆维吾尔自治区",
            "city": "吐鲁番市",
            "district": "高昌区"
        }
    },
    {
        "id": "11198065341798729923",
        "title": "公共厕所",
        "address": "新疆维吾尔自治区吐鲁番市高昌区Y011与物流巷交叉口东南方向956米左右",
        "tel": "",
        "category": "基础设施:公共设施:公共厕所",
        "type": 0,
        "location": {
            "lat": 42.984835,
            "lng": 89.159464
        },
        "ad_info": {
            "adcode": 650402,
            "province": "新疆维吾尔自治区",
            "city": "吐鲁番市",
            "district": "高昌区"
        }
    },
    {
        "id": "7961817582620672363",
        "title": "公共厕所",
        "address": "新疆维吾尔自治区吐鲁番市高昌区服务区与G7京新高速交叉口东南100米",
        "tel": "",
        "category": "基础设施:公共设施:公共厕所",
        "type": 0,
        "location": {
            "lat": 42.922537,
            "lng": 89.434358
        },
        "ad_info": {
            "adcode": 650402,
            "province": "新疆维吾尔自治区",
            "city": "吐鲁番市",
            "district": "高昌区"
        }
    },
    {
        "id": "10471294621596470301",
        "title": "公共厕所",
        "address": "新疆维吾尔自治区吐鲁番市高昌区X058与阿斯塔娜路交叉口西北方向126米左右",
        "tel": "",
        "category": "基础设施:公共设施:公共厕所",
        "type": 0,
        "location": {
            "lat": 42.912313,
            "lng": 89.550197
        },
        "ad_info": {
            "adcode": 650402,
            "province": "新疆维吾尔自治区",
            "city": "吐鲁番市",
            "district": "高昌区"
        }
    },
    {
        "id": "14941044420860001011",
        "title": "公共厕所",
        "address": "新疆维吾尔自治区吐鲁番市高昌区丝绸大道与西环北路交叉口西北方向344米左右",
        "tel": "",
        "category": "基础设施:公共设施:公共厕所",
        "type": 0,
        "location": {
            "lat": 42.981782,
            "lng": 89.168431
        },
        "ad_info": {
            "adcode": 650402,
            "province": "新疆维吾尔自治区",
            "city": "吐鲁番市",
            "district": "高昌区"
        }
    },
    {
        "id": "3510666272000354622",
        "title": "公共厕所",
        "address": "新疆维吾尔自治区吐鲁番市高昌区严管街与水大段交叉口正西方向164米左右",
        "tel": "",
        "category": "基础设施:公共设施:公共厕所",
        "type": 0,
        "location": {
            "lat": 43.153635,
            "lng": 88.876329
        },
        "ad_info": {
            "adcode": 650402,
            "province": "新疆维吾尔自治区",
            "city": "吐鲁番市",
            "district": "高昌区"
        }
    },
    {
        "id": "3796090111012906872",
        "title": "公共厕所",
        "address": "新疆维吾尔自治区吐鲁番市高昌区大渠路与火焰山路交叉口正西方向291米左右",
        "tel": "",
        "category": "基础设施:公共设施:公共厕所",
        "type": 0,
        "location": {
            "lat": 42.951381,
            "lng": 89.211973
        },
        "ad_info": {
            "adcode": 650402,
            "province": "新疆维吾尔自治区",
            "city": "吐鲁番市",
            "district": "高昌区"
        }
    },
    {
        "id": "14386010409322996041",
        "title": "公共厕所",
        "address": "新疆维吾尔自治区吐鲁番市高昌区铁路大厦东南侧",
        "tel": "",
        "category": "基础设施:公共设施:公共厕所",
        "type": 0,
        "location": {
            "lat": 43.151922,
            "lng": 88.874374
        },
        "ad_info": {
            "adcode": 650402,
            "province": "新疆维吾尔自治区",
            "city": "吐鲁番市",
            "district": "高昌区"
        }
    },
    {
        "id": "14661743997037801114",
        "title": "公共厕所",
        "address": "新疆维吾尔自治区吐鲁番市高昌区丝绸路与木卡姆东路交叉口正南方向427米左右",
        "tel": "",
        "category": "基础设施:公共设施:公共厕所",
        "type": 0,
        "location": {
            "lat": 42.964355,
            "lng": 89.18794
        },
        "ad_info": {
            "adcode": 650402,
            "province": "新疆维吾尔自治区",
            "city": "吐鲁番市",
            "district": "高昌区"
        }
    },
    {
        "id": "9807604341353079829",
        "title": "公共厕所",
        "address": "新疆维吾尔自治区吐鲁番市高昌区丝绸路与西环北路交叉口正东方向351米左右",
        "tel": "",
        "category": "基础设施:公共设施:公共厕所",
        "type": 0,
        "location": {
            "lat": 42.967715,
            "lng": 89.175053
        },
        "ad_info": {
            "adcode": 650402,
            "province": "新疆维吾尔自治区",
            "city": "吐鲁番市",
            "district": "高昌区"
        }
    },
    {
        "id": "15510070257223047805",
        "title": "公共厕所",
        "address": "新疆维吾尔自治区吐鲁番市高昌区丝绸大道与高昌路交叉口正南方向130米左右",
        "tel": "",
        "category": "基础设施:公共设施:公共厕所",
        "type": 0,
        "location": {
            "lat": 42.975319,
            "lng": 89.184057
        },
        "ad_info": {
            "adcode": 650402,
            "province": "新疆维吾尔自治区",
            "city": "吐鲁番市",
            "district": "高昌区"
        }
    },
    {
        "id": "3939422953546985336",
        "title": "公共厕所",
        "address": "新疆维吾尔自治区吐鲁番市高昌区交河大道与新丝路交叉口正北方向232米左右",
        "tel": "",
        "category": "基础设施:公共设施:公共厕所",
        "type": 0,
        "location": {
            "lat": 43.023212,
            "lng": 89.110644
        },
        "ad_info": {
            "adcode": 650402,
            "province": "新疆维吾尔自治区",
            "city": "吐鲁番市",
            "district": "高昌区"
        }
    },
    {
        "id": "14347115453709355101",
        "title": "公共厕所",
        "address": "新疆维吾尔自治区吐鲁番市高昌区",
        "tel": "",
        "category": "基础设施:公共设施:公共厕所",
        "type": 0,
        "location": {
            "lat": 42.951747,
            "lng": 89.21724
        },
        "ad_info": {
            "adcode": 650402,
            "province": "新疆维吾尔自治区",
            "city": "吐鲁番市",
            "district": "高昌区"
        }
    },
    {
        "id": "18067842037531664062",
        "title": "公共厕所",
        "address": "新疆维吾尔自治区吐鲁番市高昌区绿州北路与迎宾东路交叉口东南方向165米左右",
        "tel": "",
        "category": "基础设施:公共设施:公共厕所",
        "type": 0,
        "location": {
            "lat": 42.975423,
            "lng": 89.00829
        },
        "ad_info": {
            "adcode": 650402,
            "province": "新疆维吾尔自治区",
            "city": "吐鲁番市",
            "district": "高昌区"
        }
    },
    {
        "id": "13721862738636282943",
        "title": "公共厕所",
        "address": "新疆维吾尔自治区吐鲁番市高昌区G312与X056交叉口正东方向173米左右",
        "tel": "",
        "category": "基础设施:公共设施:公共厕所",
        "type": 0,
        "location": {
            "lat": 42.970827,
            "lng": 89.220134
        },
        "ad_info": {
            "adcode": 650402,
            "province": "新疆维吾尔自治区",
            "city": "吐鲁番市",
            "district": "高昌区"
        }
    },
    {
        "id": "6236372694848604348",
        "title": "公共厕所",
        "address": "新疆维吾尔自治区吐鲁番市高昌区S301与X059交叉口西南方向497米左右",
        "tel": "",
        "category": "基础设施:公共设施:公共厕所",
        "type": 0,
        "location": {
            "lat": 43.140356,
            "lng": 88.87654
        },
        "ad_info": {
            "adcode": 650402,
            "province": "新疆维吾尔自治区",
            "city": "吐鲁番市",
            "district": "高昌区"
        }
    },
    {
        "id": "14228879226127797554",
        "title": "公共厕所",
        "address": "新疆维吾尔自治区吐鲁番市高昌区博格达路与库木塔格路交叉口东南方向217米左右",
        "tel": "",
        "category": "基础设施:公共设施:公共厕所",
        "type": 0,
        "location": {
            "lat": 42.96298,
            "lng": 89.240905
        },
        "ad_info": {
            "adcode": 650402,
            "province": "新疆维吾尔自治区",
            "city": "吐鲁番市",
            "district": "高昌区"
        }
    },
    {
        "id": "13659026719672146628",
        "title": "公共厕所",
        "address": "新疆维吾尔自治区吐鲁番市托克逊县X080与风城路交叉口正南方向187米左右",
        "tel": "",
        "category": "基础设施:公共设施:公共厕所",
        "type": 0,
        "location": {
            "lat": 42.861733,
            "lng": 88.611782
        },
        "ad_info": {
            "adcode": 650422,
            "province": "新疆维吾尔自治区",
            "city": "吐鲁番市",
            "district": "托克逊县"
        }
    },
    {
        "id": "9396199345217881485",
        "title": "吐峪沟服务区公共厕所",
        "address": "新疆维吾尔自治区吐鲁番市鄯善县吐峪沟立交桥与连霍高速交叉口东南方向1583米左右",
        "tel": "",
        "category": "基础设施:公共设施:公共厕所",
        "type": 0,
        "location": {
            "lat": 42.912991,
            "lng": 89.794316
        },
        "ad_info": {
            "adcode": 650421,
            "province": "新疆维吾尔自治区",
            "city": "吐鲁番市",
            "district": "鄯善县"
        }
    },
    {
        "id": "248910155540064571",
        "title": "卫生间(托克逊县全民健身活动中心)",
        "address": "新疆维吾尔自治区吐鲁番市托克逊县全民健身活动中心一楼",
        "tel": "",
        "category": "基础设施:公共设施:公共厕所",
        "type": 0,
        "location": {
            "lat": 42.806582,
            "lng": 88.633463
        },
        "ad_info": {
            "adcode": 650422,
            "province": "新疆维吾尔自治区",
            "city": "吐鲁番市",
            "district": "托克逊县"
        }
    },
    {
        "id": "11899980691616968581",
        "title": "南湖服务区公共厕所",
        "address": "新疆维吾尔自治区吐鲁番市鄯善县G7京新高速附近",
        "tel": "",
        "category": "基础设施:公共设施:公共厕所",
        "type": 0,
        "location": {
            "lat": 43.030864,
            "lng": 90.600299
        },
        "ad_info": {
            "adcode": 650421,
            "province": "新疆维吾尔自治区",
            "city": "吐鲁番市",
            "district": "鄯善县"
        }
    },
    {
        "id": "7679398542239989546",
        "title": "沙尔湖服务区公共厕所",
        "address": "新疆维吾尔自治区吐鲁番市鄯善县G7京新高速附近",
        "tel": "",
        "category": "基础设施:公共设施:公共厕所",
        "type": 0,
        "location": {
            "lat": 43.1963,
            "lng": 91.087813
        },
        "ad_info": {
            "adcode": 650421,
            "province": "新疆维吾尔自治区",
            "city": "吐鲁番市",
            "district": "鄯善县"
        }
    },
    {
        "id": "4946505191572415934",
        "title": "加油站公共厕所",
        "address": "新疆维吾尔自治区吐鲁番市鄯善县G312与S241交叉口西北方向669米左右",
        "tel": "",
        "category": "基础设施:公共设施:公共厕所",
        "type": 0,
        "location": {
            "lat": 43.038644,
            "lng": 90.703229
        },
        "ad_info": {
            "adcode": 650421,
            "province": "新疆维吾尔自治区",
            "city": "吐鲁番市",
            "district": "鄯善县"
        }
    },
    {
        "id": "16110722775101005071",
        "title": "公共厕所",
        "address": "新疆维吾尔自治区吐鲁番市高昌区交河故城售票处东侧130米",
        "tel": "",
        "category": "基础设施:公共设施:公共厕所",
        "type": 0,
        "location": {
            "lat": 42.945007,
            "lng": 89.087674
        },
        "ad_info": {
            "adcode": 650402,
            "province": "新疆维吾尔自治区",
            "city": "吐鲁番市",
            "district": "高昌区"
        }
    },
    {
        "id": "11375139532523243826",
        "title": "公共厕所",
        "address": "新疆维吾尔自治区吐鲁番市高昌区老城路与青年路交叉口正南方向77米左右",
        "tel": "",
        "category": "基础设施:公共设施:公共厕所",
        "type": 0,
        "location": {
            "lat": 42.941494,
            "lng": 89.18519
        },
        "ad_info": {
            "adcode": 650402,
            "province": "新疆维吾尔自治区",
            "city": "吐鲁番市",
            "district": "高昌区"
        }
    },
    {
        "id": "4548186852735256519",
        "title": "公共厕所",
        "address": "新疆维吾尔自治区吐鲁番市高昌区丝绸大道与文昌路交叉口正东方向680米左右",
        "tel": "",
        "category": "基础设施:公共设施:公共厕所",
        "type": 0,
        "location": {
            "lat": 42.974679,
            "lng": 89.196436
        },
        "ad_info": {
            "adcode": 650402,
            "province": "新疆维吾尔自治区",
            "city": "吐鲁番市",
            "district": "高昌区"
        }
    },
    {
        "id": "17687583124744223878",
        "title": "公共厕所",
        "address": "新疆维吾尔自治区吐鲁番市高昌区S301与X059交叉口正西方向1982米左右",
        "tel": "",
        "category": "基础设施:公共设施:公共厕所",
        "type": 0,
        "location": {
            "lat": 43.136185,
            "lng": 88.85917
        },
        "ad_info": {
            "adcode": 650402,
            "province": "新疆维吾尔自治区",
            "city": "吐鲁番市",
            "district": "高昌区"
        }
    },
    {
        "id": "17491146559967626971",
        "title": "吐峪沟服务区公共厕所",
        "address": "新疆维吾尔自治区吐鲁番市鄯善县吐峪沟立交桥与连霍高速交叉口正东方向1614米左右",
        "tel": "",
        "category": "基础设施:公共设施:公共厕所",
        "type": 0,
        "location": {
            "lat": 42.914383,
            "lng": 89.795536
        },
        "ad_info": {
            "adcode": 650421,
            "province": "新疆维吾尔自治区",
            "city": "吐鲁番市",
            "district": "鄯善县"
        }
    },
    {
        "id": "12619144088111956719",
        "title": "公共厕所",
        "address": "新疆维吾尔自治区吐鲁番市高昌区G312与X054交叉口西北方向149米左右",
        "tel": "",
        "category": "基础设施:公共设施:公共厕所",
        "type": 0,
        "location": {
            "lat": 43.013017,
            "lng": 88.984773
        },
        "ad_info": {
            "adcode": 650402,
            "province": "新疆维吾尔自治区",
            "city": "吐鲁番市",
            "district": "高昌区"
        }
    },
    {
        "id": "1412529604850876656",
        "title": "公共厕所",
        "address": "新疆维吾尔自治区吐鲁番市高昌区X051与木纳尔路交叉口正南方向775米左右",
        "tel": "",
        "category": "基础设施:公共设施:公共厕所",
        "type": 0,
        "location": {
            "lat": 42.935168,
            "lng": 89.209621
        },
        "ad_info": {
            "adcode": 650402,
            "province": "新疆维吾尔自治区",
            "city": "吐鲁番市",
            "district": "高昌区"
        }
    },
    {
        "id": "15045025143640300942",
        "title": "公共厕所",
        "address": "新疆维吾尔自治区吐鲁番市高昌区202省道北50米",
        "tel": "",
        "category": "基础设施:公共设施:公共厕所",
        "type": 0,
        "location": {
            "lat": 43.153699,
            "lng": 89.424192
        },
        "ad_info": {
            "adcode": 650402,
            "province": "新疆维吾尔自治区",
            "city": "吐鲁番市",
            "district": "高昌区"
        }
    },
    {
        "id": "7748415858347517206",
        "title": "南湖服务区公共厕所",
        "address": "新疆维吾尔自治区吐鲁番市鄯善县G7京新高速附近",
        "tel": "",
        "category": "基础设施:公共设施:公共厕所",
        "type": 0,
        "location": {
            "lat": 43.029259,
            "lng": 90.59956
        },
        "ad_info": {
            "adcode": 650421,
            "province": "新疆维吾尔自治区",
            "city": "吐鲁番市",
            "district": "鄯善县"
        }
    },
    {
        "id": "8464217422988417047",
        "title": "沙尔湖服务区公共厕所",
        "address": "新疆维吾尔自治区吐鲁番市鄯善县G7京新高速附近",
        "tel": "",
        "category": "基础设施:公共设施:公共厕所",
        "type": 0,
        "location": {
            "lat": 43.199785,
            "lng": 91.088547
        },
        "ad_info": {
            "adcode": 650421,
            "province": "新疆维吾尔自治区",
            "city": "吐鲁番市",
            "district": "鄯善县"
        }
    },
    {
        "id": "194196918718663189",
        "title": "公共厕所",
        "address": "新疆维吾尔自治区吐鲁番市高昌区商二段农十二师221号团客运站西南侧约250米",
        "tel": "",
        "category": "基础设施:公共设施:公共厕所",
        "type": 0,
        "location": {
            "lat": 42.974465,
            "lng": 89.005365
        },
        "ad_info": {
            "adcode": 650402,
            "province": "新疆维吾尔自治区",
            "city": "吐鲁番市",
            "district": "高昌区"
        }
    },
    {
        "id": "10691917810280379861",
        "title": "公共厕所",
        "address": "新疆维吾尔自治区吐鲁番市高昌区沙漠植物风情园西北46米",
        "tel": "",
        "category": "基础设施:公共设施:公共厕所",
        "type": 0,
        "location": {
            "lat": 42.86144,
            "lng": 89.194248
        },
        "ad_info": {
            "adcode": 650402,
            "province": "新疆维吾尔自治区",
            "city": "吐鲁番市",
            "district": "高昌区"
        }
    },
    {
        "id": "17069883004754353839",
        "title": "公共厕所",
        "address": "新疆维吾尔自治区吐鲁番市高昌区和平街与金源路交叉口正南方向150米左右",
        "tel": "",
        "category": "基础设施:公共设施:公共厕所",
        "type": 0,
        "location": {
            "lat": 42.968116,
            "lng": 89.235911
        },
        "ad_info": {
            "adcode": 650402,
            "province": "新疆维吾尔自治区",
            "city": "吐鲁番市",
            "district": "高昌区"
        }
    },
    {
        "id": "2344372591338012819",
        "title": "卫生间(文化活动中心)",
        "address": "新疆维吾尔自治区吐鲁番市托克逊县文化活动中心",
        "tel": "",
        "category": "基础设施:公共设施:公共厕所",
        "type": 0,
        "location": {
            "lat": 42.803267,
            "lng": 88.638623
        },
        "ad_info": {
            "adcode": 650422,
            "province": "新疆维吾尔自治区",
            "city": "吐鲁番市",
            "district": "托克逊县"
        }
    },
    {
        "id": "12678837741066686104",
        "title": "服务区公共厕所",
        "address": "新疆维吾尔自治区吐鲁番市托克逊县加油站",
        "tel": "",
        "category": "基础设施:公共设施:公共厕所",
        "type": 0,
        "location": {
            "lat": 42.256656,
            "lng": 88.095832
        },
        "ad_info": {
            "adcode": 650422,
            "province": "新疆维吾尔自治区",
            "city": "吐鲁番市",
            "district": "托克逊县"
        }
    },
    {
        "id": "17116552719123505865",
        "title": "停车区公共厕所",
        "address": "新疆维吾尔自治区吐鲁番市托克逊县停车区与G3012吐和高速交叉口西50米",
        "tel": "",
        "category": "基础设施:公共设施:公共厕所",
        "type": 0,
        "location": {
            "lat": 42.657588,
            "lng": 88.577292
        },
        "ad_info": {
            "adcode": 650422,
            "province": "新疆维吾尔自治区",
            "city": "吐鲁番市",
            "district": "托克逊县"
        }
    },
    {
        "id": "13951386377144033300",
        "title": "停车场公共厕所",
        "address": "新疆维吾尔自治区吐鲁番市托克逊县停车场与G3012吐和高速交叉口东北40米",
        "tel": "",
        "category": "基础设施:公共设施:公共厕所",
        "type": 0,
        "location": {
            "lat": 42.494957,
            "lng": 88.688218
        },
        "ad_info": {
            "adcode": 650422,
            "province": "新疆维吾尔自治区",
            "city": "吐鲁番市",
            "district": "托克逊县"
        }
    },
    {
        "id": "1795414081832510454",
        "title": "托克逊服务区公共厕所",
        "address": "新疆维吾尔自治区吐鲁番市托克逊县天山北路与文化路交叉口正西方向973米左右",
        "tel": "",
        "category": "基础设施:公共设施:公共厕所",
        "type": 0,
        "location": {
            "lat": 42.806793,
            "lng": 88.610949
        },
        "ad_info": {
            "adcode": 650422,
            "province": "新疆维吾尔自治区",
            "city": "吐鲁番市",
            "district": "托克逊县"
        }
    },
    {
        "id": "411280694526488438",
        "title": "小草湖服务区公共厕所",
        "address": "新疆维吾尔自治区吐鲁番市托克逊县G7京新高速附近",
        "tel": "",
        "category": "基础设施:公共设施:公共厕所",
        "type": 0,
        "location": {
            "lat": 43.109058,
            "lng": 88.516587
        },
        "ad_info": {
            "adcode": 650422,
            "province": "新疆维吾尔自治区",
            "city": "吐鲁番市",
            "district": "托克逊县"
        }
    },
    {
        "id": "334571856704620923",
        "title": "停车区公共厕所",
        "address": "新疆维吾尔自治区吐鲁番市托克逊县停车场与G3012吐和高速交叉口东20米",
        "tel": "",
        "category": "基础设施:公共设施:公共厕所",
        "type": 0,
        "location": {
            "lat": 42.57263,
            "lng": 88.641219
        },
        "ad_info": {
            "adcode": 650422,
            "province": "新疆维吾尔自治区",
            "city": "吐鲁番市",
            "district": "托克逊县"
        }
    },
    {
        "id": "8967778430596707610",
        "title": "服务区公共厕所",
        "address": "新疆维吾尔自治区吐鲁番市托克逊县加油站",
        "tel": "",
        "category": "基础设施:公共设施:公共厕所",
        "type": 0,
        "location": {
            "lat": 42.256025,
            "lng": 88.112948
        },
        "ad_info": {
            "adcode": 650422,
            "province": "新疆维吾尔自治区",
            "city": "吐鲁番市",
            "district": "托克逊县"
        }
    },
    {
        "id": "2607703145413242611",
        "title": "吐鲁番东服务区公共厕所",
        "address": "新疆维吾尔自治区吐鲁番市高昌区库木塔格路与神泉路交叉口正南方向464米左右",
        "tel": "",
        "category": "基础设施:公共设施:公共厕所",
        "type": 0,
        "location": {
            "lat": 42.950482,
            "lng": 89.26214
        },
        "ad_info": {
            "adcode": 650402,
            "province": "新疆维吾尔自治区",
            "city": "吐鲁番市",
            "district": "高昌区"
        }
    },
    {
        "id": "14869169198399577293",
        "title": "服务区公共厕所",
        "address": "新疆维吾尔自治区吐鲁番市托克逊县与G3012吐和高速交叉口北100米",
        "tel": "",
        "category": "基础设施:公共设施:公共厕所",
        "type": 0,
        "location": {
            "lat": 42.257693,
            "lng": 88.097357
        },
        "ad_info": {
            "adcode": 650422,
            "province": "新疆维吾尔自治区",
            "city": "吐鲁番市",
            "district": "托克逊县"
        }
    },
    {
        "id": "9225968733521392954",
        "title": "小草湖服务区公共厕所",
        "address": "新疆维吾尔自治区吐鲁番市托克逊县G30连霍高速与小草湖服务区交叉口北460米",
        "tel": "",
        "category": "基础设施:公共设施:公共厕所",
        "type": 0,
        "location": {
            "lat": 43.107029,
            "lng": 88.520083
        },
        "ad_info": {
            "adcode": 650422,
            "province": "新疆维吾尔自治区",
            "city": "吐鲁番市",
            "district": "托克逊县"
        }
    },
    {
        "id": "1361196104123300701",
        "title": "长信加油站公共厕所",
        "address": "新疆维吾尔自治区吐鲁番市托克逊县吐和高速与汇川路交叉口正西方向105米左右",
        "tel": "",
        "category": "基础设施:公共设施:公共厕所",
        "type": 0,
        "location": {
            "lat": 42.745411,
            "lng": 88.607043
        },
        "ad_info": {
            "adcode": 650422,
            "province": "新疆维吾尔自治区",
            "city": "吐鲁番市",
            "district": "托克逊县"
        }
    },
    {
        "id": "9428513415220323307",
        "title": "托克逊服务区公共厕所",
        "address": "新疆维吾尔自治区吐鲁番市托克逊县吐和高速托克逊服务区",
        "tel": "",
        "category": "基础设施:公共设施:公共厕所",
        "type": 0,
        "location": {
            "lat": 42.806997,
            "lng": 88.609005
        },
        "ad_info": {
            "adcode": 650422,
            "province": "新疆维吾尔自治区",
            "city": "吐鲁番市",
            "district": "托克逊县"
        }
    },
    {
        "id": "18045036924432804822",
        "title": "大河沿停车区公共厕所",
        "address": "新疆维吾尔自治区吐鲁番市高昌区洪通燃气大河沿停车区南加气站西侧110米",
        "tel": "",
        "category": "基础设施:公共设施:公共厕所",
        "type": 0,
        "location": {
            "lat": 43.064225,
            "lng": 88.864828
        },
        "ad_info": {
            "adcode": 650402,
            "province": "新疆维吾尔自治区",
            "city": "吐鲁番市",
            "district": "高昌区"
        }
    },
    {
        "id": "12747980867696063272",
        "title": "吐鲁番服务区公共厕所",
        "address": "新疆维吾尔自治区吐鲁番市高昌区葡萄沟服务区",
        "tel": "",
        "category": "基础设施:公共设施:公共厕所",
        "type": 0,
        "location": {
            "lat": 43.063824,
            "lng": 89.212049
        },
        "ad_info": {
            "adcode": 650402,
            "province": "新疆维吾尔自治区",
            "city": "吐鲁番市",
            "district": "高昌区"
        }
    },
    {
        "id": "3218141973041430442",
        "title": "吐鲁番服务区公共厕所",
        "address": "新疆维吾尔自治区吐鲁番市高昌区G7京新高速附近",
        "tel": "",
        "category": "基础设施:公共设施:公共厕所",
        "type": 0,
        "location": {
            "lat": 43.061108,
            "lng": 89.211709
        },
        "ad_info": {
            "adcode": 650402,
            "province": "新疆维吾尔自治区",
            "city": "吐鲁番市",
            "district": "高昌区"
        }
    },
    {
        "id": "18410359078517805511",
        "title": "服务区公共厕所",
        "address": "新疆维吾尔自治区吐鲁番市高昌区服务区与G7京新高速交叉口东50米",
        "tel": "",
        "category": "基础设施:公共设施:公共厕所",
        "type": 0,
        "location": {
            "lat": 42.922844,
            "lng": 89.434444
        },
        "ad_info": {
            "adcode": 650402,
            "province": "新疆维吾尔自治区",
            "city": "吐鲁番市",
            "district": "高昌区"
        }
    },
    {
        "id": "10423878223694438073",
        "title": "塔尔郎停车区公共厕所",
        "address": "新疆维吾尔自治区吐鲁番市高昌区G30连霍高速与塔尔郎停车区交叉口西340米",
        "tel": "",
        "category": "基础设施:公共设施:公共厕所",
        "type": 0,
        "location": {
            "lat": 43.067371,
            "lng": 89.073104
        },
        "ad_info": {
            "adcode": 650402,
            "province": "新疆维吾尔自治区",
            "city": "吐鲁番市",
            "district": "高昌区"
        }
    },
    {
        "id": "14931689701570815952",
        "title": "服务区第一公共厕所",
        "address": "新疆维吾尔自治区吐鲁番市托克逊县G3012吐和高速与长信加油站交叉口东100米",
        "tel": "",
        "category": "基础设施:公共设施:公共厕所",
        "type": 0,
        "location": {
            "lat": 42.751666,
            "lng": 88.610977
        },
        "ad_info": {
            "adcode": 650422,
            "province": "新疆维吾尔自治区",
            "city": "吐鲁番市",
            "district": "托克逊县"
        }
    }
]