[
    {
        "id": "10888559797113441415",
        "title": "公共厕所",
        "address": "宁夏回族自治区吴忠市利通区利通北街179号",
        "tel": "",
        "category": "基础设施:公共设施:公共厕所",
        "type": 0,
        "location": {
            "lat": 37.988508,
            "lng": 106.201149
        },
        "ad_info": {
            "adcode": 640302,
            "province": "宁夏回族自治区",
            "city": "吴忠市",
            "district": "利通区"
        }
    },
    {
        "id": "990938182074761513",
        "title": "公共厕所",
        "address": "宁夏回族自治区吴忠市利通区河奇路与迎宾大街交叉口西南方向48米左右",
        "tel": "",
        "category": "基础设施:公共设施:公共厕所",
        "type": 0,
        "location": {
            "lat": 38.009103,
            "lng": 106.198788
        },
        "ad_info": {
            "adcode": 640302,
            "province": "宁夏回族自治区",
            "city": "吴忠市",
            "district": "利通区"
        }
    },
    {
        "id": "16948049543062715505",
        "title": "公共厕所",
        "address": "宁夏回族自治区吴忠市利通区上桥镇牛家坊村城南生态文化公园荷花池旁",
        "tel": "",
        "category": "基础设施:公共设施:公共厕所",
        "type": 0,
        "location": {
            "lat": 37.962562,
            "lng": 106.209669
        },
        "ad_info": {
            "adcode": 640302,
            "province": "宁夏回族自治区",
            "city": "吴忠市",
            "district": "利通区"
        }
    },
    {
        "id": "13551913508922692229",
        "title": "公共厕所",
        "address": "宁夏回族自治区吴忠市利通区阳光骄子",
        "tel": "",
        "category": "基础设施:公共设施:公共厕所",
        "type": 0,
        "location": {
            "lat": 38.000086,
            "lng": 106.189074
        },
        "ad_info": {
            "adcode": 640302,
            "province": "宁夏回族自治区",
            "city": "吴忠市",
            "district": "利通区"
        }
    },
    {
        "id": "15379724667153650471",
        "title": "公共厕所",
        "address": "宁夏回族自治区吴忠市利通区利红街与明珠东路交叉口西南方向81米左右",
        "tel": "",
        "category": "基础设施:公共设施:公共厕所",
        "type": 0,
        "location": {
            "lat": 37.997874,
            "lng": 106.226235
        },
        "ad_info": {
            "adcode": 640302,
            "province": "宁夏回族自治区",
            "city": "吴忠市",
            "district": "利通区"
        }
    },
    {
        "id": "6859880385398096958",
        "title": "公共厕所",
        "address": "宁夏回族自治区吴忠市利通区吴灵西路与西市场巷交叉口正南方向108米左右",
        "tel": "",
        "category": "基础设施:公共设施:公共厕所",
        "type": 0,
        "location": {
            "lat": 37.989808,
            "lng": 106.191623
        },
        "ad_info": {
            "adcode": 640302,
            "province": "宁夏回族自治区",
            "city": "吴忠市",
            "district": "利通区"
        }
    },
    {
        "id": "5912278400459402506",
        "title": "公共厕所",
        "address": "宁夏回族自治区吴忠市利通区文锦巷与金湖路交叉口正西方向51米左右",
        "tel": "",
        "category": "基础设施:公共设施:公共厕所",
        "type": 0,
        "location": {
            "lat": 37.970442,
            "lng": 106.181545
        },
        "ad_info": {
            "adcode": 640302,
            "province": "宁夏回族自治区",
            "city": "吴忠市",
            "district": "利通区"
        }
    },
    {
        "id": "2762997678146457487",
        "title": "公共厕所",
        "address": "宁夏回族自治区吴忠市利通区西市场巷与黄河路交叉口东南方向55米左右",
        "tel": "",
        "category": "基础设施:公共设施:公共厕所",
        "type": 0,
        "location": {
            "lat": 37.984848,
            "lng": 106.191531
        },
        "ad_info": {
            "adcode": 640302,
            "province": "宁夏回族自治区",
            "city": "吴忠市",
            "district": "利通区"
        }
    },
    {
        "id": "10221161174445378926",
        "title": "公共厕所",
        "address": "宁夏回族自治区吴忠市利通区清水园西侧80米",
        "tel": "",
        "category": "基础设施:公共设施:公共厕所",
        "type": 0,
        "location": {
            "lat": 37.996426,
            "lng": 106.229824
        },
        "ad_info": {
            "adcode": 640302,
            "province": "宁夏回族自治区",
            "city": "吴忠市",
            "district": "利通区"
        }
    },
    {
        "id": "9355867226636686941",
        "title": "公共厕所",
        "address": "宁夏回族自治区吴忠市利通区新民路与迎新巷交叉口正西方向204米左右",
        "tel": "",
        "category": "基础设施:公共设施:公共厕所",
        "type": 0,
        "location": {
            "lat": 37.975667,
            "lng": 106.220693
        },
        "ad_info": {
            "adcode": 640302,
            "province": "宁夏回族自治区",
            "city": "吴忠市",
            "district": "利通区"
        }
    },
    {
        "id": "1217332876743904829",
        "title": "公共厕所",
        "address": "宁夏回族自治区吴忠市利通区利通北街与古城路交叉口正南方向96米左右",
        "tel": "",
        "category": "基础设施:公共设施:公共厕所",
        "type": 0,
        "location": {
            "lat": 37.988712,
            "lng": 106.202095
        },
        "ad_info": {
            "adcode": 640302,
            "province": "宁夏回族自治区",
            "city": "吴忠市",
            "district": "利通区"
        }
    },
    {
        "id": "6268017371909581397",
        "title": "公共厕所",
        "address": "宁夏回族自治区吴忠市利通区胜利镇石油巷吴配小区西院北",
        "tel": "",
        "category": "基础设施:公共设施:公共厕所",
        "type": 0,
        "location": {
            "lat": 37.979,
            "lng": 106.197326
        },
        "ad_info": {
            "adcode": 640302,
            "province": "宁夏回族自治区",
            "city": "吴忠市",
            "district": "利通区"
        }
    },
    {
        "id": "8159271321979166287",
        "title": "公共厕所",
        "address": "宁夏回族自治区吴忠市利通区文华街与明珠西路交叉口西北方向63米左右",
        "tel": "",
        "category": "基础设施:公共设施:公共厕所",
        "type": 0,
        "location": {
            "lat": 37.997456,
            "lng": 106.160996
        },
        "ad_info": {
            "adcode": 640302,
            "province": "宁夏回族自治区",
            "city": "吴忠市",
            "district": "利通区"
        }
    },
    {
        "id": "18070089961848451997",
        "title": "公共厕所",
        "address": "宁夏回族自治区吴忠市利通区大可以饭店(宁夏义乌商贸城东)",
        "tel": "",
        "category": "基础设施:公共设施:公共厕所",
        "type": 0,
        "location": {
            "lat": 37.98314,
            "lng": 106.205695
        },
        "ad_info": {
            "adcode": 640302,
            "province": "宁夏回族自治区",
            "city": "吴忠市",
            "district": "利通区"
        }
    },
    {
        "id": "7491645331217492233",
        "title": "公共厕所",
        "address": "宁夏回族自治区吴忠市利通区东方巷与兴隆巷交叉口东南方向44米左右",
        "tel": "",
        "category": "基础设施:公共设施:公共厕所",
        "type": 0,
        "location": {
            "lat": 37.991544,
            "lng": 106.213024
        },
        "ad_info": {
            "adcode": 640302,
            "province": "宁夏回族自治区",
            "city": "吴忠市",
            "district": "利通区"
        }
    },
    {
        "id": "3363810413785802922",
        "title": "公共厕所",
        "address": "宁夏回族自治区吴忠市利通区利华北街吴忠市交管局车管所",
        "tel": "",
        "category": "基础设施:公共设施:公共厕所",
        "type": 0,
        "location": {
            "lat": 38.004457,
            "lng": 106.216797
        },
        "ad_info": {
            "adcode": 640302,
            "province": "宁夏回族自治区",
            "city": "吴忠市",
            "district": "利通区"
        }
    },
    {
        "id": "10774143736239989828",
        "title": "公共厕所",
        "address": "宁夏回族自治区吴忠市利通区利华南街与友谊东路交叉口正南方向140米左右",
        "tel": "",
        "category": "基础设施:公共设施:公共厕所",
        "type": 0,
        "location": {
            "lat": 37.972371,
            "lng": 106.216795
        },
        "ad_info": {
            "adcode": 640302,
            "province": "宁夏回族自治区",
            "city": "吴忠市",
            "district": "利通区"
        }
    },
    {
        "id": "992360861907278298",
        "title": "公共厕所",
        "address": "宁夏回族自治区吴忠市利通区古城路与富平北街交叉口东南方向108米左右",
        "tel": "",
        "category": "基础设施:公共设施:公共厕所",
        "type": 0,
        "location": {
            "lat": 37.987899,
            "lng": 106.186228
        },
        "ad_info": {
            "adcode": 640302,
            "province": "宁夏回族自治区",
            "city": "吴忠市",
            "district": "利通区"
        }
    },
    {
        "id": "3491717747117761837",
        "title": "公共厕所",
        "address": "宁夏回族自治区吴忠市利通区文卫南街与新民路交叉口西北方向164米左右",
        "tel": "",
        "category": "基础设施:公共设施:公共厕所",
        "type": 0,
        "location": {
            "lat": 37.976969,
            "lng": 106.210777
        },
        "ad_info": {
            "adcode": 640302,
            "province": "宁夏回族自治区",
            "city": "吴忠市",
            "district": "利通区"
        }
    },
    {
        "id": "10934868960330687002",
        "title": "公共厕所",
        "address": "宁夏回族自治区吴忠市利通区义乌西巷与朝阳西路交叉口正西方向47米左右",
        "tel": "",
        "category": "基础设施:公共设施:公共厕所",
        "type": 0,
        "location": {
            "lat": 37.983092,
            "lng": 106.202285
        },
        "ad_info": {
            "adcode": 640302,
            "province": "宁夏回族自治区",
            "city": "吴忠市",
            "district": "利通区"
        }
    },
    {
        "id": "2666035514293622998",
        "title": "公共厕所",
        "address": "宁夏回族自治区吴忠市利通区利民巷与胜利东路交叉口正南方向111米左右",
        "tel": "",
        "category": "基础设施:公共设施:公共厕所",
        "type": 0,
        "location": {
            "lat": 37.979373,
            "lng": 106.201226
        },
        "ad_info": {
            "adcode": 640302,
            "province": "宁夏回族自治区",
            "city": "吴忠市",
            "district": "利通区"
        }
    },
    {
        "id": "1187414798754391790",
        "title": "公共厕所",
        "address": "宁夏回族自治区吴忠市利通区同心街与河奇路交叉口正西方向435米左右",
        "tel": "",
        "category": "基础设施:公共设施:公共厕所",
        "type": 0,
        "location": {
            "lat": 38.011422,
            "lng": 106.177142
        },
        "ad_info": {
            "adcode": 640302,
            "province": "宁夏回族自治区",
            "city": "吴忠市",
            "district": "利通区"
        }
    },
    {
        "id": "6301977971166042156",
        "title": "公共厕所",
        "address": "宁夏回族自治区吴忠市利通区世纪大道与利红街交叉口正北方向88米左右",
        "tel": "",
        "category": "基础设施:公共设施:公共厕所",
        "type": 0,
        "location": {
            "lat": 38.00299,
            "lng": 106.226302
        },
        "ad_info": {
            "adcode": 640302,
            "province": "宁夏回族自治区",
            "city": "吴忠市",
            "district": "利通区"
        }
    },
    {
        "id": "18413287044998167719",
        "title": "公共卫生间",
        "address": "宁夏回族自治区吴忠市利通区上桥巷新民安置区",
        "tel": "",
        "category": "基础设施:公共设施:公共厕所",
        "type": 0,
        "location": {
            "lat": 37.979919,
            "lng": 106.222377
        },
        "ad_info": {
            "adcode": 640302,
            "province": "宁夏回族自治区",
            "city": "吴忠市",
            "district": "利通区"
        }
    },
    {
        "id": "524069826259442262",
        "title": "公共厕所",
        "address": "宁夏回族自治区吴忠市利通区清河街与瓦渠路交叉口正北方向114米左右",
        "tel": "",
        "category": "基础设施:公共设施:公共厕所",
        "type": 0,
        "location": {
            "lat": 37.985776,
            "lng": 106.158824
        },
        "ad_info": {
            "adcode": 640302,
            "province": "宁夏回族自治区",
            "city": "吴忠市",
            "district": "利通区"
        }
    },
    {
        "id": "5981809747461461713",
        "title": "公共厕所",
        "address": "宁夏回族自治区吴忠市利通区盛元西街与红宝巷交叉口东北方向107米左右",
        "tel": "",
        "category": "基础设施:公共设施:公共厕所",
        "type": 0,
        "location": {
            "lat": 37.997075,
            "lng": 106.197236
        },
        "ad_info": {
            "adcode": 640302,
            "province": "宁夏回族自治区",
            "city": "吴忠市",
            "district": "利通区"
        }
    },
    {
        "id": "691731936301102533",
        "title": "公共厕所",
        "address": "宁夏回族自治区吴忠市利通区黄河路与黎明南街交叉口正南方向83米左右",
        "tel": "",
        "category": "基础设施:公共设施:公共厕所",
        "type": 0,
        "location": {
            "lat": 37.984861,
            "lng": 106.18894
        },
        "ad_info": {
            "adcode": 640302,
            "province": "宁夏回族自治区",
            "city": "吴忠市",
            "district": "利通区"
        }
    },
    {
        "id": "355039994327371618",
        "title": "公共厕所",
        "address": "宁夏回族自治区吴忠市利通区吴忠市教育园区正东方向140米",
        "tel": "",
        "category": "基础设施:公共设施:公共厕所",
        "type": 0,
        "location": {
            "lat": 37.966627,
            "lng": 106.153161
        },
        "ad_info": {
            "adcode": 640302,
            "province": "宁夏回族自治区",
            "city": "吴忠市",
            "district": "利通区"
        }
    },
    {
        "id": "8437939330741291612",
        "title": "公共厕所",
        "address": "宁夏回族自治区吴忠市利通区利通南街与朝阳西路交叉口西南方向59米左右",
        "tel": "",
        "category": "基础设施:公共设施:公共厕所",
        "type": 0,
        "location": {
            "lat": 37.983287,
            "lng": 106.199043
        },
        "ad_info": {
            "adcode": 640302,
            "province": "宁夏回族自治区",
            "city": "吴忠市",
            "district": "利通区"
        }
    },
    {
        "id": "12243254464227477061",
        "title": "公共卫生间",
        "address": "宁夏回族自治区吴忠市利通区秦桥街与胜利西路交叉口正北方向216米左右",
        "tel": "",
        "category": "基础设施:公共设施:公共厕所",
        "type": 0,
        "location": {
            "lat": 37.981936,
            "lng": 106.18197
        },
        "ad_info": {
            "adcode": 640302,
            "province": "宁夏回族自治区",
            "city": "吴忠市",
            "district": "利通区"
        }
    },
    {
        "id": "6566195680264384640",
        "title": "公共厕所",
        "address": "宁夏回族自治区吴忠市利通区兴隆巷与谦益巷交叉口正东方向159米左右",
        "tel": "",
        "category": "基础设施:公共设施:公共厕所",
        "type": 0,
        "location": {
            "lat": 37.988213,
            "lng": 106.214459
        },
        "ad_info": {
            "adcode": 640302,
            "province": "宁夏回族自治区",
            "city": "吴忠市",
            "district": "利通区"
        }
    },
    {
        "id": "13389490175570412427",
        "title": "公共厕所",
        "address": "宁夏回族自治区吴忠市利通区古城巷裕西小区",
        "tel": "",
        "category": "基础设施:公共设施:公共厕所",
        "type": 0,
        "location": {
            "lat": 37.987914,
            "lng": 106.194389
        },
        "ad_info": {
            "adcode": 640302,
            "province": "宁夏回族自治区",
            "city": "吴忠市",
            "district": "利通区"
        }
    },
    {
        "id": "13368946434322215802",
        "title": "公共厕所",
        "address": "宁夏回族自治区吴忠市利通区利宁南街与秦渠路交叉口正东方向129米左右",
        "tel": "",
        "category": "基础设施:公共设施:公共厕所",
        "type": 0,
        "location": {
            "lat": 37.976753,
            "lng": 106.193399
        },
        "ad_info": {
            "adcode": 640302,
            "province": "宁夏回族自治区",
            "city": "吴忠市",
            "district": "利通区"
        }
    },
    {
        "id": "4474666441329772890",
        "title": "公共厕所",
        "address": "宁夏回族自治区吴忠市利通区开元大道与清静街交叉口正北方向112米左右",
        "tel": "",
        "category": "基础设施:公共设施:公共厕所",
        "type": 0,
        "location": {
            "lat": 37.994741,
            "lng": 106.166179
        },
        "ad_info": {
            "adcode": 640302,
            "province": "宁夏回族自治区",
            "city": "吴忠市",
            "district": "利通区"
        }
    },
    {
        "id": "14070680705808314341",
        "title": "公共厕所",
        "address": "宁夏回族自治区吴忠市红寺堡区燕然路与金水街交叉口正南方向75米左右",
        "tel": "",
        "category": "基础设施:公共设施:公共厕所",
        "type": 0,
        "location": {
            "lat": 37.424098,
            "lng": 106.065453
        },
        "ad_info": {
            "adcode": 640303,
            "province": "宁夏回族自治区",
            "city": "吴忠市",
            "district": "红寺堡区"
        }
    },
    {
        "id": "18166081781469742164",
        "title": "公共厕所",
        "address": "宁夏回族自治区吴忠市利通区利通南街与秦渠路交叉口东南方向147米左右",
        "tel": "",
        "category": "基础设施:公共设施:公共厕所",
        "type": 0,
        "location": {
            "lat": 37.976006,
            "lng": 106.198916
        },
        "ad_info": {
            "adcode": 640302,
            "province": "宁夏回族自治区",
            "city": "吴忠市",
            "district": "利通区"
        }
    },
    {
        "id": "16381457188625326487",
        "title": "公共厕所",
        "address": "宁夏回族自治区吴忠市利通区利通南街中华新村",
        "tel": "",
        "category": "基础设施:公共设施:公共厕所",
        "type": 0,
        "location": {
            "lat": 37.969313,
            "lng": 106.198643
        },
        "ad_info": {
            "adcode": 640302,
            "province": "宁夏回族自治区",
            "city": "吴忠市",
            "district": "利通区"
        }
    },
    {
        "id": "7961312280782443633",
        "title": "公共厕所",
        "address": "宁夏回族自治区吴忠市利通区世纪大道与花园街交叉口正北方向104米左右",
        "tel": "",
        "category": "基础设施:公共设施:公共厕所",
        "type": 0,
        "location": {
            "lat": 38.0053,
            "lng": 106.203371
        },
        "ad_info": {
            "adcode": 640302,
            "province": "宁夏回族自治区",
            "city": "吴忠市",
            "district": "利通区"
        }
    },
    {
        "id": "3235830574620189335",
        "title": "公共厕所",
        "address": "宁夏回族自治区吴忠市青铜峡市亲民路与康乐街交叉口正南方向79米左右",
        "tel": "",
        "category": "基础设施:公共设施:公共厕所",
        "type": 0,
        "location": {
            "lat": 38.012339,
            "lng": 106.112285
        },
        "ad_info": {
            "adcode": 640381,
            "province": "宁夏回族自治区",
            "city": "吴忠市",
            "district": "青铜峡市"
        }
    },
    {
        "id": "15318583836448498479",
        "title": "公共厕所",
        "address": "宁夏回族自治区吴忠市利通区胜利西路警苗幼儿园",
        "tel": "",
        "category": "基础设施:公共设施:公共厕所",
        "type": 0,
        "location": {
            "lat": 37.979782,
            "lng": 106.182965
        },
        "ad_info": {
            "adcode": 640302,
            "province": "宁夏回族自治区",
            "city": "吴忠市",
            "district": "利通区"
        }
    },
    {
        "id": "8046553849638830637",
        "title": "公共厕所",
        "address": "宁夏回族自治区吴忠市青铜峡市芙蓉巷与裕民街交叉口正东方向53米左右",
        "tel": "",
        "category": "基础设施:公共设施:公共厕所",
        "type": 0,
        "location": {
            "lat": 38.0229,
            "lng": 106.070152
        },
        "ad_info": {
            "adcode": 640381,
            "province": "宁夏回族自治区",
            "city": "吴忠市",
            "district": "青铜峡市"
        }
    },
    {
        "id": "13483446132131208627",
        "title": "公共厕所",
        "address": "宁夏回族自治区吴忠市利通区世纪大道与滨河大道交叉口正西方向240米左右",
        "tel": "",
        "category": "基础设施:公共设施:公共厕所",
        "type": 0,
        "location": {
            "lat": 38.008566,
            "lng": 106.165819
        },
        "ad_info": {
            "adcode": 640302,
            "province": "宁夏回族自治区",
            "city": "吴忠市",
            "district": "利通区"
        }
    },
    {
        "id": "1725789590843467652",
        "title": "公共厕所",
        "address": "宁夏回族自治区吴忠市利通区安居路吴忠市第五中学",
        "tel": "",
        "category": "基础设施:公共设施:公共厕所",
        "type": 0,
        "location": {
            "lat": 38.001817,
            "lng": 106.19694
        },
        "ad_info": {
            "adcode": 640302,
            "province": "宁夏回族自治区",
            "city": "吴忠市",
            "district": "利通区"
        }
    },
    {
        "id": "10076746343864136840",
        "title": "公共厕所",
        "address": "宁夏回族自治区吴忠市红寺堡区扬黄路与金水街交叉口西南方向240米左右",
        "tel": "",
        "category": "基础设施:公共设施:公共厕所",
        "type": 0,
        "location": {
            "lat": 37.423808,
            "lng": 106.075642
        },
        "ad_info": {
            "adcode": 640303,
            "province": "宁夏回族自治区",
            "city": "吴忠市",
            "district": "红寺堡区"
        }
    },
    {
        "id": "10851794246468173777",
        "title": "公共厕所",
        "address": "宁夏回族自治区吴忠市青铜峡市文化路与汉坝西街交叉口正东方向274米左右",
        "tel": "",
        "category": "基础设施:公共设施:公共厕所",
        "type": 0,
        "location": {
            "lat": 38.022909,
            "lng": 106.080918
        },
        "ad_info": {
            "adcode": 640381,
            "province": "宁夏回族自治区",
            "city": "吴忠市",
            "district": "青铜峡市"
        }
    },
    {
        "id": "16500651778417702824",
        "title": "公共厕所",
        "address": "宁夏回族自治区吴忠市盐池县振兴南路与振远西街交叉口西南方向105米左右",
        "tel": "",
        "category": "基础设施:公共设施:公共厕所",
        "type": 0,
        "location": {
            "lat": 37.783202,
            "lng": 107.388412
        },
        "ad_info": {
            "adcode": 640323,
            "province": "宁夏回族自治区",
            "city": "吴忠市",
            "district": "盐池县"
        }
    },
    {
        "id": "955339534378981359",
        "title": "公共厕所",
        "address": "宁夏回族自治区吴忠市利通区文华街与滨河路交叉口西北方向242米左右",
        "tel": "",
        "category": "基础设施:公共设施:公共厕所",
        "type": 0,
        "location": {
            "lat": 38.001705,
            "lng": 106.157257
        },
        "ad_info": {
            "adcode": 640302,
            "province": "宁夏回族自治区",
            "city": "吴忠市",
            "district": "利通区"
        }
    },
    {
        "id": "16010870593014232772",
        "title": "公共厕所",
        "address": "宁夏回族自治区吴忠市同心县三水街与平远西路交叉口正西方向230米左右",
        "tel": "",
        "category": "基础设施:公共设施:公共厕所",
        "type": 0,
        "location": {
            "lat": 36.946281,
            "lng": 105.907884
        },
        "ad_info": {
            "adcode": 640324,
            "province": "宁夏回族自治区",
            "city": "吴忠市",
            "district": "同心县"
        }
    },
    {
        "id": "2322786633731402981",
        "title": "公共厕所",
        "address": "宁夏回族自治区吴忠市利通区友谊西路与梁湾街交叉口东北方向371米左右",
        "tel": "",
        "category": "基础设施:公共设施:公共厕所",
        "type": 0,
        "location": {
            "lat": 37.965548,
            "lng": 106.183195
        },
        "ad_info": {
            "adcode": 640302,
            "province": "宁夏回族自治区",
            "city": "吴忠市",
            "district": "利通区"
        }
    },
    {
        "id": "920512381835609779",
        "title": "公共厕所",
        "address": "宁夏回族自治区吴忠市红寺堡区G344与人民街交叉口正北方向259米左右",
        "tel": "",
        "category": "基础设施:公共设施:公共厕所",
        "type": 0,
        "location": {
            "lat": 37.43807,
            "lng": 106.048005
        },
        "ad_info": {
            "adcode": 640303,
            "province": "宁夏回族自治区",
            "city": "吴忠市",
            "district": "红寺堡区"
        }
    },
    {
        "id": "5071663923782802448",
        "title": "公共卫生间",
        "address": "宁夏回族自治区吴忠市青铜峡市滨河大道",
        "tel": "",
        "category": "基础设施:公共设施:公共厕所",
        "type": 0,
        "location": {
            "lat": 37.965183,
            "lng": 106.07221
        },
        "ad_info": {
            "adcode": 640381,
            "province": "宁夏回族自治区",
            "city": "吴忠市",
            "district": "青铜峡市"
        }
    },
    {
        "id": "1463177384970447827",
        "title": "公共厕所",
        "address": "宁夏回族自治区吴忠市利通区利华北街与吴灵东路交叉口正北方向54米左右",
        "tel": "",
        "category": "基础设施:公共设施:公共厕所",
        "type": 0,
        "location": {
            "lat": 37.993183,
            "lng": 106.21705
        },
        "ad_info": {
            "adcode": 640302,
            "province": "宁夏回族自治区",
            "city": "吴忠市",
            "district": "利通区"
        }
    },
    {
        "id": "7330099011428907479",
        "title": "公共厕所",
        "address": "宁夏回族自治区吴忠市利通区文卫南街与胜利东路交叉口正南方向56米左右",
        "tel": "",
        "category": "基础设施:公共设施:公共厕所",
        "type": 0,
        "location": {
            "lat": 37.979977,
            "lng": 106.209803
        },
        "ad_info": {
            "adcode": 640302,
            "province": "宁夏回族自治区",
            "city": "吴忠市",
            "district": "利通区"
        }
    },
    {
        "id": "16753268686114636567",
        "title": "公共厕所",
        "address": "宁夏回族自治区吴忠市利通区世纪大道与黎明北街交叉口正西方向119米左右",
        "tel": "",
        "category": "基础设施:公共设施:公共厕所",
        "type": 0,
        "location": {
            "lat": 38.00538,
            "lng": 106.18754
        },
        "ad_info": {
            "adcode": 640302,
            "province": "宁夏回族自治区",
            "city": "吴忠市",
            "district": "利通区"
        }
    },
    {
        "id": "3776174960862484994",
        "title": "公共厕所",
        "address": "宁夏回族自治区吴忠市利通区清净街与滨河路交叉口正西方向178米左右",
        "tel": "",
        "category": "基础设施:公共设施:公共厕所",
        "type": 0,
        "location": {
            "lat": 38.002914,
            "lng": 106.159896
        },
        "ad_info": {
            "adcode": 640302,
            "province": "宁夏回族自治区",
            "city": "吴忠市",
            "district": "利通区"
        }
    },
    {
        "id": "5273877707912522696",
        "title": "公共厕所",
        "address": "宁夏回族自治区吴忠市利通区秦渠中学西侧170米",
        "tel": "",
        "category": "基础设施:公共设施:公共厕所",
        "type": 0,
        "location": {
            "lat": 37.940905,
            "lng": 106.092258
        },
        "ad_info": {
            "adcode": 640302,
            "province": "宁夏回族自治区",
            "city": "吴忠市",
            "district": "利通区"
        }
    },
    {
        "id": "12038777360976376649",
        "title": "公共厕所",
        "address": "宁夏回族自治区吴忠市同心县豫海北街文化广场(西南角)",
        "tel": "",
        "category": "基础设施:公共设施:公共厕所",
        "type": 0,
        "location": {
            "lat": 36.983949,
            "lng": 105.911176
        },
        "ad_info": {
            "adcode": 640324,
            "province": "宁夏回族自治区",
            "city": "吴忠市",
            "district": "同心县"
        }
    },
    {
        "id": "13279334354608574373",
        "title": "公共厕所",
        "address": "宁夏回族自治区吴忠市利通区清宁街与瓦渠路交叉口东南方向47米左右",
        "tel": "",
        "category": "基础设施:公共设施:公共厕所",
        "type": 0,
        "location": {
            "lat": 37.984491,
            "lng": 106.169956
        },
        "ad_info": {
            "adcode": 640302,
            "province": "宁夏回族自治区",
            "city": "吴忠市",
            "district": "利通区"
        }
    },
    {
        "id": "5813877563872471811",
        "title": "公共厕所",
        "address": "宁夏回族自治区吴忠市盐池县民族西街与福州北路交叉口正北方向445米左右",
        "tel": "",
        "category": "基础设施:公共设施:公共厕所",
        "type": 0,
        "location": {
            "lat": 37.795369,
            "lng": 107.405442
        },
        "ad_info": {
            "adcode": 640323,
            "province": "宁夏回族自治区",
            "city": "吴忠市",
            "district": "盐池县"
        }
    },
    {
        "id": "5400981133087200792",
        "title": "公共厕所",
        "address": "宁夏回族自治区吴忠市利通区迎宾大街金花园-B区",
        "tel": "",
        "category": "基础设施:公共设施:公共厕所",
        "type": 0,
        "location": {
            "lat": 38.003406,
            "lng": 106.198881
        },
        "ad_info": {
            "adcode": 640302,
            "province": "宁夏回族自治区",
            "city": "吴忠市",
            "district": "利通区"
        }
    },
    {
        "id": "16983041316172893781",
        "title": "公共厕所",
        "address": "宁夏回族自治区吴忠市青铜峡市利民街与利民西街交叉口西北方向99米左右",
        "tel": "",
        "category": "基础设施:公共设施:公共厕所",
        "type": 0,
        "location": {
            "lat": 38.015973,
            "lng": 106.079057
        },
        "ad_info": {
            "adcode": 640381,
            "province": "宁夏回族自治区",
            "city": "吴忠市",
            "district": "青铜峡市"
        }
    },
    {
        "id": "4025373221538359692",
        "title": "公共厕所",
        "address": "宁夏回族自治区吴忠市青铜峡市古峡东街与黄河路交叉口正西方向254米左右",
        "tel": "",
        "category": "基础设施:公共设施:公共厕所",
        "type": 0,
        "location": {
            "lat": 38.012126,
            "lng": 106.140059
        },
        "ad_info": {
            "adcode": 640381,
            "province": "宁夏回族自治区",
            "city": "吴忠市",
            "district": "青铜峡市"
        }
    },
    {
        "id": "16100158036293783754",
        "title": "公共厕所",
        "address": "宁夏回族自治区吴忠市青铜峡市利民东街与秀水路交叉口正西方向187米左右",
        "tel": "",
        "category": "基础设施:公共设施:公共厕所",
        "type": 0,
        "location": {
            "lat": 38.009855,
            "lng": 106.114219
        },
        "ad_info": {
            "adcode": 640381,
            "province": "宁夏回族自治区",
            "city": "吴忠市",
            "district": "青铜峡市"
        }
    },
    {
        "id": "8093575410079527196",
        "title": "公共厕所",
        "address": "宁夏回族自治区吴忠市青铜峡市利民街与惠民路交叉口正南方向132米左右",
        "tel": "",
        "category": "基础设施:公共设施:公共厕所",
        "type": 0,
        "location": {
            "lat": 38.013826,
            "lng": 106.081007
        },
        "ad_info": {
            "adcode": 640381,
            "province": "宁夏回族自治区",
            "city": "吴忠市",
            "district": "青铜峡市"
        }
    },
    {
        "id": "4300846706675703991",
        "title": "公共厕所",
        "address": "宁夏回族自治区吴忠市红寺堡区德水街与盐兴路交叉口正南方向99米左右",
        "tel": "",
        "category": "基础设施:公共设施:公共厕所",
        "type": 0,
        "location": {
            "lat": 37.414331,
            "lng": 106.070418
        },
        "ad_info": {
            "adcode": 640303,
            "province": "宁夏回族自治区",
            "city": "吴忠市",
            "district": "红寺堡区"
        }
    },
    {
        "id": "2929845298023030461",
        "title": "公共卫生间",
        "address": "宁夏回族自治区吴忠市青铜峡市建民北路与银河街交叉口西南方向36米左右",
        "tel": "",
        "category": "基础设施:公共设施:公共厕所",
        "type": 0,
        "location": {
            "lat": 38.027753,
            "lng": 106.071342
        },
        "ad_info": {
            "adcode": 640381,
            "province": "宁夏回族自治区",
            "city": "吴忠市",
            "district": "青铜峡市"
        }
    },
    {
        "id": "4856016585133183463",
        "title": "公共厕所",
        "address": "宁夏回族自治区吴忠市盐池县昫衍北路与花马池东街交叉口东北120米",
        "tel": "",
        "category": "基础设施:公共设施:公共厕所",
        "type": 0,
        "location": {
            "lat": 37.78338,
            "lng": 107.41513
        },
        "ad_info": {
            "adcode": 640323,
            "province": "宁夏回族自治区",
            "city": "吴忠市",
            "district": "盐池县"
        }
    },
    {
        "id": "4835987065281223511",
        "title": "公共厕所",
        "address": "宁夏回族自治区吴忠市利通区清宁街与瓦渠路交叉口正东方向25米左右",
        "tel": "",
        "category": "基础设施:公共设施:公共厕所",
        "type": 0,
        "location": {
            "lat": 37.984821,
            "lng": 106.169937
        },
        "ad_info": {
            "adcode": 640302,
            "province": "宁夏回族自治区",
            "city": "吴忠市",
            "district": "利通区"
        }
    },
    {
        "id": "3756081302115823557",
        "title": "无障碍公共厕所",
        "address": "宁夏回族自治区吴忠市利通区双拥西路与迎宾大街交叉口正西方向80米左右",
        "tel": "",
        "category": "基础设施:公共设施:公共厕所",
        "type": 0,
        "location": {
            "lat": 37.993088,
            "lng": 106.197728
        },
        "ad_info": {
            "adcode": 640302,
            "province": "宁夏回族自治区",
            "city": "吴忠市",
            "district": "利通区"
        }
    },
    {
        "id": "1633680481818654965",
        "title": "公共厕所",
        "address": "宁夏回族自治区吴忠市青铜峡市利民东街黄河体育馆",
        "tel": "",
        "category": "基础设施:公共设施:公共厕所",
        "type": 0,
        "location": {
            "lat": 38.007465,
            "lng": 106.136288
        },
        "ad_info": {
            "adcode": 640381,
            "province": "宁夏回族自治区",
            "city": "吴忠市",
            "district": "青铜峡市"
        }
    },
    {
        "id": "18296447960214544944",
        "title": "公共厕所",
        "address": "宁夏回族自治区吴忠市红寺堡区六盘山路与团结街交叉口西南方向26米左右",
        "tel": "",
        "category": "基础设施:公共设施:公共厕所",
        "type": 0,
        "location": {
            "lat": 37.420197,
            "lng": 106.059657
        },
        "ad_info": {
            "adcode": 640303,
            "province": "宁夏回族自治区",
            "city": "吴忠市",
            "district": "红寺堡区"
        }
    },
    {
        "id": "12097944176581628071",
        "title": "公共厕所",
        "address": "宁夏回族自治区吴忠市盐池县南苑新村4区东侧230米",
        "tel": "",
        "category": "基础设施:公共设施:公共厕所",
        "type": 0,
        "location": {
            "lat": 37.782125,
            "lng": 107.367239
        },
        "ad_info": {
            "adcode": 640323,
            "province": "宁夏回族自治区",
            "city": "吴忠市",
            "district": "盐池县"
        }
    },
    {
        "id": "7602290743272524782",
        "title": "公共厕所",
        "address": "宁夏回族自治区吴忠市青铜峡市峡石街与峡谷路交叉口东北方向88米左右",
        "tel": "",
        "category": "基础设施:公共设施:公共厕所",
        "type": 0,
        "location": {
            "lat": 37.89086,
            "lng": 106.004759
        },
        "ad_info": {
            "adcode": 640381,
            "province": "宁夏回族自治区",
            "city": "吴忠市",
            "district": "青铜峡市"
        }
    },
    {
        "id": "15499115854590670844",
        "title": "公共厕所",
        "address": "宁夏回族自治区吴忠市青铜峡市古峡西街与永庆路交叉口正西方向329米左右",
        "tel": "",
        "category": "基础设施:公共设施:公共厕所",
        "type": 0,
        "location": {
            "lat": 38.020181,
            "lng": 106.062564
        },
        "ad_info": {
            "adcode": 640381,
            "province": "宁夏回族自治区",
            "city": "吴忠市",
            "district": "青铜峡市"
        }
    },
    {
        "id": "17032100178100537495",
        "title": "公共厕所",
        "address": "宁夏回族自治区吴忠市盐池县影院街与盐州南路交叉口正北方向145米左右",
        "tel": "",
        "category": "基础设施:公共设施:公共厕所",
        "type": 0,
        "location": {
            "lat": 37.784645,
            "lng": 107.405625
        },
        "ad_info": {
            "adcode": 640323,
            "province": "宁夏回族自治区",
            "city": "吴忠市",
            "district": "盐池县"
        }
    },
    {
        "id": "11576418104100976958",
        "title": "公共厕所",
        "address": "宁夏回族自治区吴忠市红寺堡区扬黄路与金水街交叉口正北方向41米左右",
        "tel": "",
        "category": "基础设施:公共设施:公共厕所",
        "type": 0,
        "location": {
            "lat": 37.425069,
            "lng": 106.078228
        },
        "ad_info": {
            "adcode": 640303,
            "province": "宁夏回族自治区",
            "city": "吴忠市",
            "district": "红寺堡区"
        }
    },
    {
        "id": "16471230576343475347",
        "title": "公共厕所",
        "address": "宁夏回族自治区吴忠市青铜峡市利民东街与文昌路交叉口西北方向80米左右",
        "tel": "",
        "category": "基础设施:公共设施:公共厕所",
        "type": 0,
        "location": {
            "lat": 38.008322,
            "lng": 106.124891
        },
        "ad_info": {
            "adcode": 640381,
            "province": "宁夏回族自治区",
            "city": "吴忠市",
            "district": "青铜峡市"
        }
    },
    {
        "id": "16741610028037698888",
        "title": "公共厕所",
        "address": "宁夏回族自治区吴忠市青铜峡市黄河大峡谷景区青铜古镇停车场",
        "tel": "",
        "category": "基础设施:公共设施:公共厕所",
        "type": 0,
        "location": {
            "lat": 37.893282,
            "lng": 106.001805
        },
        "ad_info": {
            "adcode": 640381,
            "province": "宁夏回族自治区",
            "city": "吴忠市",
            "district": "青铜峡市"
        }
    },
    {
        "id": "1395498595751566468",
        "title": "公共厕所",
        "address": "宁夏回族自治区吴忠市青铜峡市古峡西街青铜峡市中医医院",
        "tel": "",
        "category": "基础设施:公共设施:公共厕所",
        "type": 0,
        "location": {
            "lat": 38.019889,
            "lng": 106.069709
        },
        "ad_info": {
            "adcode": 640381,
            "province": "宁夏回族自治区",
            "city": "吴忠市",
            "district": "青铜峡市"
        }
    },
    {
        "id": "17234605456587523582",
        "title": "公共厕所",
        "address": "宁夏回族自治区吴忠市盐池县福州南路390号",
        "tel": "",
        "category": "基础设施:公共设施:公共厕所",
        "type": 0,
        "location": {
            "lat": 37.779324,
            "lng": 107.395284
        },
        "ad_info": {
            "adcode": 640323,
            "province": "宁夏回族自治区",
            "city": "吴忠市",
            "district": "盐池县"
        }
    },
    {
        "id": "6348042541072400440",
        "title": "公共厕所",
        "address": "宁夏回族自治区吴忠市盐池县广惠东街与鼓楼南路交叉口西北方向76米左右",
        "tel": "",
        "category": "基础设施:公共设施:公共厕所",
        "type": 0,
        "location": {
            "lat": 37.775776,
            "lng": 107.401754
        },
        "ad_info": {
            "adcode": 640323,
            "province": "宁夏回族自治区",
            "city": "吴忠市",
            "district": "盐池县"
        }
    },
    {
        "id": "9934381695351651485",
        "title": "公共厕所",
        "address": "宁夏回族自治区吴忠市盐池县南苑新村4区南侧280米",
        "tel": "",
        "category": "基础设施:公共设施:公共厕所",
        "type": 0,
        "location": {
            "lat": 37.780377,
            "lng": 107.36572
        },
        "ad_info": {
            "adcode": 640323,
            "province": "宁夏回族自治区",
            "city": "吴忠市",
            "district": "盐池县"
        }
    },
    {
        "id": "16337328281653145139",
        "title": "公共厕所",
        "address": "宁夏回族自治区吴忠市盐池县花马池西街与长城北路交叉口西南方向273米左右",
        "tel": "",
        "category": "基础设施:公共设施:公共厕所",
        "type": 0,
        "location": {
            "lat": 37.785241,
            "lng": 107.400936
        },
        "ad_info": {
            "adcode": 640323,
            "province": "宁夏回族自治区",
            "city": "吴忠市",
            "district": "盐池县"
        }
    },
    {
        "id": "7044533220956638782",
        "title": "公共厕所",
        "address": "宁夏回族自治区吴忠市盐池县花马池西街与长城北路交叉口东北方向60米左右",
        "tel": "",
        "category": "基础设施:公共设施:公共厕所",
        "type": 0,
        "location": {
            "lat": 37.787755,
            "lng": 107.403004
        },
        "ad_info": {
            "adcode": 640323,
            "province": "宁夏回族自治区",
            "city": "吴忠市",
            "district": "盐池县"
        }
    },
    {
        "id": "3966828249007953067",
        "title": "公共厕所",
        "address": "宁夏回族自治区吴忠市青铜峡市G109与中大路交叉口东北方向143米左右",
        "tel": "",
        "category": "基础设施:公共设施:公共厕所",
        "type": 0,
        "location": {
            "lat": 37.984633,
            "lng": 106.032833
        },
        "ad_info": {
            "adcode": 640381,
            "province": "宁夏回族自治区",
            "city": "吴忠市",
            "district": "青铜峡市"
        }
    },
    {
        "id": "4920540910477105484",
        "title": "公共厕所",
        "address": "宁夏回族自治区吴忠市盐池县东顺路与民族东街交叉口东南方向376米左右",
        "tel": "",
        "category": "基础设施:公共设施:公共厕所",
        "type": 0,
        "location": {
            "lat": 37.780774,
            "lng": 107.421451
        },
        "ad_info": {
            "adcode": 640323,
            "province": "宁夏回族自治区",
            "city": "吴忠市",
            "district": "盐池县"
        }
    },
    {
        "id": "11071727133999740181",
        "title": "公共厕所",
        "address": "宁夏回族自治区吴忠市青铜峡市利民东街与嘉宝路交叉口正北方向146米左右",
        "tel": "",
        "category": "基础设施:公共设施:公共厕所",
        "type": 0,
        "location": {
            "lat": 38.012079,
            "lng": 106.105412
        },
        "ad_info": {
            "adcode": 640381,
            "province": "宁夏回族自治区",
            "city": "吴忠市",
            "district": "青铜峡市"
        }
    },
    {
        "id": "16283940300524459097",
        "title": "公共厕所",
        "address": "宁夏回族自治区吴忠市利通区金星街121号",
        "tel": "",
        "category": "基础设施:公共设施:公共厕所",
        "type": 0,
        "location": {
            "lat": 37.985739,
            "lng": 106.20628
        },
        "ad_info": {
            "adcode": 640302,
            "province": "宁夏回族自治区",
            "city": "吴忠市",
            "district": "利通区"
        }
    },
    {
        "id": "17138083102848526900",
        "title": "公共厕所",
        "address": "宁夏回族自治区吴忠市盐池县政谐南路与政谐路交叉口正西方向142米左右",
        "tel": "",
        "category": "基础设施:公共设施:公共厕所",
        "type": 0,
        "location": {
            "lat": 37.796427,
            "lng": 107.381762
        },
        "ad_info": {
            "adcode": 640323,
            "province": "宁夏回族自治区",
            "city": "吴忠市",
            "district": "盐池县"
        }
    },
    {
        "id": "12162455683572647468",
        "title": "公共厕所",
        "address": "宁夏回族自治区吴忠市盐池县民族西街与盐林北路交叉口正东方向115米左右",
        "tel": "",
        "category": "基础设施:公共设施:公共厕所",
        "type": 0,
        "location": {
            "lat": 37.792975,
            "lng": 107.400382
        },
        "ad_info": {
            "adcode": 640323,
            "province": "宁夏回族自治区",
            "city": "吴忠市",
            "district": "盐池县"
        }
    },
    {
        "id": "7330646148701053485",
        "title": "四旗梁子拱北-公共厕所",
        "address": "宁夏回族自治区吴忠市利通区文卫北街500号东北方向80米",
        "tel": "",
        "category": "基础设施:公共设施:公共厕所",
        "type": 0,
        "location": {
            "lat": 37.993576,
            "lng": 106.209224
        },
        "ad_info": {
            "adcode": 640302,
            "province": "宁夏回族自治区",
            "city": "吴忠市",
            "district": "利通区"
        }
    },
    {
        "id": "9791066986320410216",
        "title": "公共厕所",
        "address": "宁夏回族自治区吴忠市青铜峡市利民东街与龙海商业街交叉口正北方向63米左右",
        "tel": "",
        "category": "基础设施:公共设施:公共厕所",
        "type": 0,
        "location": {
            "lat": 38.013349,
            "lng": 106.088057
        },
        "ad_info": {
            "adcode": 640381,
            "province": "宁夏回族自治区",
            "city": "吴忠市",
            "district": "青铜峡市"
        }
    },
    {
        "id": "14611256946722674120",
        "title": "公共厕所",
        "address": "宁夏回族自治区吴忠市盐池县元华街与昫衍南路交叉口西北方向133米左右",
        "tel": "",
        "category": "基础设施:公共设施:公共厕所",
        "type": 0,
        "location": {
            "lat": 37.776372,
            "lng": 107.408386
        },
        "ad_info": {
            "adcode": 640323,
            "province": "宁夏回族自治区",
            "city": "吴忠市",
            "district": "盐池县"
        }
    },
    {
        "id": "17828273559683206338",
        "title": "公共厕所",
        "address": "宁夏回族自治区吴忠市盐池县民族东街与永清北路交叉口正西方向26米左右",
        "tel": "",
        "category": "基础设施:公共设施:公共厕所",
        "type": 0,
        "location": {
            "lat": 37.787242,
            "lng": 107.413077
        },
        "ad_info": {
            "adcode": 640323,
            "province": "宁夏回族自治区",
            "city": "吴忠市",
            "district": "盐池县"
        }
    },
    {
        "id": "11816179167427497918",
        "title": "公共厕所",
        "address": "宁夏回族自治区吴忠市盐池县振兴南路(盛世华庭)",
        "tel": "",
        "category": "基础设施:公共设施:公共厕所",
        "type": 0,
        "location": {
            "lat": 37.78112,
            "lng": 107.387858
        },
        "ad_info": {
            "adcode": 640323,
            "province": "宁夏回族自治区",
            "city": "吴忠市",
            "district": "盐池县"
        }
    },
    {
        "id": "14917598355803358966",
        "title": "公共厕所",
        "address": "宁夏回族自治区吴忠市盐池县体育南路与文化街交叉口西南方向185米左右",
        "tel": "",
        "category": "基础设施:公共设施:公共厕所",
        "type": 0,
        "location": {
            "lat": 37.780156,
            "lng": 107.400727
        },
        "ad_info": {
            "adcode": 640323,
            "province": "宁夏回族自治区",
            "city": "吴忠市",
            "district": "盐池县"
        }
    },
    {
        "id": "9900289758417517700",
        "title": "公共厕所",
        "address": "宁夏回族自治区吴忠市盐池县304省道南50米",
        "tel": "",
        "category": "基础设施:公共设施:公共厕所",
        "type": 0,
        "location": {
            "lat": 37.775172,
            "lng": 107.198276
        },
        "ad_info": {
            "adcode": 640323,
            "province": "宁夏回族自治区",
            "city": "吴忠市",
            "district": "盐池县"
        }
    },
    {
        "id": "5358852815928157452",
        "title": "公共厕所",
        "address": "宁夏回族自治区吴忠市红寺堡区六盘山路与团结街交叉口西南方向59米左右",
        "tel": "",
        "category": "基础设施:公共设施:公共厕所",
        "type": 0,
        "location": {
            "lat": 37.419976,
            "lng": 106.059401
        },
        "ad_info": {
            "adcode": 640303,
            "province": "宁夏回族自治区",
            "city": "吴忠市",
            "district": "红寺堡区"
        }
    },
    {
        "id": "15615318171304256693",
        "title": "公共厕所",
        "address": "宁夏回族自治区吴忠市青铜峡市北环路与西环路交叉口正北方向242米左右",
        "tel": "",
        "category": "基础设施:公共设施:公共厕所",
        "type": 0,
        "location": {
            "lat": 38.030669,
            "lng": 106.059094
        },
        "ad_info": {
            "adcode": 640381,
            "province": "宁夏回族自治区",
            "city": "吴忠市",
            "district": "青铜峡市"
        }
    },
    {
        "id": "18046532436799522596",
        "title": "公共厕所",
        "address": "宁夏回族自治区吴忠市盐池县元华街与昫衍南路交叉口东北方向105米左右",
        "tel": "",
        "category": "基础设施:公共设施:公共厕所",
        "type": 0,
        "location": {
            "lat": 37.776769,
            "lng": 107.410294
        },
        "ad_info": {
            "adcode": 640323,
            "province": "宁夏回族自治区",
            "city": "吴忠市",
            "district": "盐池县"
        }
    },
    {
        "id": "4053975514800730940",
        "title": "公共厕所",
        "address": "宁夏回族自治区吴忠市盐池县元华街与永清南路交叉口东南方向52米左右",
        "tel": "",
        "category": "基础设施:公共设施:公共厕所",
        "type": 0,
        "location": {
            "lat": 37.77711,
            "lng": 107.40684
        },
        "ad_info": {
            "adcode": 640323,
            "province": "宁夏回族自治区",
            "city": "吴忠市",
            "district": "盐池县"
        }
    },
    {
        "id": "13794766360407215113",
        "title": "公共厕所",
        "address": "宁夏回族自治区吴忠市青铜峡市东兴路与东四路交叉口正北方向676米左右",
        "tel": "",
        "category": "基础设施:公共设施:公共厕所",
        "type": 0,
        "location": {
            "lat": 37.915532,
            "lng": 105.946143
        },
        "ad_info": {
            "adcode": 640381,
            "province": "宁夏回族自治区",
            "city": "吴忠市",
            "district": "青铜峡市"
        }
    },
    {
        "id": "12321565076128450060",
        "title": "公共厕所",
        "address": "宁夏回族自治区吴忠市红寺堡区G344与Y205交叉口西北方向1692米左右",
        "tel": "",
        "category": "基础设施:公共设施:公共厕所",
        "type": 0,
        "location": {
            "lat": 37.257938,
            "lng": 105.765299
        },
        "ad_info": {
            "adcode": 640303,
            "province": "宁夏回族自治区",
            "city": "吴忠市",
            "district": "红寺堡区"
        }
    },
    {
        "id": "16467648446594592772",
        "title": "无障碍公共厕所",
        "address": "宁夏回族自治区吴忠市利通区清净街与滨河路交叉口东南方向115米左右",
        "tel": "",
        "category": "基础设施:公共设施:公共厕所",
        "type": 0,
        "location": {
            "lat": 38.002661,
            "lng": 106.16284
        },
        "ad_info": {
            "adcode": 640302,
            "province": "宁夏回族自治区",
            "city": "吴忠市",
            "district": "利通区"
        }
    },
    {
        "id": "15954491199659696513",
        "title": "公共厕所",
        "address": "宁夏回族自治区吴忠市红寺堡区石化吴忠孙家滩加油站",
        "tel": "",
        "category": "基础设施:公共设施:公共厕所",
        "type": 0,
        "location": {
            "lat": 37.529556,
            "lng": 106.260075
        },
        "ad_info": {
            "adcode": 640303,
            "province": "宁夏回族自治区",
            "city": "吴忠市",
            "district": "红寺堡区"
        }
    },
    {
        "id": "17313422134459839136",
        "title": "无障碍公共厕所",
        "address": "宁夏回族自治区吴忠市利通区安居路128号",
        "tel": "",
        "category": "基础设施:公共设施:公共厕所",
        "type": 0,
        "location": {
            "lat": 38.001372,
            "lng": 106.20417
        },
        "ad_info": {
            "adcode": 640302,
            "province": "宁夏回族自治区",
            "city": "吴忠市",
            "district": "利通区"
        }
    },
    {
        "id": "3086399213293163466",
        "title": "开源广场公共厕所",
        "address": "宁夏回族自治区吴忠市利通区迎宾大街开源广场(西侧)",
        "tel": "",
        "category": "基础设施:公共设施:公共厕所",
        "type": 0,
        "location": {
            "lat": 37.984601,
            "lng": 106.198702
        },
        "ad_info": {
            "adcode": 640302,
            "province": "宁夏回族自治区",
            "city": "吴忠市",
            "district": "利通区"
        }
    },
    {
        "id": "8462539004762191246",
        "title": "公共厕所",
        "address": "宁夏回族自治区吴忠市盐池县G307与郭巴线交叉口西南方向106米左右",
        "tel": "",
        "category": "基础设施:公共设施:公共厕所",
        "type": 0,
        "location": {
            "lat": 37.998304,
            "lng": 107.04657
        },
        "ad_info": {
            "adcode": 640323,
            "province": "宁夏回族自治区",
            "city": "吴忠市",
            "district": "盐池县"
        }
    },
    {
        "id": "2103319048361038017",
        "title": "旅游厕所",
        "address": "宁夏回族自治区吴忠市利通区灵芝生态园生态大棚内",
        "tel": "",
        "category": "基础设施:公共设施:公共厕所",
        "type": 0,
        "location": {
            "lat": 38.063032,
            "lng": 106.213533
        },
        "ad_info": {
            "adcode": 640302,
            "province": "宁夏回族自治区",
            "city": "吴忠市",
            "district": "利通区"
        }
    },
    {
        "id": "16266064002881065984",
        "title": "公共厕所",
        "address": "宁夏回族自治区吴忠市青铜峡市利民西街与紫薇巷交叉口西北方向24米左右",
        "tel": "",
        "category": "基础设施:公共设施:公共厕所",
        "type": 0,
        "location": {
            "lat": 38.017221,
            "lng": 106.067469
        },
        "ad_info": {
            "adcode": 640381,
            "province": "宁夏回族自治区",
            "city": "吴忠市",
            "district": "青铜峡市"
        }
    },
    {
        "id": "12462652030420601777",
        "title": "无障碍公共厕所",
        "address": "宁夏回族自治区吴忠市利通区朝阳东路吴忠高级中学",
        "tel": "",
        "category": "基础设施:公共设施:公共厕所",
        "type": 0,
        "location": {
            "lat": 37.983455,
            "lng": 106.216667
        },
        "ad_info": {
            "adcode": 640302,
            "province": "宁夏回族自治区",
            "city": "吴忠市",
            "district": "利通区"
        }
    },
    {
        "id": "5699269307067309894",
        "title": "无障碍公共厕所(灵芝桥)",
        "address": "宁夏回族自治区吴忠市利通区G344与新华桥交叉口正西方向1090米左右",
        "tel": "",
        "category": "基础设施:公共设施:公共厕所",
        "type": 0,
        "location": {
            "lat": 38.062948,
            "lng": 106.213095
        },
        "ad_info": {
            "adcode": 640302,
            "province": "宁夏回族自治区",
            "city": "吴忠市",
            "district": "利通区"
        }
    },
    {
        "id": "6533286096753670128",
        "title": "黄河生态园公共厕所",
        "address": "宁夏回族自治区吴忠市青铜峡市古峡东街与滨河大道交叉口正东方向370米左右",
        "tel": "",
        "category": "基础设施:公共设施:公共厕所",
        "type": 0,
        "location": {
            "lat": 38.00978,
            "lng": 106.15803
        },
        "ad_info": {
            "adcode": 640381,
            "province": "宁夏回族自治区",
            "city": "吴忠市",
            "district": "青铜峡市"
        }
    },
    {
        "id": "14352918437245982750",
        "title": "小洪沟服务区公共厕所",
        "address": "宁夏回族自治区吴忠市同心县河西镇京藏高速公路小洪沟服务区",
        "tel": "",
        "category": "基础设施:公共设施:公共厕所",
        "type": 0,
        "location": {
            "lat": 37.192947,
            "lng": 105.706185
        },
        "ad_info": {
            "adcode": 640324,
            "province": "宁夏回族自治区",
            "city": "吴忠市",
            "district": "同心县"
        }
    },
    {
        "id": "16068579904686448876",
        "title": "关马湖服务区公共厕所",
        "address": "宁夏回族自治区吴忠市利通区G344与昊盛路交叉口西南方向1888米左右",
        "tel": "",
        "category": "基础设施:公共设施:公共厕所",
        "type": 0,
        "location": {
            "lat": 37.831458,
            "lng": 106.129574
        },
        "ad_info": {
            "adcode": 640302,
            "province": "宁夏回族自治区",
            "city": "吴忠市",
            "district": "利通区"
        }
    },
    {
        "id": "17362725183106649487",
        "title": "盐池服务区公共厕所",
        "address": "宁夏回族自治区吴忠市盐池县G307与盐王线交叉口东北方向253米左右",
        "tel": "",
        "category": "基础设施:公共设施:公共厕所",
        "type": 0,
        "location": {
            "lat": 37.772828,
            "lng": 107.440712
        },
        "ad_info": {
            "adcode": 640323,
            "province": "宁夏回族自治区",
            "city": "吴忠市",
            "district": "盐池县"
        }
    },
    {
        "id": "5535986861096434636",
        "title": "青铜峡市36号公共厕所",
        "address": "宁夏回族自治区吴忠市青铜峡市艾山街青铜峡站",
        "tel": "",
        "category": "基础设施:公共设施:公共厕所",
        "type": 0,
        "location": {
            "lat": 37.918973,
            "lng": 105.933084
        },
        "ad_info": {
            "adcode": 640381,
            "province": "宁夏回族自治区",
            "city": "吴忠市",
            "district": "青铜峡市"
        }
    },
    {
        "id": "6233839111820552389",
        "title": "马儿庄服务区公共厕所",
        "address": "宁夏回族自治区吴忠市盐池县定武高速与银百高速交叉口正西方向1495米左右",
        "tel": "",
        "category": "基础设施:公共设施:公共厕所",
        "type": 0,
        "location": {
            "lat": 37.592471,
            "lng": 106.907517
        },
        "ad_info": {
            "adcode": 640323,
            "province": "宁夏回族自治区",
            "city": "吴忠市",
            "district": "盐池县"
        }
    },
    {
        "id": "5759941189489287963",
        "title": "盐池服务区公共厕所",
        "address": "宁夏回族自治区吴忠市盐池县G307与盐王线交叉口西北方向247米左右",
        "tel": "",
        "category": "基础设施:公共设施:公共厕所",
        "type": 0,
        "location": {
            "lat": 37.772648,
            "lng": 107.437584
        },
        "ad_info": {
            "adcode": 640323,
            "province": "宁夏回族自治区",
            "city": "吴忠市",
            "district": "盐池县"
        }
    },
    {
        "id": "5958978648705234072",
        "title": "马儿庄服务区公共厕所",
        "address": "宁夏回族自治区吴忠市盐池县马儿庄服务区与G2012定武高速交叉口西南180米",
        "tel": "",
        "category": "基础设施:公共设施:公共厕所",
        "type": 0,
        "location": {
            "lat": 37.590874,
            "lng": 106.909354
        },
        "ad_info": {
            "adcode": 640323,
            "province": "宁夏回族自治区",
            "city": "吴忠市",
            "district": "盐池县"
        }
    },
    {
        "id": "11340280143740056093",
        "title": "公共厕所",
        "address": "宁夏回族自治区吴忠市红寺堡区燕然路与金水街交叉口正南方向107米左右",
        "tel": "",
        "category": "基础设施:公共设施:公共厕所",
        "type": 0,
        "location": {
            "lat": 37.423855,
            "lng": 106.065167
        },
        "ad_info": {
            "adcode": 640303,
            "province": "宁夏回族自治区",
            "city": "吴忠市",
            "district": "红寺堡区"
        }
    },
    {
        "id": "12394432657245163979",
        "title": "天湖服务区公共厕所",
        "address": "宁夏回族自治区吴忠市红寺堡区G344与Y205交叉口西北方向1950米左右",
        "tel": "",
        "category": "基础设施:公共设施:公共厕所",
        "type": 0,
        "location": {
            "lat": 37.25907,
            "lng": 105.76275
        },
        "ad_info": {
            "adcode": 640303,
            "province": "宁夏回族自治区",
            "city": "吴忠市",
            "district": "红寺堡区"
        }
    },
    {
        "id": "1698733823556659437",
        "title": "旅游厕所(NX-WZ-0337)",
        "address": "宁夏回族自治区吴忠市青铜峡市古峡东街与唐条路交叉口西南方向461米左右",
        "tel": "",
        "category": "基础设施:公共设施:公共厕所",
        "type": 0,
        "location": {
            "lat": 38.008713,
            "lng": 106.146146
        },
        "ad_info": {
            "adcode": 640381,
            "province": "宁夏回族自治区",
            "city": "吴忠市",
            "district": "青铜峡市"
        }
    },
    {
        "id": "13205716276019531454",
        "title": "沙海绿洲停车区公共厕所",
        "address": "宁夏回族自治区吴忠市盐池县沙海绿洲停车区与G2012定武高速交叉口西20米",
        "tel": "",
        "category": "基础设施:公共设施:公共厕所",
        "type": 0,
        "location": {
            "lat": 37.659559,
            "lng": 107.163236
        },
        "ad_info": {
            "adcode": 640323,
            "province": "宁夏回族自治区",
            "city": "吴忠市",
            "district": "盐池县"
        }
    },
    {
        "id": "16423998879288793499",
        "title": "公共厕所",
        "address": "宁夏回族自治区吴忠市利通区利华北街与李园路交叉口正东方向351米左右",
        "tel": "",
        "category": "基础设施:公共设施:公共厕所",
        "type": 0,
        "location": {
            "lat": 37.989764,
            "lng": 106.221294
        },
        "ad_info": {
            "adcode": 640302,
            "province": "宁夏回族自治区",
            "city": "吴忠市",
            "district": "利通区"
        }
    },
    {
        "id": "5994539075744390876",
        "title": "公共厕所",
        "address": "宁夏回族自治区吴忠市红寺堡区人和雅苑小区西南侧180米",
        "tel": "",
        "category": "基础设施:公共设施:公共厕所",
        "type": 0,
        "location": {
            "lat": 37.415905,
            "lng": 106.049099
        },
        "ad_info": {
            "adcode": 640303,
            "province": "宁夏回族自治区",
            "city": "吴忠市",
            "district": "红寺堡区"
        }
    },
    {
        "id": "1589775333011268893",
        "title": "公共厕所",
        "address": "宁夏回族自治区吴忠市利通区S303与X307交叉口东南方向398米左右",
        "tel": "",
        "category": "基础设施:公共设施:公共厕所",
        "type": 0,
        "location": {
            "lat": 37.915144,
            "lng": 106.270252
        },
        "ad_info": {
            "adcode": 640302,
            "province": "宁夏回族自治区",
            "city": "吴忠市",
            "district": "利通区"
        }
    },
    {
        "id": "3565454895174613286",
        "title": "公共厕所",
        "address": "宁夏回族自治区吴忠市盐池县振兴南路与文化街交叉口东北方向214米左右",
        "tel": "",
        "category": "基础设施:公共设施:公共厕所",
        "type": 0,
        "location": {
            "lat": 37.788048,
            "lng": 107.392734
        },
        "ad_info": {
            "adcode": 640323,
            "province": "宁夏回族自治区",
            "city": "吴忠市",
            "district": "盐池县"
        }
    },
    {
        "id": "8352186356533234556",
        "title": "公共厕所",
        "address": "宁夏回族自治区吴忠市利通区利红街与富民路交叉口西北方向133米左右",
        "tel": "",
        "category": "基础设施:公共设施:公共厕所",
        "type": 0,
        "location": {
            "lat": 37.980724,
            "lng": 106.228162
        },
        "ad_info": {
            "adcode": 640302,
            "province": "宁夏回族自治区",
            "city": "吴忠市",
            "district": "利通区"
        }
    },
    {
        "id": "9351086512177875176",
        "title": "沙丘岭停车区公共厕所",
        "address": "宁夏回族自治区吴忠市盐池县G2012定武高速与沙丘岭停车区交叉口东北100米",
        "tel": "",
        "category": "基础设施:公共设施:公共厕所",
        "type": 0,
        "location": {
            "lat": 37.695301,
            "lng": 107.386889
        },
        "ad_info": {
            "adcode": 640323,
            "province": "宁夏回族自治区",
            "city": "吴忠市",
            "district": "盐池县"
        }
    },
    {
        "id": "5029133431239276387",
        "title": "蔡家梁服务区公共厕所",
        "address": "宁夏回族自治区吴忠市盐池县高沙窝镇青银高速公路蔡家梁服务区",
        "tel": "",
        "category": "基础设施:公共设施:公共厕所",
        "type": 0,
        "location": {
            "lat": 38.076359,
            "lng": 106.962112
        },
        "ad_info": {
            "adcode": 640323,
            "province": "宁夏回族自治区",
            "city": "吴忠市",
            "district": "盐池县"
        }
    },
    {
        "id": "12941587791009203962",
        "title": "公共卫生间",
        "address": "宁夏回族自治区吴忠市同心县景明路与西环路交叉口西南方向29米左右",
        "tel": "",
        "category": "基础设施:公共设施:公共厕所",
        "type": 0,
        "location": {
            "lat": 36.972053,
            "lng": 105.897642
        },
        "ad_info": {
            "adcode": 640324,
            "province": "宁夏回族自治区",
            "city": "吴忠市",
            "district": "同心县"
        }
    },
    {
        "id": "9410377214733414514",
        "title": "公共厕所",
        "address": "宁夏回族自治区吴忠市青铜峡市文化路与朔方街交叉口东南方向426米左右",
        "tel": "",
        "category": "基础设施:公共设施:公共厕所",
        "type": 0,
        "location": {
            "lat": 38.027402,
            "lng": 106.082614
        },
        "ad_info": {
            "adcode": 640381,
            "province": "宁夏回族自治区",
            "city": "吴忠市",
            "district": "青铜峡市"
        }
    },
    {
        "id": "10378128497591972931",
        "title": "公共卫生间",
        "address": "宁夏回族自治区吴忠市盐池县G307",
        "tel": "",
        "category": "基础设施:公共设施:公共厕所",
        "type": 0,
        "location": {
            "lat": 38.011056,
            "lng": 107.03224
        },
        "ad_info": {
            "adcode": 640323,
            "province": "宁夏回族自治区",
            "city": "吴忠市",
            "district": "盐池县"
        }
    },
    {
        "id": "8242171417366872644",
        "title": "公共厕所",
        "address": "宁夏回族自治区吴忠市同心县豫海北街159号",
        "tel": "",
        "category": "基础设施:公共设施:公共厕所",
        "type": 0,
        "location": {
            "lat": 36.987404,
            "lng": 105.909709
        },
        "ad_info": {
            "adcode": 640324,
            "province": "宁夏回族自治区",
            "city": "吴忠市",
            "district": "同心县"
        }
    },
    {
        "id": "2988185554704579489",
        "title": "公共厕所",
        "address": "宁夏回族自治区吴忠市同心县复兴街与永安西路交叉口西北方向250米左右",
        "tel": "",
        "category": "基础设施:公共设施:公共厕所",
        "type": 0,
        "location": {
            "lat": 36.988717,
            "lng": 105.895714
        },
        "ad_info": {
            "adcode": 640324,
            "province": "宁夏回族自治区",
            "city": "吴忠市",
            "district": "同心县"
        }
    },
    {
        "id": "6660138405274082947",
        "title": "风电园停车区公共厕所",
        "address": "宁夏回族自治区吴忠市红寺堡区风电园停车区与G2012定武高速交叉口南50米",
        "tel": "",
        "category": "基础设施:公共设施:公共厕所",
        "type": 0,
        "location": {
            "lat": 37.542278,
            "lng": 106.595629
        },
        "ad_info": {
            "adcode": 640303,
            "province": "宁夏回族自治区",
            "city": "吴忠市",
            "district": "红寺堡区"
        }
    },
    {
        "id": "4854567326986759612",
        "title": "公共厕所",
        "address": "宁夏回族自治区吴忠市利通区伊利路与秦汉街交叉口东南方向393米左右",
        "tel": "",
        "category": "基础设施:公共设施:公共厕所",
        "type": 0,
        "location": {
            "lat": 37.945022,
            "lng": 106.130012
        },
        "ad_info": {
            "adcode": 640302,
            "province": "宁夏回族自治区",
            "city": "吴忠市",
            "district": "利通区"
        }
    },
    {
        "id": "4172571933772714095",
        "title": "厕所",
        "address": "宁夏回族自治区吴忠市盐池县",
        "tel": "",
        "category": "基础设施:公共设施:公共厕所",
        "type": 0,
        "location": {
            "lat": 37.833125,
            "lng": 107.179028
        },
        "ad_info": {
            "adcode": 640323,
            "province": "宁夏回族自治区",
            "city": "吴忠市",
            "district": "盐池县"
        }
    },
    {
        "id": "3387018479461130434",
        "title": "沙丘岭停车区公共厕所",
        "address": "宁夏回族自治区吴忠市盐池县定武高速",
        "tel": "",
        "category": "基础设施:公共设施:公共厕所",
        "type": 0,
        "location": {
            "lat": 37.683727,
            "lng": 107.376693
        },
        "ad_info": {
            "adcode": 640323,
            "province": "宁夏回族自治区",
            "city": "吴忠市",
            "district": "盐池县"
        }
    },
    {
        "id": "10420717764551084424",
        "title": "公共厕所",
        "address": "宁夏回族自治区吴忠市利通区明珠西路与花园街交叉口西北方向219米左右",
        "tel": "",
        "category": "基础设施:公共设施:公共厕所",
        "type": 0,
        "location": {
            "lat": 38.000117,
            "lng": 106.201063
        },
        "ad_info": {
            "adcode": 640302,
            "province": "宁夏回族自治区",
            "city": "吴忠市",
            "district": "利通区"
        }
    },
    {
        "id": "2019029749118520177",
        "title": "公共卫生间",
        "address": "宁夏回族自治区吴忠市利通区富平南街与纬六路交叉口东北方向108米左右",
        "tel": "",
        "category": "基础设施:公共设施:公共厕所",
        "type": 0,
        "location": {
            "lat": 37.976555,
            "lng": 106.186714
        },
        "ad_info": {
            "adcode": 640302,
            "province": "宁夏回族自治区",
            "city": "吴忠市",
            "district": "利通区"
        }
    },
    {
        "id": "752894403578189449",
        "title": "公共厕所",
        "address": "宁夏回族自治区吴忠市青铜峡市古峡西街与永庆路交叉口正西方向330米左右",
        "tel": "",
        "category": "基础设施:公共设施:公共厕所",
        "type": 0,
        "location": {
            "lat": 38.020431,
            "lng": 106.062551
        },
        "ad_info": {
            "adcode": 640381,
            "province": "宁夏回族自治区",
            "city": "吴忠市",
            "district": "青铜峡市"
        }
    },
    {
        "id": "1490576045401595942",
        "title": "王乐井服务区公共厕所",
        "address": "宁夏回族自治区吴忠市盐池县中国石油王乐井服务区加油站东南侧90米",
        "tel": "",
        "category": "基础设施:公共设施:公共厕所",
        "type": 0,
        "location": {
            "lat": 37.792473,
            "lng": 106.894299
        },
        "ad_info": {
            "adcode": 640323,
            "province": "宁夏回族自治区",
            "city": "吴忠市",
            "district": "盐池县"
        }
    },
    {
        "id": "11637159589280202595",
        "title": "公共厕所",
        "address": "宁夏回族自治区吴忠市利通区富平北街与康乐巷交叉口西北方向50米左右",
        "tel": "",
        "category": "基础设施:公共设施:公共厕所",
        "type": 0,
        "location": {
            "lat": 38.00261,
            "lng": 106.184975
        },
        "ad_info": {
            "adcode": 640302,
            "province": "宁夏回族自治区",
            "city": "吴忠市",
            "district": "利通区"
        }
    },
    {
        "id": "6920020419680488207",
        "title": "公共厕所",
        "address": "宁夏回族自治区吴忠市利通区康园街",
        "tel": "",
        "category": "基础设施:公共设施:公共厕所",
        "type": 0,
        "location": {
            "lat": 38.005133,
            "lng": 106.239283
        },
        "ad_info": {
            "adcode": 640302,
            "province": "宁夏回族自治区",
            "city": "吴忠市",
            "district": "利通区"
        }
    },
    {
        "id": "480556136510728467",
        "title": "公共厕所",
        "address": "宁夏回族自治区吴忠市青铜峡市青水园东南侧120米",
        "tel": "",
        "category": "基础设施:公共设施:公共厕所",
        "type": 0,
        "location": {
            "lat": 37.914335,
            "lng": 105.986265
        },
        "ad_info": {
            "adcode": 640381,
            "province": "宁夏回族自治区",
            "city": "吴忠市",
            "district": "青铜峡市"
        }
    },
    {
        "id": "805806893136705292",
        "title": "公共卫生间",
        "address": "宁夏回族自治区吴忠市青铜峡市古峡西街与文化路交叉口东北方向56米左右",
        "tel": "",
        "category": "基础设施:公共设施:公共厕所",
        "type": 0,
        "location": {
            "lat": 38.019962,
            "lng": 106.077793
        },
        "ad_info": {
            "adcode": 640381,
            "province": "宁夏回族自治区",
            "city": "吴忠市",
            "district": "青铜峡市"
        }
    },
    {
        "id": "11507375604718681013",
        "title": "公共厕所",
        "address": "宁夏回族自治区吴忠市同心县S204与占林路交叉口正西方向49米左右",
        "tel": "",
        "category": "基础设施:公共设施:公共厕所",
        "type": 0,
        "location": {
            "lat": 36.82037,
            "lng": 106.384474
        },
        "ad_info": {
            "adcode": 640324,
            "province": "宁夏回族自治区",
            "city": "吴忠市",
            "district": "同心县"
        }
    },
    {
        "id": "14200732480555105364",
        "title": "公共厕所",
        "address": "宁夏回族自治区吴忠市红寺堡区丹霞路与前进街交叉口东南方向43米左右",
        "tel": "",
        "category": "基础设施:公共设施:公共厕所",
        "type": 0,
        "location": {
            "lat": 37.422634,
            "lng": 106.054558
        },
        "ad_info": {
            "adcode": 640303,
            "province": "宁夏回族自治区",
            "city": "吴忠市",
            "district": "红寺堡区"
        }
    },
    {
        "id": "12528652888740575438",
        "title": "公共厕所",
        "address": "宁夏回族自治区吴忠市同心县街心公园",
        "tel": "",
        "category": "基础设施:公共设施:公共厕所",
        "type": 0,
        "location": {
            "lat": 36.979525,
            "lng": 105.915494
        },
        "ad_info": {
            "adcode": 640324,
            "province": "宁夏回族自治区",
            "city": "吴忠市",
            "district": "同心县"
        }
    },
    {
        "id": "13508826344365796375",
        "title": "公共厕所",
        "address": "宁夏回族自治区吴忠市青铜峡市利民西街与建民南路交叉口正东方向68米左右",
        "tel": "",
        "category": "基础设施:公共设施:公共厕所",
        "type": 0,
        "location": {
            "lat": 38.016938,
            "lng": 106.071085
        },
        "ad_info": {
            "adcode": 640381,
            "province": "宁夏回族自治区",
            "city": "吴忠市",
            "district": "青铜峡市"
        }
    },
    {
        "id": "10758078871760005516",
        "title": "公共厕所",
        "address": "宁夏回族自治区吴忠市青铜峡市东四路与中兴路交叉口西北方向454米左右",
        "tel": "",
        "category": "基础设施:公共设施:公共厕所",
        "type": 0,
        "location": {
            "lat": 37.911757,
            "lng": 105.934635
        },
        "ad_info": {
            "adcode": 640381,
            "province": "宁夏回族自治区",
            "city": "吴忠市",
            "district": "青铜峡市"
        }
    },
    {
        "id": "1254201817181649693",
        "title": "天湖服务区公共厕所",
        "address": "宁夏回族自治区吴忠市红寺堡区G344与Y205交叉口西北方向1737米左右",
        "tel": "",
        "category": "基础设施:公共设施:公共厕所",
        "type": 0,
        "location": {
            "lat": 37.258609,
            "lng": 105.765217
        },
        "ad_info": {
            "adcode": 640303,
            "province": "宁夏回族自治区",
            "city": "吴忠市",
            "district": "红寺堡区"
        }
    },
    {
        "id": "4381152924712970869",
        "title": "公共卫生间",
        "address": "宁夏回族自治区吴忠市利通区利华南街与友谊东路交叉口西北方向121米左右",
        "tel": "",
        "category": "基础设施:公共设施:公共厕所",
        "type": 0,
        "location": {
            "lat": 37.97452,
            "lng": 106.21675
        },
        "ad_info": {
            "adcode": 640302,
            "province": "宁夏回族自治区",
            "city": "吴忠市",
            "district": "利通区"
        }
    },
    {
        "id": "4238343605278723329",
        "title": "王乐井服务区公共厕所",
        "address": "宁夏回族自治区吴忠市盐池县中国石油王乐井服务区加油站北侧100米",
        "tel": "",
        "category": "基础设施:公共设施:公共厕所",
        "type": 0,
        "location": {
            "lat": 37.792448,
            "lng": 106.891602
        },
        "ad_info": {
            "adcode": 640323,
            "province": "宁夏回族自治区",
            "city": "吴忠市",
            "district": "盐池县"
        }
    },
    {
        "id": "13907792197023798824",
        "title": "公共厕所",
        "address": "宁夏回族自治区吴忠市红寺堡区丹霞路与利民街交叉口正南方向112米左右",
        "tel": "",
        "category": "基础设施:公共设施:公共厕所",
        "type": 0,
        "location": {
            "lat": 37.415019,
            "lng": 106.054428
        },
        "ad_info": {
            "adcode": 640303,
            "province": "宁夏回族自治区",
            "city": "吴忠市",
            "district": "红寺堡区"
        }
    },
    {
        "id": "16122460316594815318",
        "title": "公共厕所",
        "address": "宁夏回族自治区吴忠市青铜峡市宁朔大道与汉坝东街交叉口东南方向236米左右",
        "tel": "",
        "category": "基础设施:公共设施:公共厕所",
        "type": 0,
        "location": {
            "lat": 38.020256,
            "lng": 106.095842
        },
        "ad_info": {
            "adcode": 640381,
            "province": "宁夏回族自治区",
            "city": "吴忠市",
            "district": "青铜峡市"
        }
    },
    {
        "id": "14945963621642435709",
        "title": "大水坑服务区公共厕所",
        "address": "宁夏回族自治区吴忠市盐池县大水坑服务区西侧",
        "tel": "",
        "category": "基础设施:公共设施:公共厕所",
        "type": 0,
        "location": {
            "lat": 37.360403,
            "lng": 106.882807
        },
        "ad_info": {
            "adcode": 640323,
            "province": "宁夏回族自治区",
            "city": "吴忠市",
            "district": "盐池县"
        }
    },
    {
        "id": "11097542292464626838",
        "title": "关马湖服务区公共厕所",
        "address": "宁夏回族自治区吴忠市青铜峡市峡口镇京藏高速公路关马湖服务区西",
        "tel": "",
        "category": "基础设施:公共设施:公共厕所",
        "type": 0,
        "location": {
            "lat": 37.833454,
            "lng": 106.126964
        },
        "ad_info": {
            "adcode": 640381,
            "province": "宁夏回族自治区",
            "city": "吴忠市",
            "district": "青铜峡市"
        }
    },
    {
        "id": "11879467103816350336",
        "title": "公共厕所",
        "address": "宁夏回族自治区吴忠市盐池县忠林诊所西北侧160米",
        "tel": "",
        "category": "基础设施:公共设施:公共厕所",
        "type": 0,
        "location": {
            "lat": 37.44142,
            "lng": 106.966927
        },
        "ad_info": {
            "adcode": 640323,
            "province": "宁夏回族自治区",
            "city": "吴忠市",
            "district": "盐池县"
        }
    },
    {
        "id": "9276547259166120914",
        "title": "公共厕所",
        "address": "宁夏回族自治区吴忠市盐池县G307",
        "tel": "",
        "category": "基础设施:公共设施:公共厕所",
        "type": 0,
        "location": {
            "lat": 38.123479,
            "lng": 106.839821
        },
        "ad_info": {
            "adcode": 640323,
            "province": "宁夏回族自治区",
            "city": "吴忠市",
            "district": "盐池县"
        }
    },
    {
        "id": "7369646715410455127",
        "title": "公共厕所",
        "address": "宁夏回族自治区吴忠市利通区新村街与胜利东路交叉口正南方向275米左右",
        "tel": "",
        "category": "基础设施:公共设施:公共厕所",
        "type": 0,
        "location": {
            "lat": 37.977501,
            "lng": 106.204136
        },
        "ad_info": {
            "adcode": 640302,
            "province": "宁夏回族自治区",
            "city": "吴忠市",
            "district": "利通区"
        }
    },
    {
        "id": "58007621605866047",
        "title": "公共厕所",
        "address": "宁夏回族自治区吴忠市盐池县振远东街与鼓楼南路交叉口正东方向95米左右",
        "tel": "",
        "category": "基础设施:公共设施:公共厕所",
        "type": 0,
        "location": {
            "lat": 37.776635,
            "lng": 107.40449
        },
        "ad_info": {
            "adcode": 640323,
            "province": "宁夏回族自治区",
            "city": "吴忠市",
            "district": "盐池县"
        }
    },
    {
        "id": "1612373933931626840",
        "title": "公共厕所",
        "address": "宁夏回族自治区吴忠市红寺堡区创业街与利民街交叉口正南方向153米左右",
        "tel": "",
        "category": "基础设施:公共设施:公共厕所",
        "type": 0,
        "location": {
            "lat": 37.416431,
            "lng": 106.068551
        },
        "ad_info": {
            "adcode": 640303,
            "province": "宁夏回族自治区",
            "city": "吴忠市",
            "district": "红寺堡区"
        }
    },
    {
        "id": "16298507423432892257",
        "title": "公共厕所",
        "address": "宁夏回族自治区吴忠市利通区东街与秦汉街交叉口东南方向149米左右",
        "tel": "",
        "category": "基础设施:公共设施:公共厕所",
        "type": 0,
        "location": {
            "lat": 37.93006,
            "lng": 106.127878
        },
        "ad_info": {
            "adcode": 640302,
            "province": "宁夏回族自治区",
            "city": "吴忠市",
            "district": "利通区"
        }
    },
    {
        "id": "14167939318761613835",
        "title": "大水坑服务区公共厕所",
        "address": "宁夏回族自治区吴忠市盐池县大水坑服务区东侧",
        "tel": "",
        "category": "基础设施:公共设施:公共厕所",
        "type": 0,
        "location": {
            "lat": 37.36058,
            "lng": 106.885584
        },
        "ad_info": {
            "adcode": 640323,
            "province": "宁夏回族自治区",
            "city": "吴忠市",
            "district": "盐池县"
        }
    },
    {
        "id": "17358132045967688241",
        "title": "公共厕所",
        "address": "宁夏回族自治区吴忠市利通区河奇路j2150号",
        "tel": "",
        "category": "基础设施:公共设施:公共厕所",
        "type": 0,
        "location": {
            "lat": 38.012481,
            "lng": 106.189787
        },
        "ad_info": {
            "adcode": 640302,
            "province": "宁夏回族自治区",
            "city": "吴忠市",
            "district": "利通区"
        }
    },
    {
        "id": "14918203854942717737",
        "title": "公共厕所",
        "address": "宁夏回族自治区吴忠市青铜峡市G109与北环路交叉口东南方向255米左右",
        "tel": "",
        "category": "基础设施:公共设施:公共厕所",
        "type": 0,
        "location": {
            "lat": 38.028351,
            "lng": 106.091423
        },
        "ad_info": {
            "adcode": 640381,
            "province": "宁夏回族自治区",
            "city": "吴忠市",
            "district": "青铜峡市"
        }
    },
    {
        "id": "15348990275771391203",
        "title": "公共厕所",
        "address": "宁夏回族自治区吴忠市盐池县S201与S309交叉口西北方向63米左右",
        "tel": "",
        "category": "基础设施:公共设施:公共厕所",
        "type": 0,
        "location": {
            "lat": 37.431804,
            "lng": 106.973584
        },
        "ad_info": {
            "adcode": 640323,
            "province": "宁夏回族自治区",
            "city": "吴忠市",
            "district": "盐池县"
        }
    },
    {
        "id": "11887745137387057277",
        "title": "公共厕所",
        "address": "宁夏回族自治区吴忠市利通区世纪大道与顺安巷交叉口西南方向238米左右",
        "tel": "",
        "category": "基础设施:公共设施:公共厕所",
        "type": 0,
        "location": {
            "lat": 38.002429,
            "lng": 106.212101
        },
        "ad_info": {
            "adcode": 640302,
            "province": "宁夏回族自治区",
            "city": "吴忠市",
            "district": "利通区"
        }
    },
    {
        "id": "17722187591778223294",
        "title": "公共厕所",
        "address": "宁夏回族自治区吴忠市青铜峡市香港明记果菜(宁夏基地)东侧90米",
        "tel": "",
        "category": "基础设施:公共设施:公共厕所",
        "type": 0,
        "location": {
            "lat": 38.074689,
            "lng": 106.056783
        },
        "ad_info": {
            "adcode": 640381,
            "province": "宁夏回族自治区",
            "city": "吴忠市",
            "district": "青铜峡市"
        }
    },
    {
        "id": "5215186610858447263",
        "title": "公共厕所",
        "address": "宁夏回族自治区吴忠市盐池县惠安堡站站前广场东南侧50米",
        "tel": "",
        "category": "基础设施:公共设施:公共厕所",
        "type": 0,
        "location": {
            "lat": 37.477868,
            "lng": 106.67596
        },
        "ad_info": {
            "adcode": 640323,
            "province": "宁夏回族自治区",
            "city": "吴忠市",
            "district": "盐池县"
        }
    },
    {
        "id": "9367723069435552652",
        "title": "公共厕所",
        "address": "宁夏回族自治区吴忠市同心县平远西路与庆王街交叉口正东方向222米左右",
        "tel": "",
        "category": "基础设施:公共设施:公共厕所",
        "type": 0,
        "location": {
            "lat": 36.946436,
            "lng": 105.90758
        },
        "ad_info": {
            "adcode": 640324,
            "province": "宁夏回族自治区",
            "city": "吴忠市",
            "district": "同心县"
        }
    },
    {
        "id": "10222749033936950269",
        "title": "公共厕所",
        "address": "宁夏回族自治区吴忠市盐池县广惠西街与福州南路交叉口西南方向426米左右",
        "tel": "",
        "category": "基础设施:公共设施:公共厕所",
        "type": 0,
        "location": {
            "lat": 37.774956,
            "lng": 107.391997
        },
        "ad_info": {
            "adcode": 640323,
            "province": "宁夏回族自治区",
            "city": "吴忠市",
            "district": "盐池县"
        }
    },
    {
        "id": "16383145316308165843",
        "title": "公共厕所",
        "address": "宁夏回族自治区吴忠市盐池县宁夏明峰萌成建材有限公司东150米",
        "tel": "",
        "category": "基础设施:公共设施:公共厕所",
        "type": 0,
        "location": {
            "lat": 37.149895,
            "lng": 106.743193
        },
        "ad_info": {
            "adcode": 640323,
            "province": "宁夏回族自治区",
            "city": "吴忠市",
            "district": "盐池县"
        }
    },
    {
        "id": "5374465469817724661",
        "title": "公共厕所",
        "address": "宁夏回族自治区吴忠市盐池县G211国道西",
        "tel": "",
        "category": "基础设施:公共设施:公共厕所",
        "type": 0,
        "location": {
            "lat": 37.342285,
            "lng": 106.708467
        },
        "ad_info": {
            "adcode": 640323,
            "province": "宁夏回族自治区",
            "city": "吴忠市",
            "district": "盐池县"
        }
    },
    {
        "id": "5263932160967079725",
        "title": "新华广场公共厕所",
        "address": "宁夏回族自治区吴忠市同心县和平街与银平西路交叉口西北方向137米左右",
        "tel": "",
        "category": "基础设施:公共设施:公共厕所",
        "type": 0,
        "location": {
            "lat": 36.977158,
            "lng": 105.906911
        },
        "ad_info": {
            "adcode": 640324,
            "province": "宁夏回族自治区",
            "city": "吴忠市",
            "district": "同心县"
        }
    },
    {
        "id": "9741876832806927666",
        "title": "公共厕所",
        "address": "宁夏回族自治区吴忠市利通区碧玉广场大舞台后",
        "tel": "",
        "category": "基础设施:公共设施:公共厕所",
        "type": 0,
        "location": {
            "lat": 38.024281,
            "lng": 106.248051
        },
        "ad_info": {
            "adcode": 640302,
            "province": "宁夏回族自治区",
            "city": "吴忠市",
            "district": "利通区"
        }
    },
    {
        "id": "5980121228023429178",
        "title": "公共厕所",
        "address": "宁夏回族自治区吴忠市青铜峡市唐源街与宁朔大道交叉口正北方向92米左右",
        "tel": "",
        "category": "基础设施:公共设施:公共厕所",
        "type": 0,
        "location": {
            "lat": 38.009265,
            "lng": 106.092565
        },
        "ad_info": {
            "adcode": 640381,
            "province": "宁夏回族自治区",
            "city": "吴忠市",
            "district": "青铜峡市"
        }
    },
    {
        "id": "6404781624065644221",
        "title": "公共厕所",
        "address": "宁夏回族自治区吴忠市盐池县兴武南路与花马池西街交叉口正东方向70米左右",
        "tel": "",
        "category": "基础设施:公共设施:公共厕所",
        "type": 0,
        "location": {
            "lat": 37.799303,
            "lng": 107.37709
        },
        "ad_info": {
            "adcode": 640323,
            "province": "宁夏回族自治区",
            "city": "吴忠市",
            "district": "盐池县"
        }
    },
    {
        "id": "6610209304254751526",
        "title": "公共厕所",
        "address": "宁夏回族自治区吴忠市利通区江南路与纬三路(东)交叉口北80米",
        "tel": "",
        "category": "基础设施:公共设施:公共厕所",
        "type": 0,
        "location": {
            "lat": 37.956795,
            "lng": 106.153241
        },
        "ad_info": {
            "adcode": 640302,
            "province": "宁夏回族自治区",
            "city": "吴忠市",
            "district": "利通区"
        }
    },
    {
        "id": "8982496451475498774",
        "title": "公共厕所",
        "address": "宁夏回族自治区吴忠市利通区富平南街与致远巷交叉口东南方向162米左右",
        "tel": "",
        "category": "基础设施:公共设施:公共厕所",
        "type": 0,
        "location": {
            "lat": 37.972153,
            "lng": 106.186979
        },
        "ad_info": {
            "adcode": 640302,
            "province": "宁夏回族自治区",
            "city": "吴忠市",
            "district": "利通区"
        }
    },
    {
        "id": "5295384644650112398",
        "title": "公共厕所",
        "address": "宁夏回族自治区吴忠市利通区瓦渠路碧水明珠",
        "tel": "",
        "category": "基础设施:公共设施:公共厕所",
        "type": 0,
        "location": {
            "lat": 37.984465,
            "lng": 106.165956
        },
        "ad_info": {
            "adcode": 640302,
            "province": "宁夏回族自治区",
            "city": "吴忠市",
            "district": "利通区"
        }
    },
    {
        "id": "1545535033228592583",
        "title": "公共厕所",
        "address": "宁夏回族自治区吴忠市利通区吴灵西路吴忠市第三中学",
        "tel": "",
        "category": "基础设施:公共设施:公共厕所",
        "type": 0,
        "location": {
            "lat": 37.991055,
            "lng": 106.179309
        },
        "ad_info": {
            "adcode": 640302,
            "province": "宁夏回族自治区",
            "city": "吴忠市",
            "district": "利通区"
        }
    },
    {
        "id": "12543335137666495656",
        "title": "公共厕所",
        "address": "宁夏回族自治区吴忠市利通区光明巷与福宁东路交叉口正北方向334米左右",
        "tel": "",
        "category": "基础设施:公共设施:公共厕所",
        "type": 0,
        "location": {
            "lat": 37.971177,
            "lng": 106.202534
        },
        "ad_info": {
            "adcode": 640302,
            "province": "宁夏回族自治区",
            "city": "吴忠市",
            "district": "利通区"
        }
    },
    {
        "id": "835634564251969070",
        "title": "公共厕所",
        "address": "宁夏回族自治区吴忠市盐池县南苑新村1",
        "tel": "",
        "category": "基础设施:公共设施:公共厕所",
        "type": 0,
        "location": {
            "lat": 37.781168,
            "lng": 107.36972
        },
        "ad_info": {
            "adcode": 640323,
            "province": "宁夏回族自治区",
            "city": "吴忠市",
            "district": "盐池县"
        }
    },
    {
        "id": "13606530243597976515",
        "title": "公共厕所",
        "address": "宁夏回族自治区吴忠市利通区清静街与黄河路交叉口西南方向211米左右",
        "tel": "",
        "category": "基础设施:公共设施:公共厕所",
        "type": 0,
        "location": {
            "lat": 37.98074,
            "lng": 106.163675
        },
        "ad_info": {
            "adcode": 640302,
            "province": "宁夏回族自治区",
            "city": "吴忠市",
            "district": "利通区"
        }
    },
    {
        "id": "15513177955662652491",
        "title": "公共厕所",
        "address": "宁夏回族自治区吴忠市盐池县S202",
        "tel": "",
        "category": "基础设施:公共设施:公共厕所",
        "type": 0,
        "location": {
            "lat": 37.998118,
            "lng": 107.045147
        },
        "ad_info": {
            "adcode": 640323,
            "province": "宁夏回族自治区",
            "city": "吴忠市",
            "district": "盐池县"
        }
    },
    {
        "id": "13358143012658493903",
        "title": "公共厕所",
        "address": "宁夏回族自治区吴忠市盐池县东顺路与盐惠线交叉口正西方向413米左右",
        "tel": "",
        "category": "基础设施:公共设施:公共厕所",
        "type": 0,
        "location": {
            "lat": 37.757732,
            "lng": 107.382509
        },
        "ad_info": {
            "adcode": 640323,
            "province": "宁夏回族自治区",
            "city": "吴忠市",
            "district": "盐池县"
        }
    },
    {
        "id": "11162935980097202757",
        "title": "旅游厕所",
        "address": "宁夏回族自治区吴忠市青铜峡市G109",
        "tel": "",
        "category": "基础设施:公共设施:公共厕所",
        "type": 0,
        "location": {
            "lat": 37.940297,
            "lng": 105.999126
        },
        "ad_info": {
            "adcode": 640381,
            "province": "宁夏回族自治区",
            "city": "吴忠市",
            "district": "青铜峡市"
        }
    },
    {
        "id": "5034747247718660642",
        "title": "公共厕所",
        "address": "宁夏回族自治区吴忠市盐池县中国石油盐池汽车城加油加气站南侧170米",
        "tel": "",
        "category": "基础设施:公共设施:公共厕所",
        "type": 0,
        "location": {
            "lat": 37.796412,
            "lng": 107.410979
        },
        "ad_info": {
            "adcode": 640323,
            "province": "宁夏回族自治区",
            "city": "吴忠市",
            "district": "盐池县"
        }
    },
    {
        "id": "14079679303596013939",
        "title": "公共厕所",
        "address": "宁夏回族自治区吴忠市青铜峡市瞿靖东路与集市街交叉口正西方向122米左右",
        "tel": "",
        "category": "基础设施:公共设施:公共厕所",
        "type": 0,
        "location": {
            "lat": 38.08328,
            "lng": 106.055268
        },
        "ad_info": {
            "adcode": 640381,
            "province": "宁夏回族自治区",
            "city": "吴忠市",
            "district": "青铜峡市"
        }
    },
    {
        "id": "12492091877613394825",
        "title": "蔡家梁服务区公共厕所",
        "address": "宁夏回族自治区吴忠市盐池县青银高速",
        "tel": "",
        "category": "基础设施:公共设施:公共厕所",
        "type": 0,
        "location": {
            "lat": 38.074421,
            "lng": 106.961205
        },
        "ad_info": {
            "adcode": 640323,
            "province": "宁夏回族自治区",
            "city": "吴忠市",
            "district": "盐池县"
        }
    },
    {
        "id": "7021245718680812858",
        "title": "酸枣林停车区公共厕所",
        "address": "宁夏回族自治区吴忠市红寺堡区酸枣林停车区与G2012定武高速交叉口东南50米",
        "tel": "",
        "category": "基础设施:公共设施:公共厕所",
        "type": 0,
        "location": {
            "lat": 37.509116,
            "lng": 106.370636
        },
        "ad_info": {
            "adcode": 640303,
            "province": "宁夏回族自治区",
            "city": "吴忠市",
            "district": "红寺堡区"
        }
    },
    {
        "id": "16875588015977542308",
        "title": "风电园停车区公共厕所",
        "address": "宁夏回族自治区吴忠市红寺堡区风电园停车区与G2012定武高速交叉口东北60米",
        "tel": "",
        "category": "基础设施:公共设施:公共厕所",
        "type": 0,
        "location": {
            "lat": 37.542852,
            "lng": 106.594943
        },
        "ad_info": {
            "adcode": 640303,
            "province": "宁夏回族自治区",
            "city": "吴忠市",
            "district": "红寺堡区"
        }
    },
    {
        "id": "8082995303887541483",
        "title": "公共厕所",
        "address": "宁夏回族自治区吴忠市盐池县盐州南路与文化街交叉口北80米",
        "tel": "",
        "category": "基础设施:公共设施:公共厕所",
        "type": 0,
        "location": {
            "lat": 37.781396,
            "lng": 107.40372
        },
        "ad_info": {
            "adcode": 640323,
            "province": "宁夏回族自治区",
            "city": "吴忠市",
            "district": "盐池县"
        }
    },
    {
        "id": "14987042911786466214",
        "title": "红寺堡停车区公共厕所",
        "address": "宁夏回族自治区吴忠市红寺堡区G2012定武高速与红寺堡停车区交叉口西北340米",
        "tel": "",
        "category": "基础设施:公共设施:公共厕所",
        "type": 0,
        "location": {
            "lat": 37.466375,
            "lng": 106.065532
        },
        "ad_info": {
            "adcode": 640303,
            "province": "宁夏回族自治区",
            "city": "吴忠市",
            "district": "红寺堡区"
        }
    },
    {
        "id": "5531953428402992510",
        "title": "公共厕所",
        "address": "宁夏回族自治区吴忠市利通区文卫北街与文卫南街交叉口正北方向42米左右",
        "tel": "",
        "category": "基础设施:公共设施:公共厕所",
        "type": 0,
        "location": {
            "lat": 37.983535,
            "lng": 106.209985
        },
        "ad_info": {
            "adcode": 640302,
            "province": "宁夏回族自治区",
            "city": "吴忠市",
            "district": "利通区"
        }
    },
    {
        "id": "11846507703268924643",
        "title": "公共厕所",
        "address": "宁夏回族自治区吴忠市盐池县民族西街与福州北路交叉口正北方向192米左右",
        "tel": "",
        "category": "基础设施:公共设施:公共厕所",
        "type": 0,
        "location": {
            "lat": 37.793225,
            "lng": 107.40446
        },
        "ad_info": {
            "adcode": 640323,
            "province": "宁夏回族自治区",
            "city": "吴忠市",
            "district": "盐池县"
        }
    },
    {
        "id": "6404781624065644221",
        "title": "公共厕所",
        "address": "宁夏回族自治区吴忠市盐池县兴武南路与花马池西街交叉口正东方向70米左右",
        "tel": "",
        "category": "基础设施:公共设施:公共厕所",
        "type": 0,
        "location": {
            "lat": 37.799303,
            "lng": 107.37709
        },
        "ad_info": {
            "adcode": 640323,
            "province": "宁夏回族自治区",
            "city": "吴忠市",
            "district": "盐池县"
        }
    },
    {
        "id": "6610209304254751526",
        "title": "公共厕所",
        "address": "宁夏回族自治区吴忠市利通区江南路与纬三路(东)交叉口北80米",
        "tel": "",
        "category": "基础设施:公共设施:公共厕所",
        "type": 0,
        "location": {
            "lat": 37.956795,
            "lng": 106.153241
        },
        "ad_info": {
            "adcode": 640302,
            "province": "宁夏回族自治区",
            "city": "吴忠市",
            "district": "利通区"
        }
    },
    {
        "id": "8982496451475498774",
        "title": "公共厕所",
        "address": "宁夏回族自治区吴忠市利通区富平南街与致远巷交叉口东南方向162米左右",
        "tel": "",
        "category": "基础设施:公共设施:公共厕所",
        "type": 0,
        "location": {
            "lat": 37.972153,
            "lng": 106.186979
        },
        "ad_info": {
            "adcode": 640302,
            "province": "宁夏回族自治区",
            "city": "吴忠市",
            "district": "利通区"
        }
    },
    {
        "id": "5295384644650112398",
        "title": "公共厕所",
        "address": "宁夏回族自治区吴忠市利通区瓦渠路碧水明珠",
        "tel": "",
        "category": "基础设施:公共设施:公共厕所",
        "type": 0,
        "location": {
            "lat": 37.984465,
            "lng": 106.165956
        },
        "ad_info": {
            "adcode": 640302,
            "province": "宁夏回族自治区",
            "city": "吴忠市",
            "district": "利通区"
        }
    },
    {
        "id": "1545535033228592583",
        "title": "公共厕所",
        "address": "宁夏回族自治区吴忠市利通区吴灵西路吴忠市第三中学",
        "tel": "",
        "category": "基础设施:公共设施:公共厕所",
        "type": 0,
        "location": {
            "lat": 37.991055,
            "lng": 106.179309
        },
        "ad_info": {
            "adcode": 640302,
            "province": "宁夏回族自治区",
            "city": "吴忠市",
            "district": "利通区"
        }
    },
    {
        "id": "12543335137666495656",
        "title": "公共厕所",
        "address": "宁夏回族自治区吴忠市利通区光明巷与福宁东路交叉口正北方向334米左右",
        "tel": "",
        "category": "基础设施:公共设施:公共厕所",
        "type": 0,
        "location": {
            "lat": 37.971177,
            "lng": 106.202534
        },
        "ad_info": {
            "adcode": 640302,
            "province": "宁夏回族自治区",
            "city": "吴忠市",
            "district": "利通区"
        }
    },
    {
        "id": "835634564251969070",
        "title": "公共厕所",
        "address": "宁夏回族自治区吴忠市盐池县南苑新村1",
        "tel": "",
        "category": "基础设施:公共设施:公共厕所",
        "type": 0,
        "location": {
            "lat": 37.781168,
            "lng": 107.36972
        },
        "ad_info": {
            "adcode": 640323,
            "province": "宁夏回族自治区",
            "city": "吴忠市",
            "district": "盐池县"
        }
    },
    {
        "id": "13606530243597976515",
        "title": "公共厕所",
        "address": "宁夏回族自治区吴忠市利通区清静街与黄河路交叉口西南方向211米左右",
        "tel": "",
        "category": "基础设施:公共设施:公共厕所",
        "type": 0,
        "location": {
            "lat": 37.98074,
            "lng": 106.163675
        },
        "ad_info": {
            "adcode": 640302,
            "province": "宁夏回族自治区",
            "city": "吴忠市",
            "district": "利通区"
        }
    },
    {
        "id": "15513177955662652491",
        "title": "公共厕所",
        "address": "宁夏回族自治区吴忠市盐池县S202",
        "tel": "",
        "category": "基础设施:公共设施:公共厕所",
        "type": 0,
        "location": {
            "lat": 37.998118,
            "lng": 107.045147
        },
        "ad_info": {
            "adcode": 640323,
            "province": "宁夏回族自治区",
            "city": "吴忠市",
            "district": "盐池县"
        }
    },
    {
        "id": "13358143012658493903",
        "title": "公共厕所",
        "address": "宁夏回族自治区吴忠市盐池县东顺路与盐惠线交叉口正西方向413米左右",
        "tel": "",
        "category": "基础设施:公共设施:公共厕所",
        "type": 0,
        "location": {
            "lat": 37.757732,
            "lng": 107.382509
        },
        "ad_info": {
            "adcode": 640323,
            "province": "宁夏回族自治区",
            "city": "吴忠市",
            "district": "盐池县"
        }
    },
    {
        "id": "11162935980097202757",
        "title": "旅游厕所",
        "address": "宁夏回族自治区吴忠市青铜峡市G109",
        "tel": "",
        "category": "基础设施:公共设施:公共厕所",
        "type": 0,
        "location": {
            "lat": 37.940297,
            "lng": 105.999126
        },
        "ad_info": {
            "adcode": 640381,
            "province": "宁夏回族自治区",
            "city": "吴忠市",
            "district": "青铜峡市"
        }
    },
    {
        "id": "5034747247718660642",
        "title": "公共厕所",
        "address": "宁夏回族自治区吴忠市盐池县中国石油盐池汽车城加油加气站南侧170米",
        "tel": "",
        "category": "基础设施:公共设施:公共厕所",
        "type": 0,
        "location": {
            "lat": 37.796412,
            "lng": 107.410979
        },
        "ad_info": {
            "adcode": 640323,
            "province": "宁夏回族自治区",
            "city": "吴忠市",
            "district": "盐池县"
        }
    },
    {
        "id": "14079679303596013939",
        "title": "公共厕所",
        "address": "宁夏回族自治区吴忠市青铜峡市瞿靖东路与集市街交叉口正西方向122米左右",
        "tel": "",
        "category": "基础设施:公共设施:公共厕所",
        "type": 0,
        "location": {
            "lat": 38.08328,
            "lng": 106.055268
        },
        "ad_info": {
            "adcode": 640381,
            "province": "宁夏回族自治区",
            "city": "吴忠市",
            "district": "青铜峡市"
        }
    },
    {
        "id": "12492091877613394825",
        "title": "蔡家梁服务区公共厕所",
        "address": "宁夏回族自治区吴忠市盐池县青银高速",
        "tel": "",
        "category": "基础设施:公共设施:公共厕所",
        "type": 0,
        "location": {
            "lat": 38.074421,
            "lng": 106.961205
        },
        "ad_info": {
            "adcode": 640323,
            "province": "宁夏回族自治区",
            "city": "吴忠市",
            "district": "盐池县"
        }
    },
    {
        "id": "7021245718680812858",
        "title": "酸枣林停车区公共厕所",
        "address": "宁夏回族自治区吴忠市红寺堡区酸枣林停车区与G2012定武高速交叉口东南50米",
        "tel": "",
        "category": "基础设施:公共设施:公共厕所",
        "type": 0,
        "location": {
            "lat": 37.509116,
            "lng": 106.370636
        },
        "ad_info": {
            "adcode": 640303,
            "province": "宁夏回族自治区",
            "city": "吴忠市",
            "district": "红寺堡区"
        }
    },
    {
        "id": "16875588015977542308",
        "title": "风电园停车区公共厕所",
        "address": "宁夏回族自治区吴忠市红寺堡区风电园停车区与G2012定武高速交叉口东北60米",
        "tel": "",
        "category": "基础设施:公共设施:公共厕所",
        "type": 0,
        "location": {
            "lat": 37.542852,
            "lng": 106.594943
        },
        "ad_info": {
            "adcode": 640303,
            "province": "宁夏回族自治区",
            "city": "吴忠市",
            "district": "红寺堡区"
        }
    },
    {
        "id": "8082995303887541483",
        "title": "公共厕所",
        "address": "宁夏回族自治区吴忠市盐池县盐州南路与文化街交叉口北80米",
        "tel": "",
        "category": "基础设施:公共设施:公共厕所",
        "type": 0,
        "location": {
            "lat": 37.781396,
            "lng": 107.40372
        },
        "ad_info": {
            "adcode": 640323,
            "province": "宁夏回族自治区",
            "city": "吴忠市",
            "district": "盐池县"
        }
    },
    {
        "id": "14987042911786466214",
        "title": "红寺堡停车区公共厕所",
        "address": "宁夏回族自治区吴忠市红寺堡区G2012定武高速与红寺堡停车区交叉口西北340米",
        "tel": "",
        "category": "基础设施:公共设施:公共厕所",
        "type": 0,
        "location": {
            "lat": 37.466375,
            "lng": 106.065532
        },
        "ad_info": {
            "adcode": 640303,
            "province": "宁夏回族自治区",
            "city": "吴忠市",
            "district": "红寺堡区"
        }
    },
    {
        "id": "5531953428402992510",
        "title": "公共厕所",
        "address": "宁夏回族自治区吴忠市利通区文卫北街与文卫南街交叉口正北方向42米左右",
        "tel": "",
        "category": "基础设施:公共设施:公共厕所",
        "type": 0,
        "location": {
            "lat": 37.983535,
            "lng": 106.209985
        },
        "ad_info": {
            "adcode": 640302,
            "province": "宁夏回族自治区",
            "city": "吴忠市",
            "district": "利通区"
        }
    },
    {
        "id": "11846507703268924643",
        "title": "公共厕所",
        "address": "宁夏回族自治区吴忠市盐池县民族西街与福州北路交叉口正北方向192米左右",
        "tel": "",
        "category": "基础设施:公共设施:公共厕所",
        "type": 0,
        "location": {
            "lat": 37.793225,
            "lng": 107.40446
        },
        "ad_info": {
            "adcode": 640323,
            "province": "宁夏回族自治区",
            "city": "吴忠市",
            "district": "盐池县"
        }
    },
    {
        "id": "6404781624065644221",
        "title": "公共厕所",
        "address": "宁夏回族自治区吴忠市盐池县兴武南路与花马池西街交叉口正东方向70米左右",
        "tel": "",
        "category": "基础设施:公共设施:公共厕所",
        "type": 0,
        "location": {
            "lat": 37.799303,
            "lng": 107.37709
        },
        "ad_info": {
            "adcode": 640323,
            "province": "宁夏回族自治区",
            "city": "吴忠市",
            "district": "盐池县"
        }
    },
    {
        "id": "6610209304254751526",
        "title": "公共厕所",
        "address": "宁夏回族自治区吴忠市利通区江南路与纬三路(东)交叉口北80米",
        "tel": "",
        "category": "基础设施:公共设施:公共厕所",
        "type": 0,
        "location": {
            "lat": 37.956795,
            "lng": 106.153241
        },
        "ad_info": {
            "adcode": 640302,
            "province": "宁夏回族自治区",
            "city": "吴忠市",
            "district": "利通区"
        }
    },
    {
        "id": "8982496451475498774",
        "title": "公共厕所",
        "address": "宁夏回族自治区吴忠市利通区富平南街与致远巷交叉口东南方向162米左右",
        "tel": "",
        "category": "基础设施:公共设施:公共厕所",
        "type": 0,
        "location": {
            "lat": 37.972153,
            "lng": 106.186979
        },
        "ad_info": {
            "adcode": 640302,
            "province": "宁夏回族自治区",
            "city": "吴忠市",
            "district": "利通区"
        }
    },
    {
        "id": "5295384644650112398",
        "title": "公共厕所",
        "address": "宁夏回族自治区吴忠市利通区瓦渠路碧水明珠",
        "tel": "",
        "category": "基础设施:公共设施:公共厕所",
        "type": 0,
        "location": {
            "lat": 37.984465,
            "lng": 106.165956
        },
        "ad_info": {
            "adcode": 640302,
            "province": "宁夏回族自治区",
            "city": "吴忠市",
            "district": "利通区"
        }
    },
    {
        "id": "1545535033228592583",
        "title": "公共厕所",
        "address": "宁夏回族自治区吴忠市利通区吴灵西路吴忠市第三中学",
        "tel": "",
        "category": "基础设施:公共设施:公共厕所",
        "type": 0,
        "location": {
            "lat": 37.991055,
            "lng": 106.179309
        },
        "ad_info": {
            "adcode": 640302,
            "province": "宁夏回族自治区",
            "city": "吴忠市",
            "district": "利通区"
        }
    },
    {
        "id": "12543335137666495656",
        "title": "公共厕所",
        "address": "宁夏回族自治区吴忠市利通区光明巷与福宁东路交叉口正北方向334米左右",
        "tel": "",
        "category": "基础设施:公共设施:公共厕所",
        "type": 0,
        "location": {
            "lat": 37.971177,
            "lng": 106.202534
        },
        "ad_info": {
            "adcode": 640302,
            "province": "宁夏回族自治区",
            "city": "吴忠市",
            "district": "利通区"
        }
    },
    {
        "id": "835634564251969070",
        "title": "公共厕所",
        "address": "宁夏回族自治区吴忠市盐池县南苑新村1",
        "tel": "",
        "category": "基础设施:公共设施:公共厕所",
        "type": 0,
        "location": {
            "lat": 37.781168,
            "lng": 107.36972
        },
        "ad_info": {
            "adcode": 640323,
            "province": "宁夏回族自治区",
            "city": "吴忠市",
            "district": "盐池县"
        }
    },
    {
        "id": "13606530243597976515",
        "title": "公共厕所",
        "address": "宁夏回族自治区吴忠市利通区清静街与黄河路交叉口西南方向211米左右",
        "tel": "",
        "category": "基础设施:公共设施:公共厕所",
        "type": 0,
        "location": {
            "lat": 37.98074,
            "lng": 106.163675
        },
        "ad_info": {
            "adcode": 640302,
            "province": "宁夏回族自治区",
            "city": "吴忠市",
            "district": "利通区"
        }
    },
    {
        "id": "15513177955662652491",
        "title": "公共厕所",
        "address": "宁夏回族自治区吴忠市盐池县S202",
        "tel": "",
        "category": "基础设施:公共设施:公共厕所",
        "type": 0,
        "location": {
            "lat": 37.998118,
            "lng": 107.045147
        },
        "ad_info": {
            "adcode": 640323,
            "province": "宁夏回族自治区",
            "city": "吴忠市",
            "district": "盐池县"
        }
    },
    {
        "id": "13358143012658493903",
        "title": "公共厕所",
        "address": "宁夏回族自治区吴忠市盐池县东顺路与盐惠线交叉口正西方向413米左右",
        "tel": "",
        "category": "基础设施:公共设施:公共厕所",
        "type": 0,
        "location": {
            "lat": 37.757732,
            "lng": 107.382509
        },
        "ad_info": {
            "adcode": 640323,
            "province": "宁夏回族自治区",
            "city": "吴忠市",
            "district": "盐池县"
        }
    },
    {
        "id": "11162935980097202757",
        "title": "旅游厕所",
        "address": "宁夏回族自治区吴忠市青铜峡市G109",
        "tel": "",
        "category": "基础设施:公共设施:公共厕所",
        "type": 0,
        "location": {
            "lat": 37.940297,
            "lng": 105.999126
        },
        "ad_info": {
            "adcode": 640381,
            "province": "宁夏回族自治区",
            "city": "吴忠市",
            "district": "青铜峡市"
        }
    },
    {
        "id": "5034747247718660642",
        "title": "公共厕所",
        "address": "宁夏回族自治区吴忠市盐池县中国石油盐池汽车城加油加气站南侧170米",
        "tel": "",
        "category": "基础设施:公共设施:公共厕所",
        "type": 0,
        "location": {
            "lat": 37.796412,
            "lng": 107.410979
        },
        "ad_info": {
            "adcode": 640323,
            "province": "宁夏回族自治区",
            "city": "吴忠市",
            "district": "盐池县"
        }
    },
    {
        "id": "14079679303596013939",
        "title": "公共厕所",
        "address": "宁夏回族自治区吴忠市青铜峡市瞿靖东路与集市街交叉口正西方向122米左右",
        "tel": "",
        "category": "基础设施:公共设施:公共厕所",
        "type": 0,
        "location": {
            "lat": 38.08328,
            "lng": 106.055268
        },
        "ad_info": {
            "adcode": 640381,
            "province": "宁夏回族自治区",
            "city": "吴忠市",
            "district": "青铜峡市"
        }
    },
    {
        "id": "12492091877613394825",
        "title": "蔡家梁服务区公共厕所",
        "address": "宁夏回族自治区吴忠市盐池县青银高速",
        "tel": "",
        "category": "基础设施:公共设施:公共厕所",
        "type": 0,
        "location": {
            "lat": 38.074421,
            "lng": 106.961205
        },
        "ad_info": {
            "adcode": 640323,
            "province": "宁夏回族自治区",
            "city": "吴忠市",
            "district": "盐池县"
        }
    },
    {
        "id": "7021245718680812858",
        "title": "酸枣林停车区公共厕所",
        "address": "宁夏回族自治区吴忠市红寺堡区酸枣林停车区与G2012定武高速交叉口东南50米",
        "tel": "",
        "category": "基础设施:公共设施:公共厕所",
        "type": 0,
        "location": {
            "lat": 37.509116,
            "lng": 106.370636
        },
        "ad_info": {
            "adcode": 640303,
            "province": "宁夏回族自治区",
            "city": "吴忠市",
            "district": "红寺堡区"
        }
    },
    {
        "id": "16875588015977542308",
        "title": "风电园停车区公共厕所",
        "address": "宁夏回族自治区吴忠市红寺堡区风电园停车区与G2012定武高速交叉口东北60米",
        "tel": "",
        "category": "基础设施:公共设施:公共厕所",
        "type": 0,
        "location": {
            "lat": 37.542852,
            "lng": 106.594943
        },
        "ad_info": {
            "adcode": 640303,
            "province": "宁夏回族自治区",
            "city": "吴忠市",
            "district": "红寺堡区"
        }
    },
    {
        "id": "8082995303887541483",
        "title": "公共厕所",
        "address": "宁夏回族自治区吴忠市盐池县盐州南路与文化街交叉口北80米",
        "tel": "",
        "category": "基础设施:公共设施:公共厕所",
        "type": 0,
        "location": {
            "lat": 37.781396,
            "lng": 107.40372
        },
        "ad_info": {
            "adcode": 640323,
            "province": "宁夏回族自治区",
            "city": "吴忠市",
            "district": "盐池县"
        }
    },
    {
        "id": "14987042911786466214",
        "title": "红寺堡停车区公共厕所",
        "address": "宁夏回族自治区吴忠市红寺堡区G2012定武高速与红寺堡停车区交叉口西北340米",
        "tel": "",
        "category": "基础设施:公共设施:公共厕所",
        "type": 0,
        "location": {
            "lat": 37.466375,
            "lng": 106.065532
        },
        "ad_info": {
            "adcode": 640303,
            "province": "宁夏回族自治区",
            "city": "吴忠市",
            "district": "红寺堡区"
        }
    },
    {
        "id": "5531953428402992510",
        "title": "公共厕所",
        "address": "宁夏回族自治区吴忠市利通区文卫北街与文卫南街交叉口正北方向42米左右",
        "tel": "",
        "category": "基础设施:公共设施:公共厕所",
        "type": 0,
        "location": {
            "lat": 37.983535,
            "lng": 106.209985
        },
        "ad_info": {
            "adcode": 640302,
            "province": "宁夏回族自治区",
            "city": "吴忠市",
            "district": "利通区"
        }
    },
    {
        "id": "11846507703268924643",
        "title": "公共厕所",
        "address": "宁夏回族自治区吴忠市盐池县民族西街与福州北路交叉口正北方向192米左右",
        "tel": "",
        "category": "基础设施:公共设施:公共厕所",
        "type": 0,
        "location": {
            "lat": 37.793225,
            "lng": 107.40446
        },
        "ad_info": {
            "adcode": 640323,
            "province": "宁夏回族自治区",
            "city": "吴忠市",
            "district": "盐池县"
        }
    }
]