[
    {
        "id": "4705074621918288378",
        "title": "公共厕所",
        "address": "内蒙古自治区呼伦贝尔市海拉尔区环卫二路与福利二街交叉口正南方向49米左右",
        "tel": "",
        "category": "基础设施:公共设施:公共厕所",
        "type": 0,
        "location": {
            "lat": 49.19721,
            "lng": 119.73641
        },
        "ad_info": {
            "adcode": 150702,
            "province": "内蒙古自治区",
            "city": "呼伦贝尔市",
            "district": "海拉尔区"
        }
    },
    {
        "id": "2060575863452502693",
        "title": "公共厕所",
        "address": "内蒙古自治区呼伦贝尔市海拉尔区陵园街18号",
        "tel": "",
        "category": "基础设施:公共设施:公共厕所",
        "type": 0,
        "location": {
            "lat": 49.221031,
            "lng": 119.740964
        },
        "ad_info": {
            "adcode": 150702,
            "province": "内蒙古自治区",
            "city": "呼伦贝尔市",
            "district": "海拉尔区"
        }
    },
    {
        "id": "2995176007180314819",
        "title": "公共厕所",
        "address": "内蒙古自治区呼伦贝尔市海拉尔区胜利街小学(东校区)西北侧150米",
        "tel": "",
        "category": "基础设施:公共设施:公共厕所",
        "type": 0,
        "location": {
            "lat": 49.217119,
            "lng": 119.781872
        },
        "ad_info": {
            "adcode": 150702,
            "province": "内蒙古自治区",
            "city": "呼伦贝尔市",
            "district": "海拉尔区"
        }
    },
    {
        "id": "1384619379071403938",
        "title": "公共厕所",
        "address": "内蒙古自治区呼伦贝尔市海拉尔区向阳街与杜鹃路交叉口正西方向35米左右",
        "tel": "",
        "category": "基础设施:公共设施:公共厕所",
        "type": 0,
        "location": {
            "lat": 49.216754,
            "lng": 119.745673
        },
        "ad_info": {
            "adcode": 150702,
            "province": "内蒙古自治区",
            "city": "呼伦贝尔市",
            "district": "海拉尔区"
        }
    },
    {
        "id": "10457272330229123475",
        "title": "公共厕所",
        "address": "内蒙古自治区呼伦贝尔市海拉尔区天桥西街与成吉思汗中路交叉口正西方向300米左右",
        "tel": "",
        "category": "基础设施:公共设施:公共厕所",
        "type": 0,
        "location": {
            "lat": 49.200117,
            "lng": 119.771798
        },
        "ad_info": {
            "adcode": 150702,
            "province": "内蒙古自治区",
            "city": "呼伦贝尔市",
            "district": "海拉尔区"
        }
    },
    {
        "id": "5137058987960062891",
        "title": "公共厕所",
        "address": "内蒙古自治区呼伦贝尔市海拉尔区G301与海通一路交叉口东南方向105米左右",
        "tel": "",
        "category": "基础设施:公共设施:公共厕所",
        "type": 0,
        "location": {
            "lat": 49.259693,
            "lng": 119.897792
        },
        "ad_info": {
            "adcode": 150702,
            "province": "内蒙古自治区",
            "city": "呼伦贝尔市",
            "district": "海拉尔区"
        }
    },
    {
        "id": "10524435334488410396",
        "title": "公共厕所",
        "address": "内蒙古自治区呼伦贝尔市海拉尔区新村五道街与新村路交叉口正西方向389米左右",
        "tel": "",
        "category": "基础设施:公共设施:公共厕所",
        "type": 0,
        "location": {
            "lat": 49.225674,
            "lng": 119.72314
        },
        "ad_info": {
            "adcode": 150702,
            "province": "内蒙古自治区",
            "city": "呼伦贝尔市",
            "district": "海拉尔区"
        }
    },
    {
        "id": "735059863758823037",
        "title": "公共厕所(伊仕丹购物广场)",
        "address": "内蒙古自治区呼伦贝尔市海拉尔区桥头街11号伊仕丹购物广场F3",
        "tel": "",
        "category": "基础设施:公共设施:公共厕所",
        "type": 0,
        "location": {
            "lat": 49.213119,
            "lng": 119.74776
        },
        "ad_info": {
            "adcode": 150702,
            "province": "内蒙古自治区",
            "city": "呼伦贝尔市",
            "district": "海拉尔区"
        }
    },
    {
        "id": "13044009498595997007",
        "title": "公共厕所",
        "address": "内蒙古自治区呼伦贝尔市海拉尔区新村三道街与铁路四道街交叉口北180米",
        "tel": "",
        "category": "基础设施:公共设施:公共厕所",
        "type": 0,
        "location": {
            "lat": 49.233177,
            "lng": 119.729415
        },
        "ad_info": {
            "adcode": 150702,
            "province": "内蒙古自治区",
            "city": "呼伦贝尔市",
            "district": "海拉尔区"
        }
    },
    {
        "id": "994728914831477523",
        "title": "公共厕所",
        "address": "内蒙古自治区呼伦贝尔市海拉尔区新村三道街与铁路四道街交叉口正北方向633米左右",
        "tel": "",
        "category": "基础设施:公共设施:公共厕所",
        "type": 0,
        "location": {
            "lat": 49.237325,
            "lng": 119.728647
        },
        "ad_info": {
            "adcode": 150702,
            "province": "内蒙古自治区",
            "city": "呼伦贝尔市",
            "district": "海拉尔区"
        }
    },
    {
        "id": "6656101438482160259",
        "title": "公共厕所",
        "address": "内蒙古自治区呼伦贝尔市陈巴尔虎旗双拥路与呼伦街交叉口正南方向119米左右",
        "tel": "",
        "category": "基础设施:公共设施:公共厕所",
        "type": 0,
        "location": {
            "lat": 49.330184,
            "lng": 119.431091
        },
        "ad_info": {
            "adcode": 150725,
            "province": "内蒙古自治区",
            "city": "呼伦贝尔市",
            "district": "陈巴尔虎旗"
        }
    },
    {
        "id": "5138165863365034194",
        "title": "公共厕所",
        "address": "内蒙古自治区呼伦贝尔市海拉尔区国安物流东侧390米",
        "tel": "",
        "category": "基础设施:公共设施:公共厕所",
        "type": 0,
        "location": {
            "lat": 49.259392,
            "lng": 119.800754
        },
        "ad_info": {
            "adcode": 150702,
            "province": "内蒙古自治区",
            "city": "呼伦贝尔市",
            "district": "海拉尔区"
        }
    },
    {
        "id": "7759918759545760340",
        "title": "公共厕所",
        "address": "内蒙古自治区呼伦贝尔市海拉尔区中央北路与呼伦大街交叉口正南方向82米左右",
        "tel": "",
        "category": "基础设施:公共设施:公共厕所",
        "type": 0,
        "location": {
            "lat": 49.229123,
            "lng": 119.752337
        },
        "ad_info": {
            "adcode": 150702,
            "province": "内蒙古自治区",
            "city": "呼伦贝尔市",
            "district": "海拉尔区"
        }
    },
    {
        "id": "4133460454780089722",
        "title": "公共厕所",
        "address": "内蒙古自治区呼伦贝尔市额尔古纳市哈撒尔路与奋斗街交叉口东南方向98米左右",
        "tel": "",
        "category": "基础设施:公共设施:公共厕所",
        "type": 0,
        "location": {
            "lat": 50.23581,
            "lng": 120.180239
        },
        "ad_info": {
            "adcode": 150784,
            "province": "内蒙古自治区",
            "city": "呼伦贝尔市",
            "district": "额尔古纳市"
        }
    },
    {
        "id": "3560535812962884519",
        "title": "公共厕所",
        "address": "内蒙古自治区呼伦贝尔市海拉尔区Y002与巴尔虎西路交叉口正北方向357米左右",
        "tel": "",
        "category": "基础设施:公共设施:公共厕所",
        "type": 0,
        "location": {
            "lat": 49.222588,
            "lng": 119.724794
        },
        "ad_info": {
            "adcode": 150702,
            "province": "内蒙古自治区",
            "city": "呼伦贝尔市",
            "district": "海拉尔区"
        }
    },
    {
        "id": "3660311899142365625",
        "title": "公共厕所",
        "address": "内蒙古自治区呼伦贝尔市海拉尔区Y002与巴尔虎西路交叉口正北方向289米左右",
        "tel": "",
        "category": "基础设施:公共设施:公共厕所",
        "type": 0,
        "location": {
            "lat": 49.222019,
            "lng": 119.727578
        },
        "ad_info": {
            "adcode": 150702,
            "province": "内蒙古自治区",
            "city": "呼伦贝尔市",
            "district": "海拉尔区"
        }
    },
    {
        "id": "10290778578902747449",
        "title": "公共厕所",
        "address": "内蒙古自治区呼伦贝尔市鄂温克族自治旗伊敏路与南屯街交叉口正西方向61米左右",
        "tel": "",
        "category": "基础设施:公共设施:公共厕所",
        "type": 0,
        "location": {
            "lat": 49.141838,
            "lng": 119.754532
        },
        "ad_info": {
            "adcode": 150724,
            "province": "内蒙古自治区",
            "city": "呼伦贝尔市",
            "district": "鄂温克族自治旗"
        }
    },
    {
        "id": "8435470126879021871",
        "title": "公共厕所",
        "address": "内蒙古自治区呼伦贝尔市扎赉诺尔区波海浴池西南侧260米",
        "tel": "",
        "category": "基础设施:公共设施:公共厕所",
        "type": 0,
        "location": {
            "lat": 49.459407,
            "lng": 117.677224
        },
        "ad_info": {
            "adcode": 150703,
            "province": "内蒙古自治区",
            "city": "呼伦贝尔市",
            "district": "扎赉诺尔区"
        }
    },
    {
        "id": "12741109529624676548",
        "title": "公共厕所",
        "address": "内蒙古自治区呼伦贝尔市海拉尔区互助六路与雄风大道交叉口正东方向145米左右",
        "tel": "",
        "category": "基础设施:公共设施:公共厕所",
        "type": 0,
        "location": {
            "lat": 49.255807,
            "lng": 119.921472
        },
        "ad_info": {
            "adcode": 150702,
            "province": "内蒙古自治区",
            "city": "呼伦贝尔市",
            "district": "海拉尔区"
        }
    },
    {
        "id": "4106414783203174605",
        "title": "公共厕所",
        "address": "内蒙古自治区呼伦贝尔市海拉尔区新村二道街与新村路交叉口正东方向73米左右",
        "tel": "",
        "category": "基础设施:公共设施:公共厕所",
        "type": 0,
        "location": {
            "lat": 49.226412,
            "lng": 119.732175
        },
        "ad_info": {
            "adcode": 150702,
            "province": "内蒙古自治区",
            "city": "呼伦贝尔市",
            "district": "海拉尔区"
        }
    },
    {
        "id": "16743539295284698358",
        "title": "公共厕所",
        "address": "内蒙古自治区呼伦贝尔市扎兰屯市建设路与新桥街交叉口西北方向171米左右",
        "tel": "",
        "category": "基础设施:公共设施:公共厕所",
        "type": 0,
        "location": {
            "lat": 47.99819,
            "lng": 122.751371
        },
        "ad_info": {
            "adcode": 150783,
            "province": "内蒙古自治区",
            "city": "呼伦贝尔市",
            "district": "扎兰屯市"
        }
    },
    {
        "id": "16255823920000400075",
        "title": "成吉思汗广场公共厕所",
        "address": "内蒙古自治区呼伦贝尔市海拉尔区乌尔逊路成吉思汗广场(东北角)",
        "tel": "",
        "category": "基础设施:公共设施:公共厕所",
        "type": 0,
        "location": {
            "lat": 49.208969,
            "lng": 119.773837
        },
        "ad_info": {
            "adcode": 150702,
            "province": "内蒙古自治区",
            "city": "呼伦贝尔市",
            "district": "海拉尔区"
        }
    },
    {
        "id": "13637231378583365740",
        "title": "公共厕所",
        "address": "内蒙古自治区呼伦贝尔市莫力达瓦达斡尔族自治旗尔河石油加油站(华达奇村)西侧170米",
        "tel": "",
        "category": "基础设施:公共设施:公共厕所",
        "type": 0,
        "location": {
            "lat": 49.206299,
            "lng": 125.103641
        },
        "ad_info": {
            "adcode": 150722,
            "province": "内蒙古自治区",
            "city": "呼伦贝尔市",
            "district": "莫力达瓦达斡尔族自治旗"
        }
    },
    {
        "id": "16455473318751322220",
        "title": "公共厕所",
        "address": "内蒙古自治区呼伦贝尔市根河市兴安路与林海街交叉口东南方向26米左右",
        "tel": "",
        "category": "基础设施:公共设施:公共厕所",
        "type": 0,
        "location": {
            "lat": 50.778192,
            "lng": 121.537385
        },
        "ad_info": {
            "adcode": 150785,
            "province": "内蒙古自治区",
            "city": "呼伦贝尔市",
            "district": "根河市"
        }
    },
    {
        "id": "123347810328457261",
        "title": "公共厕所",
        "address": "内蒙古自治区呼伦贝尔市鄂伦春自治旗天顺洗车行对面",
        "tel": "",
        "category": "基础设施:公共设施:公共厕所",
        "type": 0,
        "location": {
            "lat": 49.709617,
            "lng": 124.643056
        },
        "ad_info": {
            "adcode": 150723,
            "province": "内蒙古自治区",
            "city": "呼伦贝尔市",
            "district": "鄂伦春自治旗"
        }
    },
    {
        "id": "3391597981604648121",
        "title": "公共厕所",
        "address": "内蒙古自治区呼伦贝尔市莫力达瓦达斡尔族自治旗杜拉尔街与爱晖北路交叉口正南方向25米左右",
        "tel": "",
        "category": "基础设施:公共设施:公共厕所",
        "type": 0,
        "location": {
            "lat": 48.482549,
            "lng": 124.512617
        },
        "ad_info": {
            "adcode": 150722,
            "province": "内蒙古自治区",
            "city": "呼伦贝尔市",
            "district": "莫力达瓦达斡尔族自治旗"
        }
    },
    {
        "id": "15129911256019584110",
        "title": "公共厕所(库都尔其广场南)",
        "address": "内蒙古自治区呼伦贝尔市鄂伦春自治旗库都尔其广场",
        "tel": "",
        "category": "基础设施:公共设施:公共厕所",
        "type": 0,
        "location": {
            "lat": 50.601721,
            "lng": 123.70482
        },
        "ad_info": {
            "adcode": 150723,
            "province": "内蒙古自治区",
            "city": "呼伦贝尔市",
            "district": "鄂伦春自治旗"
        }
    },
    {
        "id": "7225664891515955135",
        "title": "公共厕所",
        "address": "内蒙古自治区呼伦贝尔市莫力达瓦达斡尔族自治旗博克图路一巷与索日都勒路交叉口东北方向295米左右",
        "tel": "",
        "category": "基础设施:公共设施:公共厕所",
        "type": 0,
        "location": {
            "lat": 48.473678,
            "lng": 124.467013
        },
        "ad_info": {
            "adcode": 150722,
            "province": "内蒙古自治区",
            "city": "呼伦贝尔市",
            "district": "莫力达瓦达斡尔族自治旗"
        }
    },
    {
        "id": "4902052008557082908",
        "title": "公共厕所",
        "address": "内蒙古自治区呼伦贝尔市莫力达瓦达斡尔族自治旗敖拉东街与莫尔根南路交叉口正南方向87米左右",
        "tel": "",
        "category": "基础设施:公共设施:公共厕所",
        "type": 0,
        "location": {
            "lat": 48.477055,
            "lng": 124.511326
        },
        "ad_info": {
            "adcode": 150722,
            "province": "内蒙古自治区",
            "city": "呼伦贝尔市",
            "district": "莫力达瓦达斡尔族自治旗"
        }
    },
    {
        "id": "11159306269492666032",
        "title": "公共厕所",
        "address": "内蒙古自治区呼伦贝尔市海拉尔区兴安西街与文化街交叉口西南方向328米左右",
        "tel": "",
        "category": "基础设施:公共设施:公共厕所",
        "type": 0,
        "location": {
            "lat": 49.213583,
            "lng": 119.73346
        },
        "ad_info": {
            "adcode": 150702,
            "province": "内蒙古自治区",
            "city": "呼伦贝尔市",
            "district": "海拉尔区"
        }
    },
    {
        "id": "15878423879031537133",
        "title": "公共厕所",
        "address": "内蒙古自治区呼伦贝尔市新巴尔虎左旗甘珠尔路与罕达盖街交叉口东北方向73米左右",
        "tel": "",
        "category": "基础设施:公共设施:公共厕所",
        "type": 0,
        "location": {
            "lat": 48.212317,
            "lng": 118.263515
        },
        "ad_info": {
            "adcode": 150726,
            "province": "内蒙古自治区",
            "city": "呼伦贝尔市",
            "district": "新巴尔虎左旗"
        }
    },
    {
        "id": "9687013592389058620",
        "title": "公共厕所",
        "address": "内蒙古自治区呼伦贝尔市莫力达瓦达斡尔族自治旗纳文大街南50米",
        "tel": "",
        "category": "基础设施:公共设施:公共厕所",
        "type": 0,
        "location": {
            "lat": 49.286563,
            "lng": 125.185574
        },
        "ad_info": {
            "adcode": 150722,
            "province": "内蒙古自治区",
            "city": "呼伦贝尔市",
            "district": "莫力达瓦达斡尔族自治旗"
        }
    },
    {
        "id": "2889239843350181658",
        "title": "公共厕所",
        "address": "内蒙古自治区呼伦贝尔市牙克石市康乐东街与康乐西街交叉口西北方向24米左右",
        "tel": "",
        "category": "基础设施:公共设施:公共厕所",
        "type": 0,
        "location": {
            "lat": 49.291144,
            "lng": 120.736364
        },
        "ad_info": {
            "adcode": 150782,
            "province": "内蒙古自治区",
            "city": "呼伦贝尔市",
            "district": "牙克石市"
        }
    },
    {
        "id": "5768187797663665898",
        "title": "公共厕所",
        "address": "内蒙古自治区呼伦贝尔市新巴尔虎左旗G331与罕达盖停车观光区交叉口正南方向1686米左右",
        "tel": "",
        "category": "基础设施:公共设施:公共厕所",
        "type": 0,
        "location": {
            "lat": 47.473413,
            "lng": 119.440821
        },
        "ad_info": {
            "adcode": 150726,
            "province": "内蒙古自治区",
            "city": "呼伦贝尔市",
            "district": "新巴尔虎左旗"
        }
    },
    {
        "id": "14816934309066900937",
        "title": "公共厕所",
        "address": "内蒙古自治区呼伦贝尔市额尔古纳市G331与中央街交叉口正东方向153米左右",
        "tel": "",
        "category": "基础设施:公共设施:公共厕所",
        "type": 0,
        "location": {
            "lat": 50.214329,
            "lng": 119.571721
        },
        "ad_info": {
            "adcode": 150784,
            "province": "内蒙古自治区",
            "city": "呼伦贝尔市",
            "district": "额尔古纳市"
        }
    },
    {
        "id": "8939934785672289939",
        "title": "公共厕所",
        "address": "内蒙古自治区呼伦贝尔市扎兰屯市立新街与葛根路交叉口东北方向128米左右",
        "tel": "",
        "category": "基础设施:公共设施:公共厕所",
        "type": 0,
        "location": {
            "lat": 47.996005,
            "lng": 122.740806
        },
        "ad_info": {
            "adcode": 150783,
            "province": "内蒙古自治区",
            "city": "呼伦贝尔市",
            "district": "扎兰屯市"
        }
    },
    {
        "id": "7950455168489380183",
        "title": "公共厕所",
        "address": "内蒙古自治区呼伦贝尔市扎兰屯市中东铁路工业遗产文化街区",
        "tel": "",
        "category": "基础设施:公共设施:公共厕所",
        "type": 0,
        "location": {
            "lat": 48.019653,
            "lng": 122.738582
        },
        "ad_info": {
            "adcode": 150783,
            "province": "内蒙古自治区",
            "city": "呼伦贝尔市",
            "district": "扎兰屯市"
        }
    },
    {
        "id": "9795176658357195488",
        "title": "夜色公共厕所",
        "address": "内蒙古自治区呼伦贝尔市海拉尔区兴华路与滨河西路交叉口正北方向66米左右",
        "tel": "",
        "category": "基础设施:公共设施:公共厕所",
        "type": 0,
        "location": {
            "lat": 49.221294,
            "lng": 119.752233
        },
        "ad_info": {
            "adcode": 150702,
            "province": "内蒙古自治区",
            "city": "呼伦贝尔市",
            "district": "海拉尔区"
        }
    },
    {
        "id": "12211835575928452442",
        "title": "公共厕所",
        "address": "内蒙古自治区呼伦贝尔市鄂温克族自治旗兴华路与雁安街交叉口东南方向224米左右",
        "tel": "",
        "category": "基础设施:公共设施:公共厕所",
        "type": 0,
        "location": {
            "lat": 49.244258,
            "lng": 120.585625
        },
        "ad_info": {
            "adcode": 150724,
            "province": "内蒙古自治区",
            "city": "呼伦贝尔市",
            "district": "鄂温克族自治旗"
        }
    },
    {
        "id": "18144398343064979209",
        "title": "公共厕所",
        "address": "内蒙古自治区呼伦贝尔市莫力达瓦达斡尔族自治旗东环城路与莫日登东街交叉口正东方向35米左右",
        "tel": "",
        "category": "基础设施:公共设施:公共厕所",
        "type": 0,
        "location": {
            "lat": 48.48102,
            "lng": 124.516005
        },
        "ad_info": {
            "adcode": 150722,
            "province": "内蒙古自治区",
            "city": "呼伦贝尔市",
            "district": "莫力达瓦达斡尔族自治旗"
        }
    },
    {
        "id": "8249706341729751337",
        "title": "公共厕所",
        "address": "内蒙古自治区呼伦贝尔市莫力达瓦达斡尔族自治旗布西街与诺敏南路交叉口东北方向74米左右",
        "tel": "",
        "category": "基础设施:公共设施:公共厕所",
        "type": 0,
        "location": {
            "lat": 48.470956,
            "lng": 124.512619
        },
        "ad_info": {
            "adcode": 150722,
            "province": "内蒙古自治区",
            "city": "呼伦贝尔市",
            "district": "莫力达瓦达斡尔族自治旗"
        }
    },
    {
        "id": "11172467203932740858",
        "title": "公共厕所",
        "address": "内蒙古自治区呼伦贝尔市莫力达瓦达斡尔族自治旗爱晖北路与莫日登东街交叉口东北方向23米左右",
        "tel": "",
        "category": "基础设施:公共设施:公共厕所",
        "type": 0,
        "location": {
            "lat": 48.480768,
            "lng": 124.51377
        },
        "ad_info": {
            "adcode": 150722,
            "province": "内蒙古自治区",
            "city": "呼伦贝尔市",
            "district": "莫力达瓦达斡尔族自治旗"
        }
    },
    {
        "id": "1835643544291950960",
        "title": "公共厕所",
        "address": "内蒙古自治区呼伦贝尔市额尔古纳市国家湿地公园东北侧220米",
        "tel": "",
        "category": "基础设施:公共设施:公共厕所",
        "type": 0,
        "location": {
            "lat": 50.361605,
            "lng": 120.416932
        },
        "ad_info": {
            "adcode": 150784,
            "province": "内蒙古自治区",
            "city": "呼伦贝尔市",
            "district": "额尔古纳市"
        }
    },
    {
        "id": "12089228221067119711",
        "title": "公共厕所",
        "address": "内蒙古自治区呼伦贝尔市扎兰屯市成吉思汗路与朝阳街交叉口西南方向77米左右",
        "tel": "",
        "category": "基础设施:公共设施:公共厕所",
        "type": 0,
        "location": {
            "lat": 47.989498,
            "lng": 122.746922
        },
        "ad_info": {
            "adcode": 150783,
            "province": "内蒙古自治区",
            "city": "呼伦贝尔市",
            "district": "扎兰屯市"
        }
    },
    {
        "id": "7045779682026090441",
        "title": "公共厕所",
        "address": "内蒙古自治区呼伦贝尔市扎兰屯市开创大街与旺通路交叉口西北方向808米左右",
        "tel": "",
        "category": "基础设施:公共设施:公共厕所",
        "type": 0,
        "location": {
            "lat": 47.945,
            "lng": 122.811833
        },
        "ad_info": {
            "adcode": 150783,
            "province": "内蒙古自治区",
            "city": "呼伦贝尔市",
            "district": "扎兰屯市"
        }
    },
    {
        "id": "8095620473780063717",
        "title": "公共厕所",
        "address": "内蒙古自治区呼伦贝尔市扎兰屯市向民街与布特哈北路交叉口西南方向73米左右",
        "tel": "",
        "category": "基础设施:公共设施:公共厕所",
        "type": 0,
        "location": {
            "lat": 47.987784,
            "lng": 122.75989
        },
        "ad_info": {
            "adcode": 150783,
            "province": "内蒙古自治区",
            "city": "呼伦贝尔市",
            "district": "扎兰屯市"
        }
    },
    {
        "id": "11202087830986813366",
        "title": "公共厕所",
        "address": "内蒙古自治区呼伦贝尔市扎兰屯市向民街与育林路交叉口东北方向156米左右",
        "tel": "",
        "category": "基础设施:公共设施:公共厕所",
        "type": 0,
        "location": {
            "lat": 47.986375,
            "lng": 122.753991
        },
        "ad_info": {
            "adcode": 150783,
            "province": "内蒙古自治区",
            "city": "呼伦贝尔市",
            "district": "扎兰屯市"
        }
    },
    {
        "id": "4228883612009585497",
        "title": "公共厕所",
        "address": "内蒙古自治区呼伦贝尔市扎兰屯市扎兰路与铁小街交叉口正北方向75米左右",
        "tel": "",
        "category": "基础设施:公共设施:公共厕所",
        "type": 0,
        "location": {
            "lat": 48.019796,
            "lng": 122.740267
        },
        "ad_info": {
            "adcode": 150783,
            "province": "内蒙古自治区",
            "city": "呼伦贝尔市",
            "district": "扎兰屯市"
        }
    },
    {
        "id": "10122871296953434927",
        "title": "公共厕所",
        "address": "内蒙古自治区呼伦贝尔市扎兰屯市G232与X330交叉口东南方向151米左右",
        "tel": "",
        "category": "基础设施:公共设施:公共厕所",
        "type": 0,
        "location": {
            "lat": 47.742897,
            "lng": 122.856746
        },
        "ad_info": {
            "adcode": 150783,
            "province": "内蒙古自治区",
            "city": "呼伦贝尔市",
            "district": "扎兰屯市"
        }
    },
    {
        "id": "14212904559405602659",
        "title": "公共厕所",
        "address": "内蒙古自治区呼伦贝尔市扎兰屯市新桥街与育林路交叉口正北方向28米左右",
        "tel": "",
        "category": "基础设施:公共设施:公共厕所",
        "type": 0,
        "location": {
            "lat": 47.995175,
            "lng": 122.746733
        },
        "ad_info": {
            "adcode": 150783,
            "province": "内蒙古自治区",
            "city": "呼伦贝尔市",
            "district": "扎兰屯市"
        }
    },
    {
        "id": "6091770272308925192",
        "title": "公共厕所",
        "address": "内蒙古自治区呼伦贝尔市扎兰屯市中央北路与松林路交叉口正东方向212米左右",
        "tel": "",
        "category": "基础设施:公共设施:公共厕所",
        "type": 0,
        "location": {
            "lat": 48.023807,
            "lng": 122.737033
        },
        "ad_info": {
            "adcode": 150783,
            "province": "内蒙古自治区",
            "city": "呼伦贝尔市",
            "district": "扎兰屯市"
        }
    },
    {
        "id": "10465571239096820555",
        "title": "公共厕所",
        "address": "内蒙古自治区呼伦贝尔市扎兰屯市立新街与葛根路交叉口正西方向218米左右",
        "tel": "",
        "category": "基础设施:公共设施:公共厕所",
        "type": 0,
        "location": {
            "lat": 47.995663,
            "lng": 122.73667
        },
        "ad_info": {
            "adcode": 150783,
            "province": "内蒙古自治区",
            "city": "呼伦贝尔市",
            "district": "扎兰屯市"
        }
    },
    {
        "id": "2723177704563737625",
        "title": "公共厕所",
        "address": "内蒙古自治区呼伦贝尔市扎兰屯市向民街与布特哈北路交叉口正南方向284米左右",
        "tel": "",
        "category": "基础设施:公共设施:公共厕所",
        "type": 0,
        "location": {
            "lat": 47.985752,
            "lng": 122.761506
        },
        "ad_info": {
            "adcode": 150783,
            "province": "内蒙古自治区",
            "city": "呼伦贝尔市",
            "district": "扎兰屯市"
        }
    },
    {
        "id": "10401133495159181676",
        "title": "公共厕所",
        "address": "内蒙古自治区呼伦贝尔市额尔古纳市天使路与额尔古纳大街交叉口正北方向45米左右",
        "tel": "",
        "category": "基础设施:公共设施:公共厕所",
        "type": 0,
        "location": {
            "lat": 50.242005,
            "lng": 120.169018
        },
        "ad_info": {
            "adcode": 150784,
            "province": "内蒙古自治区",
            "city": "呼伦贝尔市",
            "district": "额尔古纳市"
        }
    },
    {
        "id": "14999248695130724147",
        "title": "公共厕所",
        "address": "内蒙古自治区呼伦贝尔市扎兰屯市G111与X330交叉口正南方向1536米左右",
        "tel": "",
        "category": "基础设施:公共设施:公共厕所",
        "type": 0,
        "location": {
            "lat": 47.745429,
            "lng": 122.621024
        },
        "ad_info": {
            "adcode": 150783,
            "province": "内蒙古自治区",
            "city": "呼伦贝尔市",
            "district": "扎兰屯市"
        }
    },
    {
        "id": "17211844711112158018",
        "title": "公共厕所",
        "address": "内蒙古自治区呼伦贝尔市新巴尔虎右旗宝格德乌拉苏木",
        "tel": "",
        "category": "基础设施:公共设施:公共厕所",
        "type": 0,
        "location": {
            "lat": 48.275804,
            "lng": 117.112251
        },
        "ad_info": {
            "adcode": 150727,
            "province": "内蒙古自治区",
            "city": "呼伦贝尔市",
            "district": "新巴尔虎右旗"
        }
    },
    {
        "id": "14210498314809303350",
        "title": "公共厕所",
        "address": "内蒙古自治区呼伦贝尔市扎兰屯市水塔街与沿铁路交叉口西南方向54米左右",
        "tel": "",
        "category": "基础设施:公共设施:公共厕所",
        "type": 0,
        "location": {
            "lat": 48.01648,
            "lng": 122.743261
        },
        "ad_info": {
            "adcode": 150783,
            "province": "内蒙古自治区",
            "city": "呼伦贝尔市",
            "district": "扎兰屯市"
        }
    },
    {
        "id": "15605925218628787947",
        "title": "公共厕所",
        "address": "内蒙古自治区呼伦贝尔市扎兰屯市塞外步行街与延桥街交叉口正西方向242米左右",
        "tel": "",
        "category": "基础设施:公共设施:公共厕所",
        "type": 0,
        "location": {
            "lat": 48.006006,
            "lng": 122.734989
        },
        "ad_info": {
            "adcode": 150783,
            "province": "内蒙古自治区",
            "city": "呼伦贝尔市",
            "district": "扎兰屯市"
        }
    },
    {
        "id": "16488464125345756968",
        "title": "公共厕所",
        "address": "内蒙古自治区呼伦贝尔市陈巴尔虎旗国有浩特陶海牧场东南侧290米",
        "tel": "",
        "category": "基础设施:公共设施:公共厕所",
        "type": 0,
        "location": {
            "lat": 49.315991,
            "lng": 119.626192
        },
        "ad_info": {
            "adcode": 150725,
            "province": "内蒙古自治区",
            "city": "呼伦贝尔市",
            "district": "陈巴尔虎旗"
        }
    },
    {
        "id": "16921273465251251708",
        "title": "公共厕所(古城步行街)",
        "address": "内蒙古自治区呼伦贝尔市海拉尔区工字路与正阳街交叉口正南方向63米左右",
        "tel": "",
        "category": "基础设施:公共设施:公共厕所",
        "type": 0,
        "location": {
            "lat": 49.208459,
            "lng": 119.745116
        },
        "ad_info": {
            "adcode": 150702,
            "province": "内蒙古自治区",
            "city": "呼伦贝尔市",
            "district": "海拉尔区"
        }
    },
    {
        "id": "1809714847563212209",
        "title": "公共厕所",
        "address": "内蒙古自治区呼伦贝尔市根河市敖鲁古雅路中国石油",
        "tel": "",
        "category": "基础设施:公共设施:公共厕所",
        "type": 0,
        "location": {
            "lat": 50.770801,
            "lng": 121.49779
        },
        "ad_info": {
            "adcode": 150785,
            "province": "内蒙古自治区",
            "city": "呼伦贝尔市",
            "district": "根河市"
        }
    },
    {
        "id": "1192782275239208123",
        "title": "公共厕所",
        "address": "内蒙古自治区呼伦贝尔市扎兰屯市中心路与海霖路交叉口西北60米",
        "tel": "",
        "category": "基础设施:公共设施:公共厕所",
        "type": 0,
        "location": {
            "lat": 47.742738,
            "lng": 122.858379
        },
        "ad_info": {
            "adcode": 150783,
            "province": "内蒙古自治区",
            "city": "呼伦贝尔市",
            "district": "扎兰屯市"
        }
    },
    {
        "id": "3320485826441665815",
        "title": "公共厕所",
        "address": "内蒙古自治区呼伦贝尔市牙克石市302县道东50米",
        "tel": "",
        "category": "基础设施:公共设施:公共厕所",
        "type": 0,
        "location": {
            "lat": 49.592458,
            "lng": 121.401866
        },
        "ad_info": {
            "adcode": 150782,
            "province": "内蒙古自治区",
            "city": "呼伦贝尔市",
            "district": "牙克石市"
        }
    },
    {
        "id": "11924056767871883960",
        "title": "公共厕所",
        "address": "内蒙古自治区呼伦贝尔市额尔古纳市白桦路与额尔古纳大街交叉口正北方向67米左右",
        "tel": "",
        "category": "基础设施:公共设施:公共厕所",
        "type": 0,
        "location": {
            "lat": 50.243878,
            "lng": 120.184306
        },
        "ad_info": {
            "adcode": 150784,
            "province": "内蒙古自治区",
            "city": "呼伦贝尔市",
            "district": "额尔古纳市"
        }
    },
    {
        "id": "16691574503039105604",
        "title": "公共厕所",
        "address": "内蒙古自治区呼伦贝尔市扎赉诺尔区开放街与步森街交叉口正东方向164米左右",
        "tel": "",
        "category": "基础设施:公共设施:公共厕所",
        "type": 0,
        "location": {
            "lat": 49.455557,
            "lng": 117.726288
        },
        "ad_info": {
            "adcode": 150703,
            "province": "内蒙古自治区",
            "city": "呼伦贝尔市",
            "district": "扎赉诺尔区"
        }
    },
    {
        "id": "287432865835770954",
        "title": "公共厕所",
        "address": "内蒙古自治区呼伦贝尔市扎兰屯市中央北路与秀水路交叉口东北方向60米左右",
        "tel": "",
        "category": "基础设施:公共设施:公共厕所",
        "type": 0,
        "location": {
            "lat": 48.025349,
            "lng": 122.734811
        },
        "ad_info": {
            "adcode": 150783,
            "province": "内蒙古自治区",
            "city": "呼伦贝尔市",
            "district": "扎兰屯市"
        }
    },
    {
        "id": "8006472007139374209",
        "title": "北国经典公共厕所",
        "address": "内蒙古自治区呼伦贝尔市海拉尔区呼伦大街与滨河路交叉口正西方向325米左右",
        "tel": "",
        "category": "基础设施:公共设施:公共厕所",
        "type": 0,
        "location": {
            "lat": 49.22939,
            "lng": 119.75844
        },
        "ad_info": {
            "adcode": 150702,
            "province": "内蒙古自治区",
            "city": "呼伦贝尔市",
            "district": "海拉尔区"
        }
    },
    {
        "id": "15068974236355494039",
        "title": "公共厕所",
        "address": "内蒙古自治区呼伦贝尔市扎兰屯市新桥街与新桥西街交叉口正西方向275米左右",
        "tel": "",
        "category": "基础设施:公共设施:公共厕所",
        "type": 0,
        "location": {
            "lat": 47.993001,
            "lng": 122.736524
        },
        "ad_info": {
            "adcode": 150783,
            "province": "内蒙古自治区",
            "city": "呼伦贝尔市",
            "district": "扎兰屯市"
        }
    },
    {
        "id": "13866104377109163004",
        "title": "公共厕所",
        "address": "内蒙古自治区呼伦贝尔市扎兰屯市布特哈北路与永安路交叉口正北方向184米左右",
        "tel": "",
        "category": "基础设施:公共设施:公共厕所",
        "type": 0,
        "location": {
            "lat": 48.022607,
            "lng": 122.737828
        },
        "ad_info": {
            "adcode": 150783,
            "province": "内蒙古自治区",
            "city": "呼伦贝尔市",
            "district": "扎兰屯市"
        }
    },
    {
        "id": "5307136923475566397",
        "title": "公共厕所",
        "address": "内蒙古自治区呼伦贝尔市扎兰屯市富伦街与育林路交叉口正北方向239米左右",
        "tel": "",
        "category": "基础设施:公共设施:公共厕所",
        "type": 0,
        "location": {
            "lat": 47.983541,
            "lng": 122.755048
        },
        "ad_info": {
            "adcode": 150783,
            "province": "内蒙古自治区",
            "city": "呼伦贝尔市",
            "district": "扎兰屯市"
        }
    },
    {
        "id": "11199463236923513456",
        "title": "公共厕所",
        "address": "内蒙古自治区呼伦贝尔市扎兰屯市沿铁路与铁小街交叉口正北方向48米左右",
        "tel": "",
        "category": "基础设施:公共设施:公共厕所",
        "type": 0,
        "location": {
            "lat": 48.020012,
            "lng": 122.741946
        },
        "ad_info": {
            "adcode": 150783,
            "province": "内蒙古自治区",
            "city": "呼伦贝尔市",
            "district": "扎兰屯市"
        }
    },
    {
        "id": "9727539932093961866",
        "title": "公共厕所",
        "address": "内蒙古自治区呼伦贝尔市满洲里市二道街与幸福路交叉口东南方向68米左右",
        "tel": "",
        "category": "基础设施:公共设施:公共厕所",
        "type": 0,
        "location": {
            "lat": 49.584738,
            "lng": 117.472982
        },
        "ad_info": {
            "adcode": 150781,
            "province": "内蒙古自治区",
            "city": "呼伦贝尔市",
            "district": "满洲里市"
        }
    },
    {
        "id": "6941570755024883242",
        "title": "公共厕所",
        "address": "内蒙古自治区呼伦贝尔市牙克石市永兴南路与迎宾西街交叉口西南方向48米左右",
        "tel": "",
        "category": "基础设施:公共设施:公共厕所",
        "type": 0,
        "location": {
            "lat": 49.279437,
            "lng": 120.727266
        },
        "ad_info": {
            "adcode": 150782,
            "province": "内蒙古自治区",
            "city": "呼伦贝尔市",
            "district": "牙克石市"
        }
    },
    {
        "id": "15812938331721317523",
        "title": "公共厕所",
        "address": "内蒙古自治区呼伦贝尔市扎兰屯市布特哈北路与朝阳街交叉口西北方向198米左右",
        "tel": "",
        "category": "基础设施:公共设施:公共厕所",
        "type": 0,
        "location": {
            "lat": 47.994648,
            "lng": 122.754309
        },
        "ad_info": {
            "adcode": 150783,
            "province": "内蒙古自治区",
            "city": "呼伦贝尔市",
            "district": "扎兰屯市"
        }
    },
    {
        "id": "2476755342807180118",
        "title": "公共厕所",
        "address": "内蒙古自治区呼伦贝尔市扎兰屯市中央北路与永兴街交叉口西北方向148米左右",
        "tel": "",
        "category": "基础设施:公共设施:公共厕所",
        "type": 0,
        "location": {
            "lat": 47.988533,
            "lng": 122.754044
        },
        "ad_info": {
            "adcode": 150783,
            "province": "内蒙古自治区",
            "city": "呼伦贝尔市",
            "district": "扎兰屯市"
        }
    },
    {
        "id": "5666612636433325212",
        "title": "公共厕所",
        "address": "内蒙古自治区呼伦贝尔市牙克石市工业大街与翠杨北路交叉口正南方向144米左右",
        "tel": "",
        "category": "基础设施:公共设施:公共厕所",
        "type": 0,
        "location": {
            "lat": 49.297336,
            "lng": 120.741128
        },
        "ad_info": {
            "adcode": 150782,
            "province": "内蒙古自治区",
            "city": "呼伦贝尔市",
            "district": "牙克石市"
        }
    },
    {
        "id": "5238373645638813990",
        "title": "公共厕所",
        "address": "内蒙古自治区呼伦贝尔市满洲里市南三道街与平安路交叉口西北方向236米左右",
        "tel": "",
        "category": "基础设施:公共设施:公共厕所",
        "type": 0,
        "location": {
            "lat": 49.580246,
            "lng": 117.4619
        },
        "ad_info": {
            "adcode": 150781,
            "province": "内蒙古自治区",
            "city": "呼伦贝尔市",
            "district": "满洲里市"
        }
    },
    {
        "id": "1932838980623030479",
        "title": "公共厕所",
        "address": "内蒙古自治区呼伦贝尔市海拉尔区呼伦大街与成吉思汗北路交叉口东南方向85米左右",
        "tel": "",
        "category": "基础设施:公共设施:公共厕所",
        "type": 0,
        "location": {
            "lat": 49.229675,
            "lng": 119.778189
        },
        "ad_info": {
            "adcode": 150702,
            "province": "内蒙古自治区",
            "city": "呼伦贝尔市",
            "district": "海拉尔区"
        }
    },
    {
        "id": "3801709312786221758",
        "title": "公共厕所",
        "address": "内蒙古自治区呼伦贝尔市满洲里市二道街与文明路交叉口东南方向53米左右",
        "tel": "",
        "category": "基础设施:公共设施:公共厕所",
        "type": 0,
        "location": {
            "lat": 49.590633,
            "lng": 117.446532
        },
        "ad_info": {
            "adcode": 150781,
            "province": "内蒙古自治区",
            "city": "呼伦贝尔市",
            "district": "满洲里市"
        }
    },
    {
        "id": "13278866466745104726",
        "title": "公共厕所(301省道南侧)",
        "address": "内蒙古自治区呼伦贝尔市鄂伦春自治旗S301与中央街交叉口西南方向1262米左右",
        "tel": "",
        "category": "基础设施:公共设施:公共厕所",
        "type": 0,
        "location": {
            "lat": 50.65123,
            "lng": 122.523231
        },
        "ad_info": {
            "adcode": 150723,
            "province": "内蒙古自治区",
            "city": "呼伦贝尔市",
            "district": "鄂伦春自治旗"
        }
    },
    {
        "id": "16738387545334990826",
        "title": "公共厕所",
        "address": "内蒙古自治区呼伦贝尔市海拉尔区呼和诺尔街与满洲里中路交叉口正南方向88米左右",
        "tel": "",
        "category": "基础设施:公共设施:公共厕所",
        "type": 0,
        "location": {
            "lat": 49.207072,
            "lng": 119.764828
        },
        "ad_info": {
            "adcode": 150702,
            "province": "内蒙古自治区",
            "city": "呼伦贝尔市",
            "district": "海拉尔区"
        }
    },
    {
        "id": "2880949490174151727",
        "title": "公共厕所",
        "address": "内蒙古自治区呼伦贝尔市满洲里市湖北街与鑫佳路交叉口东北方向161米左右",
        "tel": "",
        "category": "基础设施:公共设施:公共厕所",
        "type": 0,
        "location": {
            "lat": 49.60043,
            "lng": 117.470812
        },
        "ad_info": {
            "adcode": 150781,
            "province": "内蒙古自治区",
            "city": "呼伦贝尔市",
            "district": "满洲里市"
        }
    },
    {
        "id": "6118780286757582049",
        "title": "公共厕所",
        "address": "内蒙古自治区呼伦贝尔市阿荣旗G111与Y019交叉口西南方向61米左右",
        "tel": "",
        "category": "基础设施:公共设施:公共厕所",
        "type": 0,
        "location": {
            "lat": 48.081771,
            "lng": 123.437911
        },
        "ad_info": {
            "adcode": 150721,
            "province": "内蒙古自治区",
            "city": "呼伦贝尔市",
            "district": "阿荣旗"
        }
    },
    {
        "id": "3436112591732359447",
        "title": "公共厕所",
        "address": "内蒙古自治区呼伦贝尔市牙克石市鹤乡缘酒店东侧90米",
        "tel": "",
        "category": "基础设施:公共设施:公共厕所",
        "type": 0,
        "location": {
            "lat": 50.480248,
            "lng": 121.683741
        },
        "ad_info": {
            "adcode": 150782,
            "province": "内蒙古自治区",
            "city": "呼伦贝尔市",
            "district": "牙克石市"
        }
    },
    {
        "id": "5696570353265638094",
        "title": "公共厕所",
        "address": "内蒙古自治区呼伦贝尔市满洲里市天桥路与西外环交叉口正北方向255米左右",
        "tel": "",
        "category": "基础设施:公共设施:公共厕所",
        "type": 0,
        "location": {
            "lat": 49.577576,
            "lng": 117.441615
        },
        "ad_info": {
            "adcode": 150781,
            "province": "内蒙古自治区",
            "city": "呼伦贝尔市",
            "district": "满洲里市"
        }
    },
    {
        "id": "12851693101637672747",
        "title": "公共厕所",
        "address": "内蒙古自治区呼伦贝尔市满洲里市平安路与阜城街交叉口正东方向283米左右",
        "tel": "",
        "category": "基础设施:公共设施:公共厕所",
        "type": 0,
        "location": {
            "lat": 49.57511,
            "lng": 117.466674
        },
        "ad_info": {
            "adcode": 150781,
            "province": "内蒙古自治区",
            "city": "呼伦贝尔市",
            "district": "满洲里市"
        }
    },
    {
        "id": "8851851688043306774",
        "title": "公共厕所",
        "address": "内蒙古自治区呼伦贝尔市满洲里市湖北街与鑫佳路交叉口东北方向278米左右",
        "tel": "",
        "category": "基础设施:公共设施:公共厕所",
        "type": 0,
        "location": {
            "lat": 49.600872,
            "lng": 117.472282
        },
        "ad_info": {
            "adcode": 150781,
            "province": "内蒙古自治区",
            "city": "呼伦贝尔市",
            "district": "满洲里市"
        }
    },
    {
        "id": "7695637944255336164",
        "title": "公共厕所",
        "address": "内蒙古自治区呼伦贝尔市满洲里市南三道街与南二道街交叉口东南方向170米左右",
        "tel": "",
        "category": "基础设施:公共设施:公共厕所",
        "type": 0,
        "location": {
            "lat": 49.584063,
            "lng": 117.440007
        },
        "ad_info": {
            "adcode": 150781,
            "province": "内蒙古自治区",
            "city": "呼伦贝尔市",
            "district": "满洲里市"
        }
    },
    {
        "id": "13570422181564821997",
        "title": "公共厕所",
        "address": "内蒙古自治区呼伦贝尔市满洲里市碧桂园·碧草云天南侧300米",
        "tel": "",
        "category": "基础设施:公共设施:公共厕所",
        "type": 0,
        "location": {
            "lat": 49.602472,
            "lng": 117.472877
        },
        "ad_info": {
            "adcode": 150781,
            "province": "内蒙古自治区",
            "city": "呼伦贝尔市",
            "district": "满洲里市"
        }
    },
    {
        "id": "10541731477653619209",
        "title": "公共厕所",
        "address": "内蒙古自治区呼伦贝尔市满洲里市平房早餐东侧120米",
        "tel": "",
        "category": "基础设施:公共设施:公共厕所",
        "type": 0,
        "location": {
            "lat": 49.601371,
            "lng": 117.475123
        },
        "ad_info": {
            "adcode": 150781,
            "province": "内蒙古自治区",
            "city": "呼伦贝尔市",
            "district": "满洲里市"
        }
    },
    {
        "id": "13933027816459220548",
        "title": "公共厕所",
        "address": "内蒙古自治区呼伦贝尔市满洲里市哈尔滨铁路生活段满洲里铁路公寓西南侧180米",
        "tel": "",
        "category": "基础设施:公共设施:公共厕所",
        "type": 0,
        "location": {
            "lat": 49.584748,
            "lng": 117.438451
        },
        "ad_info": {
            "adcode": 150781,
            "province": "内蒙古自治区",
            "city": "呼伦贝尔市",
            "district": "满洲里市"
        }
    },
    {
        "id": "895940285336528238",
        "title": "公共厕所",
        "address": "内蒙古自治区呼伦贝尔市满洲里市泰山街与鑫佳路交叉口正东方向242米左右",
        "tel": "",
        "category": "基础设施:公共设施:公共厕所",
        "type": 0,
        "location": {
            "lat": 49.602025,
            "lng": 117.472011
        },
        "ad_info": {
            "adcode": 150781,
            "province": "内蒙古自治区",
            "city": "呼伦贝尔市",
            "district": "满洲里市"
        }
    },
    {
        "id": "3965546737881274713",
        "title": "公共厕所",
        "address": "内蒙古自治区呼伦贝尔市满洲里市南三道街与南二道街交叉口正南方向559米左右",
        "tel": "",
        "category": "基础设施:公共设施:公共厕所",
        "type": 0,
        "location": {
            "lat": 49.580242,
            "lng": 117.435165
        },
        "ad_info": {
            "adcode": 150781,
            "province": "内蒙古自治区",
            "city": "呼伦贝尔市",
            "district": "满洲里市"
        }
    },
    {
        "id": "2002140579009228518",
        "title": "公共厕所",
        "address": "内蒙古自治区呼伦贝尔市满洲里市旺华商店南侧230米",
        "tel": "",
        "category": "基础设施:公共设施:公共厕所",
        "type": 0,
        "location": {
            "lat": 49.578798,
            "lng": 117.4363
        },
        "ad_info": {
            "adcode": 150781,
            "province": "内蒙古自治区",
            "city": "呼伦贝尔市",
            "district": "满洲里市"
        }
    },
    {
        "id": "14038673504169829429",
        "title": "公共厕所",
        "address": "内蒙古自治区呼伦贝尔市满洲里市南三道街与南二道街交叉口西南方向384米左右",
        "tel": "",
        "category": "基础设施:公共设施:公共厕所",
        "type": 0,
        "location": {
            "lat": 49.581759,
            "lng": 117.43587
        },
        "ad_info": {
            "adcode": 150781,
            "province": "内蒙古自治区",
            "city": "呼伦贝尔市",
            "district": "满洲里市"
        }
    },
    {
        "id": "4688740195473042130",
        "title": "公共厕所",
        "address": "内蒙古自治区呼伦贝尔市满洲里市西外环与阜城街交叉口正东方向496米左右",
        "tel": "",
        "category": "基础设施:公共设施:公共厕所",
        "type": 0,
        "location": {
            "lat": 49.578806,
            "lng": 117.431516
        },
        "ad_info": {
            "adcode": 150781,
            "province": "内蒙古自治区",
            "city": "呼伦贝尔市",
            "district": "满洲里市"
        }
    },
    {
        "id": "10178451702896888672",
        "title": "公共厕所",
        "address": "内蒙古自治区呼伦贝尔市满洲里市南四道街与立交桥南路交叉口正东方向142米左右",
        "tel": "",
        "category": "基础设施:公共设施:公共厕所",
        "type": 0,
        "location": {
            "lat": 49.579476,
            "lng": 117.458449
        },
        "ad_info": {
            "adcode": 150781,
            "province": "内蒙古自治区",
            "city": "呼伦贝尔市",
            "district": "满洲里市"
        }
    },
    {
        "id": "16841524732551975068",
        "title": "公共厕所",
        "address": "内蒙古自治区呼伦贝尔市满洲里市南三道街与平安路交叉口正东方向207米左右",
        "tel": "",
        "category": "基础设施:公共设施:公共厕所",
        "type": 0,
        "location": {
            "lat": 49.578831,
            "lng": 117.467359
        },
        "ad_info": {
            "adcode": 150781,
            "province": "内蒙古自治区",
            "city": "呼伦贝尔市",
            "district": "满洲里市"
        }
    },
    {
        "id": "16446148540864855552",
        "title": "公共厕所",
        "address": "内蒙古自治区呼伦贝尔市满洲里市天桥路与西外环交叉口西北方向189米左右",
        "tel": "",
        "category": "基础设施:公共设施:公共厕所",
        "type": 0,
        "location": {
            "lat": 49.576604,
            "lng": 117.439899
        },
        "ad_info": {
            "adcode": 150781,
            "province": "内蒙古自治区",
            "city": "呼伦贝尔市",
            "district": "满洲里市"
        }
    },
    {
        "id": "14689079233705943674",
        "title": "公共厕所",
        "address": "内蒙古自治区呼伦贝尔市满洲里市天桥路与西外环交叉口正北方向126米左右",
        "tel": "",
        "category": "基础设施:公共设施:公共厕所",
        "type": 0,
        "location": {
            "lat": 49.576416,
            "lng": 117.441397
        },
        "ad_info": {
            "adcode": 150781,
            "province": "内蒙古自治区",
            "city": "呼伦贝尔市",
            "district": "满洲里市"
        }
    },
    {
        "id": "3007187732435502529",
        "title": "公共厕所",
        "address": "内蒙古自治区呼伦贝尔市满洲里市南三道街与平安路交叉口正北方向137米左右",
        "tel": "",
        "category": "基础设施:公共设施:公共厕所",
        "type": 0,
        "location": {
            "lat": 49.58018,
            "lng": 117.464456
        },
        "ad_info": {
            "adcode": 150781,
            "province": "内蒙古自治区",
            "city": "呼伦贝尔市",
            "district": "满洲里市"
        }
    },
    {
        "id": "10488956676106261495",
        "title": "公共厕所",
        "address": "内蒙古自治区呼伦贝尔市满洲里市西外环与阜城街交叉口正东方向385米左右",
        "tel": "",
        "category": "基础设施:公共设施:公共厕所",
        "type": 0,
        "location": {
            "lat": 49.578701,
            "lng": 117.429948
        },
        "ad_info": {
            "adcode": 150781,
            "province": "内蒙古自治区",
            "city": "呼伦贝尔市",
            "district": "满洲里市"
        }
    },
    {
        "id": "15796401902125114658",
        "title": "公共厕所",
        "address": "内蒙古自治区呼伦贝尔市满洲里市泰山街与鑫佳路交叉口正东方向73米左右",
        "tel": "",
        "category": "基础设施:公共设施:公共厕所",
        "type": 0,
        "location": {
            "lat": 49.602781,
            "lng": 117.469802
        },
        "ad_info": {
            "adcode": 150781,
            "province": "内蒙古自治区",
            "city": "呼伦贝尔市",
            "district": "满洲里市"
        }
    },
    {
        "id": "18207483521627371493",
        "title": "公共厕所",
        "address": "内蒙古自治区呼伦贝尔市满洲里市二道街与市政路交叉口正南方向43米左右",
        "tel": "",
        "category": "基础设施:公共设施:公共厕所",
        "type": 0,
        "location": {
            "lat": 49.58785,
            "lng": 117.458529
        },
        "ad_info": {
            "adcode": 150781,
            "province": "内蒙古自治区",
            "city": "呼伦贝尔市",
            "district": "满洲里市"
        }
    },
    {
        "id": "1304586039650936711",
        "title": "扎泥河服务区公共厕所",
        "address": "内蒙古自治区呼伦贝尔市海拉尔区G301与Y003交叉口东南方向719米左右",
        "tel": "",
        "category": "基础设施:公共设施:公共厕所",
        "type": 0,
        "location": {
            "lat": 49.179611,
            "lng": 120.092673
        },
        "ad_info": {
            "adcode": 150702,
            "province": "内蒙古自治区",
            "city": "呼伦贝尔市",
            "district": "海拉尔区"
        }
    },
    {
        "id": "4913231395113059819",
        "title": "公共厕所",
        "address": "内蒙古自治区呼伦贝尔市满洲里市一道街与中苏金街交叉口西南方向114米左右",
        "tel": "",
        "category": "基础设施:公共设施:公共厕所",
        "type": 0,
        "location": {
            "lat": 49.58824,
            "lng": 117.447816
        },
        "ad_info": {
            "adcode": 150781,
            "province": "内蒙古自治区",
            "city": "呼伦贝尔市",
            "district": "满洲里市"
        }
    },
    {
        "id": "11170436056884119650",
        "title": "公共厕所(满洲里亚)",
        "address": "内蒙古自治区呼伦贝尔市满洲里市世纪大道与湖北街交叉口正西方向230米左右",
        "tel": "",
        "category": "基础设施:公共设施:公共厕所",
        "type": 0,
        "location": {
            "lat": 49.599151,
            "lng": 117.46017
        },
        "ad_info": {
            "adcode": 150781,
            "province": "内蒙古自治区",
            "city": "呼伦贝尔市",
            "district": "满洲里市"
        }
    },
    {
        "id": "7021413416598430430",
        "title": "公共厕所",
        "address": "内蒙古自治区呼伦贝尔市额尔古纳市丁香路与金鹊街交叉口正北方向21米左右",
        "tel": "",
        "category": "基础设施:公共设施:公共厕所",
        "type": 0,
        "location": {
            "lat": 50.246426,
            "lng": 120.173946
        },
        "ad_info": {
            "adcode": 150784,
            "province": "内蒙古自治区",
            "city": "呼伦贝尔市",
            "district": "额尔古纳市"
        }
    },
    {
        "id": "1294970358301895099",
        "title": "公共厕所",
        "address": "内蒙古自治区呼伦贝尔市扎赉诺尔区增产街与解放路交叉口东北方向30米左右",
        "tel": "",
        "category": "基础设施:公共设施:公共厕所",
        "type": 0,
        "location": {
            "lat": 49.454393,
            "lng": 117.712924
        },
        "ad_info": {
            "adcode": 150703,
            "province": "内蒙古自治区",
            "city": "呼伦贝尔市",
            "district": "扎赉诺尔区"
        }
    },
    {
        "id": "13698724540130558770",
        "title": "康乐文化广场公共厕所",
        "address": "内蒙古自治区呼伦贝尔市鄂伦春自治旗中央路与育才街交叉口正北方向84米左右",
        "tel": "",
        "category": "基础设施:公共设施:公共厕所",
        "type": 0,
        "location": {
            "lat": 50.593201,
            "lng": 123.726422
        },
        "ad_info": {
            "adcode": 150723,
            "province": "内蒙古自治区",
            "city": "呼伦贝尔市",
            "district": "鄂伦春自治旗"
        }
    },
    {
        "id": "6163148535527331280",
        "title": "北斗山公共厕所",
        "address": "内蒙古自治区呼伦贝尔市牙克石市乌尔旗汗镇振兴桥旁",
        "tel": "",
        "category": "基础设施:公共设施:公共厕所",
        "type": 0,
        "location": {
            "lat": 49.571009,
            "lng": 121.375993
        },
        "ad_info": {
            "adcode": 150782,
            "province": "内蒙古自治区",
            "city": "呼伦贝尔市",
            "district": "牙克石市"
        }
    },
    {
        "id": "10491542172314788394",
        "title": "音河服务区公共厕所",
        "address": "内蒙古自治区呼伦贝尔市扎兰屯市与G5511集阿高速交叉口西460米",
        "tel": "",
        "category": "基础设施:公共设施:公共厕所",
        "type": 0,
        "location": {
            "lat": 47.997021,
            "lng": 123.043047
        },
        "ad_info": {
            "adcode": 150783,
            "province": "内蒙古自治区",
            "city": "呼伦贝尔市",
            "district": "扎兰屯市"
        }
    },
    {
        "id": "3353379684738893854",
        "title": "公共厕所",
        "address": "内蒙古自治区呼伦贝尔市鄂温克族自治旗伊敏路与海兰察街交叉口东北方向34米左右",
        "tel": "",
        "category": "基础设施:公共设施:公共厕所",
        "type": 0,
        "location": {
            "lat": 49.147618,
            "lng": 119.755076
        },
        "ad_info": {
            "adcode": 150724,
            "province": "内蒙古自治区",
            "city": "呼伦贝尔市",
            "district": "鄂温克族自治旗"
        }
    },
    {
        "id": "11052256938827978357",
        "title": "后新立服务区公共厕所",
        "address": "内蒙古自治区呼伦贝尔市阿荣旗沃唐段",
        "tel": "",
        "category": "基础设施:公共设施:公共厕所",
        "type": 0,
        "location": {
            "lat": 48.228559,
            "lng": 123.383415
        },
        "ad_info": {
            "adcode": 150721,
            "province": "内蒙古自治区",
            "city": "呼伦贝尔市",
            "district": "阿荣旗"
        }
    },
    {
        "id": "2774210214726718970",
        "title": "牙克石服务区公共厕所",
        "address": "内蒙古自治区呼伦贝尔市牙克石市G301与凤游线交叉口西北方向186米左右",
        "tel": "",
        "category": "基础设施:公共设施:公共厕所",
        "type": 0,
        "location": {
            "lat": 49.179224,
            "lng": 120.834316
        },
        "ad_info": {
            "adcode": 150782,
            "province": "内蒙古自治区",
            "city": "呼伦贝尔市",
            "district": "牙克石市"
        }
    },
    {
        "id": "7555412025200867574",
        "title": "雅尔根楚服务区公共厕所",
        "address": "内蒙古自治区呼伦贝尔市扎兰屯市雅尔根楚服务区北30米",
        "tel": "",
        "category": "基础设施:公共设施:公共厕所",
        "type": 0,
        "location": {
            "lat": 47.783723,
            "lng": 122.616532
        },
        "ad_info": {
            "adcode": 150783,
            "province": "内蒙古自治区",
            "city": "呼伦贝尔市",
            "district": "扎兰屯市"
        }
    },
    {
        "id": "188358372725585897",
        "title": "后新立服务区公共厕所",
        "address": "内蒙古自治区呼伦贝尔市阿荣旗后新立服务区与G10绥满高速交叉口南360米",
        "tel": "",
        "category": "基础设施:公共设施:公共厕所",
        "type": 0,
        "location": {
            "lat": 48.228408,
            "lng": 123.386953
        },
        "ad_info": {
            "adcode": 150721,
            "province": "内蒙古自治区",
            "city": "呼伦贝尔市",
            "district": "阿荣旗"
        }
    },
    {
        "id": "921846521509912367",
        "title": "女洗手间(伊仕丹购物广场)",
        "address": "内蒙古自治区呼伦贝尔市海拉尔区桥头街11号伊仕丹购物广场F2",
        "tel": "",
        "category": "基础设施:公共设施:女洗手间",
        "type": 0,
        "location": {
            "lat": 49.213121,
            "lng": 119.747722
        },
        "ad_info": {
            "adcode": 150702,
            "province": "内蒙古自治区",
            "city": "呼伦贝尔市",
            "district": "海拉尔区"
        }
    },
    {
        "id": "5096970648189154506",
        "title": "男洗手间(伊仕丹购物广场)",
        "address": "内蒙古自治区呼伦贝尔市海拉尔区桥头街11号伊仕丹购物广场F2",
        "tel": "",
        "category": "基础设施:公共设施:男洗手间",
        "type": 0,
        "location": {
            "lat": 49.213117,
            "lng": 119.747762
        },
        "ad_info": {
            "adcode": 150702,
            "province": "内蒙古自治区",
            "city": "呼伦贝尔市",
            "district": "海拉尔区"
        }
    },
    {
        "id": "4437769684238305066",
        "title": "公共厕所",
        "address": "内蒙古自治区呼伦贝尔市牙克石市永兴南路新家园-c区",
        "tel": "",
        "category": "基础设施:公共设施:公共厕所",
        "type": 0,
        "location": {
            "lat": 49.279524,
            "lng": 120.72803
        },
        "ad_info": {
            "adcode": 150782,
            "province": "内蒙古自治区",
            "city": "呼伦贝尔市",
            "district": "牙克石市"
        }
    },
    {
        "id": "2539797058135271516",
        "title": "公共厕所",
        "address": "内蒙古自治区呼伦贝尔市满洲里市平安路与阜城街交叉口正东方向228米左右",
        "tel": "",
        "category": "基础设施:公共设施:公共厕所",
        "type": 0,
        "location": {
            "lat": 49.575746,
            "lng": 117.466041
        },
        "ad_info": {
            "adcode": 150781,
            "province": "内蒙古自治区",
            "city": "呼伦贝尔市",
            "district": "满洲里市"
        }
    },
    {
        "id": "15145919418088511904",
        "title": "公共厕所",
        "address": "内蒙古自治区呼伦贝尔市牙克石市工业大街与林城北路交叉口西南方向162米左右",
        "tel": "",
        "category": "基础设施:公共设施:公共厕所",
        "type": 0,
        "location": {
            "lat": 49.296967,
            "lng": 120.734348
        },
        "ad_info": {
            "adcode": 150782,
            "province": "内蒙古自治区",
            "city": "呼伦贝尔市",
            "district": "牙克石市"
        }
    },
    {
        "id": "7790134070359536586",
        "title": "公共厕所",
        "address": "内蒙古自治区呼伦贝尔市扎兰屯市中央南路与富伦街交叉口正东方向410米左右",
        "tel": "",
        "category": "基础设施:公共设施:公共厕所",
        "type": 0,
        "location": {
            "lat": 47.983446,
            "lng": 122.764885
        },
        "ad_info": {
            "adcode": 150783,
            "province": "内蒙古自治区",
            "city": "呼伦贝尔市",
            "district": "扎兰屯市"
        }
    },
    {
        "id": "12824408818729886915",
        "title": "公共厕所",
        "address": "内蒙古自治区呼伦贝尔市鄂伦春自治旗华夏街,学府6号楼西",
        "tel": "",
        "category": "基础设施:公共设施:公共厕所",
        "type": 0,
        "location": {
            "lat": 49.710891,
            "lng": 124.64189
        },
        "ad_info": {
            "adcode": 150723,
            "province": "内蒙古自治区",
            "city": "呼伦贝尔市",
            "district": "鄂伦春自治旗"
        }
    },
    {
        "id": "945118396180829000",
        "title": "公共厕所(宝东旅游驿站)",
        "address": "内蒙古自治区呼伦贝尔市新巴尔虎右旗24号旅游服务区东侧",
        "tel": "",
        "category": "基础设施:公共设施:公共厕所",
        "type": 0,
        "location": {
            "lat": 48.469388,
            "lng": 117.237839
        },
        "ad_info": {
            "adcode": 150727,
            "province": "内蒙古自治区",
            "city": "呼伦贝尔市",
            "district": "新巴尔虎右旗"
        }
    },
    {
        "id": "15181751530570972876",
        "title": "成吉草原景区-公共厕所",
        "address": "内蒙古自治区呼伦贝尔市陈巴尔虎旗",
        "tel": "",
        "category": "基础设施:公共设施:公共厕所",
        "type": 0,
        "location": {
            "lat": 49.981279,
            "lng": 119.084479
        },
        "ad_info": {
            "adcode": 150725,
            "province": "内蒙古自治区",
            "city": "呼伦贝尔市",
            "district": "陈巴尔虎旗"
        }
    },
    {
        "id": "1950735547533054632",
        "title": "女洗手间",
        "address": "内蒙古自治区呼伦贝尔市海拉尔区桥头街11号伊仕丹购物广场F8",
        "tel": "",
        "category": "基础设施:公共设施:女洗手间",
        "type": 0,
        "location": {
            "lat": 49.213216,
            "lng": 119.747535
        },
        "ad_info": {
            "adcode": 150702,
            "province": "内蒙古自治区",
            "city": "呼伦贝尔市",
            "district": "海拉尔区"
        }
    },
    {
        "id": "14681567848814455462",
        "title": "男洗手间",
        "address": "内蒙古自治区呼伦贝尔市海拉尔区桥头街11号伊仕丹购物广场F5",
        "tel": "",
        "category": "基础设施:公共设施:男洗手间",
        "type": 0,
        "location": {
            "lat": 49.213096,
            "lng": 119.747756
        },
        "ad_info": {
            "adcode": 150702,
            "province": "内蒙古自治区",
            "city": "呼伦贝尔市",
            "district": "海拉尔区"
        }
    },
    {
        "id": "13487815021916605483",
        "title": "公共厕所(中央桥)",
        "address": "内蒙古自治区呼伦贝尔市海拉尔区胜利大街与草市路交叉口东南方向238米左右",
        "tel": "",
        "category": "基础设施:公共设施:公共厕所",
        "type": 0,
        "location": {
            "lat": 49.212988,
            "lng": 119.752603
        },
        "ad_info": {
            "adcode": 150702,
            "province": "内蒙古自治区",
            "city": "呼伦贝尔市",
            "district": "海拉尔区"
        }
    },
    {
        "id": "17942190515483489070",
        "title": "公共厕所(库图尔其广场)",
        "address": "内蒙古自治区呼伦贝尔市鄂伦春自治旗库图尔其广场",
        "tel": "",
        "category": "基础设施:公共设施:公共厕所",
        "type": 0,
        "location": {
            "lat": 50.607809,
            "lng": 123.69687
        },
        "ad_info": {
            "adcode": 150723,
            "province": "内蒙古自治区",
            "city": "呼伦贝尔市",
            "district": "鄂伦春自治旗"
        }
    },
    {
        "id": "6843065661973636425",
        "title": "公共厕所(市环保局东侧)",
        "address": "内蒙古自治区呼伦贝尔市海拉尔区东山路与友好五街交叉口正北方向106米左右",
        "tel": "",
        "category": "基础设施:公共设施:公共厕所",
        "type": 0,
        "location": {
            "lat": 49.169639,
            "lng": 119.785851
        },
        "ad_info": {
            "adcode": 150702,
            "province": "内蒙古自治区",
            "city": "呼伦贝尔市",
            "district": "海拉尔区"
        }
    },
    {
        "id": "11915805483995409028",
        "title": "公共厕所(罕达盖服务区)",
        "address": "内蒙古自治区呼伦贝尔市新巴尔虎左旗罕达盖停车观光区与331国道交叉口北240米",
        "tel": "",
        "category": "基础设施:公共设施:公共厕所",
        "type": 0,
        "location": {
            "lat": 47.490486,
            "lng": 119.441397
        },
        "ad_info": {
            "adcode": 150726,
            "province": "内蒙古自治区",
            "city": "呼伦贝尔市",
            "district": "新巴尔虎左旗"
        }
    },
    {
        "id": "8533654455990693649",
        "title": "公共厕所",
        "address": "内蒙古自治区呼伦贝尔市满洲里市华埠大街6号满洲里万达广场F3",
        "tel": "",
        "category": "基础设施:公共设施:公共厕所",
        "type": 0,
        "location": {
            "lat": 49.599205,
            "lng": 117.429079
        },
        "ad_info": {
            "adcode": 150781,
            "province": "内蒙古自治区",
            "city": "呼伦贝尔市",
            "district": "满洲里市"
        }
    },
    {
        "id": "626300013697912877",
        "title": "公共厕所(常乐市场)",
        "address": "内蒙古自治区呼伦贝尔市鄂伦春自治旗克一河镇霍都奇社区中央街344号常乐市场院内",
        "tel": "",
        "category": "基础设施:公共设施:公共厕所",
        "type": 0,
        "location": {
            "lat": 50.65164,
            "lng": 122.498184
        },
        "ad_info": {
            "adcode": 150723,
            "province": "内蒙古自治区",
            "city": "呼伦贝尔市",
            "district": "鄂伦春自治旗"
        }
    },
    {
        "id": "5980294004301727030",
        "title": "公共厕所",
        "address": "内蒙古自治区呼伦贝尔市扎兰屯市金龙山滑雪场",
        "tel": "",
        "category": "基础设施:公共设施:公共厕所",
        "type": 0,
        "location": {
            "lat": 48.056791,
            "lng": 122.635759
        },
        "ad_info": {
            "adcode": 150783,
            "province": "内蒙古自治区",
            "city": "呼伦贝尔市",
            "district": "扎兰屯市"
        }
    },
    {
        "id": "4074774099949743821",
        "title": "公共厕所(门都大桥)",
        "address": "内蒙古自治区呼伦贝尔市牙克石市兴安街与牙伊线交叉口西南方向102米左右",
        "tel": "",
        "category": "基础设施:公共设施:公共厕所",
        "type": 0,
        "location": {
            "lat": 49.288025,
            "lng": 120.75487
        },
        "ad_info": {
            "adcode": 150782,
            "province": "内蒙古自治区",
            "city": "呼伦贝尔市",
            "district": "牙克石市"
        }
    },
    {
        "id": "3503858380778727708",
        "title": "公共厕所(全域旅游游客服务中心)",
        "address": "内蒙古自治区呼伦贝尔市根河市迎宾路与防洪西路交叉口西南方向34米左右",
        "tel": "",
        "category": "基础设施:公共设施:公共厕所",
        "type": 0,
        "location": {
            "lat": 50.773857,
            "lng": 121.524754
        },
        "ad_info": {
            "adcode": 150785,
            "province": "内蒙古自治区",
            "city": "呼伦贝尔市",
            "district": "根河市"
        }
    },
    {
        "id": "2730471356491639860",
        "title": "牙克石服务区公共厕所",
        "address": "内蒙古自治区呼伦贝尔市牙克石市G301与凤游线交叉口正西方向279米左右",
        "tel": "",
        "category": "基础设施:公共设施:公共厕所",
        "type": 0,
        "location": {
            "lat": 49.178162,
            "lng": 120.832575
        },
        "ad_info": {
            "adcode": 150782,
            "province": "内蒙古自治区",
            "city": "呼伦贝尔市",
            "district": "牙克石市"
        }
    },
    {
        "id": "13820716585278214246",
        "title": "公共厕所(杜鹃路西侧)",
        "address": "内蒙古自治区呼伦贝尔市鄂伦春自治旗喆品美味居西侧120米",
        "tel": "",
        "category": "基础设施:公共设施:公共厕所",
        "type": 0,
        "location": {
            "lat": 50.647748,
            "lng": 122.494917
        },
        "ad_info": {
            "adcode": 150723,
            "province": "内蒙古自治区",
            "city": "呼伦贝尔市",
            "district": "鄂伦春自治旗"
        }
    },
    {
        "id": "12001124314365649201",
        "title": "女洗手间",
        "address": "内蒙古自治区呼伦贝尔市海拉尔区桥头街11号伊仕丹购物广场F5",
        "tel": "",
        "category": "基础设施:公共设施:女洗手间",
        "type": 0,
        "location": {
            "lat": 49.213094,
            "lng": 119.747716
        },
        "ad_info": {
            "adcode": 150702,
            "province": "内蒙古自治区",
            "city": "呼伦贝尔市",
            "district": "海拉尔区"
        }
    },
    {
        "id": "678572007793077200",
        "title": "公共厕所(通海加油站)",
        "address": "内蒙古自治区呼伦贝尔市牙克石市C024与G301交叉口西北方向101米左右",
        "tel": "",
        "category": "基础设施:公共设施:公共厕所",
        "type": 0,
        "location": {
            "lat": 49.282525,
            "lng": 120.653132
        },
        "ad_info": {
            "adcode": 150782,
            "province": "内蒙古自治区",
            "city": "呼伦贝尔市",
            "district": "牙克石市"
        }
    },
    {
        "id": "3285695461187451962",
        "title": "公共厕所(中苏路湖滨)",
        "address": "内蒙古自治区呼伦贝尔市满洲里市六道街与通河路交叉口西北方向162米左右",
        "tel": "",
        "category": "基础设施:公共设施:公共厕所",
        "type": 0,
        "location": {
            "lat": 49.595547,
            "lng": 117.451656
        },
        "ad_info": {
            "adcode": 150781,
            "province": "内蒙古自治区",
            "city": "呼伦贝尔市",
            "district": "满洲里市"
        }
    },
    {
        "id": "3715354504238844655",
        "title": "公共厕所",
        "address": "内蒙古自治区呼伦贝尔市鄂伦春自治旗向阳街与青年路交叉口正北方向188米左右",
        "tel": "",
        "category": "基础设施:公共设施:公共厕所",
        "type": 0,
        "location": {
            "lat": 50.582446,
            "lng": 123.728227
        },
        "ad_info": {
            "adcode": 150723,
            "province": "内蒙古自治区",
            "city": "呼伦贝尔市",
            "district": "鄂伦春自治旗"
        }
    },
    {
        "id": "14493966974120245641",
        "title": "公共厕所",
        "address": "内蒙古自治区呼伦贝尔市鄂伦春自治旗育才街与青年路交叉口正西方向232米左右",
        "tel": "",
        "category": "基础设施:公共设施:公共厕所",
        "type": 0,
        "location": {
            "lat": 50.591461,
            "lng": 123.720359
        },
        "ad_info": {
            "adcode": 150723,
            "province": "内蒙古自治区",
            "city": "呼伦贝尔市",
            "district": "鄂伦春自治旗"
        }
    },
    {
        "id": "16129670012437057788",
        "title": "公共厕所",
        "address": "内蒙古自治区呼伦贝尔市鄂伦春自治旗G332与S201交叉口正西方向129米左右",
        "tel": "",
        "category": "基础设施:公共设施:公共厕所",
        "type": 0,
        "location": {
            "lat": 50.567914,
            "lng": 123.743603
        },
        "ad_info": {
            "adcode": 150723,
            "province": "内蒙古自治区",
            "city": "呼伦贝尔市",
            "district": "鄂伦春自治旗"
        }
    },
    {
        "id": "9433290611900958636",
        "title": "公共厕所(宝东山景区内)",
        "address": "内蒙古自治区呼伦贝尔市新巴尔虎右旗呼伦街与宝格德乌拉路交叉口西南方向1285米",
        "tel": "",
        "category": "基础设施:公共设施:公共厕所",
        "type": 0,
        "location": {
            "lat": 48.451723,
            "lng": 117.242175
        },
        "ad_info": {
            "adcode": 150727,
            "province": "内蒙古自治区",
            "city": "呼伦贝尔市",
            "district": "新巴尔虎右旗"
        }
    },
    {
        "id": "14986851949026729534",
        "title": "公共厕所",
        "address": "内蒙古自治区呼伦贝尔市海拉尔区中央南路与福利一路交叉口正西方向276米左右",
        "tel": "",
        "category": "基础设施:公共设施:公共厕所",
        "type": 0,
        "location": {
            "lat": 49.195184,
            "lng": 119.735745
        },
        "ad_info": {
            "adcode": 150702,
            "province": "内蒙古自治区",
            "city": "呼伦贝尔市",
            "district": "海拉尔区"
        }
    },
    {
        "id": "8324306828954225485",
        "title": "边防检查站厕所",
        "address": "内蒙古自治区呼伦贝尔市陈巴尔虎旗",
        "tel": "",
        "category": "基础设施:公共设施:公共厕所",
        "type": 0,
        "location": {
            "lat": 50.007163,
            "lng": 119.198413
        },
        "ad_info": {
            "adcode": 150725,
            "province": "内蒙古自治区",
            "city": "呼伦贝尔市",
            "district": "陈巴尔虎旗"
        }
    },
    {
        "id": "301567581534457356",
        "title": "公共厕所",
        "address": "内蒙古自治区呼伦贝尔市莫力达瓦达斡尔族自治旗G111与甘河农场中央街交叉口正西方向343米左右",
        "tel": "",
        "category": "基础设施:公共设施:公共厕所",
        "type": 0,
        "location": {
            "lat": 49.378292,
            "lng": 124.638344
        },
        "ad_info": {
            "adcode": 150722,
            "province": "内蒙古自治区",
            "city": "呼伦贝尔市",
            "district": "莫力达瓦达斡尔族自治旗"
        }
    },
    {
        "id": "7993051974986945437",
        "title": "公共厕所",
        "address": "内蒙古自治区呼伦贝尔市鄂温克族自治旗兴华路与胜利路交叉口正北方向173米左右",
        "tel": "",
        "category": "基础设施:公共设施:公共厕所",
        "type": 0,
        "location": {
            "lat": 49.237418,
            "lng": 120.55803
        },
        "ad_info": {
            "adcode": 150724,
            "province": "内蒙古自治区",
            "city": "呼伦贝尔市",
            "district": "鄂温克族自治旗"
        }
    },
    {
        "id": "4137456909453248035",
        "title": "公共厕所",
        "address": "内蒙古自治区呼伦贝尔市海拉尔区哈萨尔大街与满洲里中路交叉口东北方向55米左右",
        "tel": "",
        "category": "基础设施:公共设施:公共厕所",
        "type": 0,
        "location": {
            "lat": 49.205221,
            "lng": 119.764403
        },
        "ad_info": {
            "adcode": 150702,
            "province": "内蒙古自治区",
            "city": "呼伦贝尔市",
            "district": "海拉尔区"
        }
    },
    {
        "id": "13562850386399619542",
        "title": "公共厕所",
        "address": "内蒙古自治区呼伦贝尔市海拉尔区国安佳苑小区西南侧130米",
        "tel": "",
        "category": "基础设施:公共设施:公共厕所",
        "type": 0,
        "location": {
            "lat": 49.23264,
            "lng": 119.7773
        },
        "ad_info": {
            "adcode": 150702,
            "province": "内蒙古自治区",
            "city": "呼伦贝尔市",
            "district": "海拉尔区"
        }
    },
    {
        "id": "9271640397778409842",
        "title": "公共厕所(南出口东侧)",
        "address": "内蒙古自治区呼伦贝尔市鄂温克族自治旗S202与伊敏路交叉口正东方向170米左右",
        "tel": "",
        "category": "基础设施:公共设施:公共厕所",
        "type": 0,
        "location": {
            "lat": 49.122376,
            "lng": 119.75584
        },
        "ad_info": {
            "adcode": 150724,
            "province": "内蒙古自治区",
            "city": "呼伦贝尔市",
            "district": "鄂温克族自治旗"
        }
    },
    {
        "id": "13539120205348873761",
        "title": "浩林温都日驿站卫生间",
        "address": "内蒙古自治区呼伦贝尔市陈巴尔虎旗浩林温都日驿站候车长廊西南侧70米",
        "tel": "",
        "category": "基础设施:公共设施:公共厕所",
        "type": 0,
        "location": {
            "lat": 49.656571,
            "lng": 120.077548
        },
        "ad_info": {
            "adcode": 150725,
            "province": "内蒙古自治区",
            "city": "呼伦贝尔市",
            "district": "陈巴尔虎旗"
        }
    },
    {
        "id": "4173018591347674965",
        "title": "公共厕所(兴隆服务区)",
        "address": "内蒙古自治区呼伦贝尔市莫力达瓦达斡尔族自治旗G111与中心大桥交叉口正东方向1175米左右",
        "tel": "",
        "category": "基础设施:公共设施:公共厕所",
        "type": 0,
        "location": {
            "lat": 48.611712,
            "lng": 124.163068
        },
        "ad_info": {
            "adcode": 150722,
            "province": "内蒙古自治区",
            "city": "呼伦贝尔市",
            "district": "莫力达瓦达斡尔族自治旗"
        }
    },
    {
        "id": "8085911234214841146",
        "title": "公共厕所",
        "address": "内蒙古自治区呼伦贝尔市陈巴尔虎旗18号公路旅游驿站东北侧",
        "tel": "",
        "category": "基础设施:公共设施:公共厕所",
        "type": 0,
        "location": {
            "lat": 49.936441,
            "lng": 118.837373
        },
        "ad_info": {
            "adcode": 150725,
            "province": "内蒙古自治区",
            "city": "呼伦贝尔市",
            "district": "陈巴尔虎旗"
        }
    },
    {
        "id": "6351927380591211337",
        "title": "公共厕所(巴林喇嘛山景区)",
        "address": "内蒙古自治区呼伦贝尔市牙克石市喇嘛山国家森林公园西北侧390米",
        "tel": "",
        "category": "基础设施:公共设施:公共厕所",
        "type": 0,
        "location": {
            "lat": 48.329667,
            "lng": 122.327524
        },
        "ad_info": {
            "adcode": 150782,
            "province": "内蒙古自治区",
            "city": "呼伦贝尔市",
            "district": "牙克石市"
        }
    },
    {
        "id": "16773238927837767004",
        "title": "公共厕所(农场管理局)",
        "address": "内蒙古自治区呼伦贝尔市鄂伦春自治旗东兴垦街农场管理局办公楼东侧",
        "tel": "",
        "category": "基础设施:公共设施:公共厕所",
        "type": 0,
        "location": {
            "lat": 49.709604,
            "lng": 124.647045
        },
        "ad_info": {
            "adcode": 150723,
            "province": "内蒙古自治区",
            "city": "呼伦贝尔市",
            "district": "鄂伦春自治旗"
        }
    },
    {
        "id": "11990063828057908632",
        "title": "雅尔根楚服务区公共厕所",
        "address": "内蒙古自治区呼伦贝尔市扎兰屯市G111",
        "tel": "",
        "category": "基础设施:公共设施:公共厕所",
        "type": 0,
        "location": {
            "lat": 47.782163,
            "lng": 122.619467
        },
        "ad_info": {
            "adcode": 150783,
            "province": "内蒙古自治区",
            "city": "呼伦贝尔市",
            "district": "扎兰屯市"
        }
    },
    {
        "id": "10591995732349960324",
        "title": "岭南村村部广场公共厕所",
        "address": "内蒙古自治区呼伦贝尔市鄂伦春自治旗宜里镇岭南村",
        "tel": "",
        "category": "基础设施:公共设施:公共厕所",
        "type": 0,
        "location": {
            "lat": 49.742888,
            "lng": 123.667735
        },
        "ad_info": {
            "adcode": 150723,
            "province": "内蒙古自治区",
            "city": "呼伦贝尔市",
            "district": "鄂伦春自治旗"
        }
    },
    {
        "id": "812758977120372544",
        "title": "扎泥河服务区公共厕所",
        "address": "内蒙古自治区呼伦贝尔市海拉尔区G301与Y003交叉口东南方向737米左右",
        "tel": "",
        "category": "基础设施:公共设施:公共厕所",
        "type": 0,
        "location": {
            "lat": 49.178147,
            "lng": 120.091219
        },
        "ad_info": {
            "adcode": 150702,
            "province": "内蒙古自治区",
            "city": "呼伦贝尔市",
            "district": "海拉尔区"
        }
    },
    {
        "id": "7412401327703042900",
        "title": "公共厕所",
        "address": "内蒙古自治区呼伦贝尔市满洲里市西外环与阜城街交叉口正东方向367米左右",
        "tel": "",
        "category": "基础设施:公共设施:公共厕所",
        "type": 0,
        "location": {
            "lat": 49.580172,
            "lng": 117.429564
        },
        "ad_info": {
            "adcode": 150781,
            "province": "内蒙古自治区",
            "city": "呼伦贝尔市",
            "district": "满洲里市"
        }
    },
    {
        "id": "12805591273424991233",
        "title": "公共厕所",
        "address": "内蒙古自治区呼伦贝尔市满洲里市华埠大街6号满洲里万达广场F2",
        "tel": "",
        "category": "基础设施:公共设施:公共厕所",
        "type": 0,
        "location": {
            "lat": 49.5983,
            "lng": 117.430027
        },
        "ad_info": {
            "adcode": 150781,
            "province": "内蒙古自治区",
            "city": "呼伦贝尔市",
            "district": "满洲里市"
        }
    },
    {
        "id": "12437988044801191669",
        "title": "公共厕所",
        "address": "内蒙古自治区呼伦贝尔市海拉尔区光明街与锡林路交叉口正东方向40米左右",
        "tel": "",
        "category": "基础设施:公共设施:公共厕所",
        "type": 0,
        "location": {
            "lat": 49.205376,
            "lng": 119.740332
        },
        "ad_info": {
            "adcode": 150702,
            "province": "内蒙古自治区",
            "city": "呼伦贝尔市",
            "district": "海拉尔区"
        }
    },
    {
        "id": "1699009091710649498",
        "title": "八十五老派出所公共厕所",
        "address": "内蒙古自治区呼伦贝尔市鄂伦春自治旗大杨树东八十五区老派出所附近厕所",
        "tel": "",
        "category": "基础设施:公共设施:公共厕所",
        "type": 0,
        "location": {
            "lat": 49.710702,
            "lng": 124.66834
        },
        "ad_info": {
            "adcode": 150723,
            "province": "内蒙古自治区",
            "city": "呼伦贝尔市",
            "district": "鄂伦春自治旗"
        }
    },
    {
        "id": "5728105492562095157",
        "title": "公共厕所",
        "address": "内蒙古自治区呼伦贝尔市海拉尔区满都拉街与滨河东路交叉口正北方向35米左右",
        "tel": "",
        "category": "基础设施:公共设施:公共厕所",
        "type": 0,
        "location": {
            "lat": 49.189411,
            "lng": 119.757365
        },
        "ad_info": {
            "adcode": 150702,
            "province": "内蒙古自治区",
            "city": "呼伦贝尔市",
            "district": "海拉尔区"
        }
    },
    {
        "id": "10107992765080787937",
        "title": "公共厕所(伊其罕驿站)",
        "address": "内蒙古自治区呼伦贝尔市扎兰屯市",
        "tel": "",
        "category": "基础设施:公共设施:公共厕所",
        "type": 0,
        "location": {
            "lat": 47.672235,
            "lng": 121.937043
        },
        "ad_info": {
            "adcode": 150783,
            "province": "内蒙古自治区",
            "city": "呼伦贝尔市",
            "district": "扎兰屯市"
        }
    },
    {
        "id": "7405632280214722158",
        "title": "女洗手间(伊仕丹购物广场)",
        "address": "内蒙古自治区呼伦贝尔市海拉尔区桥头街11号伊仕丹购物广场F4",
        "tel": "",
        "category": "基础设施:公共设施:女洗手间",
        "type": 0,
        "location": {
            "lat": 49.213114,
            "lng": 119.747712
        },
        "ad_info": {
            "adcode": 150702,
            "province": "内蒙古自治区",
            "city": "呼伦贝尔市",
            "district": "海拉尔区"
        }
    },
    {
        "id": "14479640414502444287",
        "title": "北游客中心洗手间",
        "address": "内蒙古自治区呼伦贝尔市陈巴尔虎旗",
        "tel": "",
        "category": "基础设施:公共设施:公共厕所",
        "type": 0,
        "location": {
            "lat": 49.722979,
            "lng": 120.121432
        },
        "ad_info": {
            "adcode": 150725,
            "province": "内蒙古自治区",
            "city": "呼伦贝尔市",
            "district": "陈巴尔虎旗"
        }
    },
    {
        "id": "8800650120242371701",
        "title": "牙哈沟服务区公共厕所",
        "address": "内蒙古自治区呼伦贝尔市阿荣旗牙哈沟服务区与G10绥满高速交叉口西460米",
        "tel": "",
        "category": "基础设施:公共设施:公共厕所",
        "type": 0,
        "location": {
            "lat": 48.698531,
            "lng": 122.632944
        },
        "ad_info": {
            "adcode": 150721,
            "province": "内蒙古自治区",
            "city": "呼伦贝尔市",
            "district": "阿荣旗"
        }
    },
    {
        "id": "4432271869588955873",
        "title": "男洗手间(伊仕丹购物广场)",
        "address": "内蒙古自治区呼伦贝尔市海拉尔区桥头街11号伊仕丹购物广场F2",
        "tel": "",
        "category": "基础设施:公共设施:男洗手间",
        "type": 0,
        "location": {
            "lat": 49.212798,
            "lng": 119.746828
        },
        "ad_info": {
            "adcode": 150702,
            "province": "内蒙古自治区",
            "city": "呼伦贝尔市",
            "district": "海拉尔区"
        }
    },
    {
        "id": "331910188876799335",
        "title": "公共厕所(综合馆东)",
        "address": "内蒙古自治区呼伦贝尔市鄂伦春自治旗综合馆东侧",
        "tel": "",
        "category": "基础设施:公共设施:公共厕所",
        "type": 0,
        "location": {
            "lat": 50.598416,
            "lng": 123.714355
        },
        "ad_info": {
            "adcode": 150723,
            "province": "内蒙古自治区",
            "city": "呼伦贝尔市",
            "district": "鄂伦春自治旗"
        }
    },
    {
        "id": "9346620465122468992",
        "title": "公共厕所(东庙旅游村)",
        "address": "内蒙古自治区呼伦贝尔市新巴尔虎右旗",
        "tel": "",
        "category": "基础设施:公共设施:公共厕所",
        "type": 0,
        "location": {
            "lat": 48.756849,
            "lng": 117.001122
        },
        "ad_info": {
            "adcode": 150727,
            "province": "内蒙古自治区",
            "city": "呼伦贝尔市",
            "district": "新巴尔虎右旗"
        }
    },
    {
        "id": "14628546634392753769",
        "title": "公共厕所(加油站北)",
        "address": "内蒙古自治区呼伦贝尔市鄂伦春自治旗兴安石油加油站西北侧70米",
        "tel": "",
        "category": "基础设施:公共设施:公共厕所",
        "type": 0,
        "location": {
            "lat": 50.650329,
            "lng": 122.509229
        },
        "ad_info": {
            "adcode": 150723,
            "province": "内蒙古自治区",
            "city": "呼伦贝尔市",
            "district": "鄂伦春自治旗"
        }
    },
    {
        "id": "7721935075064949741",
        "title": "公共厕所",
        "address": "内蒙古自治区呼伦贝尔市额尔古纳市湿地景区主门口停车场",
        "tel": "",
        "category": "基础设施:公共设施:公共厕所",
        "type": 0,
        "location": {
            "lat": 50.24622,
            "lng": 120.159023
        },
        "ad_info": {
            "adcode": 150784,
            "province": "内蒙古自治区",
            "city": "呼伦贝尔市",
            "district": "额尔古纳市"
        }
    },
    {
        "id": "3435780707083406067",
        "title": "公共厕所(民族园游客中心)",
        "address": "内蒙古自治区呼伦贝尔市莫力达瓦达斡尔族自治旗中国达斡尔民族风情园游客中心东南侧",
        "tel": "",
        "category": "基础设施:公共设施:公共厕所",
        "type": 0,
        "location": {
            "lat": 48.566115,
            "lng": 124.482082
        },
        "ad_info": {
            "adcode": 150722,
            "province": "内蒙古自治区",
            "city": "呼伦贝尔市",
            "district": "莫力达瓦达斡尔族自治旗"
        }
    },
    {
        "id": "7757339112654065041",
        "title": "公共厕所",
        "address": "内蒙古自治区呼伦贝尔市海拉尔区626路与六二六街交叉口西北方向180米左右",
        "tel": "",
        "category": "基础设施:公共设施:公共厕所",
        "type": 0,
        "location": {
            "lat": 49.215445,
            "lng": 119.769689
        },
        "ad_info": {
            "adcode": 150702,
            "province": "内蒙古自治区",
            "city": "呼伦贝尔市",
            "district": "海拉尔区"
        }
    },
    {
        "id": "12631113644785238418",
        "title": "公共厕所",
        "address": "内蒙古自治区呼伦贝尔市满洲里市华埠大街6号满洲里万达广场F1",
        "tel": "",
        "category": "基础设施:公共设施:公共厕所",
        "type": 0,
        "location": {
            "lat": 49.599283,
            "lng": 117.42723
        },
        "ad_info": {
            "adcode": 150781,
            "province": "内蒙古自治区",
            "city": "呼伦贝尔市",
            "district": "满洲里市"
        }
    },
    {
        "id": "6079882147547246733",
        "title": "公共厕所",
        "address": "内蒙古自治区呼伦贝尔市鄂伦春自治旗向阳街与青年路交叉口正西方向203米左右",
        "tel": "",
        "category": "基础设施:公共设施:公共厕所",
        "type": 0,
        "location": {
            "lat": 50.580247,
            "lng": 123.724637
        },
        "ad_info": {
            "adcode": 150723,
            "province": "内蒙古自治区",
            "city": "呼伦贝尔市",
            "district": "鄂伦春自治旗"
        }
    },
    {
        "id": "17074113548543116278",
        "title": "公共厕所",
        "address": "内蒙古自治区呼伦贝尔市扎兰屯市庆和路兰云大厦",
        "tel": "",
        "category": "基础设施:公共设施:公共厕所",
        "type": 0,
        "location": {
            "lat": 48.006807,
            "lng": 122.741139
        },
        "ad_info": {
            "adcode": 150783,
            "province": "内蒙古自治区",
            "city": "呼伦贝尔市",
            "district": "扎兰屯市"
        }
    },
    {
        "id": "16931625464077293044",
        "title": "公共厕所",
        "address": "内蒙古自治区呼伦贝尔市莫力达瓦达斡尔族自治旗苏都尔街与西环城路交叉口东南方向43米左右",
        "tel": "",
        "category": "基础设施:公共设施:公共厕所",
        "type": 0,
        "location": {
            "lat": 48.474385,
            "lng": 124.503751
        },
        "ad_info": {
            "adcode": 150722,
            "province": "内蒙古自治区",
            "city": "呼伦贝尔市",
            "district": "莫力达瓦达斡尔族自治旗"
        }
    },
    {
        "id": "7644006466901086843",
        "title": "公共厕所",
        "address": "内蒙古自治区呼伦贝尔市满洲里市一道街与中苏金街交叉口西南方向139米左右",
        "tel": "",
        "category": "基础设施:公共设施:公共厕所",
        "type": 0,
        "location": {
            "lat": 49.58802,
            "lng": 117.447699
        },
        "ad_info": {
            "adcode": 150781,
            "province": "内蒙古自治区",
            "city": "呼伦贝尔市",
            "district": "满洲里市"
        }
    },
    {
        "id": "9639310910241689041",
        "title": "公共厕所(纪念园停车场)",
        "address": "内蒙古自治区呼伦贝尔市陈巴尔虎旗侵华日军海拉尔要塞遗址东北侧70米",
        "tel": "",
        "category": "基础设施:公共设施:公共厕所",
        "type": 0,
        "location": {
            "lat": 49.251195,
            "lng": 119.719644
        },
        "ad_info": {
            "adcode": 150725,
            "province": "内蒙古自治区",
            "city": "呼伦贝尔市",
            "district": "陈巴尔虎旗"
        }
    },
    {
        "id": "3076110159566934633",
        "title": "公共厕所",
        "address": "内蒙古自治区呼伦贝尔市额尔古纳市列夫湿地庄园西侧380米",
        "tel": "",
        "category": "基础设施:公共设施:公共厕所",
        "type": 0,
        "location": {
            "lat": 50.207793,
            "lng": 119.670044
        },
        "ad_info": {
            "adcode": 150784,
            "province": "内蒙古自治区",
            "city": "呼伦贝尔市",
            "district": "额尔古纳市"
        }
    },
    {
        "id": "15877637626898882789",
        "title": "主游客中心洗手间",
        "address": "内蒙古自治区呼伦贝尔市陈巴尔虎旗莫尔格勒河景区主游客中心2层",
        "tel": "",
        "category": "基础设施:公共设施:公共厕所",
        "type": 0,
        "location": {
            "lat": 49.46151,
            "lng": 119.709959
        },
        "ad_info": {
            "adcode": 150725,
            "province": "内蒙古自治区",
            "city": "呼伦贝尔市",
            "district": "陈巴尔虎旗"
        }
    },
    {
        "id": "2397576865644119414",
        "title": "公共厕所",
        "address": "内蒙古自治区呼伦贝尔市鄂伦春自治旗中央街与霍都奇路交叉口西北方向191米左右",
        "tel": "",
        "category": "基础设施:公共设施:公共厕所",
        "type": 0,
        "location": {
            "lat": 50.652175,
            "lng": 122.497852
        },
        "ad_info": {
            "adcode": 150723,
            "province": "内蒙古自治区",
            "city": "呼伦贝尔市",
            "district": "鄂伦春自治旗"
        }
    },
    {
        "id": "11684741174440046448",
        "title": "公共厕所",
        "address": "内蒙古自治区呼伦贝尔市满洲里市世纪大道与东世纪大道交叉口东北方向189米左右",
        "tel": "",
        "category": "基础设施:公共设施:公共厕所",
        "type": 0,
        "location": {
            "lat": 49.595055,
            "lng": 117.467491
        },
        "ad_info": {
            "adcode": 150781,
            "province": "内蒙古自治区",
            "city": "呼伦贝尔市",
            "district": "满洲里市"
        }
    },
    {
        "id": "13468395061375160096",
        "title": "女洗手间",
        "address": "内蒙古自治区呼伦贝尔市海拉尔区桥头街11号伊仕丹购物广场F2",
        "tel": "",
        "category": "基础设施:公共设施:女洗手间",
        "type": 0,
        "location": {
            "lat": 49.212744,
            "lng": 119.746787
        },
        "ad_info": {
            "adcode": 150702,
            "province": "内蒙古自治区",
            "city": "呼伦贝尔市",
            "district": "海拉尔区"
        }
    },
    {
        "id": "14124906743817604643",
        "title": "公共厕所(中蒙医院东南侧)",
        "address": "内蒙古自治区呼伦贝尔市满洲里市富民街与新兴路交叉口东北方向57米左右",
        "tel": "",
        "category": "基础设施:公共设施:公共厕所",
        "type": 0,
        "location": {
            "lat": 49.504098,
            "lng": 117.684438
        },
        "ad_info": {
            "adcode": 150781,
            "province": "内蒙古自治区",
            "city": "呼伦贝尔市",
            "district": "满洲里市"
        }
    },
    {
        "id": "4342461043463630008",
        "title": "陈旗互通加油站公共厕所",
        "address": "内蒙古自治区呼伦贝尔市陈巴尔虎旗海拉尔收费站东南100米",
        "tel": "",
        "category": "基础设施:公共设施:公共厕所",
        "type": 0,
        "location": {
            "lat": 49.310079,
            "lng": 119.730501
        },
        "ad_info": {
            "adcode": 150725,
            "province": "内蒙古自治区",
            "city": "呼伦贝尔市",
            "district": "陈巴尔虎旗"
        }
    },
    {
        "id": "11612109394091557683",
        "title": "牙哈沟服务区公共厕所",
        "address": "内蒙古自治区呼伦贝尔市阿荣旗牙哈沟服务区与G10绥满高速交叉口西440米",
        "tel": "",
        "category": "基础设施:公共设施:公共厕所",
        "type": 0,
        "location": {
            "lat": 48.700676,
            "lng": 122.632501
        },
        "ad_info": {
            "adcode": 150721,
            "province": "内蒙古自治区",
            "city": "呼伦贝尔市",
            "district": "阿荣旗"
        }
    },
    {
        "id": "17765126113756574384",
        "title": "惠风川停车区公共厕所",
        "address": "内蒙古自治区呼伦贝尔市扎兰屯市G111与Y004交叉口西南方向1924米左右",
        "tel": "",
        "category": "基础设施:公共设施:公共厕所",
        "type": 0,
        "location": {
            "lat": 47.531532,
            "lng": 122.447858
        },
        "ad_info": {
            "adcode": 150783,
            "province": "内蒙古自治区",
            "city": "呼伦贝尔市",
            "district": "扎兰屯市"
        }
    },
    {
        "id": "14422075235138685599",
        "title": "男洗手间",
        "address": "内蒙古自治区呼伦贝尔市海拉尔区桥头街11号伊仕丹购物广场F4",
        "tel": "",
        "category": "基础设施:公共设施:男洗手间",
        "type": 0,
        "location": {
            "lat": 49.213124,
            "lng": 119.747763
        },
        "ad_info": {
            "adcode": 150702,
            "province": "内蒙古自治区",
            "city": "呼伦贝尔市",
            "district": "海拉尔区"
        }
    },
    {
        "id": "12418790859244336056",
        "title": "公共厕所(巴林喇嘛山景区内)",
        "address": "内蒙古自治区呼伦贝尔市牙克石市",
        "tel": "",
        "category": "基础设施:公共设施:公共厕所",
        "type": 0,
        "location": {
            "lat": 48.332658,
            "lng": 122.32141
        },
        "ad_info": {
            "adcode": 150782,
            "province": "内蒙古自治区",
            "city": "呼伦贝尔市",
            "district": "牙克石市"
        }
    },
    {
        "id": "3566166384842769149",
        "title": "公共厕所",
        "address": "内蒙古自治区呼伦贝尔市鄂伦春自治旗甘奎街与能源路交叉口正南方向14米左右",
        "tel": "",
        "category": "基础设施:公共设施:公共厕所",
        "type": 0,
        "location": {
            "lat": 49.740493,
            "lng": 124.625749
        },
        "ad_info": {
            "adcode": 150723,
            "province": "内蒙古自治区",
            "city": "呼伦贝尔市",
            "district": "鄂伦春自治旗"
        }
    },
    {
        "id": "12346886638826227395",
        "title": "公共厕所",
        "address": "内蒙古自治区呼伦贝尔市海拉尔区华联动迁小区东北侧210米",
        "tel": "",
        "category": "基础设施:公共设施:公共厕所",
        "type": 0,
        "location": {
            "lat": 49.224643,
            "lng": 119.772345
        },
        "ad_info": {
            "adcode": 150702,
            "province": "内蒙古自治区",
            "city": "呼伦贝尔市",
            "district": "海拉尔区"
        }
    },
    {
        "id": "11262910738006334393",
        "title": "公共厕所(昆仑山村委会)",
        "address": "内蒙古自治区呼伦贝尔市鄂伦春自治旗昆仑山村一组",
        "tel": "",
        "category": "基础设施:公共设施:公共厕所",
        "type": 0,
        "location": {
            "lat": 50.550025,
            "lng": 123.776574
        },
        "ad_info": {
            "adcode": 150723,
            "province": "内蒙古自治区",
            "city": "呼伦贝尔市",
            "district": "鄂伦春自治旗"
        }
    },
    {
        "id": "4974831167092771437",
        "title": "公共厕所(西博荣)",
        "address": "内蒙古自治区呼伦贝尔市莫力达瓦达斡尔族自治旗",
        "tel": "",
        "category": "基础设施:公共设施:公共厕所",
        "type": 0,
        "location": {
            "lat": 48.342526,
            "lng": 124.448427
        },
        "ad_info": {
            "adcode": 150722,
            "province": "内蒙古自治区",
            "city": "呼伦贝尔市",
            "district": "莫力达瓦达斡尔族自治旗"
        }
    },
    {
        "id": "5853353693393410696",
        "title": "公共厕所(克一河中央街南侧)",
        "address": "内蒙古自治区呼伦贝尔市鄂伦春自治旗S301与中央街交叉口正西方向617米左右",
        "tel": "",
        "category": "基础设施:公共设施:公共厕所",
        "type": 0,
        "location": {
            "lat": 50.655511,
            "lng": 122.530693
        },
        "ad_info": {
            "adcode": 150723,
            "province": "内蒙古自治区",
            "city": "呼伦贝尔市",
            "district": "鄂伦春自治旗"
        }
    },
    {
        "id": "4688216491185876397",
        "title": "公共厕所(跟河源湿地公园便利店)",
        "address": "内蒙古自治区呼伦贝尔市根河市",
        "tel": "",
        "category": "基础设施:公共设施:公共厕所",
        "type": 0,
        "location": {
            "lat": 50.872631,
            "lng": 121.669825
        },
        "ad_info": {
            "adcode": 150785,
            "province": "内蒙古自治区",
            "city": "呼伦贝尔市",
            "district": "根河市"
        }
    },
    {
        "id": "16931625464077293044",
        "title": "公共厕所",
        "address": "内蒙古自治区呼伦贝尔市莫力达瓦达斡尔族自治旗苏都尔街与西环城路交叉口东南方向43米左右",
        "tel": "",
        "category": "基础设施:公共设施:公共厕所",
        "type": 0,
        "location": {
            "lat": 48.474385,
            "lng": 124.503751
        },
        "ad_info": {
            "adcode": 150722,
            "province": "内蒙古自治区",
            "city": "呼伦贝尔市",
            "district": "莫力达瓦达斡尔族自治旗"
        }
    },
    {
        "id": "7644006466901086843",
        "title": "公共厕所",
        "address": "内蒙古自治区呼伦贝尔市满洲里市一道街与中苏金街交叉口西南方向139米左右",
        "tel": "",
        "category": "基础设施:公共设施:公共厕所",
        "type": 0,
        "location": {
            "lat": 49.58802,
            "lng": 117.447699
        },
        "ad_info": {
            "adcode": 150781,
            "province": "内蒙古自治区",
            "city": "呼伦贝尔市",
            "district": "满洲里市"
        }
    },
    {
        "id": "9639310910241689041",
        "title": "公共厕所(纪念园停车场)",
        "address": "内蒙古自治区呼伦贝尔市陈巴尔虎旗侵华日军海拉尔要塞遗址东北侧70米",
        "tel": "",
        "category": "基础设施:公共设施:公共厕所",
        "type": 0,
        "location": {
            "lat": 49.251195,
            "lng": 119.719644
        },
        "ad_info": {
            "adcode": 150725,
            "province": "内蒙古自治区",
            "city": "呼伦贝尔市",
            "district": "陈巴尔虎旗"
        }
    },
    {
        "id": "3076110159566934633",
        "title": "公共厕所",
        "address": "内蒙古自治区呼伦贝尔市额尔古纳市列夫湿地庄园西侧380米",
        "tel": "",
        "category": "基础设施:公共设施:公共厕所",
        "type": 0,
        "location": {
            "lat": 50.207793,
            "lng": 119.670044
        },
        "ad_info": {
            "adcode": 150784,
            "province": "内蒙古自治区",
            "city": "呼伦贝尔市",
            "district": "额尔古纳市"
        }
    },
    {
        "id": "15877637626898882789",
        "title": "主游客中心洗手间",
        "address": "内蒙古自治区呼伦贝尔市陈巴尔虎旗莫尔格勒河景区主游客中心2层",
        "tel": "",
        "category": "基础设施:公共设施:公共厕所",
        "type": 0,
        "location": {
            "lat": 49.46151,
            "lng": 119.709959
        },
        "ad_info": {
            "adcode": 150725,
            "province": "内蒙古自治区",
            "city": "呼伦贝尔市",
            "district": "陈巴尔虎旗"
        }
    },
    {
        "id": "2397576865644119414",
        "title": "公共厕所",
        "address": "内蒙古自治区呼伦贝尔市鄂伦春自治旗中央街与霍都奇路交叉口西北方向191米左右",
        "tel": "",
        "category": "基础设施:公共设施:公共厕所",
        "type": 0,
        "location": {
            "lat": 50.652175,
            "lng": 122.497852
        },
        "ad_info": {
            "adcode": 150723,
            "province": "内蒙古自治区",
            "city": "呼伦贝尔市",
            "district": "鄂伦春自治旗"
        }
    },
    {
        "id": "11684741174440046448",
        "title": "公共厕所",
        "address": "内蒙古自治区呼伦贝尔市满洲里市世纪大道与东世纪大道交叉口东北方向189米左右",
        "tel": "",
        "category": "基础设施:公共设施:公共厕所",
        "type": 0,
        "location": {
            "lat": 49.595055,
            "lng": 117.467491
        },
        "ad_info": {
            "adcode": 150781,
            "province": "内蒙古自治区",
            "city": "呼伦贝尔市",
            "district": "满洲里市"
        }
    },
    {
        "id": "13468395061375160096",
        "title": "女洗手间",
        "address": "内蒙古自治区呼伦贝尔市海拉尔区桥头街11号伊仕丹购物广场F2",
        "tel": "",
        "category": "基础设施:公共设施:女洗手间",
        "type": 0,
        "location": {
            "lat": 49.212744,
            "lng": 119.746787
        },
        "ad_info": {
            "adcode": 150702,
            "province": "内蒙古自治区",
            "city": "呼伦贝尔市",
            "district": "海拉尔区"
        }
    },
    {
        "id": "14124906743817604643",
        "title": "公共厕所(中蒙医院东南侧)",
        "address": "内蒙古自治区呼伦贝尔市满洲里市富民街与新兴路交叉口东北方向57米左右",
        "tel": "",
        "category": "基础设施:公共设施:公共厕所",
        "type": 0,
        "location": {
            "lat": 49.504098,
            "lng": 117.684438
        },
        "ad_info": {
            "adcode": 150781,
            "province": "内蒙古自治区",
            "city": "呼伦贝尔市",
            "district": "满洲里市"
        }
    },
    {
        "id": "4342461043463630008",
        "title": "陈旗互通加油站公共厕所",
        "address": "内蒙古自治区呼伦贝尔市陈巴尔虎旗海拉尔收费站东南100米",
        "tel": "",
        "category": "基础设施:公共设施:公共厕所",
        "type": 0,
        "location": {
            "lat": 49.310079,
            "lng": 119.730501
        },
        "ad_info": {
            "adcode": 150725,
            "province": "内蒙古自治区",
            "city": "呼伦贝尔市",
            "district": "陈巴尔虎旗"
        }
    },
    {
        "id": "11612109394091557683",
        "title": "牙哈沟服务区公共厕所",
        "address": "内蒙古自治区呼伦贝尔市阿荣旗牙哈沟服务区与G10绥满高速交叉口西440米",
        "tel": "",
        "category": "基础设施:公共设施:公共厕所",
        "type": 0,
        "location": {
            "lat": 48.700676,
            "lng": 122.632501
        },
        "ad_info": {
            "adcode": 150721,
            "province": "内蒙古自治区",
            "city": "呼伦贝尔市",
            "district": "阿荣旗"
        }
    },
    {
        "id": "17765126113756574384",
        "title": "惠风川停车区公共厕所",
        "address": "内蒙古自治区呼伦贝尔市扎兰屯市G111与Y004交叉口西南方向1924米左右",
        "tel": "",
        "category": "基础设施:公共设施:公共厕所",
        "type": 0,
        "location": {
            "lat": 47.531532,
            "lng": 122.447858
        },
        "ad_info": {
            "adcode": 150783,
            "province": "内蒙古自治区",
            "city": "呼伦贝尔市",
            "district": "扎兰屯市"
        }
    },
    {
        "id": "14422075235138685599",
        "title": "男洗手间",
        "address": "内蒙古自治区呼伦贝尔市海拉尔区桥头街11号伊仕丹购物广场F4",
        "tel": "",
        "category": "基础设施:公共设施:男洗手间",
        "type": 0,
        "location": {
            "lat": 49.213124,
            "lng": 119.747763
        },
        "ad_info": {
            "adcode": 150702,
            "province": "内蒙古自治区",
            "city": "呼伦贝尔市",
            "district": "海拉尔区"
        }
    },
    {
        "id": "12418790859244336056",
        "title": "公共厕所(巴林喇嘛山景区内)",
        "address": "内蒙古自治区呼伦贝尔市牙克石市",
        "tel": "",
        "category": "基础设施:公共设施:公共厕所",
        "type": 0,
        "location": {
            "lat": 48.332658,
            "lng": 122.32141
        },
        "ad_info": {
            "adcode": 150782,
            "province": "内蒙古自治区",
            "city": "呼伦贝尔市",
            "district": "牙克石市"
        }
    },
    {
        "id": "3566166384842769149",
        "title": "公共厕所",
        "address": "内蒙古自治区呼伦贝尔市鄂伦春自治旗甘奎街与能源路交叉口正南方向14米左右",
        "tel": "",
        "category": "基础设施:公共设施:公共厕所",
        "type": 0,
        "location": {
            "lat": 49.740493,
            "lng": 124.625749
        },
        "ad_info": {
            "adcode": 150723,
            "province": "内蒙古自治区",
            "city": "呼伦贝尔市",
            "district": "鄂伦春自治旗"
        }
    },
    {
        "id": "12346886638826227395",
        "title": "公共厕所",
        "address": "内蒙古自治区呼伦贝尔市海拉尔区华联动迁小区东北侧210米",
        "tel": "",
        "category": "基础设施:公共设施:公共厕所",
        "type": 0,
        "location": {
            "lat": 49.224643,
            "lng": 119.772345
        },
        "ad_info": {
            "adcode": 150702,
            "province": "内蒙古自治区",
            "city": "呼伦贝尔市",
            "district": "海拉尔区"
        }
    },
    {
        "id": "11262910738006334393",
        "title": "公共厕所(昆仑山村委会)",
        "address": "内蒙古自治区呼伦贝尔市鄂伦春自治旗昆仑山村一组",
        "tel": "",
        "category": "基础设施:公共设施:公共厕所",
        "type": 0,
        "location": {
            "lat": 50.550025,
            "lng": 123.776574
        },
        "ad_info": {
            "adcode": 150723,
            "province": "内蒙古自治区",
            "city": "呼伦贝尔市",
            "district": "鄂伦春自治旗"
        }
    },
    {
        "id": "4974831167092771437",
        "title": "公共厕所(西博荣)",
        "address": "内蒙古自治区呼伦贝尔市莫力达瓦达斡尔族自治旗",
        "tel": "",
        "category": "基础设施:公共设施:公共厕所",
        "type": 0,
        "location": {
            "lat": 48.342526,
            "lng": 124.448427
        },
        "ad_info": {
            "adcode": 150722,
            "province": "内蒙古自治区",
            "city": "呼伦贝尔市",
            "district": "莫力达瓦达斡尔族自治旗"
        }
    },
    {
        "id": "5853353693393410696",
        "title": "公共厕所(克一河中央街南侧)",
        "address": "内蒙古自治区呼伦贝尔市鄂伦春自治旗S301与中央街交叉口正西方向617米左右",
        "tel": "",
        "category": "基础设施:公共设施:公共厕所",
        "type": 0,
        "location": {
            "lat": 50.655511,
            "lng": 122.530693
        },
        "ad_info": {
            "adcode": 150723,
            "province": "内蒙古自治区",
            "city": "呼伦贝尔市",
            "district": "鄂伦春自治旗"
        }
    },
    {
        "id": "4688216491185876397",
        "title": "公共厕所(跟河源湿地公园便利店)",
        "address": "内蒙古自治区呼伦贝尔市根河市",
        "tel": "",
        "category": "基础设施:公共设施:公共厕所",
        "type": 0,
        "location": {
            "lat": 50.872631,
            "lng": 121.669825
        },
        "ad_info": {
            "adcode": 150785,
            "province": "内蒙古自治区",
            "city": "呼伦贝尔市",
            "district": "根河市"
        }
    },
    {
        "id": "16931625464077293044",
        "title": "公共厕所",
        "address": "内蒙古自治区呼伦贝尔市莫力达瓦达斡尔族自治旗苏都尔街与西环城路交叉口东南方向43米左右",
        "tel": "",
        "category": "基础设施:公共设施:公共厕所",
        "type": 0,
        "location": {
            "lat": 48.474385,
            "lng": 124.503751
        },
        "ad_info": {
            "adcode": 150722,
            "province": "内蒙古自治区",
            "city": "呼伦贝尔市",
            "district": "莫力达瓦达斡尔族自治旗"
        }
    },
    {
        "id": "7644006466901086843",
        "title": "公共厕所",
        "address": "内蒙古自治区呼伦贝尔市满洲里市一道街与中苏金街交叉口西南方向139米左右",
        "tel": "",
        "category": "基础设施:公共设施:公共厕所",
        "type": 0,
        "location": {
            "lat": 49.58802,
            "lng": 117.447699
        },
        "ad_info": {
            "adcode": 150781,
            "province": "内蒙古自治区",
            "city": "呼伦贝尔市",
            "district": "满洲里市"
        }
    },
    {
        "id": "9639310910241689041",
        "title": "公共厕所(纪念园停车场)",
        "address": "内蒙古自治区呼伦贝尔市陈巴尔虎旗侵华日军海拉尔要塞遗址东北侧70米",
        "tel": "",
        "category": "基础设施:公共设施:公共厕所",
        "type": 0,
        "location": {
            "lat": 49.251195,
            "lng": 119.719644
        },
        "ad_info": {
            "adcode": 150725,
            "province": "内蒙古自治区",
            "city": "呼伦贝尔市",
            "district": "陈巴尔虎旗"
        }
    },
    {
        "id": "3076110159566934633",
        "title": "公共厕所",
        "address": "内蒙古自治区呼伦贝尔市额尔古纳市列夫湿地庄园西侧380米",
        "tel": "",
        "category": "基础设施:公共设施:公共厕所",
        "type": 0,
        "location": {
            "lat": 50.207793,
            "lng": 119.670044
        },
        "ad_info": {
            "adcode": 150784,
            "province": "内蒙古自治区",
            "city": "呼伦贝尔市",
            "district": "额尔古纳市"
        }
    },
    {
        "id": "15877637626898882789",
        "title": "主游客中心洗手间",
        "address": "内蒙古自治区呼伦贝尔市陈巴尔虎旗莫尔格勒河景区主游客中心2层",
        "tel": "",
        "category": "基础设施:公共设施:公共厕所",
        "type": 0,
        "location": {
            "lat": 49.46151,
            "lng": 119.709959
        },
        "ad_info": {
            "adcode": 150725,
            "province": "内蒙古自治区",
            "city": "呼伦贝尔市",
            "district": "陈巴尔虎旗"
        }
    },
    {
        "id": "2397576865644119414",
        "title": "公共厕所",
        "address": "内蒙古自治区呼伦贝尔市鄂伦春自治旗中央街与霍都奇路交叉口西北方向191米左右",
        "tel": "",
        "category": "基础设施:公共设施:公共厕所",
        "type": 0,
        "location": {
            "lat": 50.652175,
            "lng": 122.497852
        },
        "ad_info": {
            "adcode": 150723,
            "province": "内蒙古自治区",
            "city": "呼伦贝尔市",
            "district": "鄂伦春自治旗"
        }
    },
    {
        "id": "11684741174440046448",
        "title": "公共厕所",
        "address": "内蒙古自治区呼伦贝尔市满洲里市世纪大道与东世纪大道交叉口东北方向189米左右",
        "tel": "",
        "category": "基础设施:公共设施:公共厕所",
        "type": 0,
        "location": {
            "lat": 49.595055,
            "lng": 117.467491
        },
        "ad_info": {
            "adcode": 150781,
            "province": "内蒙古自治区",
            "city": "呼伦贝尔市",
            "district": "满洲里市"
        }
    },
    {
        "id": "13468395061375160096",
        "title": "女洗手间",
        "address": "内蒙古自治区呼伦贝尔市海拉尔区桥头街11号伊仕丹购物广场F2",
        "tel": "",
        "category": "基础设施:公共设施:女洗手间",
        "type": 0,
        "location": {
            "lat": 49.212744,
            "lng": 119.746787
        },
        "ad_info": {
            "adcode": 150702,
            "province": "内蒙古自治区",
            "city": "呼伦贝尔市",
            "district": "海拉尔区"
        }
    },
    {
        "id": "14124906743817604643",
        "title": "公共厕所(中蒙医院东南侧)",
        "address": "内蒙古自治区呼伦贝尔市满洲里市富民街与新兴路交叉口东北方向57米左右",
        "tel": "",
        "category": "基础设施:公共设施:公共厕所",
        "type": 0,
        "location": {
            "lat": 49.504098,
            "lng": 117.684438
        },
        "ad_info": {
            "adcode": 150781,
            "province": "内蒙古自治区",
            "city": "呼伦贝尔市",
            "district": "满洲里市"
        }
    },
    {
        "id": "4342461043463630008",
        "title": "陈旗互通加油站公共厕所",
        "address": "内蒙古自治区呼伦贝尔市陈巴尔虎旗海拉尔收费站东南100米",
        "tel": "",
        "category": "基础设施:公共设施:公共厕所",
        "type": 0,
        "location": {
            "lat": 49.310079,
            "lng": 119.730501
        },
        "ad_info": {
            "adcode": 150725,
            "province": "内蒙古自治区",
            "city": "呼伦贝尔市",
            "district": "陈巴尔虎旗"
        }
    },
    {
        "id": "11612109394091557683",
        "title": "牙哈沟服务区公共厕所",
        "address": "内蒙古自治区呼伦贝尔市阿荣旗牙哈沟服务区与G10绥满高速交叉口西440米",
        "tel": "",
        "category": "基础设施:公共设施:公共厕所",
        "type": 0,
        "location": {
            "lat": 48.700676,
            "lng": 122.632501
        },
        "ad_info": {
            "adcode": 150721,
            "province": "内蒙古自治区",
            "city": "呼伦贝尔市",
            "district": "阿荣旗"
        }
    },
    {
        "id": "17765126113756574384",
        "title": "惠风川停车区公共厕所",
        "address": "内蒙古自治区呼伦贝尔市扎兰屯市G111与Y004交叉口西南方向1924米左右",
        "tel": "",
        "category": "基础设施:公共设施:公共厕所",
        "type": 0,
        "location": {
            "lat": 47.531532,
            "lng": 122.447858
        },
        "ad_info": {
            "adcode": 150783,
            "province": "内蒙古自治区",
            "city": "呼伦贝尔市",
            "district": "扎兰屯市"
        }
    },
    {
        "id": "14422075235138685599",
        "title": "男洗手间",
        "address": "内蒙古自治区呼伦贝尔市海拉尔区桥头街11号伊仕丹购物广场F4",
        "tel": "",
        "category": "基础设施:公共设施:男洗手间",
        "type": 0,
        "location": {
            "lat": 49.213124,
            "lng": 119.747763
        },
        "ad_info": {
            "adcode": 150702,
            "province": "内蒙古自治区",
            "city": "呼伦贝尔市",
            "district": "海拉尔区"
        }
    },
    {
        "id": "12418790859244336056",
        "title": "公共厕所(巴林喇嘛山景区内)",
        "address": "内蒙古自治区呼伦贝尔市牙克石市",
        "tel": "",
        "category": "基础设施:公共设施:公共厕所",
        "type": 0,
        "location": {
            "lat": 48.332658,
            "lng": 122.32141
        },
        "ad_info": {
            "adcode": 150782,
            "province": "内蒙古自治区",
            "city": "呼伦贝尔市",
            "district": "牙克石市"
        }
    },
    {
        "id": "3566166384842769149",
        "title": "公共厕所",
        "address": "内蒙古自治区呼伦贝尔市鄂伦春自治旗甘奎街与能源路交叉口正南方向14米左右",
        "tel": "",
        "category": "基础设施:公共设施:公共厕所",
        "type": 0,
        "location": {
            "lat": 49.740493,
            "lng": 124.625749
        },
        "ad_info": {
            "adcode": 150723,
            "province": "内蒙古自治区",
            "city": "呼伦贝尔市",
            "district": "鄂伦春自治旗"
        }
    },
    {
        "id": "12346886638826227395",
        "title": "公共厕所",
        "address": "内蒙古自治区呼伦贝尔市海拉尔区华联动迁小区东北侧210米",
        "tel": "",
        "category": "基础设施:公共设施:公共厕所",
        "type": 0,
        "location": {
            "lat": 49.224643,
            "lng": 119.772345
        },
        "ad_info": {
            "adcode": 150702,
            "province": "内蒙古自治区",
            "city": "呼伦贝尔市",
            "district": "海拉尔区"
        }
    },
    {
        "id": "11262910738006334393",
        "title": "公共厕所(昆仑山村委会)",
        "address": "内蒙古自治区呼伦贝尔市鄂伦春自治旗昆仑山村一组",
        "tel": "",
        "category": "基础设施:公共设施:公共厕所",
        "type": 0,
        "location": {
            "lat": 50.550025,
            "lng": 123.776574
        },
        "ad_info": {
            "adcode": 150723,
            "province": "内蒙古自治区",
            "city": "呼伦贝尔市",
            "district": "鄂伦春自治旗"
        }
    },
    {
        "id": "4974831167092771437",
        "title": "公共厕所(西博荣)",
        "address": "内蒙古自治区呼伦贝尔市莫力达瓦达斡尔族自治旗",
        "tel": "",
        "category": "基础设施:公共设施:公共厕所",
        "type": 0,
        "location": {
            "lat": 48.342526,
            "lng": 124.448427
        },
        "ad_info": {
            "adcode": 150722,
            "province": "内蒙古自治区",
            "city": "呼伦贝尔市",
            "district": "莫力达瓦达斡尔族自治旗"
        }
    },
    {
        "id": "5853353693393410696",
        "title": "公共厕所(克一河中央街南侧)",
        "address": "内蒙古自治区呼伦贝尔市鄂伦春自治旗S301与中央街交叉口正西方向617米左右",
        "tel": "",
        "category": "基础设施:公共设施:公共厕所",
        "type": 0,
        "location": {
            "lat": 50.655511,
            "lng": 122.530693
        },
        "ad_info": {
            "adcode": 150723,
            "province": "内蒙古自治区",
            "city": "呼伦贝尔市",
            "district": "鄂伦春自治旗"
        }
    },
    {
        "id": "4688216491185876397",
        "title": "公共厕所(跟河源湿地公园便利店)",
        "address": "内蒙古自治区呼伦贝尔市根河市",
        "tel": "",
        "category": "基础设施:公共设施:公共厕所",
        "type": 0,
        "location": {
            "lat": 50.872631,
            "lng": 121.669825
        },
        "ad_info": {
            "adcode": 150785,
            "province": "内蒙古自治区",
            "city": "呼伦贝尔市",
            "district": "根河市"
        }
    },
    {
        "id": "16931625464077293044",
        "title": "公共厕所",
        "address": "内蒙古自治区呼伦贝尔市莫力达瓦达斡尔族自治旗苏都尔街与西环城路交叉口东南方向43米左右",
        "tel": "",
        "category": "基础设施:公共设施:公共厕所",
        "type": 0,
        "location": {
            "lat": 48.474385,
            "lng": 124.503751
        },
        "ad_info": {
            "adcode": 150722,
            "province": "内蒙古自治区",
            "city": "呼伦贝尔市",
            "district": "莫力达瓦达斡尔族自治旗"
        }
    },
    {
        "id": "7644006466901086843",
        "title": "公共厕所",
        "address": "内蒙古自治区呼伦贝尔市满洲里市一道街与中苏金街交叉口西南方向139米左右",
        "tel": "",
        "category": "基础设施:公共设施:公共厕所",
        "type": 0,
        "location": {
            "lat": 49.58802,
            "lng": 117.447699
        },
        "ad_info": {
            "adcode": 150781,
            "province": "内蒙古自治区",
            "city": "呼伦贝尔市",
            "district": "满洲里市"
        }
    },
    {
        "id": "9639310910241689041",
        "title": "公共厕所(纪念园停车场)",
        "address": "内蒙古自治区呼伦贝尔市陈巴尔虎旗侵华日军海拉尔要塞遗址东北侧70米",
        "tel": "",
        "category": "基础设施:公共设施:公共厕所",
        "type": 0,
        "location": {
            "lat": 49.251195,
            "lng": 119.719644
        },
        "ad_info": {
            "adcode": 150725,
            "province": "内蒙古自治区",
            "city": "呼伦贝尔市",
            "district": "陈巴尔虎旗"
        }
    },
    {
        "id": "3076110159566934633",
        "title": "公共厕所",
        "address": "内蒙古自治区呼伦贝尔市额尔古纳市列夫湿地庄园西侧380米",
        "tel": "",
        "category": "基础设施:公共设施:公共厕所",
        "type": 0,
        "location": {
            "lat": 50.207793,
            "lng": 119.670044
        },
        "ad_info": {
            "adcode": 150784,
            "province": "内蒙古自治区",
            "city": "呼伦贝尔市",
            "district": "额尔古纳市"
        }
    },
    {
        "id": "15877637626898882789",
        "title": "主游客中心洗手间",
        "address": "内蒙古自治区呼伦贝尔市陈巴尔虎旗莫尔格勒河景区主游客中心2层",
        "tel": "",
        "category": "基础设施:公共设施:公共厕所",
        "type": 0,
        "location": {
            "lat": 49.46151,
            "lng": 119.709959
        },
        "ad_info": {
            "adcode": 150725,
            "province": "内蒙古自治区",
            "city": "呼伦贝尔市",
            "district": "陈巴尔虎旗"
        }
    },
    {
        "id": "2397576865644119414",
        "title": "公共厕所",
        "address": "内蒙古自治区呼伦贝尔市鄂伦春自治旗中央街与霍都奇路交叉口西北方向191米左右",
        "tel": "",
        "category": "基础设施:公共设施:公共厕所",
        "type": 0,
        "location": {
            "lat": 50.652175,
            "lng": 122.497852
        },
        "ad_info": {
            "adcode": 150723,
            "province": "内蒙古自治区",
            "city": "呼伦贝尔市",
            "district": "鄂伦春自治旗"
        }
    },
    {
        "id": "11684741174440046448",
        "title": "公共厕所",
        "address": "内蒙古自治区呼伦贝尔市满洲里市世纪大道与东世纪大道交叉口东北方向189米左右",
        "tel": "",
        "category": "基础设施:公共设施:公共厕所",
        "type": 0,
        "location": {
            "lat": 49.595055,
            "lng": 117.467491
        },
        "ad_info": {
            "adcode": 150781,
            "province": "内蒙古自治区",
            "city": "呼伦贝尔市",
            "district": "满洲里市"
        }
    },
    {
        "id": "13468395061375160096",
        "title": "女洗手间",
        "address": "内蒙古自治区呼伦贝尔市海拉尔区桥头街11号伊仕丹购物广场F2",
        "tel": "",
        "category": "基础设施:公共设施:女洗手间",
        "type": 0,
        "location": {
            "lat": 49.212744,
            "lng": 119.746787
        },
        "ad_info": {
            "adcode": 150702,
            "province": "内蒙古自治区",
            "city": "呼伦贝尔市",
            "district": "海拉尔区"
        }
    },
    {
        "id": "14124906743817604643",
        "title": "公共厕所(中蒙医院东南侧)",
        "address": "内蒙古自治区呼伦贝尔市满洲里市富民街与新兴路交叉口东北方向57米左右",
        "tel": "",
        "category": "基础设施:公共设施:公共厕所",
        "type": 0,
        "location": {
            "lat": 49.504098,
            "lng": 117.684438
        },
        "ad_info": {
            "adcode": 150781,
            "province": "内蒙古自治区",
            "city": "呼伦贝尔市",
            "district": "满洲里市"
        }
    },
    {
        "id": "4342461043463630008",
        "title": "陈旗互通加油站公共厕所",
        "address": "内蒙古自治区呼伦贝尔市陈巴尔虎旗海拉尔收费站东南100米",
        "tel": "",
        "category": "基础设施:公共设施:公共厕所",
        "type": 0,
        "location": {
            "lat": 49.310079,
            "lng": 119.730501
        },
        "ad_info": {
            "adcode": 150725,
            "province": "内蒙古自治区",
            "city": "呼伦贝尔市",
            "district": "陈巴尔虎旗"
        }
    },
    {
        "id": "11612109394091557683",
        "title": "牙哈沟服务区公共厕所",
        "address": "内蒙古自治区呼伦贝尔市阿荣旗牙哈沟服务区与G10绥满高速交叉口西440米",
        "tel": "",
        "category": "基础设施:公共设施:公共厕所",
        "type": 0,
        "location": {
            "lat": 48.700676,
            "lng": 122.632501
        },
        "ad_info": {
            "adcode": 150721,
            "province": "内蒙古自治区",
            "city": "呼伦贝尔市",
            "district": "阿荣旗"
        }
    },
    {
        "id": "17765126113756574384",
        "title": "惠风川停车区公共厕所",
        "address": "内蒙古自治区呼伦贝尔市扎兰屯市G111与Y004交叉口西南方向1924米左右",
        "tel": "",
        "category": "基础设施:公共设施:公共厕所",
        "type": 0,
        "location": {
            "lat": 47.531532,
            "lng": 122.447858
        },
        "ad_info": {
            "adcode": 150783,
            "province": "内蒙古自治区",
            "city": "呼伦贝尔市",
            "district": "扎兰屯市"
        }
    },
    {
        "id": "14422075235138685599",
        "title": "男洗手间",
        "address": "内蒙古自治区呼伦贝尔市海拉尔区桥头街11号伊仕丹购物广场F4",
        "tel": "",
        "category": "基础设施:公共设施:男洗手间",
        "type": 0,
        "location": {
            "lat": 49.213124,
            "lng": 119.747763
        },
        "ad_info": {
            "adcode": 150702,
            "province": "内蒙古自治区",
            "city": "呼伦贝尔市",
            "district": "海拉尔区"
        }
    },
    {
        "id": "12418790859244336056",
        "title": "公共厕所(巴林喇嘛山景区内)",
        "address": "内蒙古自治区呼伦贝尔市牙克石市",
        "tel": "",
        "category": "基础设施:公共设施:公共厕所",
        "type": 0,
        "location": {
            "lat": 48.332658,
            "lng": 122.32141
        },
        "ad_info": {
            "adcode": 150782,
            "province": "内蒙古自治区",
            "city": "呼伦贝尔市",
            "district": "牙克石市"
        }
    },
    {
        "id": "3566166384842769149",
        "title": "公共厕所",
        "address": "内蒙古自治区呼伦贝尔市鄂伦春自治旗甘奎街与能源路交叉口正南方向14米左右",
        "tel": "",
        "category": "基础设施:公共设施:公共厕所",
        "type": 0,
        "location": {
            "lat": 49.740493,
            "lng": 124.625749
        },
        "ad_info": {
            "adcode": 150723,
            "province": "内蒙古自治区",
            "city": "呼伦贝尔市",
            "district": "鄂伦春自治旗"
        }
    },
    {
        "id": "12346886638826227395",
        "title": "公共厕所",
        "address": "内蒙古自治区呼伦贝尔市海拉尔区华联动迁小区东北侧210米",
        "tel": "",
        "category": "基础设施:公共设施:公共厕所",
        "type": 0,
        "location": {
            "lat": 49.224643,
            "lng": 119.772345
        },
        "ad_info": {
            "adcode": 150702,
            "province": "内蒙古自治区",
            "city": "呼伦贝尔市",
            "district": "海拉尔区"
        }
    },
    {
        "id": "11262910738006334393",
        "title": "公共厕所(昆仑山村委会)",
        "address": "内蒙古自治区呼伦贝尔市鄂伦春自治旗昆仑山村一组",
        "tel": "",
        "category": "基础设施:公共设施:公共厕所",
        "type": 0,
        "location": {
            "lat": 50.550025,
            "lng": 123.776574
        },
        "ad_info": {
            "adcode": 150723,
            "province": "内蒙古自治区",
            "city": "呼伦贝尔市",
            "district": "鄂伦春自治旗"
        }
    },
    {
        "id": "4974831167092771437",
        "title": "公共厕所(西博荣)",
        "address": "内蒙古自治区呼伦贝尔市莫力达瓦达斡尔族自治旗",
        "tel": "",
        "category": "基础设施:公共设施:公共厕所",
        "type": 0,
        "location": {
            "lat": 48.342526,
            "lng": 124.448427
        },
        "ad_info": {
            "adcode": 150722,
            "province": "内蒙古自治区",
            "city": "呼伦贝尔市",
            "district": "莫力达瓦达斡尔族自治旗"
        }
    },
    {
        "id": "5853353693393410696",
        "title": "公共厕所(克一河中央街南侧)",
        "address": "内蒙古自治区呼伦贝尔市鄂伦春自治旗S301与中央街交叉口正西方向617米左右",
        "tel": "",
        "category": "基础设施:公共设施:公共厕所",
        "type": 0,
        "location": {
            "lat": 50.655511,
            "lng": 122.530693
        },
        "ad_info": {
            "adcode": 150723,
            "province": "内蒙古自治区",
            "city": "呼伦贝尔市",
            "district": "鄂伦春自治旗"
        }
    },
    {
        "id": "4688216491185876397",
        "title": "公共厕所(跟河源湿地公园便利店)",
        "address": "内蒙古自治区呼伦贝尔市根河市",
        "tel": "",
        "category": "基础设施:公共设施:公共厕所",
        "type": 0,
        "location": {
            "lat": 50.872631,
            "lng": 121.669825
        },
        "ad_info": {
            "adcode": 150785,
            "province": "内蒙古自治区",
            "city": "呼伦贝尔市",
            "district": "根河市"
        }
    },
    {
        "id": "16931625464077293044",
        "title": "公共厕所",
        "address": "内蒙古自治区呼伦贝尔市莫力达瓦达斡尔族自治旗苏都尔街与西环城路交叉口东南方向43米左右",
        "tel": "",
        "category": "基础设施:公共设施:公共厕所",
        "type": 0,
        "location": {
            "lat": 48.474385,
            "lng": 124.503751
        },
        "ad_info": {
            "adcode": 150722,
            "province": "内蒙古自治区",
            "city": "呼伦贝尔市",
            "district": "莫力达瓦达斡尔族自治旗"
        }
    },
    {
        "id": "7644006466901086843",
        "title": "公共厕所",
        "address": "内蒙古自治区呼伦贝尔市满洲里市一道街与中苏金街交叉口西南方向139米左右",
        "tel": "",
        "category": "基础设施:公共设施:公共厕所",
        "type": 0,
        "location": {
            "lat": 49.58802,
            "lng": 117.447699
        },
        "ad_info": {
            "adcode": 150781,
            "province": "内蒙古自治区",
            "city": "呼伦贝尔市",
            "district": "满洲里市"
        }
    },
    {
        "id": "9639310910241689041",
        "title": "公共厕所(纪念园停车场)",
        "address": "内蒙古自治区呼伦贝尔市陈巴尔虎旗侵华日军海拉尔要塞遗址东北侧70米",
        "tel": "",
        "category": "基础设施:公共设施:公共厕所",
        "type": 0,
        "location": {
            "lat": 49.251195,
            "lng": 119.719644
        },
        "ad_info": {
            "adcode": 150725,
            "province": "内蒙古自治区",
            "city": "呼伦贝尔市",
            "district": "陈巴尔虎旗"
        }
    },
    {
        "id": "3076110159566934633",
        "title": "公共厕所",
        "address": "内蒙古自治区呼伦贝尔市额尔古纳市列夫湿地庄园西侧380米",
        "tel": "",
        "category": "基础设施:公共设施:公共厕所",
        "type": 0,
        "location": {
            "lat": 50.207793,
            "lng": 119.670044
        },
        "ad_info": {
            "adcode": 150784,
            "province": "内蒙古自治区",
            "city": "呼伦贝尔市",
            "district": "额尔古纳市"
        }
    },
    {
        "id": "15877637626898882789",
        "title": "主游客中心洗手间",
        "address": "内蒙古自治区呼伦贝尔市陈巴尔虎旗莫尔格勒河景区主游客中心2层",
        "tel": "",
        "category": "基础设施:公共设施:公共厕所",
        "type": 0,
        "location": {
            "lat": 49.46151,
            "lng": 119.709959
        },
        "ad_info": {
            "adcode": 150725,
            "province": "内蒙古自治区",
            "city": "呼伦贝尔市",
            "district": "陈巴尔虎旗"
        }
    },
    {
        "id": "2397576865644119414",
        "title": "公共厕所",
        "address": "内蒙古自治区呼伦贝尔市鄂伦春自治旗中央街与霍都奇路交叉口西北方向191米左右",
        "tel": "",
        "category": "基础设施:公共设施:公共厕所",
        "type": 0,
        "location": {
            "lat": 50.652175,
            "lng": 122.497852
        },
        "ad_info": {
            "adcode": 150723,
            "province": "内蒙古自治区",
            "city": "呼伦贝尔市",
            "district": "鄂伦春自治旗"
        }
    },
    {
        "id": "11684741174440046448",
        "title": "公共厕所",
        "address": "内蒙古自治区呼伦贝尔市满洲里市世纪大道与东世纪大道交叉口东北方向189米左右",
        "tel": "",
        "category": "基础设施:公共设施:公共厕所",
        "type": 0,
        "location": {
            "lat": 49.595055,
            "lng": 117.467491
        },
        "ad_info": {
            "adcode": 150781,
            "province": "内蒙古自治区",
            "city": "呼伦贝尔市",
            "district": "满洲里市"
        }
    },
    {
        "id": "13468395061375160096",
        "title": "女洗手间",
        "address": "内蒙古自治区呼伦贝尔市海拉尔区桥头街11号伊仕丹购物广场F2",
        "tel": "",
        "category": "基础设施:公共设施:女洗手间",
        "type": 0,
        "location": {
            "lat": 49.212744,
            "lng": 119.746787
        },
        "ad_info": {
            "adcode": 150702,
            "province": "内蒙古自治区",
            "city": "呼伦贝尔市",
            "district": "海拉尔区"
        }
    },
    {
        "id": "14124906743817604643",
        "title": "公共厕所(中蒙医院东南侧)",
        "address": "内蒙古自治区呼伦贝尔市满洲里市富民街与新兴路交叉口东北方向57米左右",
        "tel": "",
        "category": "基础设施:公共设施:公共厕所",
        "type": 0,
        "location": {
            "lat": 49.504098,
            "lng": 117.684438
        },
        "ad_info": {
            "adcode": 150781,
            "province": "内蒙古自治区",
            "city": "呼伦贝尔市",
            "district": "满洲里市"
        }
    },
    {
        "id": "4342461043463630008",
        "title": "陈旗互通加油站公共厕所",
        "address": "内蒙古自治区呼伦贝尔市陈巴尔虎旗海拉尔收费站东南100米",
        "tel": "",
        "category": "基础设施:公共设施:公共厕所",
        "type": 0,
        "location": {
            "lat": 49.310079,
            "lng": 119.730501
        },
        "ad_info": {
            "adcode": 150725,
            "province": "内蒙古自治区",
            "city": "呼伦贝尔市",
            "district": "陈巴尔虎旗"
        }
    },
    {
        "id": "11612109394091557683",
        "title": "牙哈沟服务区公共厕所",
        "address": "内蒙古自治区呼伦贝尔市阿荣旗牙哈沟服务区与G10绥满高速交叉口西440米",
        "tel": "",
        "category": "基础设施:公共设施:公共厕所",
        "type": 0,
        "location": {
            "lat": 48.700676,
            "lng": 122.632501
        },
        "ad_info": {
            "adcode": 150721,
            "province": "内蒙古自治区",
            "city": "呼伦贝尔市",
            "district": "阿荣旗"
        }
    },
    {
        "id": "17765126113756574384",
        "title": "惠风川停车区公共厕所",
        "address": "内蒙古自治区呼伦贝尔市扎兰屯市G111与Y004交叉口西南方向1924米左右",
        "tel": "",
        "category": "基础设施:公共设施:公共厕所",
        "type": 0,
        "location": {
            "lat": 47.531532,
            "lng": 122.447858
        },
        "ad_info": {
            "adcode": 150783,
            "province": "内蒙古自治区",
            "city": "呼伦贝尔市",
            "district": "扎兰屯市"
        }
    },
    {
        "id": "14422075235138685599",
        "title": "男洗手间",
        "address": "内蒙古自治区呼伦贝尔市海拉尔区桥头街11号伊仕丹购物广场F4",
        "tel": "",
        "category": "基础设施:公共设施:男洗手间",
        "type": 0,
        "location": {
            "lat": 49.213124,
            "lng": 119.747763
        },
        "ad_info": {
            "adcode": 150702,
            "province": "内蒙古自治区",
            "city": "呼伦贝尔市",
            "district": "海拉尔区"
        }
    },
    {
        "id": "12418790859244336056",
        "title": "公共厕所(巴林喇嘛山景区内)",
        "address": "内蒙古自治区呼伦贝尔市牙克石市",
        "tel": "",
        "category": "基础设施:公共设施:公共厕所",
        "type": 0,
        "location": {
            "lat": 48.332658,
            "lng": 122.32141
        },
        "ad_info": {
            "adcode": 150782,
            "province": "内蒙古自治区",
            "city": "呼伦贝尔市",
            "district": "牙克石市"
        }
    },
    {
        "id": "3566166384842769149",
        "title": "公共厕所",
        "address": "内蒙古自治区呼伦贝尔市鄂伦春自治旗甘奎街与能源路交叉口正南方向14米左右",
        "tel": "",
        "category": "基础设施:公共设施:公共厕所",
        "type": 0,
        "location": {
            "lat": 49.740493,
            "lng": 124.625749
        },
        "ad_info": {
            "adcode": 150723,
            "province": "内蒙古自治区",
            "city": "呼伦贝尔市",
            "district": "鄂伦春自治旗"
        }
    },
    {
        "id": "12346886638826227395",
        "title": "公共厕所",
        "address": "内蒙古自治区呼伦贝尔市海拉尔区华联动迁小区东北侧210米",
        "tel": "",
        "category": "基础设施:公共设施:公共厕所",
        "type": 0,
        "location": {
            "lat": 49.224643,
            "lng": 119.772345
        },
        "ad_info": {
            "adcode": 150702,
            "province": "内蒙古自治区",
            "city": "呼伦贝尔市",
            "district": "海拉尔区"
        }
    },
    {
        "id": "11262910738006334393",
        "title": "公共厕所(昆仑山村委会)",
        "address": "内蒙古自治区呼伦贝尔市鄂伦春自治旗昆仑山村一组",
        "tel": "",
        "category": "基础设施:公共设施:公共厕所",
        "type": 0,
        "location": {
            "lat": 50.550025,
            "lng": 123.776574
        },
        "ad_info": {
            "adcode": 150723,
            "province": "内蒙古自治区",
            "city": "呼伦贝尔市",
            "district": "鄂伦春自治旗"
        }
    },
    {
        "id": "4974831167092771437",
        "title": "公共厕所(西博荣)",
        "address": "内蒙古自治区呼伦贝尔市莫力达瓦达斡尔族自治旗",
        "tel": "",
        "category": "基础设施:公共设施:公共厕所",
        "type": 0,
        "location": {
            "lat": 48.342526,
            "lng": 124.448427
        },
        "ad_info": {
            "adcode": 150722,
            "province": "内蒙古自治区",
            "city": "呼伦贝尔市",
            "district": "莫力达瓦达斡尔族自治旗"
        }
    },
    {
        "id": "5853353693393410696",
        "title": "公共厕所(克一河中央街南侧)",
        "address": "内蒙古自治区呼伦贝尔市鄂伦春自治旗S301与中央街交叉口正西方向617米左右",
        "tel": "",
        "category": "基础设施:公共设施:公共厕所",
        "type": 0,
        "location": {
            "lat": 50.655511,
            "lng": 122.530693
        },
        "ad_info": {
            "adcode": 150723,
            "province": "内蒙古自治区",
            "city": "呼伦贝尔市",
            "district": "鄂伦春自治旗"
        }
    },
    {
        "id": "4688216491185876397",
        "title": "公共厕所(跟河源湿地公园便利店)",
        "address": "内蒙古自治区呼伦贝尔市根河市",
        "tel": "",
        "category": "基础设施:公共设施:公共厕所",
        "type": 0,
        "location": {
            "lat": 50.872631,
            "lng": 121.669825
        },
        "ad_info": {
            "adcode": 150785,
            "province": "内蒙古自治区",
            "city": "呼伦贝尔市",
            "district": "根河市"
        }
    },
    {
        "id": "16931625464077293044",
        "title": "公共厕所",
        "address": "内蒙古自治区呼伦贝尔市莫力达瓦达斡尔族自治旗苏都尔街与西环城路交叉口东南方向43米左右",
        "tel": "",
        "category": "基础设施:公共设施:公共厕所",
        "type": 0,
        "location": {
            "lat": 48.474385,
            "lng": 124.503751
        },
        "ad_info": {
            "adcode": 150722,
            "province": "内蒙古自治区",
            "city": "呼伦贝尔市",
            "district": "莫力达瓦达斡尔族自治旗"
        }
    },
    {
        "id": "7644006466901086843",
        "title": "公共厕所",
        "address": "内蒙古自治区呼伦贝尔市满洲里市一道街与中苏金街交叉口西南方向139米左右",
        "tel": "",
        "category": "基础设施:公共设施:公共厕所",
        "type": 0,
        "location": {
            "lat": 49.58802,
            "lng": 117.447699
        },
        "ad_info": {
            "adcode": 150781,
            "province": "内蒙古自治区",
            "city": "呼伦贝尔市",
            "district": "满洲里市"
        }
    },
    {
        "id": "9639310910241689041",
        "title": "公共厕所(纪念园停车场)",
        "address": "内蒙古自治区呼伦贝尔市陈巴尔虎旗侵华日军海拉尔要塞遗址东北侧70米",
        "tel": "",
        "category": "基础设施:公共设施:公共厕所",
        "type": 0,
        "location": {
            "lat": 49.251195,
            "lng": 119.719644
        },
        "ad_info": {
            "adcode": 150725,
            "province": "内蒙古自治区",
            "city": "呼伦贝尔市",
            "district": "陈巴尔虎旗"
        }
    },
    {
        "id": "3076110159566934633",
        "title": "公共厕所",
        "address": "内蒙古自治区呼伦贝尔市额尔古纳市列夫湿地庄园西侧380米",
        "tel": "",
        "category": "基础设施:公共设施:公共厕所",
        "type": 0,
        "location": {
            "lat": 50.207793,
            "lng": 119.670044
        },
        "ad_info": {
            "adcode": 150784,
            "province": "内蒙古自治区",
            "city": "呼伦贝尔市",
            "district": "额尔古纳市"
        }
    },
    {
        "id": "15877637626898882789",
        "title": "主游客中心洗手间",
        "address": "内蒙古自治区呼伦贝尔市陈巴尔虎旗莫尔格勒河景区主游客中心2层",
        "tel": "",
        "category": "基础设施:公共设施:公共厕所",
        "type": 0,
        "location": {
            "lat": 49.46151,
            "lng": 119.709959
        },
        "ad_info": {
            "adcode": 150725,
            "province": "内蒙古自治区",
            "city": "呼伦贝尔市",
            "district": "陈巴尔虎旗"
        }
    },
    {
        "id": "2397576865644119414",
        "title": "公共厕所",
        "address": "内蒙古自治区呼伦贝尔市鄂伦春自治旗中央街与霍都奇路交叉口西北方向191米左右",
        "tel": "",
        "category": "基础设施:公共设施:公共厕所",
        "type": 0,
        "location": {
            "lat": 50.652175,
            "lng": 122.497852
        },
        "ad_info": {
            "adcode": 150723,
            "province": "内蒙古自治区",
            "city": "呼伦贝尔市",
            "district": "鄂伦春自治旗"
        }
    },
    {
        "id": "11684741174440046448",
        "title": "公共厕所",
        "address": "内蒙古自治区呼伦贝尔市满洲里市世纪大道与东世纪大道交叉口东北方向189米左右",
        "tel": "",
        "category": "基础设施:公共设施:公共厕所",
        "type": 0,
        "location": {
            "lat": 49.595055,
            "lng": 117.467491
        },
        "ad_info": {
            "adcode": 150781,
            "province": "内蒙古自治区",
            "city": "呼伦贝尔市",
            "district": "满洲里市"
        }
    },
    {
        "id": "13468395061375160096",
        "title": "女洗手间",
        "address": "内蒙古自治区呼伦贝尔市海拉尔区桥头街11号伊仕丹购物广场F2",
        "tel": "",
        "category": "基础设施:公共设施:女洗手间",
        "type": 0,
        "location": {
            "lat": 49.212744,
            "lng": 119.746787
        },
        "ad_info": {
            "adcode": 150702,
            "province": "内蒙古自治区",
            "city": "呼伦贝尔市",
            "district": "海拉尔区"
        }
    },
    {
        "id": "14124906743817604643",
        "title": "公共厕所(中蒙医院东南侧)",
        "address": "内蒙古自治区呼伦贝尔市满洲里市富民街与新兴路交叉口东北方向57米左右",
        "tel": "",
        "category": "基础设施:公共设施:公共厕所",
        "type": 0,
        "location": {
            "lat": 49.504098,
            "lng": 117.684438
        },
        "ad_info": {
            "adcode": 150781,
            "province": "内蒙古自治区",
            "city": "呼伦贝尔市",
            "district": "满洲里市"
        }
    },
    {
        "id": "4342461043463630008",
        "title": "陈旗互通加油站公共厕所",
        "address": "内蒙古自治区呼伦贝尔市陈巴尔虎旗海拉尔收费站东南100米",
        "tel": "",
        "category": "基础设施:公共设施:公共厕所",
        "type": 0,
        "location": {
            "lat": 49.310079,
            "lng": 119.730501
        },
        "ad_info": {
            "adcode": 150725,
            "province": "内蒙古自治区",
            "city": "呼伦贝尔市",
            "district": "陈巴尔虎旗"
        }
    },
    {
        "id": "11612109394091557683",
        "title": "牙哈沟服务区公共厕所",
        "address": "内蒙古自治区呼伦贝尔市阿荣旗牙哈沟服务区与G10绥满高速交叉口西440米",
        "tel": "",
        "category": "基础设施:公共设施:公共厕所",
        "type": 0,
        "location": {
            "lat": 48.700676,
            "lng": 122.632501
        },
        "ad_info": {
            "adcode": 150721,
            "province": "内蒙古自治区",
            "city": "呼伦贝尔市",
            "district": "阿荣旗"
        }
    },
    {
        "id": "17765126113756574384",
        "title": "惠风川停车区公共厕所",
        "address": "内蒙古自治区呼伦贝尔市扎兰屯市G111与Y004交叉口西南方向1924米左右",
        "tel": "",
        "category": "基础设施:公共设施:公共厕所",
        "type": 0,
        "location": {
            "lat": 47.531532,
            "lng": 122.447858
        },
        "ad_info": {
            "adcode": 150783,
            "province": "内蒙古自治区",
            "city": "呼伦贝尔市",
            "district": "扎兰屯市"
        }
    },
    {
        "id": "14422075235138685599",
        "title": "男洗手间",
        "address": "内蒙古自治区呼伦贝尔市海拉尔区桥头街11号伊仕丹购物广场F4",
        "tel": "",
        "category": "基础设施:公共设施:男洗手间",
        "type": 0,
        "location": {
            "lat": 49.213124,
            "lng": 119.747763
        },
        "ad_info": {
            "adcode": 150702,
            "province": "内蒙古自治区",
            "city": "呼伦贝尔市",
            "district": "海拉尔区"
        }
    },
    {
        "id": "12418790859244336056",
        "title": "公共厕所(巴林喇嘛山景区内)",
        "address": "内蒙古自治区呼伦贝尔市牙克石市",
        "tel": "",
        "category": "基础设施:公共设施:公共厕所",
        "type": 0,
        "location": {
            "lat": 48.332658,
            "lng": 122.32141
        },
        "ad_info": {
            "adcode": 150782,
            "province": "内蒙古自治区",
            "city": "呼伦贝尔市",
            "district": "牙克石市"
        }
    },
    {
        "id": "3566166384842769149",
        "title": "公共厕所",
        "address": "内蒙古自治区呼伦贝尔市鄂伦春自治旗甘奎街与能源路交叉口正南方向14米左右",
        "tel": "",
        "category": "基础设施:公共设施:公共厕所",
        "type": 0,
        "location": {
            "lat": 49.740493,
            "lng": 124.625749
        },
        "ad_info": {
            "adcode": 150723,
            "province": "内蒙古自治区",
            "city": "呼伦贝尔市",
            "district": "鄂伦春自治旗"
        }
    },
    {
        "id": "12346886638826227395",
        "title": "公共厕所",
        "address": "内蒙古自治区呼伦贝尔市海拉尔区华联动迁小区东北侧210米",
        "tel": "",
        "category": "基础设施:公共设施:公共厕所",
        "type": 0,
        "location": {
            "lat": 49.224643,
            "lng": 119.772345
        },
        "ad_info": {
            "adcode": 150702,
            "province": "内蒙古自治区",
            "city": "呼伦贝尔市",
            "district": "海拉尔区"
        }
    },
    {
        "id": "11262910738006334393",
        "title": "公共厕所(昆仑山村委会)",
        "address": "内蒙古自治区呼伦贝尔市鄂伦春自治旗昆仑山村一组",
        "tel": "",
        "category": "基础设施:公共设施:公共厕所",
        "type": 0,
        "location": {
            "lat": 50.550025,
            "lng": 123.776574
        },
        "ad_info": {
            "adcode": 150723,
            "province": "内蒙古自治区",
            "city": "呼伦贝尔市",
            "district": "鄂伦春自治旗"
        }
    },
    {
        "id": "4974831167092771437",
        "title": "公共厕所(西博荣)",
        "address": "内蒙古自治区呼伦贝尔市莫力达瓦达斡尔族自治旗",
        "tel": "",
        "category": "基础设施:公共设施:公共厕所",
        "type": 0,
        "location": {
            "lat": 48.342526,
            "lng": 124.448427
        },
        "ad_info": {
            "adcode": 150722,
            "province": "内蒙古自治区",
            "city": "呼伦贝尔市",
            "district": "莫力达瓦达斡尔族自治旗"
        }
    },
    {
        "id": "5853353693393410696",
        "title": "公共厕所(克一河中央街南侧)",
        "address": "内蒙古自治区呼伦贝尔市鄂伦春自治旗S301与中央街交叉口正西方向617米左右",
        "tel": "",
        "category": "基础设施:公共设施:公共厕所",
        "type": 0,
        "location": {
            "lat": 50.655511,
            "lng": 122.530693
        },
        "ad_info": {
            "adcode": 150723,
            "province": "内蒙古自治区",
            "city": "呼伦贝尔市",
            "district": "鄂伦春自治旗"
        }
    },
    {
        "id": "4688216491185876397",
        "title": "公共厕所(跟河源湿地公园便利店)",
        "address": "内蒙古自治区呼伦贝尔市根河市",
        "tel": "",
        "category": "基础设施:公共设施:公共厕所",
        "type": 0,
        "location": {
            "lat": 50.872631,
            "lng": 121.669825
        },
        "ad_info": {
            "adcode": 150785,
            "province": "内蒙古自治区",
            "city": "呼伦贝尔市",
            "district": "根河市"
        }
    },
    {
        "id": "16931625464077293044",
        "title": "公共厕所",
        "address": "内蒙古自治区呼伦贝尔市莫力达瓦达斡尔族自治旗苏都尔街与西环城路交叉口东南方向43米左右",
        "tel": "",
        "category": "基础设施:公共设施:公共厕所",
        "type": 0,
        "location": {
            "lat": 48.474385,
            "lng": 124.503751
        },
        "ad_info": {
            "adcode": 150722,
            "province": "内蒙古自治区",
            "city": "呼伦贝尔市",
            "district": "莫力达瓦达斡尔族自治旗"
        }
    },
    {
        "id": "7644006466901086843",
        "title": "公共厕所",
        "address": "内蒙古自治区呼伦贝尔市满洲里市一道街与中苏金街交叉口西南方向139米左右",
        "tel": "",
        "category": "基础设施:公共设施:公共厕所",
        "type": 0,
        "location": {
            "lat": 49.58802,
            "lng": 117.447699
        },
        "ad_info": {
            "adcode": 150781,
            "province": "内蒙古自治区",
            "city": "呼伦贝尔市",
            "district": "满洲里市"
        }
    },
    {
        "id": "9639310910241689041",
        "title": "公共厕所(纪念园停车场)",
        "address": "内蒙古自治区呼伦贝尔市陈巴尔虎旗侵华日军海拉尔要塞遗址东北侧70米",
        "tel": "",
        "category": "基础设施:公共设施:公共厕所",
        "type": 0,
        "location": {
            "lat": 49.251195,
            "lng": 119.719644
        },
        "ad_info": {
            "adcode": 150725,
            "province": "内蒙古自治区",
            "city": "呼伦贝尔市",
            "district": "陈巴尔虎旗"
        }
    },
    {
        "id": "3076110159566934633",
        "title": "公共厕所",
        "address": "内蒙古自治区呼伦贝尔市额尔古纳市列夫湿地庄园西侧380米",
        "tel": "",
        "category": "基础设施:公共设施:公共厕所",
        "type": 0,
        "location": {
            "lat": 50.207793,
            "lng": 119.670044
        },
        "ad_info": {
            "adcode": 150784,
            "province": "内蒙古自治区",
            "city": "呼伦贝尔市",
            "district": "额尔古纳市"
        }
    },
    {
        "id": "15877637626898882789",
        "title": "主游客中心洗手间",
        "address": "内蒙古自治区呼伦贝尔市陈巴尔虎旗莫尔格勒河景区主游客中心2层",
        "tel": "",
        "category": "基础设施:公共设施:公共厕所",
        "type": 0,
        "location": {
            "lat": 49.46151,
            "lng": 119.709959
        },
        "ad_info": {
            "adcode": 150725,
            "province": "内蒙古自治区",
            "city": "呼伦贝尔市",
            "district": "陈巴尔虎旗"
        }
    },
    {
        "id": "2397576865644119414",
        "title": "公共厕所",
        "address": "内蒙古自治区呼伦贝尔市鄂伦春自治旗中央街与霍都奇路交叉口西北方向191米左右",
        "tel": "",
        "category": "基础设施:公共设施:公共厕所",
        "type": 0,
        "location": {
            "lat": 50.652175,
            "lng": 122.497852
        },
        "ad_info": {
            "adcode": 150723,
            "province": "内蒙古自治区",
            "city": "呼伦贝尔市",
            "district": "鄂伦春自治旗"
        }
    },
    {
        "id": "11684741174440046448",
        "title": "公共厕所",
        "address": "内蒙古自治区呼伦贝尔市满洲里市世纪大道与东世纪大道交叉口东北方向189米左右",
        "tel": "",
        "category": "基础设施:公共设施:公共厕所",
        "type": 0,
        "location": {
            "lat": 49.595055,
            "lng": 117.467491
        },
        "ad_info": {
            "adcode": 150781,
            "province": "内蒙古自治区",
            "city": "呼伦贝尔市",
            "district": "满洲里市"
        }
    },
    {
        "id": "13468395061375160096",
        "title": "女洗手间",
        "address": "内蒙古自治区呼伦贝尔市海拉尔区桥头街11号伊仕丹购物广场F2",
        "tel": "",
        "category": "基础设施:公共设施:女洗手间",
        "type": 0,
        "location": {
            "lat": 49.212744,
            "lng": 119.746787
        },
        "ad_info": {
            "adcode": 150702,
            "province": "内蒙古自治区",
            "city": "呼伦贝尔市",
            "district": "海拉尔区"
        }
    },
    {
        "id": "14124906743817604643",
        "title": "公共厕所(中蒙医院东南侧)",
        "address": "内蒙古自治区呼伦贝尔市满洲里市富民街与新兴路交叉口东北方向57米左右",
        "tel": "",
        "category": "基础设施:公共设施:公共厕所",
        "type": 0,
        "location": {
            "lat": 49.504098,
            "lng": 117.684438
        },
        "ad_info": {
            "adcode": 150781,
            "province": "内蒙古自治区",
            "city": "呼伦贝尔市",
            "district": "满洲里市"
        }
    },
    {
        "id": "4342461043463630008",
        "title": "陈旗互通加油站公共厕所",
        "address": "内蒙古自治区呼伦贝尔市陈巴尔虎旗海拉尔收费站东南100米",
        "tel": "",
        "category": "基础设施:公共设施:公共厕所",
        "type": 0,
        "location": {
            "lat": 49.310079,
            "lng": 119.730501
        },
        "ad_info": {
            "adcode": 150725,
            "province": "内蒙古自治区",
            "city": "呼伦贝尔市",
            "district": "陈巴尔虎旗"
        }
    },
    {
        "id": "11612109394091557683",
        "title": "牙哈沟服务区公共厕所",
        "address": "内蒙古自治区呼伦贝尔市阿荣旗牙哈沟服务区与G10绥满高速交叉口西440米",
        "tel": "",
        "category": "基础设施:公共设施:公共厕所",
        "type": 0,
        "location": {
            "lat": 48.700676,
            "lng": 122.632501
        },
        "ad_info": {
            "adcode": 150721,
            "province": "内蒙古自治区",
            "city": "呼伦贝尔市",
            "district": "阿荣旗"
        }
    },
    {
        "id": "17765126113756574384",
        "title": "惠风川停车区公共厕所",
        "address": "内蒙古自治区呼伦贝尔市扎兰屯市G111与Y004交叉口西南方向1924米左右",
        "tel": "",
        "category": "基础设施:公共设施:公共厕所",
        "type": 0,
        "location": {
            "lat": 47.531532,
            "lng": 122.447858
        },
        "ad_info": {
            "adcode": 150783,
            "province": "内蒙古自治区",
            "city": "呼伦贝尔市",
            "district": "扎兰屯市"
        }
    },
    {
        "id": "14422075235138685599",
        "title": "男洗手间",
        "address": "内蒙古自治区呼伦贝尔市海拉尔区桥头街11号伊仕丹购物广场F4",
        "tel": "",
        "category": "基础设施:公共设施:男洗手间",
        "type": 0,
        "location": {
            "lat": 49.213124,
            "lng": 119.747763
        },
        "ad_info": {
            "adcode": 150702,
            "province": "内蒙古自治区",
            "city": "呼伦贝尔市",
            "district": "海拉尔区"
        }
    },
    {
        "id": "12418790859244336056",
        "title": "公共厕所(巴林喇嘛山景区内)",
        "address": "内蒙古自治区呼伦贝尔市牙克石市",
        "tel": "",
        "category": "基础设施:公共设施:公共厕所",
        "type": 0,
        "location": {
            "lat": 48.332658,
            "lng": 122.32141
        },
        "ad_info": {
            "adcode": 150782,
            "province": "内蒙古自治区",
            "city": "呼伦贝尔市",
            "district": "牙克石市"
        }
    },
    {
        "id": "3566166384842769149",
        "title": "公共厕所",
        "address": "内蒙古自治区呼伦贝尔市鄂伦春自治旗甘奎街与能源路交叉口正南方向14米左右",
        "tel": "",
        "category": "基础设施:公共设施:公共厕所",
        "type": 0,
        "location": {
            "lat": 49.740493,
            "lng": 124.625749
        },
        "ad_info": {
            "adcode": 150723,
            "province": "内蒙古自治区",
            "city": "呼伦贝尔市",
            "district": "鄂伦春自治旗"
        }
    },
    {
        "id": "12346886638826227395",
        "title": "公共厕所",
        "address": "内蒙古自治区呼伦贝尔市海拉尔区华联动迁小区东北侧210米",
        "tel": "",
        "category": "基础设施:公共设施:公共厕所",
        "type": 0,
        "location": {
            "lat": 49.224643,
            "lng": 119.772345
        },
        "ad_info": {
            "adcode": 150702,
            "province": "内蒙古自治区",
            "city": "呼伦贝尔市",
            "district": "海拉尔区"
        }
    },
    {
        "id": "11262910738006334393",
        "title": "公共厕所(昆仑山村委会)",
        "address": "内蒙古自治区呼伦贝尔市鄂伦春自治旗昆仑山村一组",
        "tel": "",
        "category": "基础设施:公共设施:公共厕所",
        "type": 0,
        "location": {
            "lat": 50.550025,
            "lng": 123.776574
        },
        "ad_info": {
            "adcode": 150723,
            "province": "内蒙古自治区",
            "city": "呼伦贝尔市",
            "district": "鄂伦春自治旗"
        }
    },
    {
        "id": "4974831167092771437",
        "title": "公共厕所(西博荣)",
        "address": "内蒙古自治区呼伦贝尔市莫力达瓦达斡尔族自治旗",
        "tel": "",
        "category": "基础设施:公共设施:公共厕所",
        "type": 0,
        "location": {
            "lat": 48.342526,
            "lng": 124.448427
        },
        "ad_info": {
            "adcode": 150722,
            "province": "内蒙古自治区",
            "city": "呼伦贝尔市",
            "district": "莫力达瓦达斡尔族自治旗"
        }
    },
    {
        "id": "5853353693393410696",
        "title": "公共厕所(克一河中央街南侧)",
        "address": "内蒙古自治区呼伦贝尔市鄂伦春自治旗S301与中央街交叉口正西方向617米左右",
        "tel": "",
        "category": "基础设施:公共设施:公共厕所",
        "type": 0,
        "location": {
            "lat": 50.655511,
            "lng": 122.530693
        },
        "ad_info": {
            "adcode": 150723,
            "province": "内蒙古自治区",
            "city": "呼伦贝尔市",
            "district": "鄂伦春自治旗"
        }
    },
    {
        "id": "4688216491185876397",
        "title": "公共厕所(跟河源湿地公园便利店)",
        "address": "内蒙古自治区呼伦贝尔市根河市",
        "tel": "",
        "category": "基础设施:公共设施:公共厕所",
        "type": 0,
        "location": {
            "lat": 50.872631,
            "lng": 121.669825
        },
        "ad_info": {
            "adcode": 150785,
            "province": "内蒙古自治区",
            "city": "呼伦贝尔市",
            "district": "根河市"
        }
    },
    {
        "id": "16931625464077293044",
        "title": "公共厕所",
        "address": "内蒙古自治区呼伦贝尔市莫力达瓦达斡尔族自治旗苏都尔街与西环城路交叉口东南方向43米左右",
        "tel": "",
        "category": "基础设施:公共设施:公共厕所",
        "type": 0,
        "location": {
            "lat": 48.474385,
            "lng": 124.503751
        },
        "ad_info": {
            "adcode": 150722,
            "province": "内蒙古自治区",
            "city": "呼伦贝尔市",
            "district": "莫力达瓦达斡尔族自治旗"
        }
    },
    {
        "id": "7644006466901086843",
        "title": "公共厕所",
        "address": "内蒙古自治区呼伦贝尔市满洲里市一道街与中苏金街交叉口西南方向139米左右",
        "tel": "",
        "category": "基础设施:公共设施:公共厕所",
        "type": 0,
        "location": {
            "lat": 49.58802,
            "lng": 117.447699
        },
        "ad_info": {
            "adcode": 150781,
            "province": "内蒙古自治区",
            "city": "呼伦贝尔市",
            "district": "满洲里市"
        }
    },
    {
        "id": "9639310910241689041",
        "title": "公共厕所(纪念园停车场)",
        "address": "内蒙古自治区呼伦贝尔市陈巴尔虎旗侵华日军海拉尔要塞遗址东北侧70米",
        "tel": "",
        "category": "基础设施:公共设施:公共厕所",
        "type": 0,
        "location": {
            "lat": 49.251195,
            "lng": 119.719644
        },
        "ad_info": {
            "adcode": 150725,
            "province": "内蒙古自治区",
            "city": "呼伦贝尔市",
            "district": "陈巴尔虎旗"
        }
    },
    {
        "id": "3076110159566934633",
        "title": "公共厕所",
        "address": "内蒙古自治区呼伦贝尔市额尔古纳市列夫湿地庄园西侧380米",
        "tel": "",
        "category": "基础设施:公共设施:公共厕所",
        "type": 0,
        "location": {
            "lat": 50.207793,
            "lng": 119.670044
        },
        "ad_info": {
            "adcode": 150784,
            "province": "内蒙古自治区",
            "city": "呼伦贝尔市",
            "district": "额尔古纳市"
        }
    },
    {
        "id": "15877637626898882789",
        "title": "主游客中心洗手间",
        "address": "内蒙古自治区呼伦贝尔市陈巴尔虎旗莫尔格勒河景区主游客中心2层",
        "tel": "",
        "category": "基础设施:公共设施:公共厕所",
        "type": 0,
        "location": {
            "lat": 49.46151,
            "lng": 119.709959
        },
        "ad_info": {
            "adcode": 150725,
            "province": "内蒙古自治区",
            "city": "呼伦贝尔市",
            "district": "陈巴尔虎旗"
        }
    },
    {
        "id": "2397576865644119414",
        "title": "公共厕所",
        "address": "内蒙古自治区呼伦贝尔市鄂伦春自治旗中央街与霍都奇路交叉口西北方向191米左右",
        "tel": "",
        "category": "基础设施:公共设施:公共厕所",
        "type": 0,
        "location": {
            "lat": 50.652175,
            "lng": 122.497852
        },
        "ad_info": {
            "adcode": 150723,
            "province": "内蒙古自治区",
            "city": "呼伦贝尔市",
            "district": "鄂伦春自治旗"
        }
    },
    {
        "id": "11684741174440046448",
        "title": "公共厕所",
        "address": "内蒙古自治区呼伦贝尔市满洲里市世纪大道与东世纪大道交叉口东北方向189米左右",
        "tel": "",
        "category": "基础设施:公共设施:公共厕所",
        "type": 0,
        "location": {
            "lat": 49.595055,
            "lng": 117.467491
        },
        "ad_info": {
            "adcode": 150781,
            "province": "内蒙古自治区",
            "city": "呼伦贝尔市",
            "district": "满洲里市"
        }
    },
    {
        "id": "13468395061375160096",
        "title": "女洗手间",
        "address": "内蒙古自治区呼伦贝尔市海拉尔区桥头街11号伊仕丹购物广场F2",
        "tel": "",
        "category": "基础设施:公共设施:女洗手间",
        "type": 0,
        "location": {
            "lat": 49.212744,
            "lng": 119.746787
        },
        "ad_info": {
            "adcode": 150702,
            "province": "内蒙古自治区",
            "city": "呼伦贝尔市",
            "district": "海拉尔区"
        }
    },
    {
        "id": "14124906743817604643",
        "title": "公共厕所(中蒙医院东南侧)",
        "address": "内蒙古自治区呼伦贝尔市满洲里市富民街与新兴路交叉口东北方向57米左右",
        "tel": "",
        "category": "基础设施:公共设施:公共厕所",
        "type": 0,
        "location": {
            "lat": 49.504098,
            "lng": 117.684438
        },
        "ad_info": {
            "adcode": 150781,
            "province": "内蒙古自治区",
            "city": "呼伦贝尔市",
            "district": "满洲里市"
        }
    },
    {
        "id": "4342461043463630008",
        "title": "陈旗互通加油站公共厕所",
        "address": "内蒙古自治区呼伦贝尔市陈巴尔虎旗海拉尔收费站东南100米",
        "tel": "",
        "category": "基础设施:公共设施:公共厕所",
        "type": 0,
        "location": {
            "lat": 49.310079,
            "lng": 119.730501
        },
        "ad_info": {
            "adcode": 150725,
            "province": "内蒙古自治区",
            "city": "呼伦贝尔市",
            "district": "陈巴尔虎旗"
        }
    },
    {
        "id": "11612109394091557683",
        "title": "牙哈沟服务区公共厕所",
        "address": "内蒙古自治区呼伦贝尔市阿荣旗牙哈沟服务区与G10绥满高速交叉口西440米",
        "tel": "",
        "category": "基础设施:公共设施:公共厕所",
        "type": 0,
        "location": {
            "lat": 48.700676,
            "lng": 122.632501
        },
        "ad_info": {
            "adcode": 150721,
            "province": "内蒙古自治区",
            "city": "呼伦贝尔市",
            "district": "阿荣旗"
        }
    },
    {
        "id": "17765126113756574384",
        "title": "惠风川停车区公共厕所",
        "address": "内蒙古自治区呼伦贝尔市扎兰屯市G111与Y004交叉口西南方向1924米左右",
        "tel": "",
        "category": "基础设施:公共设施:公共厕所",
        "type": 0,
        "location": {
            "lat": 47.531532,
            "lng": 122.447858
        },
        "ad_info": {
            "adcode": 150783,
            "province": "内蒙古自治区",
            "city": "呼伦贝尔市",
            "district": "扎兰屯市"
        }
    },
    {
        "id": "14422075235138685599",
        "title": "男洗手间",
        "address": "内蒙古自治区呼伦贝尔市海拉尔区桥头街11号伊仕丹购物广场F4",
        "tel": "",
        "category": "基础设施:公共设施:男洗手间",
        "type": 0,
        "location": {
            "lat": 49.213124,
            "lng": 119.747763
        },
        "ad_info": {
            "adcode": 150702,
            "province": "内蒙古自治区",
            "city": "呼伦贝尔市",
            "district": "海拉尔区"
        }
    },
    {
        "id": "12418790859244336056",
        "title": "公共厕所(巴林喇嘛山景区内)",
        "address": "内蒙古自治区呼伦贝尔市牙克石市",
        "tel": "",
        "category": "基础设施:公共设施:公共厕所",
        "type": 0,
        "location": {
            "lat": 48.332658,
            "lng": 122.32141
        },
        "ad_info": {
            "adcode": 150782,
            "province": "内蒙古自治区",
            "city": "呼伦贝尔市",
            "district": "牙克石市"
        }
    },
    {
        "id": "3566166384842769149",
        "title": "公共厕所",
        "address": "内蒙古自治区呼伦贝尔市鄂伦春自治旗甘奎街与能源路交叉口正南方向14米左右",
        "tel": "",
        "category": "基础设施:公共设施:公共厕所",
        "type": 0,
        "location": {
            "lat": 49.740493,
            "lng": 124.625749
        },
        "ad_info": {
            "adcode": 150723,
            "province": "内蒙古自治区",
            "city": "呼伦贝尔市",
            "district": "鄂伦春自治旗"
        }
    },
    {
        "id": "12346886638826227395",
        "title": "公共厕所",
        "address": "内蒙古自治区呼伦贝尔市海拉尔区华联动迁小区东北侧210米",
        "tel": "",
        "category": "基础设施:公共设施:公共厕所",
        "type": 0,
        "location": {
            "lat": 49.224643,
            "lng": 119.772345
        },
        "ad_info": {
            "adcode": 150702,
            "province": "内蒙古自治区",
            "city": "呼伦贝尔市",
            "district": "海拉尔区"
        }
    },
    {
        "id": "11262910738006334393",
        "title": "公共厕所(昆仑山村委会)",
        "address": "内蒙古自治区呼伦贝尔市鄂伦春自治旗昆仑山村一组",
        "tel": "",
        "category": "基础设施:公共设施:公共厕所",
        "type": 0,
        "location": {
            "lat": 50.550025,
            "lng": 123.776574
        },
        "ad_info": {
            "adcode": 150723,
            "province": "内蒙古自治区",
            "city": "呼伦贝尔市",
            "district": "鄂伦春自治旗"
        }
    },
    {
        "id": "4974831167092771437",
        "title": "公共厕所(西博荣)",
        "address": "内蒙古自治区呼伦贝尔市莫力达瓦达斡尔族自治旗",
        "tel": "",
        "category": "基础设施:公共设施:公共厕所",
        "type": 0,
        "location": {
            "lat": 48.342526,
            "lng": 124.448427
        },
        "ad_info": {
            "adcode": 150722,
            "province": "内蒙古自治区",
            "city": "呼伦贝尔市",
            "district": "莫力达瓦达斡尔族自治旗"
        }
    },
    {
        "id": "5853353693393410696",
        "title": "公共厕所(克一河中央街南侧)",
        "address": "内蒙古自治区呼伦贝尔市鄂伦春自治旗S301与中央街交叉口正西方向617米左右",
        "tel": "",
        "category": "基础设施:公共设施:公共厕所",
        "type": 0,
        "location": {
            "lat": 50.655511,
            "lng": 122.530693
        },
        "ad_info": {
            "adcode": 150723,
            "province": "内蒙古自治区",
            "city": "呼伦贝尔市",
            "district": "鄂伦春自治旗"
        }
    },
    {
        "id": "4688216491185876397",
        "title": "公共厕所(跟河源湿地公园便利店)",
        "address": "内蒙古自治区呼伦贝尔市根河市",
        "tel": "",
        "category": "基础设施:公共设施:公共厕所",
        "type": 0,
        "location": {
            "lat": 50.872631,
            "lng": 121.669825
        },
        "ad_info": {
            "adcode": 150785,
            "province": "内蒙古自治区",
            "city": "呼伦贝尔市",
            "district": "根河市"
        }
    }
]