[
    {
        "id": "333738240458589034",
        "title": "公共厕所",
        "address": "内蒙古自治区呼和浩特市赛罕区黑兰不塔巷与万达二期组团环岛路交叉口东南方向110米",
        "tel": "",
        "category": "基础设施:公共设施:公共厕所",
        "type": 0,
        "location": {
            "lat": 40.831672,
            "lng": 111.733402
        },
        "ad_info": {
            "adcode": 150105,
            "province": "内蒙古自治区",
            "city": "呼和浩特市",
            "district": "赛罕区"
        }
    },
    {
        "id": "18276668092804797635",
        "title": "公共卫生间",
        "address": "内蒙古自治区呼和浩特市回民区贝尔路与贝尔路北巷交叉口东北方向90米左右",
        "tel": "",
        "category": "基础设施:公共设施:公共厕所",
        "type": 0,
        "location": {
            "lat": 40.816671,
            "lng": 111.666397
        },
        "ad_info": {
            "adcode": 150103,
            "province": "内蒙古自治区",
            "city": "呼和浩特市",
            "district": "回民区"
        }
    },
    {
        "id": "16823305277960978894",
        "title": "公共厕所",
        "address": "内蒙古自治区呼和浩特市赛罕区大学东街与蒙医医院东巷交叉口西南方向95米左右",
        "tel": "",
        "category": "基础设施:公共设施:公共厕所",
        "type": 0,
        "location": {
            "lat": 40.818621,
            "lng": 111.727287
        },
        "ad_info": {
            "adcode": 150105,
            "province": "内蒙古自治区",
            "city": "呼和浩特市",
            "district": "赛罕区"
        }
    },
    {
        "id": "2221687916576287559",
        "title": "公共厕所",
        "address": "内蒙古自治区呼和浩特市赛罕区内蒙古师范大学附属中学",
        "tel": "",
        "category": "基础设施:公共设施:公共厕所",
        "type": 0,
        "location": {
            "lat": 40.810148,
            "lng": 111.691008
        },
        "ad_info": {
            "adcode": 150105,
            "province": "内蒙古自治区",
            "city": "呼和浩特市",
            "district": "赛罕区"
        }
    },
    {
        "id": "15974628602305589454",
        "title": "公共厕所",
        "address": "内蒙古自治区呼和浩特市回民区中山西路与前新城东巷交叉口正北方向21米左右",
        "tel": "",
        "category": "基础设施:公共设施:公共厕所",
        "type": 0,
        "location": {
            "lat": 40.811308,
            "lng": 111.663616
        },
        "ad_info": {
            "adcode": 150103,
            "province": "内蒙古自治区",
            "city": "呼和浩特市",
            "district": "回民区"
        }
    },
    {
        "id": "4448429005120139829",
        "title": "公共卫生间",
        "address": "内蒙古自治区呼和浩特市玉泉区大南街与文庙街交叉口正北方向83米左右",
        "tel": "",
        "category": "基础设施:公共设施:公共厕所",
        "type": 0,
        "location": {
            "lat": 40.796593,
            "lng": 111.65677
        },
        "ad_info": {
            "adcode": 150104,
            "province": "内蒙古自治区",
            "city": "呼和浩特市",
            "district": "玉泉区"
        }
    },
    {
        "id": "8407729197504137187",
        "title": "公共厕所",
        "address": "内蒙古自治区呼和浩特市赛罕区地质局北街水月城温泉大酒店",
        "tel": "",
        "category": "基础设施:公共设施:公共厕所",
        "type": 0,
        "location": {
            "lat": 40.811308,
            "lng": 111.677207
        },
        "ad_info": {
            "adcode": 150105,
            "province": "内蒙古自治区",
            "city": "呼和浩特市",
            "district": "赛罕区"
        }
    },
    {
        "id": "1908234016444169506",
        "title": "公共厕所",
        "address": "内蒙古自治区呼和浩特市玉泉区包头大街与玉泉路交叉口西南方向38米左右",
        "tel": "",
        "category": "基础设施:公共设施:公共厕所",
        "type": 0,
        "location": {
            "lat": 40.774989,
            "lng": 111.676211
        },
        "ad_info": {
            "adcode": 150104,
            "province": "内蒙古自治区",
            "city": "呼和浩特市",
            "district": "玉泉区"
        }
    },
    {
        "id": "3026396933894707996",
        "title": "公共厕所",
        "address": "内蒙古自治区呼和浩特市回民区第五幼儿园(三顺店东巷北)",
        "tel": "",
        "category": "基础设施:公共设施:公共厕所",
        "type": 0,
        "location": {
            "lat": 40.818019,
            "lng": 111.662128
        },
        "ad_info": {
            "adcode": 150103,
            "province": "内蒙古自治区",
            "city": "呼和浩特市",
            "district": "回民区"
        }
    },
    {
        "id": "351305753062352903",
        "title": "公共厕所",
        "address": "内蒙古自治区呼和浩特市新城区车站东街与车站西街交叉口东北方向84米左右",
        "tel": "",
        "category": "基础设施:公共设施:公共厕所",
        "type": 0,
        "location": {
            "lat": 40.829682,
            "lng": 111.666348
        },
        "ad_info": {
            "adcode": 150102,
            "province": "内蒙古自治区",
            "city": "呼和浩特市",
            "district": "新城区"
        }
    },
    {
        "id": "748429834162314575",
        "title": "公共厕所",
        "address": "内蒙古自治区呼和浩特市玉泉区小玉石巷与清泉街交叉口正南方向19米左右",
        "tel": "",
        "category": "基础设施:公共设施:公共厕所",
        "type": 0,
        "location": {
            "lat": 40.794696,
            "lng": 111.662337
        },
        "ad_info": {
            "adcode": 150104,
            "province": "内蒙古自治区",
            "city": "呼和浩特市",
            "district": "玉泉区"
        }
    },
    {
        "id": "16786824418148844132",
        "title": "公共卫生间",
        "address": "内蒙古自治区呼和浩特市赛罕区乌兰察布东街蒙文印刷厂家属院",
        "tel": "",
        "category": "基础设施:公共设施:公共厕所",
        "type": 0,
        "location": {
            "lat": 40.823898,
            "lng": 111.712118
        },
        "ad_info": {
            "adcode": 150105,
            "province": "内蒙古自治区",
            "city": "呼和浩特市",
            "district": "赛罕区"
        }
    },
    {
        "id": "13660730606132288828",
        "title": "公共厕所",
        "address": "内蒙古自治区呼和浩特市回民区巴彦淖尔快速路与金海高架桥交叉口正南方向133米左右",
        "tel": "",
        "category": "基础设施:公共设施:公共厕所",
        "type": 0,
        "location": {
            "lat": 40.827349,
            "lng": 111.619495
        },
        "ad_info": {
            "adcode": 150103,
            "province": "内蒙古自治区",
            "city": "呼和浩特市",
            "district": "回民区"
        }
    },
    {
        "id": "10877451632726230738",
        "title": "公共厕所",
        "address": "内蒙古自治区呼和浩特市新城区南马神庙街与水源街交叉口正东方向61米左右",
        "tel": "",
        "category": "基础设施:公共设施:公共厕所",
        "type": 0,
        "location": {
            "lat": 40.82397,
            "lng": 111.69293
        },
        "ad_info": {
            "adcode": 150102,
            "province": "内蒙古自治区",
            "city": "呼和浩特市",
            "district": "新城区"
        }
    },
    {
        "id": "7546690871854055173",
        "title": "公共厕所",
        "address": "内蒙古自治区呼和浩特市玉泉区二十六中南巷呼和浩特市第二十六中学",
        "tel": "",
        "category": "基础设施:公共设施:公共厕所",
        "type": 0,
        "location": {
            "lat": 40.797264,
            "lng": 111.668359
        },
        "ad_info": {
            "adcode": 150104,
            "province": "内蒙古自治区",
            "city": "呼和浩特市",
            "district": "玉泉区"
        }
    },
    {
        "id": "7708932632190991872",
        "title": "公共厕所",
        "address": "内蒙古自治区呼和浩特市回民区成吉思汗西街与阿拉善北路交叉口正西方向217米左右",
        "tel": "",
        "category": "基础设施:公共设施:公共厕所",
        "type": 0,
        "location": {
            "lat": 40.832837,
            "lng": 111.606778
        },
        "ad_info": {
            "adcode": 150103,
            "province": "内蒙古自治区",
            "city": "呼和浩特市",
            "district": "回民区"
        }
    },
    {
        "id": "15364960244445554895",
        "title": "公共厕所",
        "address": "内蒙古自治区呼和浩特市赛罕区NM-HH-1234古自治区文苑街",
        "tel": "",
        "category": "基础设施:公共设施:公共厕所",
        "type": 0,
        "location": {
            "lat": 40.903608,
            "lng": 111.842984
        },
        "ad_info": {
            "adcode": 150105,
            "province": "内蒙古自治区",
            "city": "呼和浩特市",
            "district": "赛罕区"
        }
    },
    {
        "id": "17264070106241757703",
        "title": "无障碍公共厕所",
        "address": "内蒙古自治区呼和浩特市赛罕区桃李巷与桥靠西街交叉口正南方向39米左右",
        "tel": "",
        "category": "基础设施:公共设施:公共厕所",
        "type": 0,
        "location": {
            "lat": 40.815209,
            "lng": 111.696804
        },
        "ad_info": {
            "adcode": 150105,
            "province": "内蒙古自治区",
            "city": "呼和浩特市",
            "district": "赛罕区"
        }
    },
    {
        "id": "13499748784086396462",
        "title": "公共厕所",
        "address": "内蒙古自治区呼和浩特市赛罕区第九中学",
        "tel": "",
        "category": "基础设施:公共设施:公共厕所",
        "type": 0,
        "location": {
            "lat": 40.847691,
            "lng": 111.89525
        },
        "ad_info": {
            "adcode": 150105,
            "province": "内蒙古自治区",
            "city": "呼和浩特市",
            "district": "赛罕区"
        }
    },
    {
        "id": "14923008658646661187",
        "title": "无障碍公共厕所",
        "address": "内蒙古自治区呼和浩特市赛罕区健康街52号",
        "tel": "",
        "category": "基础设施:公共设施:公共厕所",
        "type": 0,
        "location": {
            "lat": 40.81203,
            "lng": 111.672895
        },
        "ad_info": {
            "adcode": 150105,
            "province": "内蒙古自治区",
            "city": "呼和浩特市",
            "district": "赛罕区"
        }
    },
    {
        "id": "2511728154649052781",
        "title": "公共厕所",
        "address": "内蒙古自治区呼和浩特市回民区新华大街与新华西街交叉口正北方向166米左右",
        "tel": "",
        "category": "基础设施:公共设施:公共厕所",
        "type": 0,
        "location": {
            "lat": 40.820383,
            "lng": 111.65519
        },
        "ad_info": {
            "adcode": 150103,
            "province": "内蒙古自治区",
            "city": "呼和浩特市",
            "district": "回民区"
        }
    },
    {
        "id": "1131059473826011268",
        "title": "公共厕所",
        "address": "内蒙古自治区呼和浩特市赛罕区前进巷与学苑西街交叉口正西方向112米左右",
        "tel": "",
        "category": "基础设施:公共设施:公共厕所",
        "type": 0,
        "location": {
            "lat": 40.804527,
            "lng": 111.688973
        },
        "ad_info": {
            "adcode": 150105,
            "province": "内蒙古自治区",
            "city": "呼和浩特市",
            "district": "赛罕区"
        }
    },
    {
        "id": "4396778195447665202",
        "title": "公共厕所",
        "address": "内蒙古自治区呼和浩特市玉泉区三里营街与碱滩巷交叉口正南方向30米左右",
        "tel": "",
        "category": "基础设施:公共设施:公共厕所",
        "type": 0,
        "location": {
            "lat": 40.792402,
            "lng": 111.675273
        },
        "ad_info": {
            "adcode": 150104,
            "province": "内蒙古自治区",
            "city": "呼和浩特市",
            "district": "玉泉区"
        }
    },
    {
        "id": "9245659854309972189",
        "title": "公共厕所",
        "address": "内蒙古自治区呼和浩特市回民区成吉思汗西街与阿拉善北路交叉口西南方向393米左右",
        "tel": "",
        "category": "基础设施:公共设施:公共厕所",
        "type": 0,
        "location": {
            "lat": 40.83147,
            "lng": 111.605388
        },
        "ad_info": {
            "adcode": 150103,
            "province": "内蒙古自治区",
            "city": "呼和浩特市",
            "district": "回民区"
        }
    },
    {
        "id": "16011417804463302833",
        "title": "公共厕所",
        "address": "内蒙古自治区呼和浩特市玉泉区包头大街与锡林郭勒南路交叉口东北方向152米左右",
        "tel": "",
        "category": "基础设施:公共设施:公共厕所",
        "type": 0,
        "location": {
            "lat": 40.778439,
            "lng": 111.686305
        },
        "ad_info": {
            "adcode": 150104,
            "province": "内蒙古自治区",
            "city": "呼和浩特市",
            "district": "玉泉区"
        }
    },
    {
        "id": "1633536661391571215",
        "title": "无障碍公共厕所",
        "address": "内蒙古自治区呼和浩特市赛罕区乌兰察布东街与黑兰不塔巷交叉口西南方向50米左右",
        "tel": "",
        "category": "基础设施:公共设施:公共厕所",
        "type": 0,
        "location": {
            "lat": 40.828281,
            "lng": 111.734276
        },
        "ad_info": {
            "adcode": 150105,
            "province": "内蒙古自治区",
            "city": "呼和浩特市",
            "district": "赛罕区"
        }
    },
    {
        "id": "273185979304862960",
        "title": "公共厕所",
        "address": "内蒙古自治区呼和浩特市新城区建设街与财神庙街交叉口东北方向76米左右",
        "tel": "",
        "category": "基础设施:公共设施:公共厕所",
        "type": 0,
        "location": {
            "lat": 40.82649,
            "lng": 111.683635
        },
        "ad_info": {
            "adcode": 150102,
            "province": "内蒙古自治区",
            "city": "呼和浩特市",
            "district": "新城区"
        }
    },
    {
        "id": "558282056451232759",
        "title": "公共厕所",
        "address": "内蒙古自治区呼和浩特市玉泉区万盛北巷与山丹街交叉口正南方向60米左右",
        "tel": "",
        "category": "基础设施:公共设施:公共厕所",
        "type": 0,
        "location": {
            "lat": 40.79158,
            "lng": 111.679734
        },
        "ad_info": {
            "adcode": 150104,
            "province": "内蒙古自治区",
            "city": "呼和浩特市",
            "district": "玉泉区"
        }
    },
    {
        "id": "6445912740764897474",
        "title": "公共厕所",
        "address": "内蒙古自治区呼和浩特市回民区海拉尔西街辅路与西二环路交叉口正北方向260米左右",
        "tel": "",
        "category": "基础设施:公共设施:公共厕所",
        "type": 0,
        "location": {
            "lat": 40.814863,
            "lng": 111.588651
        },
        "ad_info": {
            "adcode": 150103,
            "province": "内蒙古自治区",
            "city": "呼和浩特市",
            "district": "回民区"
        }
    },
    {
        "id": "2881000723946157780",
        "title": "公共厕所",
        "address": "内蒙古自治区呼和浩特市赛罕区伊泰北巷与先锋东巷交叉口东北方向35米左右",
        "tel": "",
        "category": "基础设施:公共设施:公共厕所",
        "type": 0,
        "location": {
            "lat": 40.828382,
            "lng": 111.709025
        },
        "ad_info": {
            "adcode": 150105,
            "province": "内蒙古自治区",
            "city": "呼和浩特市",
            "district": "赛罕区"
        }
    },
    {
        "id": "10500755610893468791",
        "title": "公共厕所",
        "address": "内蒙古自治区呼和浩特市回民区巴彦淖尔北路与巴彦淖尔南路交叉口正南方向47米左右",
        "tel": "",
        "category": "基础设施:公共设施:公共厕所",
        "type": 0,
        "location": {
            "lat": 40.810732,
            "lng": 111.63155
        },
        "ad_info": {
            "adcode": 150103,
            "province": "内蒙古自治区",
            "city": "呼和浩特市",
            "district": "回民区"
        }
    },
    {
        "id": "14245198440138178929",
        "title": "公共厕所",
        "address": "内蒙古自治区呼和浩特市赛罕区巧报镇保全庄卫生室王大夫门诊东北侧240米",
        "tel": "",
        "category": "基础设施:公共设施:公共厕所",
        "type": 0,
        "location": {
            "lat": 40.779093,
            "lng": 111.746211
        },
        "ad_info": {
            "adcode": 150105,
            "province": "内蒙古自治区",
            "city": "呼和浩特市",
            "district": "赛罕区"
        }
    },
    {
        "id": "12534590722326015556",
        "title": "公共卫生间",
        "address": "内蒙古自治区呼和浩特市新城区乌兰察布东街与乌兰察布西街交叉口西南方向78米左右",
        "tel": "",
        "category": "基础设施:公共设施:公共厕所",
        "type": 0,
        "location": {
            "lat": 40.821178,
            "lng": 111.702126
        },
        "ad_info": {
            "adcode": 150102,
            "province": "内蒙古自治区",
            "city": "呼和浩特市",
            "district": "新城区"
        }
    },
    {
        "id": "17100916054253552966",
        "title": "公共厕所",
        "address": "内蒙古自治区呼和浩特市新城区北二环路与民生路交叉口东南方向174米左右",
        "tel": "",
        "category": "基础设施:公共设施:公共厕所",
        "type": 0,
        "location": {
            "lat": 40.866074,
            "lng": 111.687318
        },
        "ad_info": {
            "adcode": 150102,
            "province": "内蒙古自治区",
            "city": "呼和浩特市",
            "district": "新城区"
        }
    },
    {
        "id": "18401992833172058858",
        "title": "公共卫生间",
        "address": "内蒙古自治区呼和浩特市赛罕区东影南路与锦泰巷交叉口正东方向189米左右",
        "tel": "",
        "category": "基础设施:公共设施:公共厕所",
        "type": 0,
        "location": {
            "lat": 40.826655,
            "lng": 111.71267
        },
        "ad_info": {
            "adcode": 150105,
            "province": "内蒙古自治区",
            "city": "呼和浩特市",
            "district": "赛罕区"
        }
    },
    {
        "id": "5220722940698338557",
        "title": "公共厕所",
        "address": "内蒙古自治区呼和浩特市回民区海拉尔西街辅路与西二环路交叉口正南方向121米左右",
        "tel": "",
        "category": "基础设施:公共设施:公共厕所",
        "type": 0,
        "location": {
            "lat": 40.811531,
            "lng": 111.589109
        },
        "ad_info": {
            "adcode": 150103,
            "province": "内蒙古自治区",
            "city": "呼和浩特市",
            "district": "回民区"
        }
    },
    {
        "id": "7224125092095946553",
        "title": "公共厕所",
        "address": "内蒙古自治区呼和浩特市武川县健康西街与公园路交叉口正南方向90米左右",
        "tel": "",
        "category": "基础设施:公共设施:公共厕所",
        "type": 0,
        "location": {
            "lat": 41.09424,
            "lng": 111.447192
        },
        "ad_info": {
            "adcode": 150125,
            "province": "内蒙古自治区",
            "city": "呼和浩特市",
            "district": "武川县"
        }
    },
    {
        "id": "10453200019199920497",
        "title": "公共厕所",
        "address": "内蒙古自治区呼和浩特市玉泉区五塔寺东街与民兴巷交叉口正西方向95米左右",
        "tel": "",
        "category": "基础设施:公共设施:公共厕所",
        "type": 0,
        "location": {
            "lat": 40.799518,
            "lng": 111.668311
        },
        "ad_info": {
            "adcode": 150104,
            "province": "内蒙古自治区",
            "city": "呼和浩特市",
            "district": "玉泉区"
        }
    },
    {
        "id": "14070800596252830181",
        "title": "公共卫生间",
        "address": "内蒙古自治区呼和浩特市玉泉区西顺城街与通顺街交叉口西南方向40米左右",
        "tel": "",
        "category": "基础设施:公共设施:公共厕所",
        "type": 0,
        "location": {
            "lat": 40.797557,
            "lng": 111.645948
        },
        "ad_info": {
            "adcode": 150104,
            "province": "内蒙古自治区",
            "city": "呼和浩特市",
            "district": "玉泉区"
        }
    },
    {
        "id": "298863397374233204",
        "title": "公共厕所",
        "address": "内蒙古自治区呼和浩特市赛罕区S101与苏尔干街交叉口正东方向54米左右",
        "tel": "",
        "category": "基础设施:公共设施:公共厕所",
        "type": 0,
        "location": {
            "lat": 40.899984,
            "lng": 111.845639
        },
        "ad_info": {
            "adcode": 150105,
            "province": "内蒙古自治区",
            "city": "呼和浩特市",
            "district": "赛罕区"
        }
    },
    {
        "id": "15593688774615096139",
        "title": "公共厕所",
        "address": "内蒙古自治区呼和浩特市赛罕区南二环路与兴安南路辅路交叉口东200米",
        "tel": "",
        "category": "基础设施:公共设施:公共厕所",
        "type": 0,
        "location": {
            "lat": 40.796439,
            "lng": 111.717198
        },
        "ad_info": {
            "adcode": 150105,
            "province": "内蒙古自治区",
            "city": "呼和浩特市",
            "district": "赛罕区"
        }
    },
    {
        "id": "14381792635961220688",
        "title": "公共厕所",
        "address": "内蒙古自治区呼和浩特市玉泉区Y202与Y304交叉口东南方向1205米左右",
        "tel": "",
        "category": "基础设施:公共设施:公共厕所",
        "type": 0,
        "location": {
            "lat": 40.69467,
            "lng": 111.534392
        },
        "ad_info": {
            "adcode": 150104,
            "province": "内蒙古自治区",
            "city": "呼和浩特市",
            "district": "玉泉区"
        }
    },
    {
        "id": "14304044260704710578",
        "title": "无障碍公共厕所",
        "address": "内蒙古自治区呼和浩特市赛罕区清源路内蒙古地质矿产勘查院宿舍",
        "tel": "",
        "category": "基础设施:公共设施:公共厕所",
        "type": 0,
        "location": {
            "lat": 40.829599,
            "lng": 111.727554
        },
        "ad_info": {
            "adcode": 150105,
            "province": "内蒙古自治区",
            "city": "呼和浩特市",
            "district": "赛罕区"
        }
    },
    {
        "id": "10983757119555094958",
        "title": "公共厕所",
        "address": "内蒙古自治区呼和浩特市赛罕区兴安南路与鄂尔多斯东街交叉口正东方向307米左右",
        "tel": "",
        "category": "基础设施:公共设施:公共厕所",
        "type": 0,
        "location": {
            "lat": 40.803158,
            "lng": 111.714807
        },
        "ad_info": {
            "adcode": 150105,
            "province": "内蒙古自治区",
            "city": "呼和浩特市",
            "district": "赛罕区"
        }
    },
    {
        "id": "16467671227504613841",
        "title": "公共厕所",
        "address": "内蒙古自治区呼和浩特市赛罕区兴安南路与桥靠西街交叉口正西方向93米左右",
        "tel": "",
        "category": "基础设施:公共设施:公共厕所",
        "type": 0,
        "location": {
            "lat": 40.817355,
            "lng": 111.70363
        },
        "ad_info": {
            "adcode": 150105,
            "province": "内蒙古自治区",
            "city": "呼和浩特市",
            "district": "赛罕区"
        }
    },
    {
        "id": "2159539356699607280",
        "title": "公共厕所",
        "address": "内蒙古自治区呼和浩特市玉泉区银河北街",
        "tel": "",
        "category": "基础设施:公共设施:公共厕所",
        "type": 0,
        "location": {
            "lat": 40.765856,
            "lng": 111.660487
        },
        "ad_info": {
            "adcode": 150104,
            "province": "内蒙古自治区",
            "city": "呼和浩特市",
            "district": "玉泉区"
        }
    },
    {
        "id": "6776361628843164249",
        "title": "公共厕所",
        "address": "内蒙古自治区呼和浩特市玉泉区三合义食品有限责任公司东北侧50米",
        "tel": "",
        "category": "基础设施:公共设施:公共厕所",
        "type": 0,
        "location": {
            "lat": 40.652455,
            "lng": 111.68194
        },
        "ad_info": {
            "adcode": 150104,
            "province": "内蒙古自治区",
            "city": "呼和浩特市",
            "district": "玉泉区"
        }
    },
    {
        "id": "738309513926064559",
        "title": "公共厕所",
        "address": "内蒙古自治区呼和浩特市新城区S105与文化西路交叉口正西方向1598米左右",
        "tel": "",
        "category": "基础设施:公共设施:公共厕所",
        "type": 0,
        "location": {
            "lat": 40.95013,
            "lng": 111.963077
        },
        "ad_info": {
            "adcode": 150102,
            "province": "内蒙古自治区",
            "city": "呼和浩特市",
            "district": "新城区"
        }
    },
    {
        "id": "16684133349924985125",
        "title": "无障碍公共厕所",
        "address": "内蒙古自治区呼和浩特市新城区东护城河南街与河西公司南巷交叉口东南方向71米左右",
        "tel": "",
        "category": "基础设施:公共设施:公共厕所",
        "type": 0,
        "location": {
            "lat": 40.822136,
            "lng": 111.699266
        },
        "ad_info": {
            "adcode": 150102,
            "province": "内蒙古自治区",
            "city": "呼和浩特市",
            "district": "新城区"
        }
    },
    {
        "id": "11734526474641614376",
        "title": "公共厕所",
        "address": "内蒙古自治区呼和浩特市回民区清真大寺东(清真大寺广场东北)",
        "tel": "",
        "category": "基础设施:公共设施:公共厕所",
        "type": 0,
        "location": {
            "lat": 40.810064,
            "lng": 111.656393
        },
        "ad_info": {
            "adcode": 150103,
            "province": "内蒙古自治区",
            "city": "呼和浩特市",
            "district": "回民区"
        }
    },
    {
        "id": "6990765978506196370",
        "title": "公共厕所",
        "address": "内蒙古自治区呼和浩特市赛罕区S101与呼和浩特东出口高速交叉口西北方向10米左右",
        "tel": "",
        "category": "基础设施:公共设施:公共厕所",
        "type": 0,
        "location": {
            "lat": 40.89631,
            "lng": 111.84581
        },
        "ad_info": {
            "adcode": 150105,
            "province": "内蒙古自治区",
            "city": "呼和浩特市",
            "district": "赛罕区"
        }
    },
    {
        "id": "6867513590074805124",
        "title": "无障碍公共厕所",
        "address": "内蒙古自治区呼和浩特市赛罕区昭乌达路辅路与鄂尔多斯大街交叉口东160米",
        "tel": "",
        "category": "基础设施:公共设施:公共厕所",
        "type": 0,
        "location": {
            "lat": 40.801955,
            "lng": 111.701127
        },
        "ad_info": {
            "adcode": 150105,
            "province": "内蒙古自治区",
            "city": "呼和浩特市",
            "district": "赛罕区"
        }
    },
    {
        "id": "8618951779255661591",
        "title": "公共厕所",
        "address": "内蒙古自治区呼和浩特市赛罕区展览馆西路与统计局街交叉口正南方向264米左右",
        "tel": "",
        "category": "基础设施:公共设施:公共厕所",
        "type": 0,
        "location": {
            "lat": 40.820014,
            "lng": 111.720526
        },
        "ad_info": {
            "adcode": 150105,
            "province": "内蒙古自治区",
            "city": "呼和浩特市",
            "district": "赛罕区"
        }
    },
    {
        "id": "6581195310840009139",
        "title": "公共厕所",
        "address": "内蒙古自治区呼和浩特市玉泉区花语路与陶利西街交叉口东南方向67米左右",
        "tel": "",
        "category": "基础设施:公共设施:公共厕所",
        "type": 0,
        "location": {
            "lat": 40.772658,
            "lng": 111.682752
        },
        "ad_info": {
            "adcode": 150104,
            "province": "内蒙古自治区",
            "city": "呼和浩特市",
            "district": "玉泉区"
        }
    },
    {
        "id": "1242643826374377396",
        "title": "公共厕所",
        "address": "内蒙古自治区呼和浩特市赛罕区金龙路与阿拉坦大街交叉口西北方向53米左右",
        "tel": "",
        "category": "基础设施:公共设施:公共厕所",
        "type": 0,
        "location": {
            "lat": 40.7714,
            "lng": 111.739818
        },
        "ad_info": {
            "adcode": 150105,
            "province": "内蒙古自治区",
            "city": "呼和浩特市",
            "district": "赛罕区"
        }
    },
    {
        "id": "3520984876709393272",
        "title": "公共厕所",
        "address": "内蒙古自治区呼和浩特市赛罕区大学西街与锡林郭勒南路交叉口东北方向72米左右",
        "tel": "",
        "category": "基础设施:公共设施:公共厕所",
        "type": 0,
        "location": {
            "lat": 40.80692,
            "lng": 111.67606
        },
        "ad_info": {
            "adcode": 150105,
            "province": "内蒙古自治区",
            "city": "呼和浩特市",
            "district": "赛罕区"
        }
    },
    {
        "id": "3477140591480157052",
        "title": "公共卫生间",
        "address": "内蒙古自治区呼和浩特市赛罕区制片厂巷与学苑西街交叉口东北方向36米左右",
        "tel": "",
        "category": "基础设施:公共设施:公共厕所",
        "type": 0,
        "location": {
            "lat": 40.808298,
            "lng": 111.704167
        },
        "ad_info": {
            "adcode": 150105,
            "province": "内蒙古自治区",
            "city": "呼和浩特市",
            "district": "赛罕区"
        }
    },
    {
        "id": "5122423961352711495",
        "title": "公共厕所",
        "address": "内蒙古自治区呼和浩特市赛罕区包头大街蒙元骑士城",
        "tel": "",
        "category": "基础设施:公共设施:公共厕所",
        "type": 0,
        "location": {
            "lat": 40.781331,
            "lng": 111.700409
        },
        "ad_info": {
            "adcode": 150105,
            "province": "内蒙古自治区",
            "city": "呼和浩特市",
            "district": "赛罕区"
        }
    },
    {
        "id": "1785361255996673623",
        "title": "公共厕所",
        "address": "内蒙古自治区呼和浩特市赛罕区昭乌达路辅路与大学西街交叉口南80米",
        "tel": "",
        "category": "基础设施:公共设施:公共厕所",
        "type": 0,
        "location": {
            "lat": 40.811274,
            "lng": 111.695656
        },
        "ad_info": {
            "adcode": 150105,
            "province": "内蒙古自治区",
            "city": "呼和浩特市",
            "district": "赛罕区"
        }
    },
    {
        "id": "4435488746585471019",
        "title": "无障碍公共厕所",
        "address": "内蒙古自治区呼和浩特市赛罕区双树北巷与锡林郭勒南路交叉口东北方向68米左右",
        "tel": "",
        "category": "基础设施:公共设施:公共厕所",
        "type": 0,
        "location": {
            "lat": 40.795619,
            "lng": 111.680574
        },
        "ad_info": {
            "adcode": 150105,
            "province": "内蒙古自治区",
            "city": "呼和浩特市",
            "district": "赛罕区"
        }
    },
    {
        "id": "14912777819723090346",
        "title": "公共厕所",
        "address": "内蒙古自治区呼和浩特市赛罕区东影南路与大学东街交叉口东北方向36米左右",
        "tel": "",
        "category": "基础设施:公共设施:公共厕所",
        "type": 0,
        "location": {
            "lat": 40.816176,
            "lng": 111.71464
        },
        "ad_info": {
            "adcode": 150105,
            "province": "内蒙古自治区",
            "city": "呼和浩特市",
            "district": "赛罕区"
        }
    },
    {
        "id": "8652627182226638176",
        "title": "大召无量寺公共厕所",
        "address": "内蒙古自治区呼和浩特市玉泉区大召前街大召广场",
        "tel": "",
        "category": "基础设施:公共设施:公共厕所",
        "type": 0,
        "location": {
            "lat": 40.798665,
            "lng": 111.654785
        },
        "ad_info": {
            "adcode": 150104,
            "province": "内蒙古自治区",
            "city": "呼和浩特市",
            "district": "玉泉区"
        }
    },
    {
        "id": "11312745612959109585",
        "title": "公共厕所",
        "address": "内蒙古自治区呼和浩特市玉泉区石西路南巷与鄂尔多斯大街交叉口正南方向28米左右",
        "tel": "",
        "category": "基础设施:公共设施:公共厕所",
        "type": 0,
        "location": {
            "lat": 40.792584,
            "lng": 111.661819
        },
        "ad_info": {
            "adcode": 150104,
            "province": "内蒙古自治区",
            "city": "呼和浩特市",
            "district": "玉泉区"
        }
    },
    {
        "id": "1456139759656971500",
        "title": "公共厕所",
        "address": "内蒙古自治区呼和浩特市玉泉区史家巷九久街商业城",
        "tel": "",
        "category": "基础设施:公共设施:公共厕所",
        "type": 0,
        "location": {
            "lat": 40.796195,
            "lng": 111.654782
        },
        "ad_info": {
            "adcode": 150104,
            "province": "内蒙古自治区",
            "city": "呼和浩特市",
            "district": "玉泉区"
        }
    },
    {
        "id": "13484037661579854052",
        "title": "公共卫生间",
        "address": "内蒙古自治区呼和浩特市新城区塞北关街与文化宫路交叉口正东方向122米左右",
        "tel": "",
        "category": "基础设施:公共设施:公共厕所",
        "type": 0,
        "location": {
            "lat": 40.828708,
            "lng": 111.663947
        },
        "ad_info": {
            "adcode": 150102,
            "province": "内蒙古自治区",
            "city": "呼和浩特市",
            "district": "新城区"
        }
    },
    {
        "id": "15319914967310258963",
        "title": "公共厕所",
        "address": "内蒙古自治区呼和浩特市赛罕区清源路丁香苑小区",
        "tel": "",
        "category": "基础设施:公共设施:公共厕所",
        "type": 0,
        "location": {
            "lat": 40.828162,
            "lng": 111.728184
        },
        "ad_info": {
            "adcode": 150105,
            "province": "内蒙古自治区",
            "city": "呼和浩特市",
            "district": "赛罕区"
        }
    },
    {
        "id": "11587585062013548332",
        "title": "公共厕所",
        "address": "内蒙古自治区呼和浩特市新城区中山东路与中山西路交叉口正北方向64米左右",
        "tel": "",
        "category": "基础设施:公共设施:公共厕所",
        "type": 0,
        "location": {
            "lat": 40.817107,
            "lng": 111.670367
        },
        "ad_info": {
            "adcode": 150102,
            "province": "内蒙古自治区",
            "city": "呼和浩特市",
            "district": "新城区"
        }
    },
    {
        "id": "16992948195191597154",
        "title": "公共厕所",
        "address": "内蒙古自治区呼和浩特市赛罕区制片厂巷与大学东街交叉口正北方向118米左右",
        "tel": "",
        "category": "基础设施:公共设施:公共厕所",
        "type": 0,
        "location": {
            "lat": 40.814009,
            "lng": 111.701225
        },
        "ad_info": {
            "adcode": 150105,
            "province": "内蒙古自治区",
            "city": "呼和浩特市",
            "district": "赛罕区"
        }
    },
    {
        "id": "495877110126125557",
        "title": "公共厕所",
        "address": "内蒙古自治区呼和浩特市赛罕区乌兰察布东街与展览馆东路交叉口西北方向56米左右",
        "tel": "",
        "category": "基础设施:公共设施:公共厕所",
        "type": 0,
        "location": {
            "lat": 40.826661,
            "lng": 111.724352
        },
        "ad_info": {
            "adcode": 150105,
            "province": "内蒙古自治区",
            "city": "呼和浩特市",
            "district": "赛罕区"
        }
    },
    {
        "id": "14265887067419037482",
        "title": "公共厕所",
        "address": "内蒙古自治区呼和浩特市新城区人民巷与人民路交叉口正东方向44米左右",
        "tel": "",
        "category": "基础设施:公共设施:公共厕所",
        "type": 0,
        "location": {
            "lat": 40.815661,
            "lng": 111.675747
        },
        "ad_info": {
            "adcode": 150102,
            "province": "内蒙古自治区",
            "city": "呼和浩特市",
            "district": "新城区"
        }
    },
    {
        "id": "15408277837295400464",
        "title": "公共厕所",
        "address": "内蒙古自治区呼和浩特市赛罕区乌兰察布东街与先锋东巷交叉口正北方向143米左右",
        "tel": "",
        "category": "基础设施:公共设施:公共厕所",
        "type": 0,
        "location": {
            "lat": 40.824652,
            "lng": 111.710293
        },
        "ad_info": {
            "adcode": 150105,
            "province": "内蒙古自治区",
            "city": "呼和浩特市",
            "district": "赛罕区"
        }
    },
    {
        "id": "1527725038761157827",
        "title": "青城公园公共厕所",
        "address": "内蒙古自治区呼和浩特市回民区公园南路南巷与大学西街交叉口正西方向102米左右",
        "tel": "",
        "category": "基础设施:公共设施:公共厕所",
        "type": 0,
        "location": {
            "lat": 40.80439,
            "lng": 111.66764
        },
        "ad_info": {
            "adcode": 150103,
            "province": "内蒙古自治区",
            "city": "呼和浩特市",
            "district": "回民区"
        }
    },
    {
        "id": "15920154624130952074",
        "title": "公共厕所",
        "address": "内蒙古自治区呼和浩特市新城区十四中西巷内蒙古艺术学院",
        "tel": "",
        "category": "基础设施:公共设施:公共厕所",
        "type": 0,
        "location": {
            "lat": 40.831633,
            "lng": 111.701063
        },
        "ad_info": {
            "adcode": 150102,
            "province": "内蒙古自治区",
            "city": "呼和浩特市",
            "district": "新城区"
        }
    },
    {
        "id": "14149873327507560251",
        "title": "公共厕所",
        "address": "内蒙古自治区呼和浩特市赛罕区东方领海A区东南侧240米",
        "tel": "",
        "category": "基础设施:公共设施:公共厕所",
        "type": 0,
        "location": {
            "lat": 40.802986,
            "lng": 111.789067
        },
        "ad_info": {
            "adcode": 150105,
            "province": "内蒙古自治区",
            "city": "呼和浩特市",
            "district": "赛罕区"
        }
    },
    {
        "id": "2853458108306681276",
        "title": "公共卫生间",
        "address": "内蒙古自治区呼和浩特市玉泉区大召西夹道与小西街交叉口正南方向80米左右",
        "tel": "",
        "category": "基础设施:公共设施:公共厕所",
        "type": 0,
        "location": {
            "lat": 40.802806,
            "lng": 111.652153
        },
        "ad_info": {
            "adcode": 150104,
            "province": "内蒙古自治区",
            "city": "呼和浩特市",
            "district": "玉泉区"
        }
    },
    {
        "id": "7341484058255599995",
        "title": "公共厕所",
        "address": "内蒙古自治区呼和浩特市赛罕区包头大街赛罕分局巧报派出所",
        "tel": "",
        "category": "基础设施:公共设施:公共厕所",
        "type": 0,
        "location": {
            "lat": 40.78505,
            "lng": 111.713014
        },
        "ad_info": {
            "adcode": 150105,
            "province": "内蒙古自治区",
            "city": "呼和浩特市",
            "district": "赛罕区"
        }
    },
    {
        "id": "1569742593076886665",
        "title": "公共厕所",
        "address": "内蒙古自治区呼和浩特市回民区爱心巷与阿吉拉沁南路交叉口正西方向26米左右",
        "tel": "",
        "category": "基础设施:公共设施:公共厕所",
        "type": 0,
        "location": {
            "lat": 40.804187,
            "lng": 111.642647
        },
        "ad_info": {
            "adcode": 150103,
            "province": "内蒙古自治区",
            "city": "呼和浩特市",
            "district": "回民区"
        }
    },
    {
        "id": "1611843935595394353",
        "title": "公共厕所",
        "address": "内蒙古自治区呼和浩特市赛罕区如意南路与饕界美食街交叉口正南方向120米左右",
        "tel": "",
        "category": "基础设施:公共设施:公共厕所",
        "type": 0,
        "location": {
            "lat": 40.816942,
            "lng": 111.754815
        },
        "ad_info": {
            "adcode": 150105,
            "province": "内蒙古自治区",
            "city": "呼和浩特市",
            "district": "赛罕区"
        }
    },
    {
        "id": "9395753551648198575",
        "title": "公共厕所",
        "address": "内蒙古自治区呼和浩特市赛罕区兴安南路与惠民街交叉口东南方向47米左右",
        "tel": "",
        "category": "基础设施:公共设施:公共厕所",
        "type": 0,
        "location": {
            "lat": 40.77541,
            "lng": 111.730332
        },
        "ad_info": {
            "adcode": 150105,
            "province": "内蒙古自治区",
            "city": "呼和浩特市",
            "district": "赛罕区"
        }
    },
    {
        "id": "16305408842942232778",
        "title": "公共厕所",
        "address": "内蒙古自治区呼和浩特市赛罕区蒙幼东巷12-1号",
        "tel": "",
        "category": "基础设施:公共设施:公共厕所",
        "type": 0,
        "location": {
            "lat": 40.822883,
            "lng": 111.704176
        },
        "ad_info": {
            "adcode": 150105,
            "province": "内蒙古自治区",
            "city": "呼和浩特市",
            "district": "赛罕区"
        }
    },
    {
        "id": "12647836604081803908",
        "title": "公共厕所",
        "address": "内蒙古自治区呼和浩特市新城区乌兰察布西街与南马神庙街交叉口西北方向42米左右",
        "tel": "",
        "category": "基础设施:公共设施:公共厕所",
        "type": 0,
        "location": {
            "lat": 40.819801,
            "lng": 111.694143
        },
        "ad_info": {
            "adcode": 150102,
            "province": "内蒙古自治区",
            "city": "呼和浩特市",
            "district": "新城区"
        }
    },
    {
        "id": "7657550222333893195",
        "title": "公共厕所",
        "address": "内蒙古自治区呼和浩特市回民区石羊桥路青城公园",
        "tel": "",
        "category": "基础设施:公共设施:公共厕所",
        "type": 0,
        "location": {
            "lat": 40.807485,
            "lng": 111.662464
        },
        "ad_info": {
            "adcode": 150103,
            "province": "内蒙古自治区",
            "city": "呼和浩特市",
            "district": "回民区"
        }
    },
    {
        "id": "15663836616024431868",
        "title": "公共厕所",
        "address": "内蒙古自治区呼和浩特市赛罕区乌兰察布东街与先锋中巷交叉口正北方向154米左右",
        "tel": "",
        "category": "基础设施:公共设施:公共厕所",
        "type": 0,
        "location": {
            "lat": 40.824398,
            "lng": 111.70871
        },
        "ad_info": {
            "adcode": 150105,
            "province": "内蒙古自治区",
            "city": "呼和浩特市",
            "district": "赛罕区"
        }
    },
    {
        "id": "1055085650030474224",
        "title": "公共厕所",
        "address": "内蒙古自治区呼和浩特市和林格尔县G209与兆君路交叉口正北方向45米左右",
        "tel": "",
        "category": "基础设施:公共设施:公共厕所",
        "type": 0,
        "location": {
            "lat": 40.479413,
            "lng": 111.780655
        },
        "ad_info": {
            "adcode": 150123,
            "province": "内蒙古自治区",
            "city": "呼和浩特市",
            "district": "和林格尔县"
        }
    },
    {
        "id": "2302278314238801056",
        "title": "公共厕所",
        "address": "内蒙古自治区呼和浩特市玉泉区东五十家街与五塔寺前街交叉口西北方向116米左右",
        "tel": "",
        "category": "基础设施:公共设施:公共厕所",
        "type": 0,
        "location": {
            "lat": 40.798517,
            "lng": 111.662556
        },
        "ad_info": {
            "adcode": 150104,
            "province": "内蒙古自治区",
            "city": "呼和浩特市",
            "district": "玉泉区"
        }
    },
    {
        "id": "11607088828428139876",
        "title": "公共卫生间",
        "address": "内蒙古自治区呼和浩特市新城区聚隆长街与西落凤街交叉口正北方向43米左右",
        "tel": "",
        "category": "基础设施:公共设施:公共厕所",
        "type": 0,
        "location": {
            "lat": 40.823937,
            "lng": 111.684025
        },
        "ad_info": {
            "adcode": 150102,
            "province": "内蒙古自治区",
            "city": "呼和浩特市",
            "district": "新城区"
        }
    },
    {
        "id": "9170531351782094762",
        "title": "男洗手间(维多利·时代itimes)",
        "address": "内蒙古自治区呼和浩特市回民区中山西路1号维多利·时代itimesF4层",
        "tel": "",
        "category": "基础设施:公共设施:公共厕所",
        "type": 0,
        "location": {
            "lat": 40.815505,
            "lng": 111.669651
        },
        "ad_info": {
            "adcode": 150103,
            "province": "内蒙古自治区",
            "city": "呼和浩特市",
            "district": "回民区"
        }
    },
    {
        "id": "9597346149392370916",
        "title": "公共厕所",
        "address": "内蒙古自治区呼和浩特市玉泉区三里营南巷与三里营南路交叉口正东方向58米左右",
        "tel": "",
        "category": "基础设施:公共设施:公共厕所",
        "type": 0,
        "location": {
            "lat": 40.786143,
            "lng": 111.677029
        },
        "ad_info": {
            "adcode": 150104,
            "province": "内蒙古自治区",
            "city": "呼和浩特市",
            "district": "玉泉区"
        }
    },
    {
        "id": "8269891412351321541",
        "title": "无障碍公共厕所",
        "address": "内蒙古自治区呼和浩特市赛罕区安泰巷与新华东街交叉口东南方向81米左右",
        "tel": "",
        "category": "基础设施:公共设施:公共厕所",
        "type": 0,
        "location": {
            "lat": 40.828794,
            "lng": 111.70284
        },
        "ad_info": {
            "adcode": 150105,
            "province": "内蒙古自治区",
            "city": "呼和浩特市",
            "district": "赛罕区"
        }
    },
    {
        "id": "6194774557195560488",
        "title": "公共厕所",
        "address": "内蒙古自治区呼和浩特市赛罕区东影南路与乌兰察布东街交叉口东南方向33米左右",
        "tel": "",
        "category": "基础设施:公共设施:公共厕所",
        "type": 0,
        "location": {
            "lat": 40.823415,
            "lng": 111.711819
        },
        "ad_info": {
            "adcode": 150105,
            "province": "内蒙古自治区",
            "city": "呼和浩特市",
            "district": "赛罕区"
        }
    },
    {
        "id": "8194359983515329642",
        "title": "公共卫生间",
        "address": "内蒙古自治区呼和浩特市赛罕区东影南路与统计局街交叉口正北方向37米左右",
        "tel": "",
        "category": "基础设施:公共设施:公共厕所",
        "type": 0,
        "location": {
            "lat": 40.821077,
            "lng": 111.712519
        },
        "ad_info": {
            "adcode": 150105,
            "province": "内蒙古自治区",
            "city": "呼和浩特市",
            "district": "赛罕区"
        }
    },
    {
        "id": "7389086656918300738",
        "title": "公共厕所",
        "address": "内蒙古自治区呼和浩特市玉泉区三里营街坤泰住宅区",
        "tel": "",
        "category": "基础设施:公共设施:公共厕所",
        "type": 0,
        "location": {
            "lat": 40.789787,
            "lng": 111.667756
        },
        "ad_info": {
            "adcode": 150104,
            "province": "内蒙古自治区",
            "city": "呼和浩特市",
            "district": "玉泉区"
        }
    },
    {
        "id": "5569855122198983361",
        "title": "公共厕所",
        "address": "内蒙古自治区呼和浩特市新城区南马神庙街5号",
        "tel": "",
        "category": "基础设施:公共设施:公共厕所",
        "type": 0,
        "location": {
            "lat": 40.826951,
            "lng": 111.690829
        },
        "ad_info": {
            "adcode": 150102,
            "province": "内蒙古自治区",
            "city": "呼和浩特市",
            "district": "新城区"
        }
    },
    {
        "id": "3922337665417765045",
        "title": "公共厕所",
        "address": "内蒙古自治区呼和浩特市玉泉区闻涛街万锦香韵",
        "tel": "",
        "category": "基础设施:公共设施:公共厕所",
        "type": 0,
        "location": {
            "lat": 40.76874,
            "lng": 111.678724
        },
        "ad_info": {
            "adcode": 150104,
            "province": "内蒙古自治区",
            "city": "呼和浩特市",
            "district": "玉泉区"
        }
    },
    {
        "id": "5447791465134548603",
        "title": "无障碍公共厕所",
        "address": "内蒙古自治区呼和浩特市赛罕区丰州南路与大学东街交叉口西南方向43米左右",
        "tel": "",
        "category": "基础设施:公共设施:公共厕所",
        "type": 0,
        "location": {
            "lat": 40.819893,
            "lng": 111.732987
        },
        "ad_info": {
            "adcode": 150105,
            "province": "内蒙古自治区",
            "city": "呼和浩特市",
            "district": "赛罕区"
        }
    },
    {
        "id": "10640052212066445142",
        "title": "公共厕所",
        "address": "内蒙古自治区呼和浩特市新城区光华街与星光东巷交叉口正北方向19米左右",
        "tel": "",
        "category": "基础设施:公共设施:公共厕所",
        "type": 0,
        "location": {
            "lat": 40.834308,
            "lng": 111.706537
        },
        "ad_info": {
            "adcode": 150102,
            "province": "内蒙古自治区",
            "city": "呼和浩特市",
            "district": "新城区"
        }
    },
    {
        "id": "16365393129459973817",
        "title": "公共厕所",
        "address": "内蒙古自治区呼和浩特市新城区卫生厅西巷与邮校北巷交叉口西北方向42米左右",
        "tel": "",
        "category": "基础设施:公共设施:公共厕所",
        "type": 0,
        "location": {
            "lat": 40.817805,
            "lng": 111.67659
        },
        "ad_info": {
            "adcode": 150102,
            "province": "内蒙古自治区",
            "city": "呼和浩特市",
            "district": "新城区"
        }
    },
    {
        "id": "7321661114835317542",
        "title": "公共厕所",
        "address": "内蒙古自治区呼和浩特市新城区赛马场北路与通道北路交叉口正东方向112米左右",
        "tel": "",
        "category": "基础设施:公共设施:公共厕所",
        "type": 0,
        "location": {
            "lat": 40.849422,
            "lng": 111.649969
        },
        "ad_info": {
            "adcode": 150102,
            "province": "内蒙古自治区",
            "city": "呼和浩特市",
            "district": "新城区"
        }
    },
    {
        "id": "2652253084715469799",
        "title": "公共厕所",
        "address": "内蒙古自治区呼和浩特市新城区姑子板巷煤碳厅小区",
        "tel": "",
        "category": "基础设施:公共设施:公共厕所",
        "type": 0,
        "location": {
            "lat": 40.819535,
            "lng": 111.671631
        },
        "ad_info": {
            "adcode": 150102,
            "province": "内蒙古自治区",
            "city": "呼和浩特市",
            "district": "新城区"
        }
    },
    {
        "id": "11477377872696966362",
        "title": "公共厕所",
        "address": "内蒙古自治区呼和浩特市新城区赛马场北路文苑大厦",
        "tel": "",
        "category": "基础设施:公共设施:公共厕所",
        "type": 0,
        "location": {
            "lat": 40.853673,
            "lng": 111.678529
        },
        "ad_info": {
            "adcode": 150102,
            "province": "内蒙古自治区",
            "city": "呼和浩特市",
            "district": "新城区"
        }
    },
    {
        "id": "9185797651475314490",
        "title": "无障碍公共厕所",
        "address": "内蒙古自治区呼和浩特市赛罕区展览馆西路与统计局街交叉口正北方向99米左右",
        "tel": "",
        "category": "基础设施:公共设施:公共厕所",
        "type": 0,
        "location": {
            "lat": 40.823122,
            "lng": 111.719521
        },
        "ad_info": {
            "adcode": 150105,
            "province": "内蒙古自治区",
            "city": "呼和浩特市",
            "district": "赛罕区"
        }
    },
    {
        "id": "3509312618166333529",
        "title": "无障碍公共厕所",
        "address": "内蒙古自治区呼和浩特市玉泉区大玉石巷与鄂尔多斯大街交叉口西北方向25米左右",
        "tel": "",
        "category": "基础设施:公共设施:公共厕所",
        "type": 0,
        "location": {
            "lat": 40.792605,
            "lng": 111.659731
        },
        "ad_info": {
            "adcode": 150104,
            "province": "内蒙古自治区",
            "city": "呼和浩特市",
            "district": "玉泉区"
        }
    },
    {
        "id": "3050789861071874806",
        "title": "无障碍公共厕所",
        "address": "内蒙古自治区呼和浩特市回民区光明大街与文化宫路交叉口正南方向107米左右",
        "tel": "",
        "category": "基础设施:公共设施:公共厕所",
        "type": 0,
        "location": {
            "lat": 40.825244,
            "lng": 111.662997
        },
        "ad_info": {
            "adcode": 150103,
            "province": "内蒙古自治区",
            "city": "呼和浩特市",
            "district": "回民区"
        }
    },
    {
        "id": "14241873545164883747",
        "title": "无障碍公共厕所",
        "address": "内蒙古自治区呼和浩特市新城区国贸大厦c座(红旗街)东侧100米",
        "tel": "",
        "category": "基础设施:公共设施:公共厕所",
        "type": 0,
        "location": {
            "lat": 40.829103,
            "lng": 111.666319
        },
        "ad_info": {
            "adcode": 150102,
            "province": "内蒙古自治区",
            "city": "呼和浩特市",
            "district": "新城区"
        }
    },
    {
        "id": "8184543765497558663",
        "title": "公共厕所",
        "address": "内蒙古自治区呼和浩特市土默特左旗X025与三八路交叉口正南方向109米左右",
        "tel": "",
        "category": "基础设施:公共设施:公共厕所",
        "type": 0,
        "location": {
            "lat": 40.7282,
            "lng": 111.294602
        },
        "ad_info": {
            "adcode": 150121,
            "province": "内蒙古自治区",
            "city": "呼和浩特市",
            "district": "土默特左旗"
        }
    },
    {
        "id": "4353000257501907299",
        "title": "公共卫生间",
        "address": "内蒙古自治区呼和浩特市土默特左旗伊利大街与金七道交叉口正东方向78米左右",
        "tel": "",
        "category": "基础设施:公共设施:公共厕所",
        "type": 0,
        "location": {
            "lat": 40.786569,
            "lng": 111.545016
        },
        "ad_info": {
            "adcode": 150121,
            "province": "内蒙古自治区",
            "city": "呼和浩特市",
            "district": "土默特左旗"
        }
    },
    {
        "id": "6065114127497255282",
        "title": "青城驿站",
        "address": "内蒙古自治区呼和浩特市玉泉区顺达驾校旁",
        "tel": "",
        "category": "基础设施:公共设施:公共厕所",
        "type": 0,
        "location": {
            "lat": 40.705109,
            "lng": 111.555683
        },
        "ad_info": {
            "adcode": 150104,
            "province": "内蒙古自治区",
            "city": "呼和浩特市",
            "district": "玉泉区"
        }
    },
    {
        "id": "11179986865640308902",
        "title": "公共厕所",
        "address": "内蒙古自治区呼和浩特市和林格尔县G209与X020交叉口正北方向362米左右",
        "tel": "",
        "category": "基础设施:公共设施:公共厕所",
        "type": 0,
        "location": {
            "lat": 40.484428,
            "lng": 111.778472
        },
        "ad_info": {
            "adcode": 150123,
            "province": "内蒙古自治区",
            "city": "呼和浩特市",
            "district": "和林格尔县"
        }
    },
    {
        "id": "10036325076530997339",
        "title": "公共厕所",
        "address": "内蒙古自治区呼和浩特市土默特左旗光明路与公园路交叉口正南方向47米左右",
        "tel": "",
        "category": "基础设施:公共设施:公共厕所",
        "type": 0,
        "location": {
            "lat": 40.730597,
            "lng": 111.155984
        },
        "ad_info": {
            "adcode": 150121,
            "province": "内蒙古自治区",
            "city": "呼和浩特市",
            "district": "土默特左旗"
        }
    },
    {
        "id": "15433728689819378305",
        "title": "力信国际酒店-洗手间",
        "address": "内蒙古自治区呼和浩特市新城区锡林郭勒北路力信国际酒店5层",
        "tel": "",
        "category": "基础设施:公共设施:公共厕所",
        "type": 0,
        "location": {
            "lat": 40.818874,
            "lng": 111.669697
        },
        "ad_info": {
            "adcode": 150102,
            "province": "内蒙古自治区",
            "city": "呼和浩特市",
            "district": "新城区"
        }
    },
    {
        "id": "14237180136173849157",
        "title": "无障碍公共厕所",
        "address": "内蒙古自治区呼和浩特市赛罕区韩安邦9·20口腔诊所南侧",
        "tel": "",
        "category": "基础设施:公共设施:公共厕所",
        "type": 0,
        "location": {
            "lat": 40.807171,
            "lng": 111.679834
        },
        "ad_info": {
            "adcode": 150105,
            "province": "内蒙古自治区",
            "city": "呼和浩特市",
            "district": "赛罕区"
        }
    },
    {
        "id": "10553637787078916490",
        "title": "榆林服务区公共厕所",
        "address": "内蒙古自治区呼和浩特市赛罕区G110与东砖线交叉口正东方向1306米左右",
        "tel": "",
        "category": "基础设施:公共设施:公共厕所",
        "type": 0,
        "location": {
            "lat": 40.896988,
            "lng": 112.013609
        },
        "ad_info": {
            "adcode": 150105,
            "province": "内蒙古自治区",
            "city": "呼和浩特市",
            "district": "赛罕区"
        }
    },
    {
        "id": "14125595268780608862",
        "title": "清水河服务区公共厕所",
        "address": "内蒙古自治区呼和浩特市清水河县荣乌高速",
        "tel": "",
        "category": "基础设施:公共设施:公共厕所",
        "type": 0,
        "location": {
            "lat": 39.765076,
            "lng": 111.813513
        },
        "ad_info": {
            "adcode": 150124,
            "province": "内蒙古自治区",
            "city": "呼和浩特市",
            "district": "清水河县"
        }
    },
    {
        "id": "15428737247240405699",
        "title": "永圣域服务区公共厕所",
        "address": "内蒙古自治区呼和浩特市托克托县",
        "tel": "",
        "category": "基础设施:公共设施:公共厕所",
        "type": 0,
        "location": {
            "lat": 40.522634,
            "lng": 111.442779
        },
        "ad_info": {
            "adcode": 150122,
            "province": "内蒙古自治区",
            "city": "呼和浩特市",
            "district": "托克托县"
        }
    },
    {
        "id": "3182275369031960486",
        "title": "哈素海服务区公共厕所",
        "address": "内蒙古自治区呼和浩特市土默特左旗石油哈素海服务区加油站西南侧170米",
        "tel": "",
        "category": "基础设施:公共设施:公共厕所",
        "type": 0,
        "location": {
            "lat": 40.694388,
            "lng": 111.006463
        },
        "ad_info": {
            "adcode": 150121,
            "province": "内蒙古自治区",
            "city": "呼和浩特市",
            "district": "土默特左旗"
        }
    },
    {
        "id": "3624506262010162822",
        "title": "无障碍公共厕所",
        "address": "内蒙古自治区呼和浩特市土默特左旗金海路辅路与金七道交叉口西南80米",
        "tel": "",
        "category": "基础设施:公共设施:公共厕所",
        "type": 0,
        "location": {
            "lat": 40.785075,
            "lng": 111.542392
        },
        "ad_info": {
            "adcode": 150121,
            "province": "内蒙古自治区",
            "city": "呼和浩特市",
            "district": "土默特左旗"
        }
    },
    {
        "id": "12812946433914005528",
        "title": "男洗手间(维多利·时代itimes)",
        "address": "内蒙古自治区呼和浩特市回民区中山西路1号海亮广场F6",
        "tel": "",
        "category": "基础设施:公共设施:男洗手间",
        "type": 0,
        "location": {
            "lat": 40.815014,
            "lng": 111.670732
        },
        "ad_info": {
            "adcode": 150103,
            "province": "内蒙古自治区",
            "city": "呼和浩特市",
            "district": "回民区"
        }
    },
    {
        "id": "9432857267662114246",
        "title": "男洗手间(维多利·时代itimes)",
        "address": "内蒙古自治区呼和浩特市回民区中山西路1号海亮广场F2",
        "tel": "",
        "category": "基础设施:公共设施:男洗手间",
        "type": 0,
        "location": {
            "lat": 40.815368,
            "lng": 111.670498
        },
        "ad_info": {
            "adcode": 150103,
            "province": "内蒙古自治区",
            "city": "呼和浩特市",
            "district": "回民区"
        }
    },
    {
        "id": "11511335497179174225",
        "title": "公共厕所",
        "address": "内蒙古自治区呼和浩特市赛罕区东影南路与大学东街交叉口正西方向98米左右",
        "tel": "",
        "category": "基础设施:公共设施:公共厕所",
        "type": 0,
        "location": {
            "lat": 40.81587,
            "lng": 111.713174
        },
        "ad_info": {
            "adcode": 150105,
            "province": "内蒙古自治区",
            "city": "呼和浩特市",
            "district": "赛罕区"
        }
    },
    {
        "id": "702143309049131082",
        "title": "公共厕所",
        "address": "内蒙古自治区呼和浩特市赛罕区丰州南路与乌兰察布东街交叉口东南方向395米左右",
        "tel": "",
        "category": "基础设施:公共设施:公共厕所",
        "type": 0,
        "location": {
            "lat": 40.824714,
            "lng": 111.732867
        },
        "ad_info": {
            "adcode": 150105,
            "province": "内蒙古自治区",
            "city": "呼和浩特市",
            "district": "赛罕区"
        }
    },
    {
        "id": "13875672896809886238",
        "title": "公共厕所",
        "address": "内蒙古自治区呼和浩特市赛罕区学苑西街一毛小区",
        "tel": "",
        "category": "基础设施:公共设施:公共厕所",
        "type": 0,
        "location": {
            "lat": 40.802156,
            "lng": 111.681205
        },
        "ad_info": {
            "adcode": 150105,
            "province": "内蒙古自治区",
            "city": "呼和浩特市",
            "district": "赛罕区"
        }
    },
    {
        "id": "18258556420539936843",
        "title": "公共厕所",
        "address": "内蒙古自治区呼和浩特市赛罕区丝绸之路大道与额尔敦街交叉口东南方向560米左右",
        "tel": "",
        "category": "基础设施:公共设施:公共厕所",
        "type": 0,
        "location": {
            "lat": 40.782389,
            "lng": 111.768674
        },
        "ad_info": {
            "adcode": 150105,
            "province": "内蒙古自治区",
            "city": "呼和浩特市",
            "district": "赛罕区"
        }
    },
    {
        "id": "9096047547912645022",
        "title": "公共厕所",
        "address": "内蒙古自治区呼和浩特市赛罕区兴安南路与平安巷交叉口东北方向180米左右",
        "tel": "",
        "category": "基础设施:公共设施:公共厕所",
        "type": 0,
        "location": {
            "lat": 40.825287,
            "lng": 111.703241
        },
        "ad_info": {
            "adcode": 150105,
            "province": "内蒙古自治区",
            "city": "呼和浩特市",
            "district": "赛罕区"
        }
    },
    {
        "id": "3446658227161206989",
        "title": "公共厕所",
        "address": "内蒙古自治区呼和浩特市赛罕区学苑东街林业小区",
        "tel": "",
        "category": "基础设施:公共设施:公共厕所",
        "type": 0,
        "location": {
            "lat": 40.810266,
            "lng": 111.712918
        },
        "ad_info": {
            "adcode": 150105,
            "province": "内蒙古自治区",
            "city": "呼和浩特市",
            "district": "赛罕区"
        }
    },
    {
        "id": "10574922639756701570",
        "title": "公共厕所",
        "address": "内蒙古自治区呼和浩特市玉泉区陶利西街万锦香颂",
        "tel": "",
        "category": "基础设施:公共设施:公共厕所",
        "type": 0,
        "location": {
            "lat": 40.774412,
            "lng": 111.682219
        },
        "ad_info": {
            "adcode": 150104,
            "province": "内蒙古自治区",
            "city": "呼和浩特市",
            "district": "玉泉区"
        }
    },
    {
        "id": "1482803011757600690",
        "title": "公共厕所",
        "address": "内蒙古自治区呼和浩特市赛罕区徐家沙梁南巷高仕第酒店(呼和浩特店)",
        "tel": "",
        "category": "基础设施:公共设施:公共厕所",
        "type": 0,
        "location": {
            "lat": 40.81559,
            "lng": 111.73288
        },
        "ad_info": {
            "adcode": 150105,
            "province": "内蒙古自治区",
            "city": "呼和浩特市",
            "district": "赛罕区"
        }
    },
    {
        "id": "7468675716569016274",
        "title": "公共厕所",
        "address": "内蒙古自治区呼和浩特市新城区哲里木路与苏雅拉巷交叉口正南方向286米左右",
        "tel": "",
        "category": "基础设施:公共设施:公共厕所",
        "type": 0,
        "location": {
            "lat": 40.84924,
            "lng": 111.678563
        },
        "ad_info": {
            "adcode": 150102,
            "province": "内蒙古自治区",
            "city": "呼和浩特市",
            "district": "新城区"
        }
    },
    {
        "id": "2313865028003182269",
        "title": "无障碍公共厕所",
        "address": "内蒙古自治区呼和浩特市回民区光明大街与通道北路交叉口西北方向40米左右",
        "tel": "",
        "category": "基础设施:公共设施:公共厕所",
        "type": 0,
        "location": {
            "lat": 40.825736,
            "lng": 111.654439
        },
        "ad_info": {
            "adcode": 150103,
            "province": "内蒙古自治区",
            "city": "呼和浩特市",
            "district": "回民区"
        }
    },
    {
        "id": "16519723625972424171",
        "title": "公共厕所",
        "address": "内蒙古自治区呼和浩特市新城区京藏高速与罗家营立交交叉口正西方向151米左右",
        "tel": "",
        "category": "基础设施:公共设施:公共厕所",
        "type": 0,
        "location": {
            "lat": 40.897032,
            "lng": 111.904833
        },
        "ad_info": {
            "adcode": 150102,
            "province": "内蒙古自治区",
            "city": "呼和浩特市",
            "district": "新城区"
        }
    },
    {
        "id": "9655245767848983180",
        "title": "公共厕所",
        "address": "内蒙古自治区呼和浩特市赛罕区丁香南路与大学东街交叉口正南方向43米左右",
        "tel": "",
        "category": "基础设施:公共设施:公共厕所",
        "type": 0,
        "location": {
            "lat": 40.821659,
            "lng": 111.741301
        },
        "ad_info": {
            "adcode": 150105,
            "province": "内蒙古自治区",
            "city": "呼和浩特市",
            "district": "赛罕区"
        }
    },
    {
        "id": "18287906403778969348",
        "title": "青城公园公共厕所",
        "address": "内蒙古自治区呼和浩特市回民区体育场南巷与公园东路交叉口西北方向70米左右",
        "tel": "",
        "category": "基础设施:公共设施:公共厕所",
        "type": 0,
        "location": {
            "lat": 40.808904,
            "lng": 111.669555
        },
        "ad_info": {
            "adcode": 150103,
            "province": "内蒙古自治区",
            "city": "呼和浩特市",
            "district": "回民区"
        }
    },
    {
        "id": "10866912689769308537",
        "title": "洗手间",
        "address": "内蒙古自治区呼和浩特市赛罕区展览馆西路98号",
        "tel": "",
        "category": "基础设施:公共设施:公共厕所",
        "type": 0,
        "location": {
            "lat": 40.825386,
            "lng": 111.718317
        },
        "ad_info": {
            "adcode": 150105,
            "province": "内蒙古自治区",
            "city": "呼和浩特市",
            "district": "赛罕区"
        }
    },
    {
        "id": "1533791897748317547",
        "title": "公共厕所",
        "address": "内蒙古自治区呼和浩特市新城区聚隆长街与西落凤街交叉口东南方向70米左右",
        "tel": "",
        "category": "基础设施:公共设施:公共厕所",
        "type": 0,
        "location": {
            "lat": 40.822979,
            "lng": 111.68437
        },
        "ad_info": {
            "adcode": 150102,
            "province": "内蒙古自治区",
            "city": "呼和浩特市",
            "district": "新城区"
        }
    },
    {
        "id": "16833656763273526953",
        "title": "公共厕所",
        "address": "内蒙古自治区呼和浩特市赛罕区如意南路与如意和大街交叉口东北方向103米左右",
        "tel": "",
        "category": "基础设施:公共设施:公共厕所",
        "type": 0,
        "location": {
            "lat": 40.828947,
            "lng": 111.750814
        },
        "ad_info": {
            "adcode": 150105,
            "province": "内蒙古自治区",
            "city": "呼和浩特市",
            "district": "赛罕区"
        }
    },
    {
        "id": "7352486176615465269",
        "title": "公共厕所",
        "address": "内蒙古自治区呼和浩特市回民区中山西路与公园东路交叉口正东方向22米左右",
        "tel": "",
        "category": "基础设施:公共设施:公共厕所",
        "type": 0,
        "location": {
            "lat": 40.813832,
            "lng": 111.667221
        },
        "ad_info": {
            "adcode": 150103,
            "province": "内蒙古自治区",
            "city": "呼和浩特市",
            "district": "回民区"
        }
    },
    {
        "id": "1340906087691918720",
        "title": "公共厕所",
        "address": "内蒙古自治区呼和浩特市新城区民生南巷与民生路交叉口正东方向36米左右",
        "tel": "",
        "category": "基础设施:公共设施:公共厕所",
        "type": 0,
        "location": {
            "lat": 40.868699,
            "lng": 111.686907
        },
        "ad_info": {
            "adcode": 150102,
            "province": "内蒙古自治区",
            "city": "呼和浩特市",
            "district": "新城区"
        }
    },
    {
        "id": "14314343020248542280",
        "title": "呼和浩特服务区公共厕所",
        "address": "内蒙古自治区呼和浩特市新城区G7京新高速附近",
        "tel": "",
        "category": "基础设施:公共设施:公共厕所",
        "type": 0,
        "location": {
            "lat": 40.958366,
            "lng": 112.024577
        },
        "ad_info": {
            "adcode": 150102,
            "province": "内蒙古自治区",
            "city": "呼和浩特市",
            "district": "新城区"
        }
    },
    {
        "id": "8058212954750874433",
        "title": "公共厕所",
        "address": "内蒙古自治区呼和浩特市玉泉区南二环路辅路与天骄花园东巷交叉口东北方向328米左右",
        "tel": "",
        "category": "基础设施:公共设施:公共厕所",
        "type": 0,
        "location": {
            "lat": 40.779154,
            "lng": 111.657706
        },
        "ad_info": {
            "adcode": 150104,
            "province": "内蒙古自治区",
            "city": "呼和浩特市",
            "district": "玉泉区"
        }
    },
    {
        "id": "15146671259967797901",
        "title": "公共厕所",
        "address": "内蒙古自治区呼和浩特市赛罕区警官小区南侧140米",
        "tel": "",
        "category": "基础设施:公共设施:公共厕所",
        "type": 0,
        "location": {
            "lat": 40.802335,
            "lng": 111.781255
        },
        "ad_info": {
            "adcode": 150105,
            "province": "内蒙古自治区",
            "city": "呼和浩特市",
            "district": "赛罕区"
        }
    },
    {
        "id": "12307477177897219044",
        "title": "公共厕所",
        "address": "内蒙古自治区呼和浩特市玉泉区南二环路与昭君路辅路交叉口东北方向26米左右",
        "tel": "",
        "category": "基础设施:公共设施:公共厕所",
        "type": 0,
        "location": {
            "lat": 40.778551,
            "lng": 111.664149
        },
        "ad_info": {
            "adcode": 150104,
            "province": "内蒙古自治区",
            "city": "呼和浩特市",
            "district": "玉泉区"
        }
    },
    {
        "id": "5122772237710202168",
        "title": "公共厕所",
        "address": "内蒙古自治区呼和浩特市玉泉区云中路与后八里庄北路交叉口正东方向559米左右",
        "tel": "",
        "category": "基础设施:公共设施:公共厕所",
        "type": 0,
        "location": {
            "lat": 40.783883,
            "lng": 111.644563
        },
        "ad_info": {
            "adcode": 150104,
            "province": "内蒙古自治区",
            "city": "呼和浩特市",
            "district": "玉泉区"
        }
    },
    {
        "id": "10744184138978891378",
        "title": "公共卫生间",
        "address": "内蒙古自治区呼和浩特市赛罕区乌兰察布东街与先锋中巷交叉口正北方向129米左右",
        "tel": "",
        "category": "基础设施:公共设施:公共厕所",
        "type": 0,
        "location": {
            "lat": 40.824195,
            "lng": 111.708958
        },
        "ad_info": {
            "adcode": 150105,
            "province": "内蒙古自治区",
            "city": "呼和浩特市",
            "district": "赛罕区"
        }
    },
    {
        "id": "12720102779031870309",
        "title": "公共厕所",
        "address": "内蒙古自治区呼和浩特市新城区S105与Y371交叉口西北方向334米左右",
        "tel": "",
        "category": "基础设施:公共设施:公共厕所",
        "type": 0,
        "location": {
            "lat": 40.919717,
            "lng": 111.945642
        },
        "ad_info": {
            "adcode": 150102,
            "province": "内蒙古自治区",
            "city": "呼和浩特市",
            "district": "新城区"
        }
    },
    {
        "id": "7993810359332798047",
        "title": "公共厕所",
        "address": "内蒙古自治区呼和浩特市赛罕区二十九中巷与鄂尔多斯东街交叉口东南方向37米左右",
        "tel": "",
        "category": "基础设施:公共设施:公共厕所",
        "type": 0,
        "location": {
            "lat": 40.806403,
            "lng": 111.734563
        },
        "ad_info": {
            "adcode": 150105,
            "province": "内蒙古自治区",
            "city": "呼和浩特市",
            "district": "赛罕区"
        }
    },
    {
        "id": "18231532351111622909",
        "title": "公共厕所",
        "address": "内蒙古自治区呼和浩特市回民区化工路与电厂东路交叉口正东方向183米左右",
        "tel": "",
        "category": "基础设施:公共设施:公共厕所",
        "type": 0,
        "location": {
            "lat": 40.797341,
            "lng": 111.616809
        },
        "ad_info": {
            "adcode": 150103,
            "province": "内蒙古自治区",
            "city": "呼和浩特市",
            "district": "回民区"
        }
    },
    {
        "id": "204720173907063118",
        "title": "卫生间",
        "address": "内蒙古自治区呼和浩特市赛罕区空港大道白塔国际机场F2",
        "tel": "",
        "category": "基础设施:公共设施:公共厕所",
        "type": 0,
        "location": {
            "lat": 40.855471,
            "lng": 111.822704
        },
        "ad_info": {
            "adcode": 150105,
            "province": "内蒙古自治区",
            "city": "呼和浩特市",
            "district": "赛罕区"
        }
    },
    {
        "id": "15524293377531798668",
        "title": "公共厕所",
        "address": "内蒙古自治区呼和浩特市回民区城隍庙街与滨河南路交叉口西南方向17米左右",
        "tel": "",
        "category": "基础设施:公共设施:公共厕所",
        "type": 0,
        "location": {
            "lat": 40.810891,
            "lng": 111.652922
        },
        "ad_info": {
            "adcode": 150103,
            "province": "内蒙古自治区",
            "city": "呼和浩特市",
            "district": "回民区"
        }
    },
    {
        "id": "4474396854714070511",
        "title": "公共厕所",
        "address": "内蒙古自治区呼和浩特市赛罕区丝绸之路大道与学苑东街交叉口东南方向143米左右",
        "tel": "",
        "category": "基础设施:公共设施:公共厕所",
        "type": 0,
        "location": {
            "lat": 40.817635,
            "lng": 111.747389
        },
        "ad_info": {
            "adcode": 150105,
            "province": "内蒙古自治区",
            "city": "呼和浩特市",
            "district": "赛罕区"
        }
    },
    {
        "id": "15268779827774042713",
        "title": "公共卫生间",
        "address": "内蒙古自治区呼和浩特市回民区西二环路与鄂尔多斯西街交叉口正东方向416米左右",
        "tel": "",
        "category": "基础设施:公共设施:公共厕所",
        "type": 0,
        "location": {
            "lat": 40.790936,
            "lng": 111.597359
        },
        "ad_info": {
            "adcode": 150103,
            "province": "内蒙古自治区",
            "city": "呼和浩特市",
            "district": "回民区"
        }
    },
    {
        "id": "17961127002209834820",
        "title": "公共厕所",
        "address": "内蒙古自治区呼和浩特市赛罕区大学西街与锡林郭勒南路交叉口东北方向44米左右",
        "tel": "",
        "category": "基础设施:公共设施:公共厕所",
        "type": 0,
        "location": {
            "lat": 40.806679,
            "lng": 111.675929
        },
        "ad_info": {
            "adcode": 150105,
            "province": "内蒙古自治区",
            "city": "呼和浩特市",
            "district": "赛罕区"
        }
    },
    {
        "id": "17389859808480620876",
        "title": "公共厕所",
        "address": "内蒙古自治区呼和浩特市赛罕区学苑东街林科院住宅区正门西侧约90米",
        "tel": "",
        "category": "基础设施:公共设施:公共厕所",
        "type": 0,
        "location": {
            "lat": 40.809552,
            "lng": 111.708476
        },
        "ad_info": {
            "adcode": 150105,
            "province": "内蒙古自治区",
            "city": "呼和浩特市",
            "district": "赛罕区"
        }
    },
    {
        "id": "6763352748212488222",
        "title": "公共厕所",
        "address": "内蒙古自治区呼和浩特市玉泉区中国石油西菜园加油站北侧180米",
        "tel": "",
        "category": "基础设施:公共设施:公共厕所",
        "type": 0,
        "location": {
            "lat": 40.788408,
            "lng": 111.638964
        },
        "ad_info": {
            "adcode": 150104,
            "province": "内蒙古自治区",
            "city": "呼和浩特市",
            "district": "玉泉区"
        }
    },
    {
        "id": "10535002880353458035",
        "title": "公共厕所",
        "address": "内蒙古自治区呼和浩特市新城区鞋袜衣帽劳保用品床品大全北侧140米",
        "tel": "",
        "category": "基础设施:公共设施:公共厕所",
        "type": 0,
        "location": {
            "lat": 40.878134,
            "lng": 111.681439
        },
        "ad_info": {
            "adcode": 150102,
            "province": "内蒙古自治区",
            "city": "呼和浩特市",
            "district": "新城区"
        }
    },
    {
        "id": "420053877871370647",
        "title": "公共厕所",
        "address": "内蒙古自治区呼和浩特市玉泉区云中路与西菜园六组交叉口正东方向182米左右",
        "tel": "",
        "category": "基础设施:公共设施:公共厕所",
        "type": 0,
        "location": {
            "lat": 40.79106,
            "lng": 111.646162
        },
        "ad_info": {
            "adcode": 150104,
            "province": "内蒙古自治区",
            "city": "呼和浩特市",
            "district": "玉泉区"
        }
    },
    {
        "id": "3124291695175776828",
        "title": "卫生间",
        "address": "内蒙古自治区呼和浩特市赛罕区空港大道白塔国际机场F1",
        "tel": "",
        "category": "基础设施:公共设施:公共厕所",
        "type": 0,
        "location": {
            "lat": 40.854626,
            "lng": 111.819038
        },
        "ad_info": {
            "adcode": 150105,
            "province": "内蒙古自治区",
            "city": "呼和浩特市",
            "district": "赛罕区"
        }
    },
    {
        "id": "15678548273900218280",
        "title": "公共厕所",
        "address": "内蒙古自治区呼和浩特市赛罕区腾飞南路与阿吉泰路交叉口正西方向118米左右",
        "tel": "",
        "category": "基础设施:公共设施:公共厕所",
        "type": 0,
        "location": {
            "lat": 40.838022,
            "lng": 111.752379
        },
        "ad_info": {
            "adcode": 150105,
            "province": "内蒙古自治区",
            "city": "呼和浩特市",
            "district": "赛罕区"
        }
    },
    {
        "id": "16794806003262379203",
        "title": "公共厕所(维多利摩尔城A座)",
        "address": "内蒙古自治区呼和浩特市赛罕区新华东街62号茂业摩尔城L11",
        "tel": "",
        "category": "基础设施:公共设施:公共厕所",
        "type": 0,
        "location": {
            "lat": 40.830647,
            "lng": 111.709969
        },
        "ad_info": {
            "adcode": 150105,
            "province": "内蒙古自治区",
            "city": "呼和浩特市",
            "district": "赛罕区"
        }
    },
    {
        "id": "4396050124537594908",
        "title": "公共厕所",
        "address": "内蒙古自治区呼和浩特市新城区东二环北路与科尔沁互通立交交叉口东北方向440米左右",
        "tel": "",
        "category": "基础设施:公共设施:公共厕所",
        "type": 0,
        "location": {
            "lat": 40.887059,
            "lng": 111.761179
        },
        "ad_info": {
            "adcode": 150102,
            "province": "内蒙古自治区",
            "city": "呼和浩特市",
            "district": "新城区"
        }
    },
    {
        "id": "11012529107406048573",
        "title": "公共厕所",
        "address": "内蒙古自治区呼和浩特市赛罕区C001与阿木尔北街交叉口西北方向71米左右",
        "tel": "",
        "category": "基础设施:公共设施:公共厕所",
        "type": 0,
        "location": {
            "lat": 40.727405,
            "lng": 111.778109
        },
        "ad_info": {
            "adcode": 150105,
            "province": "内蒙古自治区",
            "city": "呼和浩特市",
            "district": "赛罕区"
        }
    },
    {
        "id": "9556895831767553036",
        "title": "公共厕所",
        "address": "内蒙古自治区呼和浩特市赛罕区乌兰察布东街与园艺巷交叉口正南方向419米左右",
        "tel": "",
        "category": "基础设施:公共设施:公共厕所",
        "type": 0,
        "location": {
            "lat": 40.822399,
            "lng": 111.724394
        },
        "ad_info": {
            "adcode": 150105,
            "province": "内蒙古自治区",
            "city": "呼和浩特市",
            "district": "赛罕区"
        }
    },
    {
        "id": "12714238819284073549",
        "title": "公共厕所",
        "address": "内蒙古自治区呼和浩特市赛罕区林荫街与科尔沁南路辅路交叉口东南方向26米左右",
        "tel": "",
        "category": "基础设施:公共设施:公共厕所",
        "type": 0,
        "location": {
            "lat": 40.842942,
            "lng": 111.775939
        },
        "ad_info": {
            "adcode": 150105,
            "province": "内蒙古自治区",
            "city": "呼和浩特市",
            "district": "赛罕区"
        }
    },
    {
        "id": "9753492031960458821",
        "title": "公共厕所",
        "address": "内蒙古自治区呼和浩特市新城区",
        "tel": "",
        "category": "基础设施:公共设施:公共厕所",
        "type": 0,
        "location": {
            "lat": 40.975635,
            "lng": 111.976988
        },
        "ad_info": {
            "adcode": 150102,
            "province": "内蒙古自治区",
            "city": "呼和浩特市",
            "district": "新城区"
        }
    },
    {
        "id": "16177970763653215237",
        "title": "公共厕所",
        "address": "内蒙古自治区呼和浩特市赛罕区和谐街与青田路交叉口正西方向190米左右",
        "tel": "",
        "category": "基础设施:公共设施:公共厕所",
        "type": 0,
        "location": {
            "lat": 40.770742,
            "lng": 111.848715
        },
        "ad_info": {
            "adcode": 150105,
            "province": "内蒙古自治区",
            "city": "呼和浩特市",
            "district": "赛罕区"
        }
    },
    {
        "id": "4561183191848464957",
        "title": "公共厕所",
        "address": "内蒙古自治区呼和浩特市回民区海拉尔西街与草原明珠路交叉口东北方向386米左右",
        "tel": "",
        "category": "基础设施:公共设施:公共厕所",
        "type": 0,
        "location": {
            "lat": 40.821772,
            "lng": 111.608814
        },
        "ad_info": {
            "adcode": 150103,
            "province": "内蒙古自治区",
            "city": "呼和浩特市",
            "district": "回民区"
        }
    },
    {
        "id": "7067390249513834892",
        "title": "公共厕所",
        "address": "内蒙古自治区呼和浩特市新城区亳沁营南路与育英街交叉口正西方向565米左右",
        "tel": "",
        "category": "基础设施:公共设施:公共厕所",
        "type": 0,
        "location": {
            "lat": 40.869549,
            "lng": 111.709689
        },
        "ad_info": {
            "adcode": 150102,
            "province": "内蒙古自治区",
            "city": "呼和浩特市",
            "district": "新城区"
        }
    },
    {
        "id": "3309800016599126434",
        "title": "公共厕所",
        "address": "内蒙古自治区呼和浩特市玉泉区兴蒙路与姜家营街交叉口西北方向42米左右",
        "tel": "",
        "category": "基础设施:公共设施:公共厕所",
        "type": 0,
        "location": {
            "lat": 40.743986,
            "lng": 111.606982
        },
        "ad_info": {
            "adcode": 150104,
            "province": "内蒙古自治区",
            "city": "呼和浩特市",
            "district": "玉泉区"
        }
    },
    {
        "id": "14276298589544687577",
        "title": "无障碍公共厕所",
        "address": "内蒙古自治区呼和浩特市回民区小西街与西顺城街交叉口正西方向129米左右",
        "tel": "",
        "category": "基础设施:公共设施:公共厕所",
        "type": 0,
        "location": {
            "lat": 40.803102,
            "lng": 111.646119
        },
        "ad_info": {
            "adcode": 150103,
            "province": "内蒙古自治区",
            "city": "呼和浩特市",
            "district": "回民区"
        }
    },
    {
        "id": "16725174855069711769",
        "title": "公共厕所",
        "address": "内蒙古自治区呼和浩特市新城区八一路与红星巷交叉口东北方向10米左右",
        "tel": "",
        "category": "基础设施:公共设施:公共厕所",
        "type": 0,
        "location": {
            "lat": 40.841666,
            "lng": 111.668692
        },
        "ad_info": {
            "adcode": 150102,
            "province": "内蒙古自治区",
            "city": "呼和浩特市",
            "district": "新城区"
        }
    },
    {
        "id": "13084450937026567442",
        "title": "公共厕所",
        "address": "内蒙古自治区呼和浩特市赛罕区中国信合(二砖分社)西侧70米",
        "tel": "",
        "category": "基础设施:公共设施:公共厕所",
        "type": 0,
        "location": {
            "lat": 40.880768,
            "lng": 112.026552
        },
        "ad_info": {
            "adcode": 150105,
            "province": "内蒙古自治区",
            "city": "呼和浩特市",
            "district": "赛罕区"
        }
    },
    {
        "id": "11330904824030005855",
        "title": "无障碍公共厕所",
        "address": "内蒙古自治区呼和浩特市回民区启航大厦东南侧200米",
        "tel": "",
        "category": "基础设施:公共设施:公共厕所",
        "type": 0,
        "location": {
            "lat": 40.824809,
            "lng": 111.608389
        },
        "ad_info": {
            "adcode": 150103,
            "province": "内蒙古自治区",
            "city": "呼和浩特市",
            "district": "回民区"
        }
    },
    {
        "id": "16760861730562690801",
        "title": "公共厕所",
        "address": "内蒙古自治区呼和浩特市赛罕区帅家营路与银河南街交叉口西北方向285米左右",
        "tel": "",
        "category": "基础设施:公共设施:公共厕所",
        "type": 0,
        "location": {
            "lat": 40.767915,
            "lng": 111.702137
        },
        "ad_info": {
            "adcode": 150105,
            "province": "内蒙古自治区",
            "city": "呼和浩特市",
            "district": "赛罕区"
        }
    },
    {
        "id": "14060822799994543910",
        "title": "公共厕所",
        "address": "内蒙古自治区呼和浩特市和林格尔县前进街与胜利北路交叉口正北方向194米左右",
        "tel": "",
        "category": "基础设施:公共设施:公共厕所",
        "type": 0,
        "location": {
            "lat": 40.384474,
            "lng": 111.831738
        },
        "ad_info": {
            "adcode": 150123,
            "province": "内蒙古自治区",
            "city": "呼和浩特市",
            "district": "和林格尔县"
        }
    },
    {
        "id": "9729963679907474968",
        "title": "公共厕所",
        "address": "内蒙古自治区呼和浩特市玉泉区县府街与畜科院西巷交叉口正东方向408米左右",
        "tel": "",
        "category": "基础设施:公共设施:公共厕所",
        "type": 0,
        "location": {
            "lat": 40.794873,
            "lng": 111.628036
        },
        "ad_info": {
            "adcode": 150104,
            "province": "内蒙古自治区",
            "city": "呼和浩特市",
            "district": "玉泉区"
        }
    },
    {
        "id": "16892832354604320180",
        "title": "公共厕所",
        "address": "内蒙古自治区呼和浩特市玉泉区云中路与托克托路交叉口正西方向195米左右",
        "tel": "",
        "category": "基础设施:公共设施:公共厕所",
        "type": 0,
        "location": {
            "lat": 40.745831,
            "lng": 111.596175
        },
        "ad_info": {
            "adcode": 150104,
            "province": "内蒙古自治区",
            "city": "呼和浩特市",
            "district": "玉泉区"
        }
    },
    {
        "id": "8825331109081732000",
        "title": "公共厕所",
        "address": "内蒙古自治区呼和浩特市赛罕区丰州南路与包头东街交叉口正东方向224米左右",
        "tel": "",
        "category": "基础设施:公共设施:公共厕所",
        "type": 0,
        "location": {
            "lat": 40.796859,
            "lng": 111.744831
        },
        "ad_info": {
            "adcode": 150105,
            "province": "内蒙古自治区",
            "city": "呼和浩特市",
            "district": "赛罕区"
        }
    },
    {
        "id": "6663150732429131207",
        "title": "公共厕所",
        "address": "内蒙古自治区呼和浩特市武川县市场北街武川二中-附属幼儿园",
        "tel": "",
        "category": "基础设施:公共设施:公共厕所",
        "type": 0,
        "location": {
            "lat": 41.09952,
            "lng": 111.457574
        },
        "ad_info": {
            "adcode": 150125,
            "province": "内蒙古自治区",
            "city": "呼和浩特市",
            "district": "武川县"
        }
    },
    {
        "id": "4000695483506619796",
        "title": "公共厕所",
        "address": "内蒙古自治区呼和浩特市回民区庆凯街与沿河西路交叉口正北方向294米左右",
        "tel": "",
        "category": "基础设施:公共设施:公共厕所",
        "type": 0,
        "location": {
            "lat": 40.813462,
            "lng": 111.648009
        },
        "ad_info": {
            "adcode": 150103,
            "province": "内蒙古自治区",
            "city": "呼和浩特市",
            "district": "回民区"
        }
    },
    {
        "id": "12539306739766343787",
        "title": "公共厕所",
        "address": "内蒙古自治区呼和浩特市玉泉区中天御湖尚品营销中心西侧240米",
        "tel": "",
        "category": "基础设施:公共设施:公共厕所",
        "type": 0,
        "location": {
            "lat": 40.758359,
            "lng": 111.624407
        },
        "ad_info": {
            "adcode": 150104,
            "province": "内蒙古自治区",
            "city": "呼和浩特市",
            "district": "玉泉区"
        }
    },
    {
        "id": "18422565643447481868",
        "title": "公共厕所",
        "address": "内蒙古自治区呼和浩特市玉泉区南二环快速路与南二环路交叉口正东方向495米左右",
        "tel": "",
        "category": "基础设施:公共设施:公共厕所",
        "type": 0,
        "location": {
            "lat": 40.772204,
            "lng": 111.611179
        },
        "ad_info": {
            "adcode": 150104,
            "province": "内蒙古自治区",
            "city": "呼和浩特市",
            "district": "玉泉区"
        }
    },
    {
        "id": "17364162299329653955",
        "title": "塔利公共厕所",
        "address": "内蒙古自治区呼和浩特市新城区惠新苑东北侧320米",
        "tel": "",
        "category": "基础设施:公共设施:公共厕所",
        "type": 0,
        "location": {
            "lat": 40.867117,
            "lng": 111.786528
        },
        "ad_info": {
            "adcode": 150102,
            "province": "内蒙古自治区",
            "city": "呼和浩特市",
            "district": "新城区"
        }
    },
    {
        "id": "3409080581748228784",
        "title": "公共厕所",
        "address": "内蒙古自治区呼和浩特市新城区胜利街与哲里木路辅路交叉口西220米",
        "tel": "",
        "category": "基础设施:公共设施:公共厕所",
        "type": 0,
        "location": {
            "lat": 40.834661,
            "lng": 111.681699
        },
        "ad_info": {
            "adcode": 150102,
            "province": "内蒙古自治区",
            "city": "呼和浩特市",
            "district": "新城区"
        }
    },
    {
        "id": "8388105620211676738",
        "title": "公共卫生间",
        "address": "内蒙古自治区呼和浩特市回民区沿河东路与海拉尔西街交叉口西北方向53米左右",
        "tel": "",
        "category": "基础设施:公共设施:公共厕所",
        "type": 0,
        "location": {
            "lat": 40.831614,
            "lng": 111.634201
        },
        "ad_info": {
            "adcode": 150103,
            "province": "内蒙古自治区",
            "city": "呼和浩特市",
            "district": "回民区"
        }
    },
    {
        "id": "6196368731182188933",
        "title": "公共厕所",
        "address": "内蒙古自治区呼和浩特市赛罕区南二环路与汇成巷交叉口东南方向65米左右",
        "tel": "",
        "category": "基础设施:公共设施:公共厕所",
        "type": 0,
        "location": {
            "lat": 40.787996,
            "lng": 111.701233
        },
        "ad_info": {
            "adcode": 150105,
            "province": "内蒙古自治区",
            "city": "呼和浩特市",
            "district": "赛罕区"
        }
    },
    {
        "id": "16490190112376691127",
        "title": "公共厕所",
        "address": "内蒙古自治区呼和浩特市赛罕区银河南街馨康花园",
        "tel": "",
        "category": "基础设施:公共设施:公共厕所",
        "type": 0,
        "location": {
            "lat": 40.781831,
            "lng": 111.727979
        },
        "ad_info": {
            "adcode": 150105,
            "province": "内蒙古自治区",
            "city": "呼和浩特市",
            "district": "赛罕区"
        }
    },
    {
        "id": "17603331429883648992",
        "title": "公共厕所",
        "address": "内蒙古自治区呼和浩特市玉泉区内蒙古一九总医院西南侧200米",
        "tel": "",
        "category": "基础设施:公共设施:公共厕所",
        "type": 0,
        "location": {
            "lat": 40.749268,
            "lng": 111.675067
        },
        "ad_info": {
            "adcode": 150104,
            "province": "内蒙古自治区",
            "city": "呼和浩特市",
            "district": "玉泉区"
        }
    },
    {
        "id": "8090022618666242375",
        "title": "公共厕所",
        "address": "内蒙古自治区呼和浩特市新城区腾飞北路与海拉尔西街辅路交叉口东40米",
        "tel": "",
        "category": "基础设施:公共设施:公共厕所",
        "type": 0,
        "location": {
            "lat": 40.851077,
            "lng": 111.745569
        },
        "ad_info": {
            "adcode": 150102,
            "province": "内蒙古自治区",
            "city": "呼和浩特市",
            "district": "新城区"
        }
    },
    {
        "id": "11505956844726334198",
        "title": "公共厕所",
        "address": "内蒙古自治区呼和浩特市新城区S105与Y371交叉口东北方向224米左右",
        "tel": "",
        "category": "基础设施:公共设施:公共厕所",
        "type": 0,
        "location": {
            "lat": 40.91877,
            "lng": 111.949858
        },
        "ad_info": {
            "adcode": 150102,
            "province": "内蒙古自治区",
            "city": "呼和浩特市",
            "district": "新城区"
        }
    },
    {
        "id": "9551235177181545454",
        "title": "公共厕所",
        "address": "内蒙古自治区呼和浩特市新城区成吉思汗大街与成吉思汗西街交叉口东南方向174米左右",
        "tel": "",
        "category": "基础设施:公共设施:公共厕所",
        "type": 0,
        "location": {
            "lat": 40.851917,
            "lng": 111.647771
        },
        "ad_info": {
            "adcode": 150102,
            "province": "内蒙古自治区",
            "city": "呼和浩特市",
            "district": "新城区"
        }
    },
    {
        "id": "10176869317922529132",
        "title": "公共厕所",
        "address": "内蒙古自治区呼和浩特市清水河县G109",
        "tel": "",
        "category": "基础设施:公共设施:公共厕所",
        "type": 0,
        "location": {
            "lat": 39.899899,
            "lng": 111.793426
        },
        "ad_info": {
            "adcode": 150124,
            "province": "内蒙古自治区",
            "city": "呼和浩特市",
            "district": "清水河县"
        }
    },
    {
        "id": "6236738160146785767",
        "title": "青城驿站公共厕所",
        "address": "内蒙古自治区呼和浩特市托克托县云中南路与云中路交叉口正北方向91米左右",
        "tel": "",
        "category": "基础设施:公共设施:公共厕所",
        "type": 0,
        "location": {
            "lat": 40.274325,
            "lng": 111.199066
        },
        "ad_info": {
            "adcode": 150122,
            "province": "内蒙古自治区",
            "city": "呼和浩特市",
            "district": "托克托县"
        }
    },
    {
        "id": "16014660882450059513",
        "title": "公共厕所",
        "address": "内蒙古自治区呼和浩特市玉泉区大学西街内蒙古大学交通学院家属院",
        "tel": "",
        "category": "基础设施:公共设施:公共厕所",
        "type": 0,
        "location": {
            "lat": 40.804638,
            "lng": 111.6705
        },
        "ad_info": {
            "adcode": 150104,
            "province": "内蒙古自治区",
            "city": "呼和浩特市",
            "district": "玉泉区"
        }
    },
    {
        "id": "12114322735865275454",
        "title": "公共厕所",
        "address": "内蒙古自治区呼和浩特市新城区海拉尔东街泰和宇小区",
        "tel": "",
        "category": "基础设施:公共设施:公共厕所",
        "type": 0,
        "location": {
            "lat": 40.841235,
            "lng": 111.701077
        },
        "ad_info": {
            "adcode": 150102,
            "province": "内蒙古自治区",
            "city": "呼和浩特市",
            "district": "新城区"
        }
    },
    {
        "id": "1096352587399624722",
        "title": "公共卫生间",
        "address": "内蒙古自治区呼和浩特市玉泉区塞上老街与通顺街交叉口正南方向52米左右",
        "tel": "",
        "category": "基础设施:公共设施:公共厕所",
        "type": 0,
        "location": {
            "lat": 40.797795,
            "lng": 111.649372
        },
        "ad_info": {
            "adcode": 150104,
            "province": "内蒙古自治区",
            "city": "呼和浩特市",
            "district": "玉泉区"
        }
    },
    {
        "id": "10550575054869381889",
        "title": "公共厕所",
        "address": "内蒙古自治区呼和浩特市回民区海拉尔西街辅路与金海路辅路交叉口东北方向208米左右",
        "tel": "",
        "category": "基础设施:公共设施:公共厕所",
        "type": 0,
        "location": {
            "lat": 40.809149,
            "lng": 111.581108
        },
        "ad_info": {
            "adcode": 150103,
            "province": "内蒙古自治区",
            "city": "呼和浩特市",
            "district": "回民区"
        }
    },
    {
        "id": "16056610233693828073",
        "title": "公共厕所",
        "address": "内蒙古自治区呼和浩特市新城区兴安北路与成吉思汗东街交叉口正北方向320米左右",
        "tel": "",
        "category": "基础设施:公共设施:公共厕所",
        "type": 0,
        "location": {
            "lat": 40.862085,
            "lng": 111.691795
        },
        "ad_info": {
            "adcode": 150102,
            "province": "内蒙古自治区",
            "city": "呼和浩特市",
            "district": "新城区"
        }
    },
    {
        "id": "6681904363665955313",
        "title": "公共厕所",
        "address": "内蒙古自治区呼和浩特市回民区G110与G209交叉口东北方向46米左右",
        "tel": "",
        "category": "基础设施:公共设施:公共厕所",
        "type": 0,
        "location": {
            "lat": 40.865571,
            "lng": 111.633383
        },
        "ad_info": {
            "adcode": 150103,
            "province": "内蒙古自治区",
            "city": "呼和浩特市",
            "district": "回民区"
        }
    },
    {
        "id": "14810379696512606420",
        "title": "无障碍公共厕所",
        "address": "内蒙古自治区呼和浩特市新城区东影北路与星光北巷交叉口东北方向413米左右",
        "tel": "",
        "category": "基础设施:公共设施:公共厕所",
        "type": 0,
        "location": {
            "lat": 40.838396,
            "lng": 111.710698
        },
        "ad_info": {
            "adcode": 150102,
            "province": "内蒙古自治区",
            "city": "呼和浩特市",
            "district": "新城区"
        }
    },
    {
        "id": "8211255679045308887",
        "title": "公共厕所",
        "address": "内蒙古自治区呼和浩特市赛罕区万通路与宝音街交叉口正东方向39米左右",
        "tel": "",
        "category": "基础设施:公共设施:公共厕所",
        "type": 0,
        "location": {
            "lat": 40.835208,
            "lng": 111.765178
        },
        "ad_info": {
            "adcode": 150105,
            "province": "内蒙古自治区",
            "city": "呼和浩特市",
            "district": "赛罕区"
        }
    },
    {
        "id": "12005387323217787757",
        "title": "公共卫生间",
        "address": "内蒙古自治区呼和浩特市玉泉区昭君路与济民巷交叉口东南方向184米左右",
        "tel": "",
        "category": "基础设施:公共设施:公共厕所",
        "type": 0,
        "location": {
            "lat": 40.782712,
            "lng": 111.662328
        },
        "ad_info": {
            "adcode": 150104,
            "province": "内蒙古自治区",
            "city": "呼和浩特市",
            "district": "玉泉区"
        }
    },
    {
        "id": "7943816013833537708",
        "title": "公共厕所",
        "address": "内蒙古自治区呼和浩特市土默特左旗金五道内蒙古华程科贸有限责任公司",
        "tel": "",
        "category": "基础设施:公共设施:公共厕所",
        "type": 0,
        "location": {
            "lat": 40.784506,
            "lng": 111.560073
        },
        "ad_info": {
            "adcode": 150121,
            "province": "内蒙古自治区",
            "city": "呼和浩特市",
            "district": "土默特左旗"
        }
    },
    {
        "id": "3409080581748228784",
        "title": "公共厕所",
        "address": "内蒙古自治区呼和浩特市新城区胜利街与哲里木路辅路交叉口西220米",
        "tel": "",
        "category": "基础设施:公共设施:公共厕所",
        "type": 0,
        "location": {
            "lat": 40.834661,
            "lng": 111.681699
        },
        "ad_info": {
            "adcode": 150102,
            "province": "内蒙古自治区",
            "city": "呼和浩特市",
            "district": "新城区"
        }
    },
    {
        "id": "8388105620211676738",
        "title": "公共卫生间",
        "address": "内蒙古自治区呼和浩特市回民区沿河东路与海拉尔西街交叉口西北方向53米左右",
        "tel": "",
        "category": "基础设施:公共设施:公共厕所",
        "type": 0,
        "location": {
            "lat": 40.831614,
            "lng": 111.634201
        },
        "ad_info": {
            "adcode": 150103,
            "province": "内蒙古自治区",
            "city": "呼和浩特市",
            "district": "回民区"
        }
    },
    {
        "id": "6196368731182188933",
        "title": "公共厕所",
        "address": "内蒙古自治区呼和浩特市赛罕区南二环路与汇成巷交叉口东南方向65米左右",
        "tel": "",
        "category": "基础设施:公共设施:公共厕所",
        "type": 0,
        "location": {
            "lat": 40.787996,
            "lng": 111.701233
        },
        "ad_info": {
            "adcode": 150105,
            "province": "内蒙古自治区",
            "city": "呼和浩特市",
            "district": "赛罕区"
        }
    },
    {
        "id": "16490190112376691127",
        "title": "公共厕所",
        "address": "内蒙古自治区呼和浩特市赛罕区银河南街馨康花园",
        "tel": "",
        "category": "基础设施:公共设施:公共厕所",
        "type": 0,
        "location": {
            "lat": 40.781831,
            "lng": 111.727979
        },
        "ad_info": {
            "adcode": 150105,
            "province": "内蒙古自治区",
            "city": "呼和浩特市",
            "district": "赛罕区"
        }
    },
    {
        "id": "17603331429883648992",
        "title": "公共厕所",
        "address": "内蒙古自治区呼和浩特市玉泉区内蒙古一九总医院西南侧200米",
        "tel": "",
        "category": "基础设施:公共设施:公共厕所",
        "type": 0,
        "location": {
            "lat": 40.749268,
            "lng": 111.675067
        },
        "ad_info": {
            "adcode": 150104,
            "province": "内蒙古自治区",
            "city": "呼和浩特市",
            "district": "玉泉区"
        }
    },
    {
        "id": "8090022618666242375",
        "title": "公共厕所",
        "address": "内蒙古自治区呼和浩特市新城区腾飞北路与海拉尔西街辅路交叉口东40米",
        "tel": "",
        "category": "基础设施:公共设施:公共厕所",
        "type": 0,
        "location": {
            "lat": 40.851077,
            "lng": 111.745569
        },
        "ad_info": {
            "adcode": 150102,
            "province": "内蒙古自治区",
            "city": "呼和浩特市",
            "district": "新城区"
        }
    },
    {
        "id": "11505956844726334198",
        "title": "公共厕所",
        "address": "内蒙古自治区呼和浩特市新城区S105与Y371交叉口东北方向224米左右",
        "tel": "",
        "category": "基础设施:公共设施:公共厕所",
        "type": 0,
        "location": {
            "lat": 40.91877,
            "lng": 111.949858
        },
        "ad_info": {
            "adcode": 150102,
            "province": "内蒙古自治区",
            "city": "呼和浩特市",
            "district": "新城区"
        }
    },
    {
        "id": "9551235177181545454",
        "title": "公共厕所",
        "address": "内蒙古自治区呼和浩特市新城区成吉思汗大街与成吉思汗西街交叉口东南方向174米左右",
        "tel": "",
        "category": "基础设施:公共设施:公共厕所",
        "type": 0,
        "location": {
            "lat": 40.851917,
            "lng": 111.647771
        },
        "ad_info": {
            "adcode": 150102,
            "province": "内蒙古自治区",
            "city": "呼和浩特市",
            "district": "新城区"
        }
    },
    {
        "id": "10176869317922529132",
        "title": "公共厕所",
        "address": "内蒙古自治区呼和浩特市清水河县G109",
        "tel": "",
        "category": "基础设施:公共设施:公共厕所",
        "type": 0,
        "location": {
            "lat": 39.899899,
            "lng": 111.793426
        },
        "ad_info": {
            "adcode": 150124,
            "province": "内蒙古自治区",
            "city": "呼和浩特市",
            "district": "清水河县"
        }
    },
    {
        "id": "6236738160146785767",
        "title": "青城驿站公共厕所",
        "address": "内蒙古自治区呼和浩特市托克托县云中南路与云中路交叉口正北方向91米左右",
        "tel": "",
        "category": "基础设施:公共设施:公共厕所",
        "type": 0,
        "location": {
            "lat": 40.274325,
            "lng": 111.199066
        },
        "ad_info": {
            "adcode": 150122,
            "province": "内蒙古自治区",
            "city": "呼和浩特市",
            "district": "托克托县"
        }
    },
    {
        "id": "16014660882450059513",
        "title": "公共厕所",
        "address": "内蒙古自治区呼和浩特市玉泉区大学西街内蒙古大学交通学院家属院",
        "tel": "",
        "category": "基础设施:公共设施:公共厕所",
        "type": 0,
        "location": {
            "lat": 40.804638,
            "lng": 111.6705
        },
        "ad_info": {
            "adcode": 150104,
            "province": "内蒙古自治区",
            "city": "呼和浩特市",
            "district": "玉泉区"
        }
    },
    {
        "id": "12114322735865275454",
        "title": "公共厕所",
        "address": "内蒙古自治区呼和浩特市新城区海拉尔东街泰和宇小区",
        "tel": "",
        "category": "基础设施:公共设施:公共厕所",
        "type": 0,
        "location": {
            "lat": 40.841235,
            "lng": 111.701077
        },
        "ad_info": {
            "adcode": 150102,
            "province": "内蒙古自治区",
            "city": "呼和浩特市",
            "district": "新城区"
        }
    },
    {
        "id": "1096352587399624722",
        "title": "公共卫生间",
        "address": "内蒙古自治区呼和浩特市玉泉区塞上老街与通顺街交叉口正南方向52米左右",
        "tel": "",
        "category": "基础设施:公共设施:公共厕所",
        "type": 0,
        "location": {
            "lat": 40.797795,
            "lng": 111.649372
        },
        "ad_info": {
            "adcode": 150104,
            "province": "内蒙古自治区",
            "city": "呼和浩特市",
            "district": "玉泉区"
        }
    },
    {
        "id": "10550575054869381889",
        "title": "公共厕所",
        "address": "内蒙古自治区呼和浩特市回民区海拉尔西街辅路与金海路辅路交叉口东北方向208米左右",
        "tel": "",
        "category": "基础设施:公共设施:公共厕所",
        "type": 0,
        "location": {
            "lat": 40.809149,
            "lng": 111.581108
        },
        "ad_info": {
            "adcode": 150103,
            "province": "内蒙古自治区",
            "city": "呼和浩特市",
            "district": "回民区"
        }
    },
    {
        "id": "16056610233693828073",
        "title": "公共厕所",
        "address": "内蒙古自治区呼和浩特市新城区兴安北路与成吉思汗东街交叉口正北方向320米左右",
        "tel": "",
        "category": "基础设施:公共设施:公共厕所",
        "type": 0,
        "location": {
            "lat": 40.862085,
            "lng": 111.691795
        },
        "ad_info": {
            "adcode": 150102,
            "province": "内蒙古自治区",
            "city": "呼和浩特市",
            "district": "新城区"
        }
    },
    {
        "id": "6681904363665955313",
        "title": "公共厕所",
        "address": "内蒙古自治区呼和浩特市回民区G110与G209交叉口东北方向46米左右",
        "tel": "",
        "category": "基础设施:公共设施:公共厕所",
        "type": 0,
        "location": {
            "lat": 40.865571,
            "lng": 111.633383
        },
        "ad_info": {
            "adcode": 150103,
            "province": "内蒙古自治区",
            "city": "呼和浩特市",
            "district": "回民区"
        }
    },
    {
        "id": "14810379696512606420",
        "title": "无障碍公共厕所",
        "address": "内蒙古自治区呼和浩特市新城区东影北路与星光北巷交叉口东北方向413米左右",
        "tel": "",
        "category": "基础设施:公共设施:公共厕所",
        "type": 0,
        "location": {
            "lat": 40.838396,
            "lng": 111.710698
        },
        "ad_info": {
            "adcode": 150102,
            "province": "内蒙古自治区",
            "city": "呼和浩特市",
            "district": "新城区"
        }
    },
    {
        "id": "8211255679045308887",
        "title": "公共厕所",
        "address": "内蒙古自治区呼和浩特市赛罕区万通路与宝音街交叉口正东方向39米左右",
        "tel": "",
        "category": "基础设施:公共设施:公共厕所",
        "type": 0,
        "location": {
            "lat": 40.835208,
            "lng": 111.765178
        },
        "ad_info": {
            "adcode": 150105,
            "province": "内蒙古自治区",
            "city": "呼和浩特市",
            "district": "赛罕区"
        }
    },
    {
        "id": "12005387323217787757",
        "title": "公共卫生间",
        "address": "内蒙古自治区呼和浩特市玉泉区昭君路与济民巷交叉口东南方向184米左右",
        "tel": "",
        "category": "基础设施:公共设施:公共厕所",
        "type": 0,
        "location": {
            "lat": 40.782712,
            "lng": 111.662328
        },
        "ad_info": {
            "adcode": 150104,
            "province": "内蒙古自治区",
            "city": "呼和浩特市",
            "district": "玉泉区"
        }
    },
    {
        "id": "7943816013833537708",
        "title": "公共厕所",
        "address": "内蒙古自治区呼和浩特市土默特左旗金五道内蒙古华程科贸有限责任公司",
        "tel": "",
        "category": "基础设施:公共设施:公共厕所",
        "type": 0,
        "location": {
            "lat": 40.784506,
            "lng": 111.560073
        },