[
    {
        "id": "7691924832767268453",
        "title": "公共厕所",
        "address": "新疆维吾尔自治区和田地区和田市兰干巷与迎宾路交叉口东北方向79米左右",
        "tel": "",
        "category": "基础设施:公共设施:公共厕所",
        "type": 0,
        "location": {
            "lat": 37.101484,
            "lng": 79.928627
        },
        "ad_info": {
            "adcode": 653201,
            "province": "新疆维吾尔自治区",
            "city": "和田地区",
            "district": "和田市"
        }
    },
    {
        "id": "8689686790179958820",
        "title": "公共厕所",
        "address": "新疆维吾尔自治区和田地区和田市台北东路与文化路交叉口正西方向162米左右",
        "tel": "",
        "category": "基础设施:公共设施:公共厕所",
        "type": 0,
        "location": {
            "lat": 37.11401,
            "lng": 79.935265
        },
        "ad_info": {
            "adcode": 653201,
            "province": "新疆维吾尔自治区",
            "city": "和田地区",
            "district": "和田市"
        }
    },
    {
        "id": "5229093855359810005",
        "title": "公共厕所",
        "address": "新疆维吾尔自治区和田地区和田市建设路87号",
        "tel": "",
        "category": "基础设施:公共设施:公共厕所",
        "type": 0,
        "location": {
            "lat": 37.107735,
            "lng": 79.925598
        },
        "ad_info": {
            "adcode": 653201,
            "province": "新疆维吾尔自治区",
            "city": "和田地区",
            "district": "和田市"
        }
    },
    {
        "id": "3261961671811871316",
        "title": "公共厕所",
        "address": "新疆维吾尔自治区和田地区和田市乌鲁木齐南路与人民西路交叉口正东方向390米左右",
        "tel": "",
        "category": "基础设施:公共设施:公共厕所",
        "type": 0,
        "location": {
            "lat": 37.102352,
            "lng": 79.918135
        },
        "ad_info": {
            "adcode": 653201,
            "province": "新疆维吾尔自治区",
            "city": "和田地区",
            "district": "和田市"
        }
    },
    {
        "id": "16218709282791983695",
        "title": "公共厕所",
        "address": "新疆维吾尔自治区和田地区和田市东环北路与玉石文化广场北路交叉口正东方向75米左右",
        "tel": "",
        "category": "基础设施:公共设施:公共厕所",
        "type": 0,
        "location": {
            "lat": 37.108284,
            "lng": 79.955004
        },
        "ad_info": {
            "adcode": 653201,
            "province": "新疆维吾尔自治区",
            "city": "和田地区",
            "district": "和田市"
        }
    },
    {
        "id": "11097946015967314975",
        "title": "公共厕所",
        "address": "新疆维吾尔自治区和田地区洛浦县团结路与文化路交叉口正西方向71米左右",
        "tel": "",
        "category": "基础设施:公共设施:公共厕所",
        "type": 0,
        "location": {
            "lat": 37.071291,
            "lng": 80.184581
        },
        "ad_info": {
            "adcode": 653224,
            "province": "新疆维吾尔自治区",
            "city": "和田地区",
            "district": "洛浦县"
        }
    },
    {
        "id": "9979731480898170489",
        "title": "公共厕所",
        "address": "新疆维吾尔自治区和田地区和田市北京西路与赫尼路交叉口东南方向114米左右",
        "tel": "",
        "category": "基础设施:公共设施:公共厕所",
        "type": 0,
        "location": {
            "lat": 37.119756,
            "lng": 79.88442
        },
        "ad_info": {
            "adcode": 653201,
            "province": "新疆维吾尔自治区",
            "city": "和田地区",
            "district": "和田市"
        }
    },
    {
        "id": "9433317407808382877",
        "title": "公共厕所",
        "address": "新疆维吾尔自治区和田地区和田市人民西路与塔乃依南路交叉口西北方向126米左右",
        "tel": "",
        "category": "基础设施:公共设施:公共厕所",
        "type": 0,
        "location": {
            "lat": 37.100502,
            "lng": 79.920633
        },
        "ad_info": {
            "adcode": 653201,
            "province": "新疆维吾尔自治区",
            "city": "和田地区",
            "district": "和田市"
        }
    },
    {
        "id": "11417157494356947412",
        "title": "公共厕所",
        "address": "新疆维吾尔自治区和田地区和田市红星街与纳瓦格路交叉口东北方向31米左右",
        "tel": "",
        "category": "基础设施:公共设施:公共厕所",
        "type": 0,
        "location": {
            "lat": 37.115229,
            "lng": 79.929893
        },
        "ad_info": {
            "adcode": 653201,
            "province": "新疆维吾尔自治区",
            "city": "和田地区",
            "district": "和田市"
        }
    },
    {
        "id": "16813526960372341343",
        "title": "公共厕所",
        "address": "新疆维吾尔自治区和田地区和田市加买路与古江北路交叉口西南方向98米左右",
        "tel": "",
        "category": "基础设施:公共设施:公共厕所",
        "type": 0,
        "location": {
            "lat": 37.110913,
            "lng": 79.936189
        },
        "ad_info": {
            "adcode": 653201,
            "province": "新疆维吾尔自治区",
            "city": "和田地区",
            "district": "和田市"
        }
    },
    {
        "id": "13694882131778159040",
        "title": "公共厕所",
        "address": "新疆维吾尔自治区和田地区和田市广场西路团结广场内(西侧)",
        "tel": "",
        "category": "基础设施:公共设施:公共厕所",
        "type": 0,
        "location": {
            "lat": 37.11056,
            "lng": 79.922122
        },
        "ad_info": {
            "adcode": 653201,
            "province": "新疆维吾尔自治区",
            "city": "和田地区",
            "district": "和田市"
        }
    },
    {
        "id": "10666153040127733975",
        "title": "公共厕所",
        "address": "新疆维吾尔自治区和田地区策勒县色色色日克东路与239乡道交叉口西160米",
        "tel": "",
        "category": "基础设施:公共设施:公共厕所",
        "type": 0,
        "location": {
            "lat": 37.00359,
            "lng": 80.812002
        },
        "ad_info": {
            "adcode": 653225,
            "province": "新疆维吾尔自治区",
            "city": "和田地区",
            "district": "策勒县"
        }
    },
    {
        "id": "17800732405204128117",
        "title": "公共厕所",
        "address": "新疆维吾尔自治区和田地区和田市北京西路与广场东路交叉口正南方向53米左右",
        "tel": "",
        "category": "基础设施:公共设施:公共厕所",
        "type": 0,
        "location": {
            "lat": 37.111384,
            "lng": 79.923842
        },
        "ad_info": {
            "adcode": 653201,
            "province": "新疆维吾尔自治区",
            "city": "和田地区",
            "district": "和田市"
        }
    },
    {
        "id": "8992564860184150198",
        "title": "公共厕所",
        "address": "新疆维吾尔自治区和田地区民丰县尼雅西路与滨河北路交叉口正北方向41米左右",
        "tel": "",
        "category": "基础设施:公共设施:公共厕所",
        "type": 0,
        "location": {
            "lat": 37.065163,
            "lng": 82.679493
        },
        "ad_info": {
            "adcode": 653227,
            "province": "新疆维吾尔自治区",
            "city": "和田地区",
            "district": "民丰县"
        }
    },
    {
        "id": "13871562508230847751",
        "title": "公共厕所",
        "address": "新疆维吾尔自治区和田地区和田市加买路与柯孜柯代尔瓦扎路交叉口东北方向74米左右",
        "tel": "",
        "category": "基础设施:公共设施:公共厕所",
        "type": 0,
        "location": {
            "lat": 37.11157,
            "lng": 79.935086
        },
        "ad_info": {
            "adcode": 653201,
            "province": "新疆维吾尔自治区",
            "city": "和田地区",
            "district": "和田市"
        }
    },
    {
        "id": "6985519886816153370",
        "title": "公共厕所",
        "address": "新疆维吾尔自治区和田地区和田市友谊路64号",
        "tel": "",
        "category": "基础设施:公共设施:公共厕所",
        "type": 0,
        "location": {
            "lat": 37.110107,
            "lng": 79.927989
        },
        "ad_info": {
            "adcode": 653201,
            "province": "新疆维吾尔自治区",
            "city": "和田地区",
            "district": "和田市"
        }
    },
    {
        "id": "764229096706871024",
        "title": "公共厕所",
        "address": "新疆维吾尔自治区和田地区于田县昆仑路与玉城东路交叉口正西方向65米左右",
        "tel": "",
        "category": "基础设施:公共设施:公共厕所",
        "type": 0,
        "location": {
            "lat": 36.852639,
            "lng": 81.670666
        },
        "ad_info": {
            "adcode": 653226,
            "province": "新疆维吾尔自治区",
            "city": "和田地区",
            "district": "于田县"
        }
    },
    {
        "id": "10486457236521264920",
        "title": "公共厕所",
        "address": "新疆维吾尔自治区和田地区策勒县G315与X664交叉口东南方向110米左右",
        "tel": "0903-6712682",
        "category": "基础设施:公共设施:公共厕所",
        "type": 0,
        "location": {
            "lat": 36.927542,
            "lng": 80.804698
        },
        "ad_info": {
            "adcode": 653225,
            "province": "新疆维吾尔自治区",
            "city": "和田地区",
            "district": "策勒县"
        }
    },
    {
        "id": "5461266526281915910",
        "title": "公共厕所",
        "address": "新疆维吾尔自治区和田地区和田市和迎宾路881号",
        "tel": "",
        "category": "基础设施:公共设施:公共厕所",
        "type": 0,
        "location": {
            "lat": 37.054224,
            "lng": 79.881608
        },
        "ad_info": {
            "adcode": 653201,
            "province": "新疆维吾尔自治区",
            "city": "和田地区",
            "district": "和田市"
        }
    },
    {
        "id": "13035111200362907464",
        "title": "公共厕所",
        "address": "新疆维吾尔自治区和田地区和田市G315与夏玛勒巴格路交叉口正北方向163米左右",
        "tel": "",
        "category": "基础设施:公共设施:公共厕所",
        "type": 0,
        "location": {
            "lat": 37.121955,
            "lng": 79.948727
        },
        "ad_info": {
            "adcode": 653201,
            "province": "新疆维吾尔自治区",
            "city": "和田地区",
            "district": "和田市"
        }
    },
    {
        "id": "10257524495473494060",
        "title": "公共厕所",
        "address": "新疆维吾尔自治区和田地区和田市古江北路与台北东路交叉口正北方向199米左右",
        "tel": "",
        "category": "基础设施:公共设施:公共厕所",
        "type": 0,
        "location": {
            "lat": 37.11606,
            "lng": 79.937826
        },
        "ad_info": {
            "adcode": 653201,
            "province": "新疆维吾尔自治区",
            "city": "和田地区",
            "district": "和田市"
        }
    },
    {
        "id": "5705933996664096751",
        "title": "公共厕所",
        "address": "新疆维吾尔自治区和田地区和田市京昌路与阿和公路交叉口东南方向67米左右",
        "tel": "",
        "category": "基础设施:公共设施:公共厕所",
        "type": 0,
        "location": {
            "lat": 37.164218,
            "lng": 79.979595
        },
        "ad_info": {
            "adcode": 653201,
            "province": "新疆维吾尔自治区",
            "city": "和田地区",
            "district": "和田市"
        }
    },
    {
        "id": "15791434304787238116",
        "title": "公共厕所",
        "address": "新疆维吾尔自治区和田地区皮山县加罕巴格路与安徽大道交叉口东南方向133米左右",
        "tel": "",
        "category": "基础设施:公共设施:公共厕所",
        "type": 0,
        "location": {
            "lat": 37.612699,
            "lng": 78.286625
        },
        "ad_info": {
            "adcode": 653223,
            "province": "新疆维吾尔自治区",
            "city": "和田地区",
            "district": "皮山县"
        }
    },
    {
        "id": "5967632434349985786",
        "title": "公共厕所",
        "address": "新疆维吾尔自治区和田地区皮山县玉梅蔬菜调料店北侧290米",
        "tel": "",
        "category": "基础设施:公共设施:公共厕所",
        "type": 0,
        "location": {
            "lat": 37.576191,
            "lng": 78.299689
        },
        "ad_info": {
            "adcode": 653223,
            "province": "新疆维吾尔自治区",
            "city": "和田地区",
            "district": "皮山县"
        }
    },
    {
        "id": "13407645650328541518",
        "title": "公共厕所",
        "address": "新疆维吾尔自治区和田地区和田市安康路与昆仑东路交叉口正南方向262米左右",
        "tel": "",
        "category": "基础设施:公共设施:公共厕所",
        "type": 0,
        "location": {
            "lat": 37.088703,
            "lng": 79.948591
        },
        "ad_info": {
            "adcode": 653201,
            "province": "新疆维吾尔自治区",
            "city": "和田地区",
            "district": "和田市"
        }
    },
    {
        "id": "16289581340892615354",
        "title": "公共厕所",
        "address": "新疆维吾尔自治区和田地区和田市台北东路与台北西路交叉口正北方向114米左右",
        "tel": "",
        "category": "基础设施:公共设施:公共厕所",
        "type": 0,
        "location": {
            "lat": 37.115858,
            "lng": 79.931349
        },
        "ad_info": {
            "adcode": 653201,
            "province": "新疆维吾尔自治区",
            "city": "和田地区",
            "district": "和田市"
        }
    },
    {
        "id": "13754680356523658196",
        "title": "公共厕所",
        "address": "新疆维吾尔自治区和田地区和田市台北西路辅路与纳瓦格东路交叉口正南方向21米左右",
        "tel": "",
        "category": "基础设施:公共设施:公共厕所",
        "type": 0,
        "location": {
            "lat": 37.115984,
            "lng": 79.928467
        },
        "ad_info": {
            "adcode": 653201,
            "province": "新疆维吾尔自治区",
            "city": "和田地区",
            "district": "和田市"
        }
    },
    {
        "id": "3780256151411820626",
        "title": "公共厕所",
        "address": "新疆维吾尔自治区和田地区和田市利民路与戈什麦亥勒力路交叉口东北方向80米左右",
        "tel": "",
        "category": "基础设施:公共设施:公共厕所",
        "type": 0,
        "location": {
            "lat": 37.075151,
            "lng": 79.935277
        },
        "ad_info": {
            "adcode": 653201,
            "province": "新疆维吾尔自治区",
            "city": "和田地区",
            "district": "和田市"
        }
    },
    {
        "id": "12037194579676728732",
        "title": "公共厕所",
        "address": "新疆维吾尔自治区和田地区洛浦县博斯坦东路与博斯坦西路交叉口正北方向105米左右",
        "tel": "",
        "category": "基础设施:公共设施:公共厕所",
        "type": 0,
        "location": {
            "lat": 37.079842,
            "lng": 80.184078
        },
        "ad_info": {
            "adcode": 653224,
            "province": "新疆维吾尔自治区",
            "city": "和田地区",
            "district": "洛浦县"
        }
    },
    {
        "id": "15831845986801779682",
        "title": "公共厕所(XJ-HT-0178)",
        "address": "新疆维吾尔自治区和田地区皮山县北纬三路与西经二路交叉口西南方向23米左右",
        "tel": "",
        "category": "基础设施:公共设施:公共厕所",
        "type": 0,
        "location": {
            "lat": 37.576458,
            "lng": 78.279124
        },
        "ad_info": {
            "adcode": 653223,
            "province": "新疆维吾尔自治区",
            "city": "和田地区",
            "district": "皮山县"
        }
    },
    {
        "id": "7619689751998522602",
        "title": "公共厕所",
        "address": "新疆维吾尔自治区和田地区和田市安康路与昆仑东路交叉口正南方向156米左右",
        "tel": "",
        "category": "基础设施:公共设施:公共厕所",
        "type": 0,
        "location": {
            "lat": 37.089655,
            "lng": 79.948775
        },
        "ad_info": {
            "adcode": 653201,
            "province": "新疆维吾尔自治区",
            "city": "和田地区",
            "district": "和田市"
        }
    },
    {
        "id": "7556066291212171505",
        "title": "公共厕所",
        "address": "新疆维吾尔自治区和田地区民丰县G216与阿扎提巴格路交叉口正北方向272米左右",
        "tel": "",
        "category": "基础设施:公共设施:公共厕所",
        "type": 0,
        "location": {
            "lat": 37.071257,
            "lng": 82.761024
        },
        "ad_info": {
            "adcode": 653227,
            "province": "新疆维吾尔自治区",
            "city": "和田地区",
            "district": "民丰县"
        }
    },
    {
        "id": "10800546256398863195",
        "title": "公共厕所",
        "address": "新疆维吾尔自治区和田地区和田市迎宾路518号",
        "tel": "",
        "category": "基础设施:公共设施:公共厕所",
        "type": 0,
        "location": {
            "lat": 37.054351,
            "lng": 79.88202
        },
        "ad_info": {
            "adcode": 653201,
            "province": "新疆维吾尔自治区",
            "city": "和田地区",
            "district": "和田市"
        }
    },
    {
        "id": "6221951088922321634",
        "title": "公共厕所",
        "address": "新疆维吾尔自治区和田地区皮山县G315与X644交叉口西北方向81米左右",
        "tel": "",
        "category": "基础设施:公共设施:公共厕所",
        "type": 0,
        "location": {
            "lat": 37.562383,
            "lng": 78.237799
        },
        "ad_info": {
            "adcode": 653223,
            "province": "新疆维吾尔自治区",
            "city": "和田地区",
            "district": "皮山县"
        }
    },
    {
        "id": "585935103056594137",
        "title": "公共厕所",
        "address": "新疆维吾尔自治区和田地区和田市S216与S326交叉口东南方向48米左右",
        "tel": "",
        "category": "基础设施:公共设施:公共厕所",
        "type": 0,
        "location": {
            "lat": 37.097113,
            "lng": 79.963608
        },
        "ad_info": {
            "adcode": 653201,
            "province": "新疆维吾尔自治区",
            "city": "和田地区",
            "district": "和田市"
        }
    },
    {
        "id": "16997993657358574498",
        "title": "公共厕所",
        "address": "新疆维吾尔自治区和田地区和田市阿克齐格路与阿和公路交叉口西北方向250米左右",
        "tel": "",
        "category": "基础设施:公共设施:公共厕所",
        "type": 0,
        "location": {
            "lat": 37.111486,
            "lng": 79.968649
        },
        "ad_info": {
            "adcode": 653201,
            "province": "新疆维吾尔自治区",
            "city": "和田地区",
            "district": "和田市"
        }
    },
    {
        "id": "6424917136967031214",
        "title": "公共厕所",
        "address": "新疆维吾尔自治区和田地区策勒县亚托拉格克",
        "tel": "",
        "category": "基础设施:公共设施:公共厕所",
        "type": 0,
        "location": {
            "lat": 36.122022,
            "lng": 80.842609
        },
        "ad_info": {
            "adcode": 653225,
            "province": "新疆维吾尔自治区",
            "city": "和田地区",
            "district": "策勒县"
        }
    },
    {
        "id": "2834098836950339599",
        "title": "公共厕所",
        "address": "新疆维吾尔自治区和田地区策勒县喀山草场南侧",
        "tel": "",
        "category": "基础设施:公共设施:公共厕所",
        "type": 0,
        "location": {
            "lat": 36.132512,
            "lng": 81.275935
        },
        "ad_info": {
            "adcode": 653225,
            "province": "新疆维吾尔自治区",
            "city": "和田地区",
            "district": "策勒县"
        }
    },
    {
        "id": "1262437953261214475",
        "title": "公共厕所",
        "address": "新疆维吾尔自治区和田地区策勒县Y231与Y233交叉口西南方向1734米左右",
        "tel": "",
        "category": "基础设施:公共设施:公共厕所",
        "type": 0,
        "location": {
            "lat": 36.957994,
            "lng": 80.787848
        },
        "ad_info": {
            "adcode": 653225,
            "province": "新疆维吾尔自治区",
            "city": "和田地区",
            "district": "策勒县"
        }
    },
    {
        "id": "7385264785295989379",
        "title": "公共厕所",
        "address": "新疆维吾尔自治区和田地区和田市大漠胡杨生态景区",
        "tel": "",
        "category": "基础设施:公共设施:公共厕所",
        "type": 0,
        "location": {
            "lat": 37.217995,
            "lng": 79.999173
        },
        "ad_info": {
            "adcode": 653201,
            "province": "新疆维吾尔自治区",
            "city": "和田地区",
            "district": "和田市"
        }
    },
    {
        "id": "871665796778643467",
        "title": "公共厕所",
        "address": "新疆维吾尔自治区和田地区民丰县315国道附近",
        "tel": "",
        "category": "基础设施:公共设施:公共厕所",
        "type": 0,
        "location": {
            "lat": 37.668579,
            "lng": 83.962267
        },
        "ad_info": {
            "adcode": 653227,
            "province": "新疆维吾尔自治区",
            "city": "和田地区",
            "district": "民丰县"
        }
    },
    {
        "id": "775813451820758016",
        "title": "公共厕所",
        "address": "新疆维吾尔自治区和田地区民丰县兰帕北路4号",
        "tel": "",
        "category": "基础设施:公共设施:公共厕所",
        "type": 0,
        "location": {
            "lat": 37.045195,
            "lng": 82.69716
        },
        "ad_info": {
            "adcode": 653227,
            "province": "新疆维吾尔自治区",
            "city": "和田地区",
            "district": "民丰县"
        }
    },
    {
        "id": "18187070938728118908",
        "title": "公共厕所",
        "address": "新疆维吾尔自治区和田地区洛浦县G315与文化路交叉口东北方向40米左右",
        "tel": "",
        "category": "基础设施:公共设施:公共厕所",
        "type": 0,
        "location": {
            "lat": 37.071345,
            "lng": 80.087423
        },
        "ad_info": {
            "adcode": 653224,
            "province": "新疆维吾尔自治区",
            "city": "和田地区",
            "district": "洛浦县"
        }
    },
    {
        "id": "7916118114162995311",
        "title": "公共厕所",
        "address": "新疆维吾尔自治区和田地区洛浦县西莎线中国石油洛浦第三加油站",
        "tel": "",
        "category": "基础设施:公共设施:公共厕所",
        "type": 0,
        "location": {
            "lat": 37.045336,
            "lng": 80.209918
        },
        "ad_info": {
            "adcode": 653224,
            "province": "新疆维吾尔自治区",
            "city": "和田地区",
            "district": "洛浦县"
        }
    },
    {
        "id": "5819972909449047153",
        "title": "公共厕所",
        "address": "新疆维吾尔自治区和田地区墨玉县中山路与古则东路交叉口正东方向256米左右",
        "tel": "",
        "category": "基础设施:公共设施:公共厕所",
        "type": 0,
        "location": {
            "lat": 37.267893,
            "lng": 79.744189
        },
        "ad_info": {
            "adcode": 653222,
            "province": "新疆维吾尔自治区",
            "city": "和田地区",
            "district": "墨玉县"
        }
    },
    {
        "id": "11947372905999677980",
        "title": "公共厕所",
        "address": "新疆维吾尔自治区和田地区于田县吉音水库自驾车营地",
        "tel": "",
        "category": "基础设施:公共设施:公共厕所",
        "type": 0,
        "location": {
            "lat": 36.214283,
            "lng": 81.533092
        },
        "ad_info": {
            "adcode": 653226,
            "province": "新疆维吾尔自治区",
            "city": "和田地区",
            "district": "于田县"
        }
    },
    {
        "id": "6761764947126851051",
        "title": "公共厕所",
        "address": "新疆维吾尔自治区和田地区民丰县若民高速与西和高速交叉口东北方向1064米左右",
        "tel": "",
        "category": "基础设施:公共设施:公共厕所",
        "type": 0,
        "location": {
            "lat": 37.270165,
            "lng": 83.051603
        },
        "ad_info": {
            "adcode": 653227,
            "province": "新疆维吾尔自治区",
            "city": "和田地区",
            "district": "民丰县"
        }
    },
    {
        "id": "15882845889594140003",
        "title": "公共厕所",
        "address": "新疆维吾尔自治区和田地区于田县团结路与昆仑路交叉口正西方向67米左右",
        "tel": "",
        "category": "基础设施:公共设施:公共厕所",
        "type": 0,
        "location": {
            "lat": 36.858416,
            "lng": 81.670414
        },
        "ad_info": {
            "adcode": 653226,
            "province": "新疆维吾尔自治区",
            "city": "和田地区",
            "district": "于田县"
        }
    },
    {
        "id": "4856763872467214543",
        "title": "公共厕所",
        "address": "新疆维吾尔自治区和田地区墨玉县英协海尔路与银河北路交叉口正南方向104米左右",
        "tel": "",
        "category": "基础设施:公共设施:公共厕所",
        "type": 0,
        "location": {
            "lat": 37.275769,
            "lng": 79.729378
        },
        "ad_info": {
            "adcode": 653222,
            "province": "新疆维吾尔自治区",
            "city": "和田地区",
            "district": "墨玉县"
        }
    },
    {
        "id": "15266411705837186",
        "title": "公共厕所",
        "address": "新疆维吾尔自治区和田地区洛浦县与217国道交叉口西100米",
        "tel": "",
        "category": "基础设施:公共设施:公共厕所",
        "type": 0,
        "location": {
            "lat": 39.427597,
            "lng": 80.96505
        },
        "ad_info": {
            "adcode": 653224,
            "province": "新疆维吾尔自治区",
            "city": "和田地区",
            "district": "洛浦县"
        }
    },
    {
        "id": "17785297933072591922",
        "title": "公共厕所",
        "address": "新疆维吾尔自治区和田地区洛浦县G315与托格拉克路交叉口东南方向794米左右",
        "tel": "",
        "category": "基础设施:公共设施:公共厕所",
        "type": 0,
        "location": {
            "lat": 37.076834,
            "lng": 80.0282
        },
        "ad_info": {
            "adcode": 653224,
            "province": "新疆维吾尔自治区",
            "city": "和田地区",
            "district": "洛浦县"
        }
    },
    {
        "id": "8921937458965851120",
        "title": "公共厕所",
        "address": "新疆维吾尔自治区和田地区墨玉县民族风俗步行街",
        "tel": "",
        "category": "基础设施:公共设施:公共厕所",
        "type": 0,
        "location": {
            "lat": 37.271161,
            "lng": 79.739064
        },
        "ad_info": {
            "adcode": 653222,
            "province": "新疆维吾尔自治区",
            "city": "和田地区",
            "district": "墨玉县"
        }
    },
    {
        "id": "2536391733641827777",
        "title": "厕所",
        "address": "新疆维吾尔自治区和田地区皮山县X643与光明路交叉口西南方向531米左右",
        "tel": "17599374662",
        "category": "基础设施:公共设施:公共厕所",
        "type": 0,
        "location": {
            "lat": 37.460571,
            "lng": 78.563605
        },
        "ad_info": {
            "adcode": 653223,
            "province": "新疆维吾尔自治区",
            "city": "和田地区",
            "district": "皮山县"
        }
    },
    {
        "id": "11331317103729216712",
        "title": "公共厕所",
        "address": "新疆维吾尔自治区和田地区于田县龙湖景区鬼树林",
        "tel": "",
        "category": "基础设施:公共设施:公共厕所",
        "type": 0,
        "location": {
            "lat": 36.927058,
            "lng": 81.371062
        },
        "ad_info": {
            "adcode": 653226,
            "province": "新疆维吾尔自治区",
            "city": "和田地区",
            "district": "于田县"
        }
    },
    {
        "id": "12925158544275275841",
        "title": "公共厕所",
        "address": "新疆维吾尔自治区和田地区于田县瑰觅玫瑰种植园",
        "tel": "",
        "category": "基础设施:公共设施:公共厕所",
        "type": 0,
        "location": {
            "lat": 36.81059,
            "lng": 82.091994
        },
        "ad_info": {
            "adcode": 653226,
            "province": "新疆维吾尔自治区",
            "city": "和田地区",
            "district": "于田县"
        }
    },
    {
        "id": "18323195262023693828",
        "title": "公共厕所",
        "address": "新疆维吾尔自治区和田地区于田县达里雅布依乡邮政所东南侧270米",
        "tel": "",
        "category": "基础设施:公共设施:公共厕所",
        "type": 0,
        "location": {
            "lat": 37.599132,
            "lng": 81.403586
        },
        "ad_info": {
            "adcode": 653226,
            "province": "新疆维吾尔自治区",
            "city": "和田地区",
            "district": "于田县"
        }
    },
    {
        "id": "18199221033436715859",
        "title": "公共厕所",
        "address": "新疆维吾尔自治区和田地区和田县吾宗肖卫生院南侧110米",
        "tel": "",
        "category": "基础设施:公共设施:公共厕所",
        "type": 0,
        "location": {
            "lat": 37.454421,
            "lng": 79.98882
        },
        "ad_info": {
            "adcode": 653221,
            "province": "新疆维吾尔自治区",
            "city": "和田地区",
            "district": "和田县"
        }
    },
    {
        "id": "17835556467789911534",
        "title": "公共厕所",
        "address": "新疆维吾尔自治区和田地区于田县吉盖尔路与夏玛勒路交叉口东北方向697米左右",
        "tel": "",
        "category": "基础设施:公共设施:公共厕所",
        "type": 0,
        "location": {
            "lat": 36.848682,
            "lng": 81.548769
        },
        "ad_info": {
            "adcode": 653226,
            "province": "新疆维吾尔自治区",
            "city": "和田地区",
            "district": "于田县"
        }
    },
    {
        "id": "8444039742780349572",
        "title": "公共厕所",
        "address": "新疆维吾尔自治区和田地区于田县X676与苏阿木比日路交叉口正北方向896米左右",
        "tel": "",
        "category": "基础设施:公共设施:公共厕所",
        "type": 0,
        "location": {
            "lat": 36.947407,
            "lng": 81.400164
        },
        "ad_info": {
            "adcode": 653226,
            "province": "新疆维吾尔自治区",
            "city": "和田地区",
            "district": "于田县"
        }
    },
    {
        "id": "14830374303968354298",
        "title": "公共厕所(XJ-HT-0207)",
        "address": "新疆维吾尔自治区和田地区于田县",
        "tel": "",
        "category": "基础设施:公共设施:公共厕所",
        "type": 0,
        "location": {
            "lat": 36.186346,
            "lng": 81.48329
        },
        "ad_info": {
            "adcode": 653226,
            "province": "新疆维吾尔自治区",
            "city": "和田地区",
            "district": "于田县"
        }
    },
    {
        "id": "5343515655460794380",
        "title": "公共厕所",
        "address": "新疆维吾尔自治区和田地区墨玉县Y549与东风路交叉口正北方向897米左右",
        "tel": "",
        "category": "基础设施:公共设施:公共厕所",
        "type": 0,
        "location": {
            "lat": 37.231451,
            "lng": 79.567526
        },
        "ad_info": {
            "adcode": 653222,
            "province": "新疆维吾尔自治区",
            "city": "和田地区",
            "district": "墨玉县"
        }
    },
    {
        "id": "13478657068657374760",
        "title": "公共厕所",
        "address": "新疆维吾尔自治区和田地区墨玉县英协海尔路与团结路交叉口西60米",
        "tel": "",
        "category": "基础设施:公共设施:公共厕所",
        "type": 0,
        "location": {
            "lat": 37.274017,
            "lng": 79.733531
        },
        "ad_info": {
            "adcode": 653222,
            "province": "新疆维吾尔自治区",
            "city": "和田地区",
            "district": "墨玉县"
        }
    },
    {
        "id": "8030630562439254262",
        "title": "公共厕所",
        "address": "新疆维吾尔自治区和田地区和田县217国道东50米",
        "tel": "",
        "category": "基础设施:公共设施:公共厕所",
        "type": 0,
        "location": {
            "lat": 37.623789,
            "lng": 80.392497
        },
        "ad_info": {
            "adcode": 653221,
            "province": "新疆维吾尔自治区",
            "city": "和田地区",
            "district": "和田县"
        }
    },
    {
        "id": "14656397476234925696",
        "title": "公共厕所",
        "address": "新疆维吾尔自治区和田地区墨玉县绿水农家乐东南侧",
        "tel": "",
        "category": "基础设施:公共设施:公共厕所",
        "type": 0,
        "location": {
            "lat": 37.34337,
            "lng": 79.525357
        },
        "ad_info": {
            "adcode": 653222,
            "province": "新疆维吾尔自治区",
            "city": "和田地区",
            "district": "墨玉县"
        }
    },
    {
        "id": "8224990750850780557",
        "title": "公共厕所",
        "address": "新疆维吾尔自治区和田地区墨玉县其乃巴格南路与同心路交叉口东南方向163米左右",
        "tel": "",
        "category": "基础设施:公共设施:公共厕所",
        "type": 0,
        "location": {
            "lat": 37.256043,
            "lng": 79.727964
        },
        "ad_info": {
            "adcode": 653222,
            "province": "新疆维吾尔自治区",
            "city": "和田地区",
            "district": "墨玉县"
        }
    },
    {
        "id": "6937759651225706439",
        "title": "公共厕所",
        "address": "新疆维吾尔自治区和田地区墨玉县喀尔赛镇巴格其村",
        "tel": "",
        "category": "基础设施:公共设施:公共厕所",
        "type": 0,
        "location": {
            "lat": 37.475343,
            "lng": 79.5669
        },
        "ad_info": {
            "adcode": 653222,
            "province": "新疆维吾尔自治区",
            "city": "和田地区",
            "district": "墨玉县"
        }
    },
    {
        "id": "4709642690343587855",
        "title": "公共厕所",
        "address": "新疆维吾尔自治区和田地区墨玉县G315与S326交叉口西北方向118米左右",
        "tel": "",
        "category": "基础设施:公共设施:公共厕所",
        "type": 0,
        "location": {
            "lat": 37.25548,
            "lng": 79.759397
        },
        "ad_info": {
            "adcode": 653222,
            "province": "新疆维吾尔自治区",
            "city": "和田地区",
            "district": "墨玉县"
        }
    },
    {
        "id": "14081685784668995685",
        "title": "公共厕所",
        "address": "新疆维吾尔自治区和田地区和田县乌鲁瓦提景区停车场",
        "tel": "",
        "category": "基础设施:公共设施:公共厕所",
        "type": 0,
        "location": {
            "lat": 36.860347,
            "lng": 79.436319
        },
        "ad_info": {
            "adcode": 653221,
            "province": "新疆维吾尔自治区",
            "city": "和田地区",
            "district": "和田县"
        }
    },
    {
        "id": "10301346064852511841",
        "title": "公共厕所",
        "address": "新疆维吾尔自治区和田地区墨玉县雅瓦拉力阔勒村",
        "tel": "",
        "category": "基础设施:公共设施:公共厕所",
        "type": 0,
        "location": {
            "lat": 37.319008,
            "lng": 79.517347
        },
        "ad_info": {
            "adcode": 653222,
            "province": "新疆维吾尔自治区",
            "city": "和田地区",
            "district": "墨玉县"
        }
    },
    {
        "id": "1558063424500564805",
        "title": "公共厕所",
        "address": "新疆维吾尔自治区和田地区墨玉县X634与团结路交叉口正北方向248米左右",
        "tel": "",
        "category": "基础设施:公共设施:公共厕所",
        "type": 0,
        "location": {
            "lat": 37.318043,
            "lng": 79.705213
        },
        "ad_info": {
            "adcode": 653222,
            "province": "新疆维吾尔自治区",
            "city": "和田地区",
            "district": "墨玉县"
        }
    },
    {
        "id": "1869063967279639023",
        "title": "公共厕所",
        "address": "新疆维吾尔自治区和田地区墨玉县X634与X635交叉口西北方向1090米左右",
        "tel": "",
        "category": "基础设施:公共设施:公共厕所",
        "type": 0,
        "location": {
            "lat": 37.317707,
            "lng": 79.691801
        },
        "ad_info": {
            "adcode": 653222,
            "province": "新疆维吾尔自治区",
            "city": "和田地区",
            "district": "墨玉县"
        }
    },
    {
        "id": "14800854052572741791",
        "title": "公共厕所",
        "address": "新疆维吾尔自治区和田地区墨玉县中国邮政(加罕巴格乡邮政所)北侧",
        "tel": "",
        "category": "基础设施:公共设施:公共厕所",
        "type": 0,
        "location": {
            "lat": 37.196931,
            "lng": 79.704923
        },
        "ad_info": {
            "adcode": 653222,
            "province": "新疆维吾尔自治区",
            "city": "和田地区",
            "district": "墨玉县"
        }
    },
    {
        "id": "17791436194209066909",
        "title": "公共厕所",
        "address": "新疆维吾尔自治区和田地区墨玉县红苹果音乐美食城西侧",
        "tel": "",
        "category": "基础设施:公共设施:公共厕所",
        "type": 0,
        "location": {
            "lat": 37.338298,
            "lng": 79.793411
        },
        "ad_info": {
            "adcode": 653222,
            "province": "新疆维吾尔自治区",
            "city": "和田地区",
            "district": "墨玉县"
        }
    },
    {
        "id": "9169236931554922499",
        "title": "公共厕所",
        "address": "新疆维吾尔自治区和田地区墨玉县X636与文化路交叉口正北方向196米左右",
        "tel": "",
        "category": "基础设施:公共设施:公共厕所",
        "type": 0,
        "location": {
            "lat": 37.297193,
            "lng": 79.634531
        },
        "ad_info": {
            "adcode": 653222,
            "province": "新疆维吾尔自治区",
            "city": "和田地区",
            "district": "墨玉县"
        }
    },
    {
        "id": "1322688423943459060",
        "title": "公共厕所",
        "address": "新疆维吾尔自治区和田地区墨玉县X636与库牙路交叉口西北方向112米左右",
        "tel": "",
        "category": "基础设施:公共设施:公共厕所",
        "type": 0,
        "location": {
            "lat": 37.276604,
            "lng": 79.676918
        },
        "ad_info": {
            "adcode": 653222,
            "province": "新疆维吾尔自治区",
            "city": "和田地区",
            "district": "墨玉县"
        }
    },
    {
        "id": "4484219446494441306",
        "title": "公共厕所",
        "address": "新疆维吾尔自治区和田地区墨玉县吐外特乡英艾日克村75号",
        "tel": "",
        "category": "基础设施:公共设施:公共厕所",
        "type": 0,
        "location": {
            "lat": 37.341933,
            "lng": 79.769628
        },
        "ad_info": {
            "adcode": 653222,
            "province": "新疆维吾尔自治区",
            "city": "和田地区",
            "district": "墨玉县"
        }
    },
    {
        "id": "2218870649821298623",
        "title": "公共厕所",
        "address": "新疆维吾尔自治区和田地区墨玉县拉里昆国家湿地公园游客服务中心西侧60米",
        "tel": "",
        "category": "基础设施:公共设施:公共厕所",
        "type": 0,
        "location": {
            "lat": 37.325193,
            "lng": 79.492845
        },
        "ad_info": {
            "adcode": 653222,
            "province": "新疆维吾尔自治区",
            "city": "和田地区",
            "district": "墨玉县"
        }
    },
    {
        "id": "4125197447299561077",
        "title": "公共厕所",
        "address": "新疆维吾尔自治区和田地区墨玉县中国邮政(喀尔赛乡邮政所)西南侧170米",
        "tel": "",
        "category": "基础设施:公共设施:公共厕所",
        "type": 0,
        "location": {
            "lat": 37.483007,
            "lng": 79.595436
        },
        "ad_info": {
            "adcode": 653222,
            "province": "新疆维吾尔自治区",
            "city": "和田地区",
            "district": "墨玉县"
        }
    },
    {
        "id": "16380456393084931770",
        "title": "公共厕所",
        "address": "新疆维吾尔自治区和田地区墨玉县X635",
        "tel": "",
        "category": "基础设施:公共设施:公共厕所",
        "type": 0,
        "location": {
            "lat": 37.346606,
            "lng": 79.644673
        },
        "ad_info": {
            "adcode": 653222,
            "province": "新疆维吾尔自治区",
            "city": "和田地区",
            "district": "墨玉县"
        }
    },
    {
        "id": "4958226421918673531",
        "title": "公共厕所",
        "address": "新疆维吾尔自治区和田地区墨玉县Y072与阿克萨拉依路交叉口正北方向774米左右",
        "tel": "",
        "category": "基础设施:公共设施:公共厕所",
        "type": 0,
        "location": {
            "lat": 37.175963,
            "lng": 79.702123
        },
        "ad_info": {
            "adcode": 653222,
            "province": "新疆维吾尔自治区",
            "city": "和田地区",
            "district": "墨玉县"
        }
    },
    {
        "id": "13839270006526782354",
        "title": "旅游厕所",
        "address": "新疆维吾尔自治区和田地区洛浦县美胡杨旅游发展有限公司南侧50米",
        "tel": "",
        "category": "基础设施:公共设施:公共厕所",
        "type": 0,
        "location": {
            "lat": 37.093378,
            "lng": 80.45824
        },
        "ad_info": {
            "adcode": 653224,
            "province": "新疆维吾尔自治区",
            "city": "和田地区",
            "district": "洛浦县"
        }
    },
    {
        "id": "3575342896591536754",
        "title": "策勒服务区公共厕所",
        "address": "新疆维吾尔自治区和田地区策勒县G0612西和高速与策勒服务区交叉口西480米",
        "tel": "",
        "category": "基础设施:公共设施:公共厕所",
        "type": 0,
        "location": {
            "lat": 36.923578,
            "lng": 80.828711
        },
        "ad_info": {
            "adcode": 653225,
            "province": "新疆维吾尔自治区",
            "city": "和田地区",
            "district": "策勒县"
        }
    },
    {
        "id": "13489332151591478206",
        "title": "华豫国际酒店-洗手间",
        "address": "新疆维吾尔自治区和田地区和田市人民东路与人民西路交叉口正北方向34米左右",
        "tel": "",
        "category": "基础设施:公共设施:公共厕所",
        "type": 0,
        "location": {
            "lat": 37.099271,
            "lng": 79.92697
        },
        "ad_info": {
            "adcode": 653201,
            "province": "新疆维吾尔自治区",
            "city": "和田地区",
            "district": "和田市"
        }
    },
    {
        "id": "4179239410107364438",
        "title": "昆仑山板兰格景区演绎广场厕所",
        "address": "新疆维吾尔自治区和田地区策勒县",
        "tel": "",
        "category": "基础设施:公共设施:公共厕所",
        "type": 0,
        "location": {
            "lat": 36.120324,
            "lng": 80.841775
        },
        "ad_info": {
            "adcode": 653225,
            "province": "新疆维吾尔自治区",
            "city": "和田地区",
            "district": "策勒县"
        }
    },
    {
        "id": "13493040316698673657",
        "title": "民丰服务区公共厕所",
        "address": "新疆维吾尔自治区和田地区民丰县G0612西和高速与民丰服务区交叉口西480米",
        "tel": "",
        "category": "基础设施:公共设施:公共厕所",
        "type": 0,
        "location": {
            "lat": 36.99445,
            "lng": 82.725387
        },
        "ad_info": {
            "adcode": 653227,
            "province": "新疆维吾尔自治区",
            "city": "和田地区",
            "district": "民丰县"
        }
    },
    {
        "id": "4669016779319172601",
        "title": "于田服务区公共厕所",
        "address": "新疆维吾尔自治区和田地区于田县G0612西和高速与于田服务区交叉口西440米",
        "tel": "",
        "category": "基础设施:公共设施:公共厕所",
        "type": 0,
        "location": {
            "lat": 36.806278,
            "lng": 81.576392
        },
        "ad_info": {
            "adcode": 653226,
            "province": "新疆维吾尔自治区",
            "city": "和田地区",
            "district": "于田县"
        }
    },
    {
        "id": "15795362463731519048",
        "title": "昆玉服务区公共厕所",
        "address": "新疆维吾尔自治区和田地区皮山县昆玉服务区加油站西侧200米",
        "tel": "",
        "category": "基础设施:公共设施:公共厕所",
        "type": 0,
        "location": {
            "lat": 37.230204,
            "lng": 79.186783
        },
        "ad_info": {
            "adcode": 653223,
            "province": "新疆维吾尔自治区",
            "city": "和田地区",
            "district": "皮山县"
        }
    },
    {
        "id": "14829090239464681659",
        "title": "尼雅服务区公共卫生间",
        "address": "新疆维吾尔自治区和田地区民丰县G0612西和高速与尼雅服务区交叉口西460米",
        "tel": "",
        "category": "基础设施:公共设施:公共厕所",
        "type": 0,
        "location": {
            "lat": 37.339633,
            "lng": 83.266033
        },
        "ad_info": {
            "adcode": 653227,
            "province": "新疆维吾尔自治区",
            "city": "和田地区",
            "district": "民丰县"
        }
    },
    {
        "id": "16161433630997795457",
        "title": "尼雅服务区公共卫生间",
        "address": "新疆维吾尔自治区和田地区民丰县G0612西和高速与尼雅服务区交叉口西500米",
        "tel": "",
        "category": "基础设施:公共设施:公共厕所",
        "type": 0,
        "location": {
            "lat": 37.337682,
            "lng": 83.265856
        },
        "ad_info": {
            "adcode": 653227,
            "province": "新疆维吾尔自治区",
            "city": "和田地区",
            "district": "民丰县"
        }
    },
    {
        "id": "10046327145545727987",
        "title": "塔吉克民族风情园厕所",
        "address": "新疆维吾尔自治区和田地区皮山县644县道",
        "tel": "",
        "category": "基础设施:公共设施:公共厕所",
        "type": 0,
        "location": {
            "lat": 37.169789,
            "lng": 77.768243
        },
        "ad_info": {
            "adcode": 653223,
            "province": "新疆维吾尔自治区",
            "city": "和田地区",
            "district": "皮山县"
        }
    },
    {
        "id": "4629591268463987023",
        "title": "交通便民公共厕所",
        "address": "新疆维吾尔自治区和田地区洛浦县与580国道交叉口西北40米",
        "tel": "",
        "category": "基础设施:公共设施:公共厕所",
        "type": 0,
        "location": {
            "lat": 38.385937,
            "lng": 80.917193
        },
        "ad_info": {
            "adcode": 653224,
            "province": "新疆维吾尔自治区",
            "city": "和田地区",
            "district": "洛浦县"
        }
    },
    {
        "id": "14315455384058780812",
        "title": "策勒服务区公共厕所",
        "address": "新疆维吾尔自治区和田地区策勒县G0612西和高速与策勒服务区交叉口西南480米",
        "tel": "",
        "category": "基础设施:公共设施:公共厕所",
        "type": 0,
        "location": {
            "lat": 36.921454,
            "lng": 80.82939
        },
        "ad_info": {
            "adcode": 653225,
            "province": "新疆维吾尔自治区",
            "city": "和田地区",
            "district": "策勒县"
        }
    },
    {
        "id": "7246951388686230756",
        "title": "木吉服务区公共厕所",
        "address": "新疆维吾尔自治区和田地区皮山县G3012吐和高速与木吉服务区交叉口西北500米",
        "tel": "",
        "category": "基础设施:公共设施:公共厕所",
        "type": 0,
        "location": {
            "lat": 37.430202,
            "lng": 78.485862
        },
        "ad_info": {
            "adcode": 653223,
            "province": "新疆维吾尔自治区",
            "city": "和田地区",
            "district": "皮山县"
        }
    },
    {
        "id": "2997857835537018183",
        "title": "昆玉服务区公共厕所",
        "address": "新疆维吾尔自治区和田地区皮山县吐和高速昆玉服务区",
        "tel": "",
        "category": "基础设施:公共设施:公共厕所",
        "type": 0,
        "location": {
            "lat": 37.232967,
            "lng": 79.188783
        },
        "ad_info": {
            "adcode": 653223,
            "province": "新疆维吾尔自治区",
            "city": "和田地区",
            "district": "皮山县"
        }
    },
    {
        "id": "16885034141157547353",
        "title": "旅游厕所",
        "address": "新疆维吾尔自治区和田地区洛浦县阿其克乡河谷村落",
        "tel": "",
        "category": "基础设施:公共设施:公共厕所",
        "type": 0,
        "location": {
            "lat": 36.750169,
            "lng": 80.177574
        },
        "ad_info": {
            "adcode": 653224,
            "province": "新疆维吾尔自治区",
            "city": "和田地区",
            "district": "洛浦县"
        }
    },
    {
        "id": "12285821434224595488",
        "title": "拜什托格拉克乡公共厕所",
        "address": "新疆维吾尔自治区和田地区洛浦县Y138与拜一多路交叉口正东方向170米左右",
        "tel": "",
        "category": "基础设施:公共设施:公共厕所",
        "type": 0,
        "location": {
            "lat": 37.080717,
            "lng": 80.477035
        },
        "ad_info": {
            "adcode": 653224,
            "province": "新疆维吾尔自治区",
            "city": "和田地区",
            "district": "洛浦县"
        }
    },
    {
        "id": "12226080172939725644",
        "title": "木吉服务区-公共厕所",
        "address": "新疆维吾尔自治区和田地区皮山县木吉服务区加油站西南侧190米",
        "tel": "",
        "category": "基础设施:公共设施:公共厕所",
        "type": 0,
        "location": {
            "lat": 37.429261,
            "lng": 78.483062
        },
        "ad_info": {
            "adcode": 653223,
            "province": "新疆维吾尔自治区",
            "city": "和田地区",
            "district": "皮山县"
        }
    },
    {
        "id": "9163168545550402637",
        "title": "于田服务区公共厕所",
        "address": "新疆维吾尔自治区和田地区于田县G0612西和高速与于田服务区交叉口西460米",
        "tel": "",
        "category": "基础设施:公共设施:公共厕所",
        "type": 0,
        "location": {
            "lat": 36.80405,
            "lng": 81.576859
        },
        "ad_info": {
            "adcode": 653226,
            "province": "新疆维吾尔自治区",
            "city": "和田地区",
            "district": "于田县"
        }
    },
    {
        "id": "794571412178690751",
        "title": "桑株古核桃园厕所",
        "address": "新疆维吾尔自治区和田地区皮山县X647与Y091交叉口正西方向634米左右",
        "tel": "",
        "category": "基础设施:公共设施:公共厕所",
        "type": 0,
        "location": {
            "lat": 37.186841,
            "lng": 78.452188
        },
        "ad_info": {
            "adcode": 653223,
            "province": "新疆维吾尔自治区",
            "city": "和田地区",
            "district": "皮山县"
        }
    },
    {
        "id": "3939443384787471878",
        "title": "乌鲁瓦提风景区公共厕所",
        "address": "新疆维吾尔自治区和田地区和田县乌鲁瓦提风景区内(北侧)",
        "tel": "",
        "category": "基础设施:公共设施:公共厕所",
        "type": 0,
        "location": {
            "lat": 36.826595,
            "lng": 79.455958
        },
        "ad_info": {
            "adcode": 653221,
            "province": "新疆维吾尔自治区",
            "city": "和田地区",
            "district": "和田县"
        }
    },
    {
        "id": "10190625558290121462",
        "title": "和田服务区公共厕所",
        "address": "新疆维吾尔自治区和田地区和田县中国石油和田服务区加油站西侧180米",
        "tel": "",
        "category": "基础设施:公共设施:公共厕所",
        "type": 0,
        "location": {
            "lat": 37.002885,
            "lng": 79.855041
        },
        "ad_info": {
            "adcode": 653221,
            "province": "新疆维吾尔自治区",
            "city": "和田地区",
            "district": "和田县"
        }
    },
    {
        "id": "11448446431567299791",
        "title": "旅游厕所(XJ-HT-0111)",
        "address": "新疆维吾尔自治区和田地区墨玉县",
        "tel": "",
        "category": "基础设施:公共设施:公共厕所",
        "type": 0,
        "location": {
            "lat": 37.338315,
            "lng": 79.530915
        },
        "ad_info": {
            "adcode": 653222,
            "province": "新疆维吾尔自治区",
            "city": "和田地区",
            "district": "墨玉县"
        }
    },
    {
        "id": "16018686939843465403",
        "title": "和田服务区公共厕所",
        "address": "新疆维吾尔自治区和田地区和田县中国石油和田服务区加油站东侧190米",
        "tel": "",
        "category": "基础设施:公共设施:公共厕所",
        "type": 0,
        "location": {
            "lat": 37.004914,
            "lng": 79.855659
        },
        "ad_info": {
            "adcode": 653221,
            "province": "新疆维吾尔自治区",
            "city": "和田地区",
            "district": "和田县"
        }
    },
    {
        "id": "17623103720124312238",
        "title": "公共厕所",
        "address": "新疆维吾尔自治区和田地区和田市台北东路406号",
        "tel": "",
        "category": "基础设施:公共设施:公共厕所",
        "type": 0,
        "location": {
            "lat": 37.107495,
            "lng": 79.946472
        },
        "ad_info": {
            "adcode": 653201,
            "province": "新疆维吾尔自治区",
            "city": "和田地区",
            "district": "和田市"
        }
    },
    {
        "id": "219810383070920126",
        "title": "安迪尔胡杨服务区公共厕所",
        "address": "新疆维吾尔自治区和田地区民丰县中国石油安迪尔胡杨服务区加油站东北侧210米",
        "tel": "",
        "category": "基础设施:公共设施:公共厕所",
        "type": 0,
        "location": {
            "lat": 37.574784,
            "lng": 83.754247
        },
        "ad_info": {
            "adcode": 653227,
            "province": "新疆维吾尔自治区",
            "city": "和田地区",
            "district": "民丰县"
        }
    },
    {
        "id": "15330443640998824991",
        "title": "安迪尔胡杨服务区公共厕所",
        "address": "新疆维吾尔自治区和田地区民丰县中国石油安迪尔胡杨服务区加油站西南侧190米",
        "tel": "",
        "category": "基础设施:公共设施:公共厕所",
        "type": 0,
        "location": {
            "lat": 37.572842,
            "lng": 83.755576
        },
        "ad_info": {
            "adcode": 653227,
            "province": "新疆维吾尔自治区",
            "city": "和田地区",
            "district": "民丰县"
        }
    }
]