[
    {
        "id": "2717612410717873171",
        "title": "公共厕所",
        "address": "湖北省咸宁市咸安区郭桂巷与金桂路交叉口正东方向40米左右",
        "tel": "",
        "category": "基础设施:公共设施:公共厕所",
        "type": 0,
        "location": {
            "lat": 29.859316,
            "lng": 114.320195
        },
        "ad_info": {
            "adcode": 421202,
            "province": "湖北省",
            "city": "咸宁市",
            "district": "咸安区"
        }
    },
    {
        "id": "11465048991634464506",
        "title": "公共厕所",
        "address": "湖北省咸宁市咸安区淦河大道与潜山路交叉口正西方向48米左右",
        "tel": "",
        "category": "基础设施:公共设施:公共厕所",
        "type": 0,
        "location": {
            "lat": 29.831151,
            "lng": 114.31874
        },
        "ad_info": {
            "adcode": 421202,
            "province": "湖北省",
            "city": "咸宁市",
            "district": "咸安区"
        }
    },
    {
        "id": "138810615054758731",
        "title": "公共厕所",
        "address": "湖北省咸宁市嘉鱼县簰洲湾镇先进小学西南侧70米",
        "tel": "",
        "category": "基础设施:公共设施:公共厕所",
        "type": 0,
        "location": {
            "lat": 30.21915,
            "lng": 113.949407
        },
        "ad_info": {
            "adcode": 421221,
            "province": "湖北省",
            "city": "咸宁市",
            "district": "嘉鱼县"
        }
    },
    {
        "id": "13084596130484783581",
        "title": "公共厕所",
        "address": "湖北省咸宁市咸安区南大街与福宁街交叉口东南方向49米左右",
        "tel": "",
        "category": "基础设施:公共设施:公共厕所",
        "type": 0,
        "location": {
            "lat": 29.8737,
            "lng": 114.278554
        },
        "ad_info": {
            "adcode": 421202,
            "province": "湖北省",
            "city": "咸宁市",
            "district": "咸安区"
        }
    },
    {
        "id": "7450225914520047457",
        "title": "公共厕所",
        "address": "湖北省咸宁市嘉鱼县渡普镇蒲圻湖村卫生室东北侧270米",
        "tel": "",
        "category": "基础设施:公共设施:公共厕所",
        "type": 0,
        "location": {
            "lat": 30.041247,
            "lng": 114.107094
        },
        "ad_info": {
            "adcode": 421221,
            "province": "湖北省",
            "city": "咸宁市",
            "district": "嘉鱼县"
        }
    },
    {
        "id": "11335927376754732334",
        "title": "公共厕所",
        "address": "湖北省咸宁市嘉鱼县田野大道与阳光大道交叉口正南方向135米左右",
        "tel": "",
        "category": "基础设施:公共设施:公共厕所",
        "type": 0,
        "location": {
            "lat": 29.917508,
            "lng": 113.947849
        },
        "ad_info": {
            "adcode": 421221,
            "province": "湖北省",
            "city": "咸宁市",
            "district": "嘉鱼县"
        }
    },
    {
        "id": "15380081197846457518",
        "title": "公共厕所",
        "address": "湖北省咸宁市咸安区为民巷与滨河西街交叉口东南方向55米左右",
        "tel": "",
        "category": "基础设施:公共设施:公共厕所",
        "type": 0,
        "location": {
            "lat": 29.82701,
            "lng": 114.325347
        },
        "ad_info": {
            "adcode": 421202,
            "province": "湖北省",
            "city": "咸宁市",
            "district": "咸安区"
        }
    },
    {
        "id": "16423461529989787430",
        "title": "公共厕所",
        "address": "湖北省咸宁市崇阳县七星路与崇阳大道交叉口正西方向42米左右",
        "tel": "",
        "category": "基础设施:公共设施:公共厕所",
        "type": 0,
        "location": {
            "lat": 29.542812,
            "lng": 114.042282
        },
        "ad_info": {
            "adcode": 421223,
            "province": "湖北省",
            "city": "咸宁市",
            "district": "崇阳县"
        }
    },
    {
        "id": "3810811197960654664",
        "title": "公共厕所",
        "address": "湖北省咸宁市咸安区幸福巷与福临街一巷交叉口东南方向96米左右",
        "tel": "",
        "category": "基础设施:公共设施:公共厕所",
        "type": 0,
        "location": {
            "lat": 29.872496,
            "lng": 114.267134
        },
        "ad_info": {
            "adcode": 421202,
            "province": "湖北省",
            "city": "咸宁市",
            "district": "咸安区"
        }
    },
    {
        "id": "668666745022763906",
        "title": "公共厕所",
        "address": "湖北省咸宁市咸安区为民巷与龙茶巷交叉口西北方向148米左右",
        "tel": "",
        "category": "基础设施:公共设施:公共厕所",
        "type": 0,
        "location": {
            "lat": 29.828519,
            "lng": 114.322335
        },
        "ad_info": {
            "adcode": 421202,
            "province": "湖北省",
            "city": "咸宁市",
            "district": "咸安区"
        }
    },
    {
        "id": "13695173933498668252",
        "title": "公共厕所",
        "address": "湖北省咸宁市通城县沿河路与湘汉路交叉口东北方向20米左右",
        "tel": "",
        "category": "基础设施:公共设施:公共厕所",
        "type": 0,
        "location": {
            "lat": 29.24938,
            "lng": 113.813845
        },
        "ad_info": {
            "adcode": 421222,
            "province": "湖北省",
            "city": "咸宁市",
            "district": "通城县"
        }
    },
    {
        "id": "4970125531327074954",
        "title": "公共厕所",
        "address": "湖北省咸宁市咸安区东升路与横甘线交叉口正东方向204米左右",
        "tel": "",
        "category": "基础设施:公共设施:公共厕所",
        "type": 0,
        "location": {
            "lat": 29.932473,
            "lng": 114.362665
        },
        "ad_info": {
            "adcode": 421202,
            "province": "湖北省",
            "city": "咸宁市",
            "district": "咸安区"
        }
    },
    {
        "id": "1421325277217198287",
        "title": "公共厕所",
        "address": "湖北省咸宁市嘉鱼县G351与发展大道交叉口西南方向126米左右",
        "tel": "",
        "category": "基础设施:公共设施:公共厕所",
        "type": 0,
        "location": {
            "lat": 29.991907,
            "lng": 113.942853
        },
        "ad_info": {
            "adcode": 421221,
            "province": "湖北省",
            "city": "咸宁市",
            "district": "嘉鱼县"
        }
    },
    {
        "id": "11819758991813997081",
        "title": "公共厕所",
        "address": "湖北省咸宁市嘉鱼县S102中国石化老官加油站",
        "tel": "",
        "category": "基础设施:公共设施:公共厕所",
        "type": 0,
        "location": {
            "lat": 30.171137,
            "lng": 114.092295
        },
        "ad_info": {
            "adcode": 421221,
            "province": "湖北省",
            "city": "咸宁市",
            "district": "嘉鱼县"
        }
    },
    {
        "id": "2520016391036092574",
        "title": "公共厕所",
        "address": "湖北省咸宁市嘉鱼县G351与通江大道交叉口西北方向358米左右",
        "tel": "",
        "category": "基础设施:公共设施:公共厕所",
        "type": 0,
        "location": {
            "lat": 30.05042,
            "lng": 114.126947
        },
        "ad_info": {
            "adcode": 421221,
            "province": "湖北省",
            "city": "咸宁市",
            "district": "嘉鱼县"
        }
    },
    {
        "id": "2000034001111648246",
        "title": "公共厕所",
        "address": "湖北省咸宁市咸安区长安大道与金桂路西段交叉口东南280米",
        "tel": "",
        "category": "基础设施:公共设施:公共厕所",
        "type": 0,
        "location": {
            "lat": 29.85123,
            "lng": 114.299186
        },
        "ad_info": {
            "adcode": 421202,
            "province": "湖北省",
            "city": "咸宁市",
            "district": "咸安区"
        }
    },
    {
        "id": "15177859288691133547",
        "title": "公共厕所",
        "address": "湖北省咸宁市咸安区毕曹街与永安大道交叉口正东方向86米左右",
        "tel": "",
        "category": "基础设施:公共设施:公共厕所",
        "type": 0,
        "location": {
            "lat": 29.872452,
            "lng": 114.289305
        },
        "ad_info": {
            "adcode": 421202,
            "province": "湖北省",
            "city": "咸宁市",
            "district": "咸安区"
        }
    },
    {
        "id": "11061009091592540262",
        "title": "公共厕所",
        "address": "湖北省咸宁市咸安区太乙大道与孟养浩西路交叉口东北方向97米左右",
        "tel": "",
        "category": "基础设施:公共设施:公共厕所",
        "type": 0,
        "location": {
            "lat": 29.803272,
            "lng": 114.329244
        },
        "ad_info": {
            "adcode": 421202,
            "province": "湖北省",
            "city": "咸宁市",
            "district": "咸安区"
        }
    },
    {
        "id": "15177622108476565628",
        "title": "公共厕所",
        "address": "湖北省咸宁市咸安区东门路1号",
        "tel": "",
        "category": "基础设施:公共设施:公共厕所",
        "type": 0,
        "location": {
            "lat": 29.880284,
            "lng": 114.290237
        },
        "ad_info": {
            "adcode": 421202,
            "province": "湖北省",
            "city": "咸宁市",
            "district": "咸安区"
        }
    },
    {
        "id": "16295503015069999789",
        "title": "公共厕所",
        "address": "湖北省咸宁市咸安区永安大道湖北荣恩堂酒业有限公司",
        "tel": "",
        "category": "基础设施:公共设施:公共厕所",
        "type": 0,
        "location": {
            "lat": 29.876692,
            "lng": 114.31931
        },
        "ad_info": {
            "adcode": 421202,
            "province": "湖北省",
            "city": "咸宁市",
            "district": "咸安区"
        }
    },
    {
        "id": "12130186817661718518",
        "title": "公共厕所",
        "address": "湖北省咸宁市嘉鱼县发展大道辅路与新堤一路交叉口西南方向136米左右",
        "tel": "",
        "category": "基础设施:公共设施:公共厕所",
        "type": 0,
        "location": {
            "lat": 29.974624,
            "lng": 113.93585
        },
        "ad_info": {
            "adcode": 421221,
            "province": "湖北省",
            "city": "咸宁市",
            "district": "嘉鱼县"
        }
    },
    {
        "id": "13192237720176439407",
        "title": "公共厕所",
        "address": "湖北省咸宁市咸安区宝塔大道与西铁巷交叉口正西方向20米左右",
        "tel": "",
        "category": "基础设施:公共设施:公共厕所",
        "type": 0,
        "location": {
            "lat": 29.867089,
            "lng": 114.273541
        },
        "ad_info": {
            "adcode": 421202,
            "province": "湖北省",
            "city": "咸宁市",
            "district": "咸安区"
        }
    },
    {
        "id": "957214449932706188",
        "title": "公共厕所",
        "address": "湖北省咸宁市咸安区马柏东路303号",
        "tel": "",
        "category": "基础设施:公共设施:公共厕所",
        "type": 0,
        "location": {
            "lat": 29.816147,
            "lng": 114.356484
        },
        "ad_info": {
            "adcode": 421202,
            "province": "湖北省",
            "city": "咸宁市",
            "district": "咸安区"
        }
    },
    {
        "id": "6720150835978715443",
        "title": "公共厕所",
        "address": "湖北省咸宁市通城县棋盘村服务中心北侧",
        "tel": "",
        "category": "基础设施:公共设施:公共厕所",
        "type": 0,
        "location": {
            "lat": 29.10015,
            "lng": 113.869752
        },
        "ad_info": {
            "adcode": 421222,
            "province": "湖北省",
            "city": "咸宁市",
            "district": "通城县"
        }
    },
    {
        "id": "7053528201705788564",
        "title": "公共厕所",
        "address": "湖北省咸宁市咸安区壹·未来城东北侧370米",
        "tel": "",
        "category": "基础设施:公共设施:公共厕所",
        "type": 0,
        "location": {
            "lat": 29.898017,
            "lng": 114.303176
        },
        "ad_info": {
            "adcode": 421202,
            "province": "湖北省",
            "city": "咸宁市",
            "district": "咸安区"
        }
    },
    {
        "id": "3698761950690521764",
        "title": "公共厕所",
        "address": "湖北省咸宁市咸安区永安大道中段与郑家垅巷交叉口正北方向64米左右",
        "tel": "",
        "category": "基础设施:公共设施:公共厕所",
        "type": 0,
        "location": {
            "lat": 29.877616,
            "lng": 114.302018
        },
        "ad_info": {
            "adcode": 421202,
            "province": "湖北省",
            "city": "咸宁市",
            "district": "咸安区"
        }
    },
    {
        "id": "4821478861345251484",
        "title": "公共厕所",
        "address": "湖北省咸宁市通城县五里大道与宝塔大道交叉口正西方向105米左右",
        "tel": "",
        "category": "基础设施:公共设施:公共厕所",
        "type": 0,
        "location": {
            "lat": 29.232414,
            "lng": 113.803899
        },
        "ad_info": {
            "adcode": 421222,
            "province": "湖北省",
            "city": "咸宁市",
            "district": "通城县"
        }
    },
    {
        "id": "18221753564265122356",
        "title": "公共厕所",
        "address": "湖北省咸宁市咸安区常横线与鹿兴大道交叉口东南方向864米左右",
        "tel": "",
        "category": "基础设施:公共设施:公共厕所",
        "type": 0,
        "location": {
            "lat": 29.877601,
            "lng": 114.455386
        },
        "ad_info": {
            "adcode": 421202,
            "province": "湖北省",
            "city": "咸宁市",
            "district": "咸安区"
        }
    },
    {
        "id": "605141592808838364",
        "title": "公共厕所",
        "address": "湖北省咸宁市通城县玉立大道与邓家路交叉口西南方向112米左右",
        "tel": "",
        "category": "基础设施:公共设施:公共厕所",
        "type": 0,
        "location": {
            "lat": 29.260623,
            "lng": 113.822864
        },
        "ad_info": {
            "adcode": 421222,
            "province": "湖北省",
            "city": "咸宁市",
            "district": "通城县"
        }
    },
    {
        "id": "10007866403063149728",
        "title": "公共厕所",
        "address": "湖北省咸宁市通山县G106与洪港街交叉口西南方向450米左右",
        "tel": "",
        "category": "基础设施:公共设施:公共厕所",
        "type": 0,
        "location": {
            "lat": 29.502277,
            "lng": 114.870877
        },
        "ad_info": {
            "adcode": 421224,
            "province": "湖北省",
            "city": "咸宁市",
            "district": "通山县"
        }
    },
    {
        "id": "4440832819781291105",
        "title": "公共厕所",
        "address": "湖北省咸宁市通城县S362与五里大道交叉口正北方向104米左右",
        "tel": "",
        "category": "基础设施:公共设施:公共厕所",
        "type": 0,
        "location": {
            "lat": 29.218991,
            "lng": 113.789865
        },
        "ad_info": {
            "adcode": 421222,
            "province": "湖北省",
            "city": "咸宁市",
            "district": "通城县"
        }
    },
    {
        "id": "15314450466712564195",
        "title": "公共厕所",
        "address": "湖北省咸宁市通城县秀水大道369号是花店",
        "tel": "",
        "category": "基础设施:公共设施:公共厕所",
        "type": 0,
        "location": {
            "lat": 29.241748,
            "lng": 113.818688
        },
        "ad_info": {
            "adcode": 421222,
            "province": "湖北省",
            "city": "咸宁市",
            "district": "通城县"
        }
    },
    {
        "id": "6299679256511035765",
        "title": "公共厕所",
        "address": "湖北省咸宁市咸安区十六潭路中段与烈马山巷交叉口东南方向46米左右",
        "tel": "",
        "category": "基础设施:公共设施:公共厕所",
        "type": 0,
        "location": {
            "lat": 29.844055,
            "lng": 114.313027
        },
        "ad_info": {
            "adcode": 421202,
            "province": "湖北省",
            "city": "咸宁市",
            "district": "咸安区"
        }
    },
    {
        "id": "4762362198927669392",
        "title": "公共厕所",
        "address": "湖北省咸宁市嘉鱼县龙潭湾路与龙潭路交叉口正南方向195米左右",
        "tel": "",
        "category": "基础设施:公共设施:公共厕所",
        "type": 0,
        "location": {
            "lat": 29.977772,
            "lng": 113.906994
        },
        "ad_info": {
            "adcode": 421221,
            "province": "湖北省",
            "city": "咸宁市",
            "district": "嘉鱼县"
        }
    },
    {
        "id": "8057938166304534990",
        "title": "公共厕所",
        "address": "湖北省咸宁市咸安区青龙路东方外国语学校(新校区)",
        "tel": "",
        "category": "基础设施:公共设施:公共厕所",
        "type": 0,
        "location": {
            "lat": 29.878939,
            "lng": 114.341375
        },
        "ad_info": {
            "adcode": 421202,
            "province": "湖北省",
            "city": "咸宁市",
            "district": "咸安区"
        }
    },
    {
        "id": "8435950765422901454",
        "title": "公共厕所",
        "address": "湖北省咸宁市咸安区咸安大道中国石化永德信加油站",
        "tel": "",
        "category": "基础设施:公共设施:公共厕所",
        "type": 0,
        "location": {
            "lat": 29.933486,
            "lng": 114.36989
        },
        "ad_info": {
            "adcode": 421202,
            "province": "湖北省",
            "city": "咸宁市",
            "district": "咸安区"
        }
    },
    {
        "id": "13130359140375621637",
        "title": "公共厕所",
        "address": "湖北省咸宁市咸安区兴业路",
        "tel": "",
        "category": "基础设施:公共设施:公共厕所",
        "type": 0,
        "location": {
            "lat": 29.830566,
            "lng": 114.393391
        },
        "ad_info": {
            "adcode": 421202,
            "province": "湖北省",
            "city": "咸宁市",
            "district": "咸安区"
        }
    },
    {
        "id": "3656226692740038406",
        "title": "公共厕所",
        "address": "湖北省咸宁市通城县隽水镇宝塔大道192号",
        "tel": "",
        "category": "基础设施:公共设施:公共厕所",
        "type": 0,
        "location": {
            "lat": 29.23292,
            "lng": 113.812016
        },
        "ad_info": {
            "adcode": 421222,
            "province": "湖北省",
            "city": "咸宁市",
            "district": "通城县"
        }
    },
    {
        "id": "2201017797118072197",
        "title": "公共厕所",
        "address": "湖北省咸宁市崇阳县沿河大道与沿河大道五巷交叉口正南方向112米左右",
        "tel": "",
        "category": "基础设施:公共设施:公共厕所",
        "type": 0,
        "location": {
            "lat": 29.536332,
            "lng": 114.056606
        },
        "ad_info": {
            "adcode": 421223,
            "province": "湖北省",
            "city": "咸宁市",
            "district": "崇阳县"
        }
    },
    {
        "id": "16480579580976615950",
        "title": "公共厕所",
        "address": "湖北省咸宁市通山县青山路通山中心客运站",
        "tel": "",
        "category": "基础设施:公共设施:公共厕所",
        "type": 0,
        "location": {
            "lat": 29.612439,
            "lng": 114.484405
        },
        "ad_info": {
            "adcode": 421224,
            "province": "湖北省",
            "city": "咸宁市",
            "district": "通山县"
        }
    },
    {
        "id": "4335716559196350367",
        "title": "公共厕所",
        "address": "湖北省咸宁市咸安区208省道与S33咸通高速入口交叉口东北260米",
        "tel": "",
        "category": "基础设施:公共设施:公共厕所",
        "type": 0,
        "location": {
            "lat": 29.739878,
            "lng": 114.370439
        },
        "ad_info": {
            "adcode": 421202,
            "province": "湖北省",
            "city": "咸宁市",
            "district": "咸安区"
        }
    },
    {
        "id": "16767415392288003486",
        "title": "公共厕所",
        "address": "湖北省咸宁市通山县杭瑞高速",
        "tel": "",
        "category": "基础设施:公共设施:公共厕所",
        "type": 0,
        "location": {
            "lat": 29.662844,
            "lng": 114.603338
        },
        "ad_info": {
            "adcode": 421224,
            "province": "湖北省",
            "city": "咸宁市",
            "district": "通山县"
        }
    },
    {
        "id": "16476633112742278480",
        "title": "公共厕所",
        "address": "湖北省咸宁市咸安区双鹤路与玉泉街交叉口西南方向243米左右",
        "tel": "",
        "category": "基础设施:公共设施:公共厕所",
        "type": 0,
        "location": {
            "lat": 29.842018,
            "lng": 114.32521
        },
        "ad_info": {
            "adcode": 421202,
            "province": "湖北省",
            "city": "咸宁市",
            "district": "咸安区"
        }
    },
    {
        "id": "9761106756968512406",
        "title": "公共厕所",
        "address": "湖北省咸宁市咸安区东山巷与怀德路交叉口正北方向22米左右",
        "tel": "",
        "category": "基础设施:公共设施:公共厕所",
        "type": 0,
        "location": {
            "lat": 29.877107,
            "lng": 114.287162
        },
        "ad_info": {
            "adcode": 421202,
            "province": "湖北省",
            "city": "咸宁市",
            "district": "咸安区"
        }
    },
    {
        "id": "12288688062692832890",
        "title": "公共厕所",
        "address": "湖北省咸宁市咸安区G107与马畈桥交叉口正东方向276米左右",
        "tel": "",
        "category": "基础设施:公共设施:公共厕所",
        "type": 0,
        "location": {
            "lat": 29.83647,
            "lng": 114.212046
        },
        "ad_info": {
            "adcode": 421202,
            "province": "湖北省",
            "city": "咸宁市",
            "district": "咸安区"
        }
    },
    {
        "id": "15754628054524248371",
        "title": "公共厕所",
        "address": "湖北省咸宁市咸安区咸安大道与立邦路交叉口西南方向252米左右",
        "tel": "",
        "category": "基础设施:公共设施:公共厕所",
        "type": 0,
        "location": {
            "lat": 29.914504,
            "lng": 114.348771
        },
        "ad_info": {
            "adcode": 421202,
            "province": "湖北省",
            "city": "咸宁市",
            "district": "咸安区"
        }
    },
    {
        "id": "2802875157284259858",
        "title": "公共厕所",
        "address": "湖北省咸宁市咸安区三杨路与贺胜路交叉口正北方向93米左右",
        "tel": "",
        "category": "基础设施:公共设施:公共厕所",
        "type": 0,
        "location": {
            "lat": 29.847208,
            "lng": 114.346664
        },
        "ad_info": {
            "adcode": 421202,
            "province": "湖北省",
            "city": "咸宁市",
            "district": "咸安区"
        }
    },
    {
        "id": "14790808724135901076",
        "title": "公共厕所",
        "address": "湖北省咸宁市通山县北山生活超市(界头塘店)东北侧110米",
        "tel": "",
        "category": "基础设施:公共设施:公共厕所",
        "type": 0,
        "location": {
            "lat": 29.448127,
            "lng": 114.318199
        },
        "ad_info": {
            "adcode": 421224,
            "province": "湖北省",
            "city": "咸宁市",
            "district": "通山县"
        }
    },
    {
        "id": "8950803108236887181",
        "title": "公共厕所",
        "address": "湖北省咸宁市咸安区怀民路与金桂路交叉口东南方向40米左右",
        "tel": "",
        "category": "基础设施:公共设施:公共厕所",
        "type": 0,
        "location": {
            "lat": 29.871704,
            "lng": 114.342342
        },
        "ad_info": {
            "adcode": 421202,
            "province": "湖北省",
            "city": "咸宁市",
            "district": "咸安区"
        }
    },
    {
        "id": "11289545627528575683",
        "title": "公共厕所",
        "address": "湖北省咸宁市咸安区咸宁大道天伦皇朝时尚酒店(湖北科技学院店)",
        "tel": "",
        "category": "基础设施:公共设施:公共厕所",
        "type": 0,
        "location": {
            "lat": 29.840439,
            "lng": 114.330176
        },
        "ad_info": {
            "adcode": 421202,
            "province": "湖北省",
            "city": "咸宁市",
            "district": "咸安区"
        }
    },
    {
        "id": "13310559840834773004",
        "title": "公共厕所",
        "address": "湖北省咸宁市通山县G106与横石街交叉口正北方向1164米左右",
        "tel": "",
        "category": "基础设施:公共设施:公共厕所",
        "type": 0,
        "location": {
            "lat": 29.528258,
            "lng": 114.691418
        },
        "ad_info": {
            "adcode": 421224,
            "province": "湖北省",
            "city": "咸宁市",
            "district": "通山县"
        }
    },
    {
        "id": "14563268877768628803",
        "title": "公共厕所",
        "address": "湖北省咸宁市咸安区S208与马柏大道交叉口正北方向91米左右",
        "tel": "",
        "category": "基础设施:公共设施:公共厕所",
        "type": 0,
        "location": {
            "lat": 29.750913,
            "lng": 114.372861
        },
        "ad_info": {
            "adcode": 421202,
            "province": "湖北省",
            "city": "咸宁市",
            "district": "咸安区"
        }
    },
    {
        "id": "15062597285736404964",
        "title": "公共厕所",
        "address": "湖北省咸宁市崇阳县G106与下津大道交叉口东北方向40米左右",
        "tel": "",
        "category": "基础设施:公共设施:公共厕所",
        "type": 0,
        "location": {
            "lat": 29.521455,
            "lng": 114.031888
        },
        "ad_info": {
            "adcode": 421223,
            "province": "湖北省",
            "city": "咸宁市",
            "district": "崇阳县"
        }
    },
    {
        "id": "6557041655263916851",
        "title": "公共厕所",
        "address": "湖北省咸宁市赤壁市砂子岭路与赤壁大道交叉口正北方向232米左右",
        "tel": "",
        "category": "基础设施:公共设施:公共厕所",
        "type": 0,
        "location": {
            "lat": 29.73,
            "lng": 113.905146
        },
        "ad_info": {
            "adcode": 421281,
            "province": "湖北省",
            "city": "咸宁市",
            "district": "赤壁市"
        }
    },
    {
        "id": "2974971104606682750",
        "title": "公共厕所",
        "address": "湖北省咸宁市赤壁市东风路与瑞通大道交叉口正西方向245米左右",
        "tel": "",
        "category": "基础设施:公共设施:公共厕所",
        "type": 0,
        "location": {
            "lat": 29.723146,
            "lng": 113.908295
        },
        "ad_info": {
            "adcode": 421281,
            "province": "湖北省",
            "city": "咸宁市",
            "district": "赤壁市"
        }
    },
    {
        "id": "3028627635108832190",
        "title": "公共厕所",
        "address": "湖北省咸宁市咸安区拥军路与茶花路交叉口正东方向18米左右",
        "tel": "",
        "category": "基础设施:公共设施:公共厕所",
        "type": 0,
        "location": {
            "lat": 29.820367,
            "lng": 114.335269
        },
        "ad_info": {
            "adcode": 421202,
            "province": "湖北省",
            "city": "咸宁市",
            "district": "咸安区"
        }
    },
    {
        "id": "6741198643424042991",
        "title": "公共厕所",
        "address": "湖北省咸宁市嘉鱼县西正街52号",
        "tel": "",
        "category": "基础设施:公共设施:公共厕所",
        "type": 0,
        "location": {
            "lat": 29.974662,
            "lng": 113.903189
        },
        "ad_info": {
            "adcode": 421221,
            "province": "湖北省",
            "city": "咸宁市",
            "district": "嘉鱼县"
        }
    },
    {
        "id": "7665956533023338100",
        "title": "公共厕所",
        "address": "湖北省咸宁市赤壁市宝成路与莼川大道交叉口西南方向111米左右",
        "tel": "",
        "category": "基础设施:公共设施:公共厕所",
        "type": 0,
        "location": {
            "lat": 29.714507,
            "lng": 113.882094
        },
        "ad_info": {
            "adcode": 421281,
            "province": "湖北省",
            "city": "咸宁市",
            "district": "赤壁市"
        }
    },
    {
        "id": "6014481624534815650",
        "title": "公共厕所",
        "address": "湖北省咸宁市崇阳县沿河大道与沿河大道五巷交叉口正东方向170米左右",
        "tel": "",
        "category": "基础设施:公共设施:公共厕所",
        "type": 0,
        "location": {
            "lat": 29.536939,
            "lng": 114.0585
        },
        "ad_info": {
            "adcode": 421223,
            "province": "湖北省",
            "city": "咸宁市",
            "district": "崇阳县"
        }
    },
    {
        "id": "3776619621457949707",
        "title": "公共厕所",
        "address": "湖北省咸宁市咸安区许滩巷与青龙路交叉口正西方向62米左右",
        "tel": "",
        "category": "基础设施:公共设施:公共厕所",
        "type": 0,
        "location": {
            "lat": 29.86013,
            "lng": 114.29371
        },
        "ad_info": {
            "adcode": 421202,
            "province": "湖北省",
            "city": "咸宁市",
            "district": "咸安区"
        }
    },
    {
        "id": "16621978265875757605",
        "title": "公共厕所",
        "address": "湖北省咸宁市赤壁市渡槽巷与陆水湖大道交叉口正东方向250米左右",
        "tel": "",
        "category": "基础设施:公共设施:公共厕所",
        "type": 0,
        "location": {
            "lat": 29.712923,
            "lng": 113.897962
        },
        "ad_info": {
            "adcode": 421281,
            "province": "湖北省",
            "city": "咸宁市",
            "district": "赤壁市"
        }
    },
    {
        "id": "17391550743810838757",
        "title": "公共厕所",
        "address": "湖北省咸宁市赤壁市G351中国石油月山加油站",
        "tel": "",
        "category": "基础设施:公共设施:公共厕所",
        "type": 0,
        "location": {
            "lat": 29.73964,
            "lng": 113.896613
        },
        "ad_info": {
            "adcode": 421281,
            "province": "湖北省",
            "city": "咸宁市",
            "district": "赤壁市"
        }
    },
    {
        "id": "6179535216866480113",
        "title": "公共厕所",
        "address": "湖北省咸宁市赤壁市中国石化赤壁中心加油站内",
        "tel": "",
        "category": "基础设施:公共设施:公共厕所",
        "type": 0,
        "location": {
            "lat": 29.727786,
            "lng": 113.917623
        },
        "ad_info": {
            "adcode": 421281,
            "province": "湖北省",
            "city": "咸宁市",
            "district": "赤壁市"
        }
    },
    {
        "id": "7225376266921382861",
        "title": "公共厕所",
        "address": "湖北省咸宁市赤壁市沿河大道与营里街交叉口正西方向145米左右",
        "tel": "",
        "category": "基础设施:公共设施:公共厕所",
        "type": 0,
        "location": {
            "lat": 29.721079,
            "lng": 113.882475
        },
        "ad_info": {
            "adcode": 421281,
            "province": "湖北省",
            "city": "咸宁市",
            "district": "赤壁市"
        }
    },
    {
        "id": "17279635779976664101",
        "title": "公共厕所",
        "address": "湖北省咸宁市咸安区西街168-3",
        "tel": "",
        "category": "基础设施:公共设施:公共厕所",
        "type": 0,
        "location": {
            "lat": 29.870549,
            "lng": 114.276952
        },
        "ad_info": {
            "adcode": 421202,
            "province": "湖北省",
            "city": "咸宁市",
            "district": "咸安区"
        }
    },
    {
        "id": "15856766401786889220",
        "title": "公共厕所",
        "address": "湖北省咸宁市咸安区永安大道国家税务局稽查局家属院",
        "tel": "",
        "category": "基础设施:公共设施:公共厕所",
        "type": 0,
        "location": {
            "lat": 29.874426,
            "lng": 114.292403
        },
        "ad_info": {
            "adcode": 421202,
            "province": "湖北省",
            "city": "咸宁市",
            "district": "咸安区"
        }
    },
    {
        "id": "8022562984768076697",
        "title": "田野开心农场旅游公共厕所",
        "address": "湖北省咸宁市嘉鱼县北湖路与田野大道交叉口正北方向923米左右",
        "tel": "",
        "category": "基础设施:公共设施:公共厕所",
        "type": 0,
        "location": {
            "lat": 29.92593,
            "lng": 113.962248
        },
        "ad_info": {
            "adcode": 421221,
            "province": "湖北省",
            "city": "咸宁市",
            "district": "嘉鱼县"
        }
    },
    {
        "id": "16065721717300068807",
        "title": "公共厕所",
        "address": "湖北省咸宁市赤壁市白鹤路与莼川大道交叉口正南方向89米左右",
        "tel": "",
        "category": "基础设施:公共设施:公共厕所",
        "type": 0,
        "location": {
            "lat": 29.715589,
            "lng": 113.87547
        },
        "ad_info": {
            "adcode": 421281,
            "province": "湖北省",
            "city": "咸宁市",
            "district": "赤壁市"
        }
    },
    {
        "id": "11895268209367516309",
        "title": "公共厕所",
        "address": "湖北省咸宁市赤壁市赤壁大道中国石化赤壁城南加油站",
        "tel": "",
        "category": "基础设施:公共设施:公共厕所",
        "type": 0,
        "location": {
            "lat": 29.700749,
            "lng": 113.859376
        },
        "ad_info": {
            "adcode": 421281,
            "province": "湖北省",
            "city": "咸宁市",
            "district": "赤壁市"
        }
    },
    {
        "id": "11410838516697262976",
        "title": "公共厕所",
        "address": "湖北省咸宁市赤壁市河北大道与银轮大道交叉口正西方向153米左右",
        "tel": "",
        "category": "基础设施:公共设施:公共厕所",
        "type": 0,
        "location": {
            "lat": 29.726967,
            "lng": 113.928353
        },
        "ad_info": {
            "adcode": 421281,
            "province": "湖北省",
            "city": "咸宁市",
            "district": "赤壁市"
        }
    },
    {
        "id": "1826645645125439431",
        "title": "公共厕所",
        "address": "湖北省咸宁市赤壁市怀英路与洪山街交叉口正东方向353米左右",
        "tel": "",
        "category": "基础设施:公共设施:公共厕所",
        "type": 0,
        "location": {
            "lat": 29.719077,
            "lng": 113.638786
        },
        "ad_info": {
            "adcode": 421281,
            "province": "湖北省",
            "city": "咸宁市",
            "district": "赤壁市"
        }
    },
    {
        "id": "362220896367134673",
        "title": "公共厕所",
        "address": "湖北省咸宁市赤壁市书院街与拱极街交叉口西北方向16米左右",
        "tel": "",
        "category": "基础设施:公共设施:公共厕所",
        "type": 0,
        "location": {
            "lat": 29.714974,
            "lng": 113.887109
        },
        "ad_info": {
            "adcode": 421281,
            "province": "湖北省",
            "city": "咸宁市",
            "district": "赤壁市"
        }
    },
    {
        "id": "852315961194821769",
        "title": "卫生间",
        "address": "湖北省咸宁市咸安区渔水路233号银泰百货F5",
        "tel": "",
        "category": "基础设施:公共设施:公共厕所",
        "type": 0,
        "location": {
            "lat": 29.876015,
            "lng": 114.282825
        },
        "ad_info": {
            "adcode": 421202,
            "province": "湖北省",
            "city": "咸宁市",
            "district": "咸安区"
        }
    },
    {
        "id": "14627556867970078669",
        "title": "卫生间",
        "address": "湖北省咸宁市咸安区渔水路233号银泰百货F4",
        "tel": "",
        "category": "基础设施:公共设施:公共厕所",
        "type": 0,
        "location": {
            "lat": 29.876007,
            "lng": 114.282828
        },
        "ad_info": {
            "adcode": 421202,
            "province": "湖北省",
            "city": "咸宁市",
            "district": "咸安区"
        }
    },
    {
        "id": "8336942786847092995",
        "title": "交通厕所",
        "address": "湖北省咸宁市嘉鱼县洪富副食西北侧90米",
        "tel": "",
        "category": "基础设施:公共设施:公共厕所",
        "type": 0,
        "location": {
            "lat": 30.158141,
            "lng": 114.099955
        },
        "ad_info": {
            "adcode": 421221,
            "province": "湖北省",
            "city": "咸宁市",
            "district": "嘉鱼县"
        }
    },
    {
        "id": "2778448016783234655",
        "title": "公共厕所",
        "address": "湖北省咸宁市赤壁市体育馆路与蒲圻大道交叉口东北方向179米左右",
        "tel": "",
        "category": "基础设施:公共设施:公共厕所",
        "type": 0,
        "location": {
            "lat": 29.736169,
            "lng": 113.899343
        },
        "ad_info": {
            "adcode": 421281,
            "province": "湖北省",
            "city": "咸宁市",
            "district": "赤壁市"
        }
    },
    {
        "id": "13879039855816028822",
        "title": "公共厕所",
        "address": "湖北省咸宁市赤壁市莼川大道与迎宾大道交叉口东南方向89米左右",
        "tel": "",
        "category": "基础设施:公共设施:公共厕所",
        "type": 0,
        "location": {
            "lat": 29.718776,
            "lng": 113.857236
        },
        "ad_info": {
            "adcode": 421281,
            "province": "湖北省",
            "city": "咸宁市",
            "district": "赤壁市"
        }
    },
    {
        "id": "10575899301713323216",
        "title": "公共厕所",
        "address": "湖北省咸宁市赤壁市周画路与茶山巷交叉口西南160米",
        "tel": "",
        "category": "基础设施:公共设施:公共厕所",
        "type": 0,
        "location": {
            "lat": 29.723831,
            "lng": 113.889597
        },
        "ad_info": {
            "adcode": 421281,
            "province": "湖北省",
            "city": "咸宁市",
            "district": "赤壁市"
        }
    },
    {
        "id": "9540248261228851736",
        "title": "公共厕所",
        "address": "湖北省咸宁市赤壁市北山街与赵崇路交叉口西北方向477米左右",
        "tel": "",
        "category": "基础设施:公共设施:公共厕所",
        "type": 0,
        "location": {
            "lat": 29.546117,
            "lng": 113.744393
        },
        "ad_info": {
            "adcode": 421281,
            "province": "湖北省",
            "city": "咸宁市",
            "district": "赤壁市"
        }
    },
    {
        "id": "15455264975762828049",
        "title": "公共厕所",
        "address": "湖北省咸宁市赤壁市G107与赤壁大道交叉口西南方向1919米左右",
        "tel": "",
        "category": "基础设施:公共设施:公共厕所",
        "type": 0,
        "location": {
            "lat": 29.683576,
            "lng": 113.832561
        },
        "ad_info": {
            "adcode": 421281,
            "province": "湖北省",
            "city": "咸宁市",
            "district": "赤壁市"
        }
    },
    {
        "id": "10754653823133626564",
        "title": "公共厕所",
        "address": "湖北省咸宁市赤壁市柳山湖镇果香园",
        "tel": "",
        "category": "基础设施:公共设施:公共厕所",
        "type": 0,
        "location": {
            "lat": 29.848337,
            "lng": 113.636072
        },
        "ad_info": {
            "adcode": 421281,
            "province": "湖北省",
            "city": "咸宁市",
            "district": "赤壁市"
        }
    },
    {
        "id": "12537386987208182701",
        "title": "嘉鱼东服务区公共厕所",
        "address": "湖北省咸宁市嘉鱼县北湖路与田野大道交叉口东北方向1289米左右",
        "tel": "",
        "category": "基础设施:公共设施:公共厕所",
        "type": 0,
        "location": {
            "lat": 29.923827,
            "lng": 113.970926
        },
        "ad_info": {
            "adcode": 421221,
            "province": "湖北省",
            "city": "咸宁市",
            "district": "嘉鱼县"
        }
    },
    {
        "id": "13080959520511650492",
        "title": "沁香园公共厕所",
        "address": "湖北省咸宁市咸安区咸宁大道与淦河大道交叉口东北方向70米左右",
        "tel": "",
        "category": "基础设施:公共设施:公共厕所",
        "type": 0,
        "location": {
            "lat": 29.834806,
            "lng": 114.316084
        },
        "ad_info": {
            "adcode": 421202,
            "province": "湖北省",
            "city": "咸宁市",
            "district": "咸安区"
        }
    },
    {
        "id": "6881064026729484426",
        "title": "公共厕所",
        "address": "湖北省咸宁市赤壁市晨鸣大道与迎宾大道交叉口西北方向316米左右",
        "tel": "",
        "category": "基础设施:公共设施:公共厕所",
        "type": 0,
        "location": {
            "lat": 29.71969,
            "lng": 113.860415
        },
        "ad_info": {
            "adcode": 421281,
            "province": "湖北省",
            "city": "咸宁市",
            "district": "赤壁市"
        }
    },
    {
        "id": "5364839103420934054",
        "title": "公共厕所",
        "address": "湖北省咸宁市赤壁市G107与港口中桥交叉口东北方向430米左右",
        "tel": "",
        "category": "基础设施:公共设施:公共厕所",
        "type": 0,
        "location": {
            "lat": 29.552646,
            "lng": 113.713402
        },
        "ad_info": {
            "adcode": 421281,
            "province": "湖北省",
            "city": "咸宁市",
            "district": "赤壁市"
        }
    },
    {
        "id": "15777239333490779118",
        "title": "公共厕所",
        "address": "湖北省咸宁市赤壁市小猪巷与莼川大道交叉口西南方向285米左右",
        "tel": "",
        "category": "基础设施:公共设施:公共厕所",
        "type": 0,
        "location": {
            "lat": 29.713819,
            "lng": 113.876358
        },
        "ad_info": {
            "adcode": 421281,
            "province": "湖北省",
            "city": "咸宁市",
            "district": "赤壁市"
        }
    },
    {
        "id": "17108545290952500759",
        "title": "公共厕所",
        "address": "湖北省咸宁市赤壁市古驿大道与林场路交叉口正西方向618米左右",
        "tel": "",
        "category": "基础设施:公共设施:公共厕所",
        "type": 0,
        "location": {
            "lat": 29.772604,
            "lng": 114.079687
        },
        "ad_info": {
            "adcode": 421281,
            "province": "湖北省",
            "city": "咸宁市",
            "district": "赤壁市"
        }
    },
    {
        "id": "11634403357157000289",
        "title": "公共厕所",
        "address": "湖北省咸宁市赤壁市车站西街与锁石岭路交叉口东南方向168米左右",
        "tel": "",
        "category": "基础设施:公共设施:公共厕所",
        "type": 0,
        "location": {
            "lat": 29.701844,
            "lng": 113.882093
        },
        "ad_info": {
            "adcode": 421281,
            "province": "湖北省",
            "city": "咸宁市",
            "district": "赤壁市"
        }
    },
    {
        "id": "17812324377207660839",
        "title": "公共公共厕所",
        "address": "湖北省咸宁市咸安区长安大道12号",
        "tel": "",
        "category": "基础设施:公共设施:公共厕所",
        "type": 0,
        "location": {
            "lat": 29.868413,
            "lng": 114.287375
        },
        "ad_info": {
            "adcode": 421202,
            "province": "湖北省",
            "city": "咸宁市",
            "district": "咸安区"
        }
    },
    {
        "id": "4595658985869745720",
        "title": "公共厕所",
        "address": "湖北省咸宁市赤壁市东风大道与天府街交叉口东南方向414米左右",
        "tel": "",
        "category": "基础设施:公共设施:公共厕所",
        "type": 0,
        "location": {
            "lat": 29.869506,
            "lng": 113.632613
        },
        "ad_info": {
            "adcode": 421281,
            "province": "湖北省",
            "city": "咸宁市",
            "district": "赤壁市"
        }
    },
    {
        "id": "1988755089693932552",
        "title": "嘉鱼服务区第二公共厕所",
        "address": "湖北省咸宁市嘉鱼县S78蕲嘉高速附近",
        "tel": "",
        "category": "基础设施:公共设施:公共厕所",
        "type": 0,
        "location": {
            "lat": 29.994428,
            "lng": 114.109164
        },
        "ad_info": {
            "adcode": 421221,
            "province": "湖北省",
            "city": "咸宁市",
            "district": "嘉鱼县"
        }
    },
    {
        "id": "2110704011398932269",
        "title": "咸宁通山县至康国际酒店-洗手间",
        "address": "湖北省咸宁市通山县洋都大道98号(政府广场东)",
        "tel": "",
        "category": "基础设施:公共设施:公共厕所",
        "type": 0,
        "location": {
            "lat": 29.604724,
            "lng": 114.483893
        },
        "ad_info": {
            "adcode": 421224,
            "province": "湖北省",
            "city": "咸宁市",
            "district": "通山县"
        }
    },
    {
        "id": "14113553023370291845",
        "title": "女洗手间",
        "address": "湖北省咸宁市咸安区渔水路233号银泰百货F2",
        "tel": "",
        "category": "基础设施:公共设施:公共厕所",
        "type": 0,
        "location": {
            "lat": 29.876007,
            "lng": 114.282833
        },
        "ad_info": {
            "adcode": 421202,
            "province": "湖北省",
            "city": "咸宁市",
            "district": "咸安区"
        }
    },
    {
        "id": "13796199824606641562",
        "title": "通城服务区公共厕所",
        "address": "湖北省咸宁市通城县杭瑞高速",
        "tel": "",
        "category": "基础设施:公共设施:公共厕所",
        "type": 0,
        "location": {
            "lat": 29.302858,
            "lng": 113.716707
        },
        "ad_info": {
            "adcode": 421222,
            "province": "湖北省",
            "city": "咸宁市",
            "district": "通城县"
        }
    },
    {
        "id": "12294157488693059170",
        "title": "通城服务区公共厕所",
        "address": "湖北省咸宁市通城县G56杭瑞高速附近",
        "tel": "",
        "category": "基础设施:公共设施:公共厕所",
        "type": 0,
        "location": {
            "lat": 29.304536,
            "lng": 113.715592
        },
        "ad_info": {
            "adcode": 421222,
            "province": "湖北省",
            "city": "咸宁市",
            "district": "通城县"
        }
    },
    {
        "id": "17146928354849314455",
        "title": "咸安服务区公共厕所",
        "address": "湖北省咸宁市咸安区S33咸通高速附近",
        "tel": "",
        "category": "基础设施:公共设施:公共厕所",
        "type": 0,
        "location": {
            "lat": 29.775406,
            "lng": 114.371359
        },
        "ad_info": {
            "adcode": 421202,
            "province": "湖北省",
            "city": "咸宁市",
            "district": "咸安区"
        }
    },
    {
        "id": "10536175648125564646",
        "title": "嘉鱼服务区第二公共厕所",
        "address": "湖北省咸宁市嘉鱼县S78蕲嘉高速附近",
        "tel": "",
        "category": "基础设施:公共设施:公共厕所",
        "type": 0,
        "location": {
            "lat": 29.992871,
            "lng": 114.110006
        },
        "ad_info": {
            "adcode": 421221,
            "province": "湖北省",
            "city": "咸宁市",
            "district": "嘉鱼县"
        }
    },
    {
        "id": "6516620677177435583",
        "title": "赤壁站公共厕所",
        "address": "湖北省咸宁市赤壁市银轮大道赤壁站",
        "tel": "",
        "category": "基础设施:公共设施:公共厕所",
        "type": 0,
        "location": {
            "lat": 29.721731,
            "lng": 113.930863
        },
        "ad_info": {
            "adcode": 421281,
            "province": "湖北省",
            "city": "咸宁市",
            "district": "赤壁市"
        }
    },
    {
        "id": "12393131754139086284",
        "title": "嘉鱼服务区公共厕所",
        "address": "湖北省咸宁市嘉鱼县蕲嘉高速",
        "tel": "",
        "category": "基础设施:公共设施:公共厕所",
        "type": 0,
        "location": {
            "lat": 29.992995,
            "lng": 114.109102
        },
        "ad_info": {
            "adcode": 421221,
            "province": "湖北省",
            "city": "咸宁市",
            "district": "嘉鱼县"
        }
    },
    {
        "id": "15950694839134956146",
        "title": "咸宁服务区公共厕所",
        "address": "湖北省咸宁市咸安区湖光路与疏影路交叉口正西方向1355米左右",
        "tel": "",
        "category": "基础设施:公共设施:公共厕所",
        "type": 0,
        "location": {
            "lat": 29.989214,
            "lng": 114.282815
        },
        "ad_info": {
            "adcode": 421202,
            "province": "湖北省",
            "city": "咸宁市",
            "district": "咸安区"
        }
    },
    {
        "id": "9736287698986176314",
        "title": "咸宁服务区第一公共厕所",
        "address": "湖北省咸宁市咸安区湖光路与疏影路交叉口正西方向1169米左右",
        "tel": "",
        "category": "基础设施:公共设施:公共厕所",
        "type": 0,
        "location": {
            "lat": 29.986643,
            "lng": 114.284322
        },
        "ad_info": {
            "adcode": 421202,
            "province": "湖北省",
            "city": "咸宁市",
            "district": "咸安区"
        }
    },
    {
        "id": "17223242447777405779",
        "title": "通城服务区公共厕所",
        "address": "湖北省咸宁市通城县杭瑞高速",
        "tel": "",
        "category": "基础设施:公共设施:公共厕所",
        "type": 0,
        "location": {
            "lat": 29.305056,
            "lng": 113.716469
        },
        "ad_info": {
            "adcode": 421222,
            "province": "湖北省",
            "city": "咸宁市",
            "district": "通城县"
        }
    },
    {
        "id": "1919471022860588919",
        "title": "崇阳服务区公共厕所",
        "address": "湖北省咸宁市崇阳县创业大道与发展大道交叉口正南方向1361米左右",
        "tel": "",
        "category": "基础设施:公共设施:公共厕所",
        "type": 0,
        "location": {
            "lat": 29.496976,
            "lng": 114.050587
        },
        "ad_info": {
            "adcode": 421223,
            "province": "湖北省",
            "city": "咸宁市",
            "district": "崇阳县"
        }
    },
    {
        "id": "17809534274363159675",
        "title": "公共厕所",
        "address": "湖北省咸宁市赤壁市沿河大道与锁石岭路交叉口正南方向83米左右",
        "tel": "",
        "category": "基础设施:公共设施:公共厕所",
        "type": 0,
        "location": {
            "lat": 29.700101,
            "lng": 113.885018
        },
        "ad_info": {
            "adcode": 421281,
            "province": "湖北省",
            "city": "咸宁市",
            "district": "赤壁市"
        }
    },
    {
        "id": "3702846107091728264",
        "title": "双溪服务区第一公共厕所",
        "address": "湖北省咸宁市咸安区蕲嘉高速双溪服务区",
        "tel": "",
        "category": "基础设施:公共设施:公共厕所",
        "type": 0,
        "location": {
            "lat": 29.922564,
            "lng": 114.550809
        },
        "ad_info": {
            "adcode": 421202,
            "province": "湖北省",
            "city": "咸宁市",
            "district": "咸安区"
        }
    },
    {
        "id": "16827039531726904936",
        "title": "无障碍公共厕所",
        "address": "湖北省咸宁市咸安区北门路与沿河巷交叉口正南方向23米左右",
        "tel": "",
        "category": "基础设施:公共设施:公共厕所",
        "type": 0,
        "location": {
            "lat": 29.874707,
            "lng": 114.274952
        },
        "ad_info": {
            "adcode": 421202,
            "province": "湖北省",
            "city": "咸宁市",
            "district": "咸安区"
        }
    },
    {
        "id": "1066403648458791208",
        "title": "通山服务区第二公共厕所",
        "address": "湖北省咸宁市通山县杭瑞高速",
        "tel": "",
        "category": "基础设施:公共设施:公共厕所",
        "type": 0,
        "location": {
            "lat": 29.65274,
            "lng": 114.504235
        },
        "ad_info": {
            "adcode": 421224,
            "province": "湖北省",
            "city": "咸宁市",
            "district": "通山县"
        }
    },
    {
        "id": "3127892877166030334",
        "title": "咸宁服务区第二公共厕所",
        "address": "湖北省咸宁市咸安区湖光路与疏影路交叉口正西方向1246米左右",
        "tel": "",
        "category": "基础设施:公共设施:公共厕所",
        "type": 0,
        "location": {
            "lat": 29.986642,
            "lng": 114.283523
        },
        "ad_info": {
            "adcode": 421202,
            "province": "湖北省",
            "city": "咸宁市",
            "district": "咸安区"
        }
    },
    {
        "id": "2675549345745885472",
        "title": "沙坪停车区公共厕所",
        "address": "湖北省咸宁市崇阳县沙坪停车区加油站西站北侧120米",
        "tel": "",
        "category": "基础设施:公共设施:公共厕所",
        "type": 0,
        "location": {
            "lat": 29.399879,
            "lng": 113.828902
        },
        "ad_info": {
            "adcode": 421223,
            "province": "湖北省",
            "city": "咸宁市",
            "district": "崇阳县"
        }
    },
    {
        "id": "7372693546096098859",
        "title": "通山服务区第二公共厕所",
        "address": "湖北省咸宁市通山县G56杭瑞高速北100米",
        "tel": "",
        "category": "基础设施:公共设施:公共厕所",
        "type": 0,
        "location": {
            "lat": 29.653079,
            "lng": 114.501326
        },
        "ad_info": {
            "adcode": 421224,
            "province": "湖北省",
            "city": "咸宁市",
            "district": "通山县"
        }
    },
    {
        "id": "12530795495851583229",
        "title": "茶庵岭服务区公共厕所",
        "address": "湖北省咸宁市赤壁市G0422武深高速与茶庵岭服务区交叉口西南320米",
        "tel": "",
        "category": "基础设施:公共设施:公共厕所",
        "type": 0,
        "location": {
            "lat": 29.663719,
            "lng": 113.801377
        },
        "ad_info": {
            "adcode": 421281,
            "province": "湖北省",
            "city": "咸宁市",
            "district": "赤壁市"
        }
    },
    {
        "id": "18008432562556771781",
        "title": "赤壁服务区公共厕所",
        "address": "湖北省咸宁市赤壁市体育馆路与蒲圻大道交叉口正北方向309米左右",
        "tel": "",
        "category": "基础设施:公共设施:公共厕所",
        "type": 0,
        "location": {
            "lat": 29.737431,
            "lng": 113.899347
        },
        "ad_info": {
            "adcode": 421281,
            "province": "湖北省",
            "city": "咸宁市",
            "district": "赤壁市"
        }
    },
    {
        "id": "10860782400171476873",
        "title": "赤壁服务区公共厕所",
        "address": "湖北省咸宁市赤壁市G351与陆水湖大道交叉口东南方向310米左右",
        "tel": "",
        "category": "基础设施:公共设施:公共厕所",
        "type": 0,
        "location": {
            "lat": 29.739348,
            "lng": 113.899347
        },
        "ad_info": {
            "adcode": 421281,
            "province": "湖北省",
            "city": "咸宁市",
            "district": "赤壁市"
        }
    },
    {
        "id": "17093380793149913491",
        "title": "赤壁服务区第二公共厕所",
        "address": "湖北省咸宁市赤壁市蒲圻大道与龙翔路交叉口正北方向402米左右",
        "tel": "",
        "category": "基础设施:公共设施:公共厕所",
        "type": 0,
        "location": {
            "lat": 29.738243,
            "lng": 113.900998
        },
        "ad_info": {
            "adcode": 421281,
            "province": "湖北省",
            "city": "咸宁市",
            "district": "赤壁市"
        }
    },
    {
        "id": "16368854674706848847",
        "title": "通山服务区公共厕所",
        "address": "湖北省咸宁市通山县杭瑞高速公路",
        "tel": "",
        "category": "基础设施:公共设施:公共厕所",
        "type": 0,
        "location": {
            "lat": 29.651908,
            "lng": 114.502707
        },
        "ad_info": {
            "adcode": 421224,
            "province": "湖北省",
            "city": "咸宁市",
            "district": "通山县"
        }
    },
    {
        "id": "14703861010581580528",
        "title": "男卫生间",
        "address": "湖北省咸宁市咸安区渔水路233号银泰百货F3",
        "tel": "",
        "category": "基础设施:公共设施:男洗手间",
        "type": 0,
        "location": {
            "lat": 29.875981,
            "lng": 114.282835
        },
        "ad_info": {
            "adcode": 421202,
            "province": "湖北省",
            "city": "咸宁市",
            "district": "咸安区"
        }
    },
    {
        "id": "2544352907746617078",
        "title": "男卫生间",
        "address": "湖北省咸宁市咸安区渔水路233号银泰百货B1",
        "tel": "",
        "category": "基础设施:公共设施:男洗手间",
        "type": 0,
        "location": {
            "lat": 29.875754,
            "lng": 114.28224
        },
        "ad_info": {
            "adcode": 421202,
            "province": "湖北省",
            "city": "咸宁市",
            "district": "咸安区"
        }
    },
    {
        "id": "8867430670434391135",
        "title": "女卫生间",
        "address": "湖北省咸宁市咸安区渔水路233号银泰百货F3",
        "tel": "",
        "category": "基础设施:公共设施:女洗手间",
        "type": 0,
        "location": {
            "lat": 29.87602,
            "lng": 114.282834
        },
        "ad_info": {
            "adcode": 421202,
            "province": "湖北省",
            "city": "咸宁市",
            "district": "咸安区"
        }
    },
    {
        "id": "5403811995824528619",
        "title": "公共厕所",
        "address": "湖北省咸宁市咸安区兴建街与鱼水路交叉口正北方向104米左右",
        "tel": "",
        "category": "基础设施:公共设施:公共厕所",
        "type": 0,
        "location": {
            "lat": 29.883416,
            "lng": 114.280332
        },
        "ad_info": {
            "adcode": 421202,
            "province": "湖北省",
            "city": "咸宁市",
            "district": "咸安区"
        }
    },
    {
        "id": "11398585666343862216",
        "title": "公共厕所",
        "address": "湖北省咸宁市咸安区但家湾巷与茶花北路交叉口西北方向69米左右",
        "tel": "",
        "category": "基础设施:公共设施:公共厕所",
        "type": 0,
        "location": {
            "lat": 29.829086,
            "lng": 114.344619
        },
        "ad_info": {
            "adcode": 421202,
            "province": "湖北省",
            "city": "咸宁市",
            "district": "咸安区"
        }
    },
    {
        "id": "12090794617875436981",
        "title": "咸安服务区第二公共厕所",
        "address": "湖北省咸宁市咸安区S33咸通高速附近",
        "tel": "",
        "category": "基础设施:公共设施:公共厕所",
        "type": 0,
        "location": {
            "lat": 29.774609,
            "lng": 114.369847
        },
        "ad_info": {
            "adcode": 421202,
            "province": "湖北省",
            "city": "咸宁市",
            "district": "咸安区"
        }
    },
    {
        "id": "1668590288066164029",
        "title": "公共厕所",
        "address": "湖北省咸宁市嘉鱼县东街与南街交叉口西北方向54米左右",
        "tel": "",
        "category": "基础设施:公共设施:公共厕所",
        "type": 0,
        "location": {
            "lat": 29.971848,
            "lng": 113.902599
        },
        "ad_info": {
            "adcode": 421221,
            "province": "湖北省",
            "city": "咸宁市",
            "district": "嘉鱼县"
        }
    },
    {
        "id": "16210079622697023228",
        "title": "男洗手间(嘉和城购物中心)",
        "address": "湖北省咸宁市通山县九宫大道216号嘉和城购物中心F3层",
        "tel": "",
        "category": "基础设施:公共设施:公共厕所",
        "type": 0,
        "location": {
            "lat": 29.602889,
            "lng": 114.515791
        },
        "ad_info": {
            "adcode": 421224,
            "province": "湖北省",
            "city": "咸宁市",
            "district": "通山县"
        }
    },
    {
        "id": "14650965697658790701",
        "title": "咸宁服务区第二公共厕所",
        "address": "湖北省咸宁市咸安区湖光路与疏影路交叉口正西方向1093米左右",
        "tel": "",
        "category": "基础设施:公共设施:公共厕所",
        "type": 0,
        "location": {
            "lat": 29.988463,
            "lng": 114.285395
        },
        "ad_info": {
            "adcode": 421202,
            "province": "湖北省",
            "city": "咸宁市",
            "district": "咸安区"
        }
    },
    {
        "id": "14091913704660033018",
        "title": "公共厕所",
        "address": "湖北省咸宁市崇阳县007乡道北侧",
        "tel": "",
        "category": "基础设施:公共设施:公共厕所",
        "type": 0,
        "location": {
            "lat": 29.445672,
            "lng": 114.114438
        },
        "ad_info": {
            "adcode": 421223,
            "province": "湖北省",
            "city": "咸宁市",
            "district": "崇阳县"
        }
    },
    {
        "id": "14299869907117680004",
        "title": "女洗手间(嘉和城购物中心)",
        "address": "湖北省咸宁市通山县九宫大道216号嘉和城购物中心F4层",
        "tel": "",
        "category": "基础设施:公共设施:公共厕所",
        "type": 0,
        "location": {
            "lat": 29.60288,
            "lng": 114.51583
        },
        "ad_info": {
            "adcode": 421224,
            "province": "湖北省",
            "city": "咸宁市",
            "district": "通山县"
        }
    },
    {
        "id": "16953707614195283459",
        "title": "公共厕所",
        "address": "湖北省咸宁市通山县G106与南林一桥交叉口正东方向409米左右",
        "tel": "",
        "category": "基础设施:公共设施:公共厕所",
        "type": 0,
        "location": {
            "lat": 29.573641,
            "lng": 114.36626
        },
        "ad_info": {
            "adcode": 421224,
            "province": "湖北省",
            "city": "咸宁市",
            "district": "通山县"
        }
    },
    {
        "id": "14059434315941092053",
        "title": "公共厕所",
        "address": "湖北省咸宁市咸安区旗鼓大道绿雪生物产业园",
        "tel": "",
        "category": "基础设施:公共设施:公共厕所",
        "type": 0,
        "location": {
            "lat": 29.88569,
            "lng": 114.332605
        },
        "ad_info": {
            "adcode": 421202,
            "province": "湖北省",
            "city": "咸宁市",
            "district": "咸安区"
        }
    },
    {
        "id": "15676564832681031351",
        "title": "公共厕所",
        "address": "湖北省咸宁市通山县洋都大道与田园路交叉口东北方向217米左右",
        "tel": "",
        "category": "基础设施:公共设施:公共厕所",
        "type": 0,
        "location": {
            "lat": 29.607411,
            "lng": 114.481573
        },
        "ad_info": {
            "adcode": 421224,
            "province": "湖北省",
            "city": "咸宁市",
            "district": "通山县"
        }
    },
    {
        "id": "17071102903055838378",
        "title": "公共厕所",
        "address": "湖北省咸宁市赤壁市体育馆路与蒲圻大道交叉口东北方向216米左右",
        "tel": "",
        "category": "基础设施:公共设施:公共厕所",
        "type": 0,
        "location": {
            "lat": 29.736453,
            "lng": 113.899546
        },
        "ad_info": {
            "adcode": 421281,
            "province": "湖北省",
            "city": "咸宁市",
            "district": "赤壁市"
        }
    },
    {
        "id": "6969132600999929349",
        "title": "公共厕所",
        "address": "湖北省咸宁市咸安区民主路与鱼水路交叉口正西方向183米左右",
        "tel": "",
        "category": "基础设施:公共设施:公共厕所",
        "type": 0,
        "location": {
            "lat": 29.879671,
            "lng": 114.279203
        },
        "ad_info": {
            "adcode": 421202,
            "province": "湖北省",
            "city": "咸宁市",
            "district": "咸安区"
        }
    },
    {
        "id": "12263250633996661466",
        "title": "公共厕所",
        "address": "湖北省咸宁市崇阳县盘山大桥",
        "tel": "",
        "category": "基础设施:公共设施:公共厕所",
        "type": 0,
        "location": {
            "lat": 29.326814,
            "lng": 114.071126
        },
        "ad_info": {
            "adcode": 421223,
            "province": "湖北省",
            "city": "咸宁市",
            "district": "崇阳县"
        }
    },
    {
        "id": "13626752760567485067",
        "title": "嘉鱼东服务区公共厕所",
        "address": "湖北省咸宁市嘉鱼县G0422武深高速与嘉鱼东服务区交叉口东220米",
        "tel": "",
        "category": "基础设施:公共设施:公共厕所",
        "type": 0,
        "location": {
            "lat": 29.921683,
            "lng": 113.971784
        },
        "ad_info": {
            "adcode": 421221,
            "province": "湖北省",
            "city": "咸宁市",
            "district": "嘉鱼县"
        }
    },
    {
        "id": "13102293863181029894",
        "title": "公共厕所",
        "address": "湖北省咸宁市咸安区咸宁大道与麦笠山路交叉口东北方向51米左右",
        "tel": "",
        "category": "基础设施:公共设施:公共厕所",
        "type": 0,
        "location": {
            "lat": 29.829018,
            "lng": 114.306095
        },
        "ad_info": {
            "adcode": 421202,
            "province": "湖北省",
            "city": "咸宁市",
            "district": "咸安区"
        }
    },
    {
        "id": "1790308436844168912",
        "title": "通城南服务区公共厕所",
        "address": "湖北省咸宁市通城县G0422武深高速与通城南服务区交叉口西北240米",
        "tel": "",
        "category": "基础设施:公共设施:公共厕所",
        "type": 0,
        "location": {
            "lat": 29.22689,
            "lng": 113.773275
        },
        "ad_info": {
            "adcode": 421222,
            "province": "湖北省",
            "city": "咸宁市",
            "district": "通城县"
        }
    },
    {
        "id": "14268390002041184657",
        "title": "公共厕所",
        "address": "湖北省咸宁市嘉鱼县嘉鱼南停车区与武深高速交叉口东北方向243米左右",
        "tel": "",
        "category": "基础设施:公共设施:公共厕所",
        "type": 0,
        "location": {
            "lat": 29.802021,
            "lng": 113.852058
        },
        "ad_info": {
            "adcode": 421221,
            "province": "湖北省",
            "city": "咸宁市",
            "district": "嘉鱼县"
        }
    },
    {
        "id": "10412381891584073951",
        "title": "沙坪停车区公共厕所",
        "address": "湖北省咸宁市崇阳县沙坪停车区东加油站南侧90米",
        "tel": "",
        "category": "基础设施:公共设施:公共厕所",
        "type": 0,
        "location": {
            "lat": 29.399434,
            "lng": 113.831392
        },
        "ad_info": {
            "adcode": 421223,
            "province": "湖北省",
            "city": "咸宁市",
            "district": "崇阳县"
        }
    },
    {
        "id": "15099833359736147685",
        "title": "中商百货(咸宁购物中心店)-男洗手间",
        "address": "湖北省咸宁市咸安区淦河大道85号中商百货F6",
        "tel": "",
        "category": "基础设施:公共设施:公共厕所",
        "type": 0,
        "location": {
            "lat": 29.827331,
            "lng": 114.335298
        },
        "ad_info": {
            "adcode": 421202,
            "province": "湖北省",
            "city": "咸宁市",
            "district": "咸安区"
        }
    },
    {
        "id": "7849330276832949698",
        "title": "公共厕所",
        "address": "湖北省咸宁市咸安区龙茶巷与为民巷交叉口西北120米",
        "tel": "",
        "category": "基础设施:公共设施:公共厕所",
        "type": 0,
        "location": {
            "lat": 29.828208,
            "lng": 114.322439
        },
        "ad_info": {
            "adcode": 421202,
            "province": "湖北省",
            "city": "咸宁市",
            "district": "咸安区"
        }
    },
    {
        "id": "13635959100219050548",
        "title": "公共厕所",
        "address": "湖北省咸宁市崇阳县",
        "tel": "",
        "category": "基础设施:公共设施:公共厕所",
        "type": 0,
        "location": {
            "lat": 29.407622,
            "lng": 114.096616
        },
        "ad_info": {
            "adcode": 421223,
            "province": "湖北省",
            "city": "咸宁市",
            "district": "崇阳县"
        }
    },
    {
        "id": "14537018674792880893",
        "title": "公共厕所",
        "address": "湖北省咸宁市崇阳县下隽街与五港路交叉口正北方向59米左右",
        "tel": "",
        "category": "基础设施:公共设施:公共厕所",
        "type": 0,
        "location": {
            "lat": 29.32813,
            "lng": 113.843216
        },
        "ad_info": {
            "adcode": 421223,
            "province": "湖北省",
            "city": "咸宁市",
            "district": "崇阳县"
        }
    },
    {
        "id": "9415460210096864994",
        "title": "燕厦服务区公共厕所",
        "address": "湖北省咸宁市通山县G45大广高速与燕厦服务区交叉口西240米",
        "tel": "",
        "category": "基础设施:公共设施:公共厕所",
        "type": 0,
        "location": {
            "lat": 29.578341,
            "lng": 114.908954
        },
        "ad_info": {
            "adcode": 421224,
            "province": "湖北省",
            "city": "咸宁市",
            "district": "通山县"
        }
    },
    {
        "id": "13244219415960166183",
        "title": "公共厕所",
        "address": "湖北省咸宁市通城县",
        "tel": "",
        "category": "基础设施:公共设施:公共厕所",
        "type": 0,
        "location": {
            "lat": 29.345328,
            "lng": 113.973101
        },
        "ad_info": {
            "adcode": 421222,
            "province": "湖北省",
            "city": "咸宁市",
            "district": "通城县"
        }
    },
    {
        "id": "4534136223129234166",
        "title": "富有交通厕所",
        "address": "湖北省咸宁市通山县G106(京广线)富有公路驿站",
        "tel": "",
        "category": "基础设施:公共设施:公共厕所",
        "type": 0,
        "location": {
            "lat": 29.575736,
            "lng": 114.678607
        },
        "ad_info": {
            "adcode": 421224,
            "province": "湖北省",
            "city": "咸宁市",
            "district": "通山县"
        }
    },
    {
        "id": "6017858717018277643",
        "title": "公共厕所",
        "address": "湖北省咸宁市通城县石南镇中心小学东北侧210米",
        "tel": "",
        "category": "基础设施:公共设施:公共厕所",
        "type": 0,
        "location": {
            "lat": 29.281284,
            "lng": 113.71924
        },
        "ad_info": {
            "adcode": 421222,
            "province": "湖北省",
            "city": "咸宁市",
            "district": "通城县"
        }
    },
    {
        "id": "1390042796928024378",
        "title": "天猫养车清华嘉园店-洗手间",
        "address": "湖北省咸宁市通城县清华嘉园一栋119铺",
        "tel": "",
        "category": "基础设施:公共设施:公共厕所",
        "type": 0,
        "location": {
            "lat": 29.251709,
            "lng": 113.826885
        },
        "ad_info": {
            "adcode": 421222,
            "province": "湖北省",
            "city": "咸宁市",
            "district": "通城县"
        }
    },
    {
        "id": "16443795348285373658",
        "title": "公共厕所",
        "address": "湖北省咸宁市通山县孔雀山庄西侧140米",
        "tel": "",
        "category": "基础设施:公共设施:公共厕所",
        "type": 0,
        "location": {
            "lat": 29.645401,
            "lng": 114.567888
        },
        "ad_info": {
            "adcode": 421224,
            "province": "湖北省",
            "city": "咸宁市",
            "district": "通山县"
        }
    },
    {
        "id": "16280175737129498984",
        "title": "通城南服务区公共厕所",
        "address": "湖北省咸宁市通城县G0422武深高速与通城南服务区交叉口东北120米",
        "tel": "",
        "category": "基础设施:公共设施:公共厕所",
        "type": 0,
        "location": {
            "lat": 29.225577,
            "lng": 113.775399
        },
        "ad_info": {
            "adcode": 421222,
            "province": "湖北省",
            "city": "咸宁市",
            "district": "通城县"
        }
    },
    {
        "id": "16537290727590223165",
        "title": "沙坪停车区公共厕所",
        "address": "湖北省咸宁市崇阳县沙坪停车区与G56杭瑞高速交叉口西150米",
        "tel": "",
        "category": "基础设施:公共设施:公共厕所",
        "type": 0,
        "location": {
            "lat": 29.357283,
            "lng": 113.848109
        },
        "ad_info": {
            "adcode": 421223,
            "province": "湖北省",
            "city": "咸宁市",
            "district": "崇阳县"
        }
    },
    {
        "id": "4259432366859652396",
        "title": "公共厕所",
        "address": "湖北省咸宁市崇阳县崇阳大道与影视城路交叉口东北方向42米左右",
        "tel": "",
        "category": "基础设施:公共设施:公共厕所",
        "type": 0,
        "location": {
            "lat": 29.562561,
            "lng": 114.043281
        },
        "ad_info": {
            "adcode": 421223,
            "province": "湖北省",
            "city": "咸宁市",
            "district": "崇阳县"
        }
    },
    {
        "id": "12228908222828114967",
        "title": "公共厕所",
        "address": "湖北省咸宁市咸安区永安大道银泉花园",
        "tel": "",
        "category": "基础设施:公共设施:公共厕所",
        "type": 0,
        "location": {
            "lat": 29.8769,
            "lng": 114.308088
        },
        "ad_info": {
            "adcode": 421202,
            "province": "湖北省",
            "city": "咸宁市",
            "district": "咸安区"
        }
    },
    {
        "id": "6989193991348703125",
        "title": "公共厕所",
        "address": "湖北省咸宁市咸安区温泉步行一街与郭林巷交叉口正西方向69米左右",
        "tel": "",
        "category": "基础设施:公共设施:公共厕所",
        "type": 0,
        "location": {
            "lat": 29.828089,
            "lng": 114.335121
        },
        "ad_info": {
            "adcode": 421202,
            "province": "湖北省",
            "city": "咸宁市",
            "district": "咸安区"
        }
    },
    {
        "id": "7030496568470612685",
        "title": "公共厕所",
        "address": "湖北省咸宁市咸安区南站路与金泉湾路交叉口东北方向46米左右",
        "tel": "",
        "category": "基础设施:公共设施:公共厕所",
        "type": 0,
        "location": {
            "lat": 29.835881,
            "lng": 114.305969
        },
        "ad_info": {
            "adcode": 421202,
            "province": "湖北省",
            "city": "咸宁市",
            "district": "咸安区"
        }
    },
    {
        "id": "15000525088511178167",
        "title": "公共厕所",
        "address": "湖北省咸宁市咸安区崇文街与庆展路交叉口正南方向261米左右",
        "tel": "",
        "category": "基础设施:公共设施:公共厕所",
        "type": 0,
        "location": {
            "lat": 29.81109,
            "lng": 114.347146
        },
        "ad_info": {
            "adcode": 421202,
            "province": "湖北省",
            "city": "咸宁市",
            "district": "咸安区"
        }
    },
    {
        "id": "1216581956307989812",
        "title": "无障碍公共厕所",
        "address": "湖北省咸宁市嘉鱼县龙潭路1正西方向110米",
        "tel": "",
        "category": "基础设施:公共设施:公共厕所",
        "type": 0,
        "location": {
            "lat": 29.97668,
            "lng": 113.912071
        },
        "ad_info": {
            "adcode": 421221,
            "province": "湖北省",
            "city": "咸宁市",
            "district": "嘉鱼县"
        }
    },
    {
        "id": "13457203011882947618",
        "title": "公共厕所",
        "address": "湖北省咸宁市通城县石泉路与银城西路交叉口正西方向200米左右",
        "tel": "",
        "category": "基础设施:公共设施:公共厕所",
        "type": 0,
        "location": {
            "lat": 29.260157,
            "lng": 113.798178
        },
        "ad_info": {
            "adcode": 421222,
            "province": "湖北省",
            "city": "咸宁市",
            "district": "通城县"
        }
    },
    {
        "id": "5305982192077538403",
        "title": "公共厕所",
        "address": "湖北省咸宁市崇阳县家家旺购物广场(前进路店)东",
        "tel": "",
        "category": "基础设施:公共设施:公共厕所",
        "type": 0,
        "location": {
            "lat": 29.53853,
            "lng": 114.049809
        },
        "ad_info": {
            "adcode": 421223,
            "province": "湖北省",
            "city": "咸宁市",
            "district": "崇阳县"
        }
    },
    {
        "id": "672231547347331044",
        "title": "双溪服务区公共厕所",
        "address": "湖北省咸宁市咸安区蕲嘉高速双溪服务区",
        "tel": "",
        "category": "基础设施:公共设施:公共厕所",
        "type": 0,
        "location": {
            "lat": 29.925483,
            "lng": 114.5546
        },
        "ad_info": {
            "adcode": 421202,
            "province": "湖北省",
            "city": "咸宁市",
            "district": "咸安区"
        }
    },
    {
        "id": "3843427023316197652",
        "title": "天猫养车东城时代店-洗手间",
        "address": "湖北省咸宁市嘉鱼县嘉鱼大道东城时代17-111号",
        "tel": "",
        "category": "基础设施:公共设施:公共厕所",
        "type": 0,
        "location": {
            "lat": 29.976984,
            "lng": 113.945637
        },
        "ad_info": {
            "adcode": 421221,
            "province": "湖北省",
            "city": "咸宁市",
            "district": "嘉鱼县"
        }
    },
    {
        "id": "13380630406104727938",
        "title": "公共厕所",
        "address": "湖北省咸宁市通山县洋都大道与竹林路交叉口正南方向54米左右",
        "tel": "",
        "category": "基础设施:公共设施:公共厕所",
        "type": 0,
        "location": {
            "lat": 29.601563,
            "lng": 114.495783
        },
        "ad_info": {
            "adcode": 421224,
            "province": "湖北省",
            "city": "咸宁市",
            "district": "通山县"
        }
    },
    {
        "id": "11469251300889755503",
        "title": "茶庵岭服务区公共厕所",
        "address": "湖北省咸宁市赤壁市G107与五龙山路交叉口正西方向1489米左右",
        "tel": "",
        "category": "基础设施:公共设施:公共厕所",
        "type": 0,
        "location": {
            "lat": 29.661605,
            "lng": 113.802704
        },
        "ad_info": {
            "adcode": 421281,
            "province": "湖北省",
            "city": "咸宁市",
            "district": "赤壁市"
        }
    },
    {
        "id": "13443412366984585049",
        "title": "公共厕所",
        "address": "湖北省咸宁市通山县G106与移动大道交叉口东南方向519米左右",
        "tel": "",
        "category": "基础设施:公共设施:公共厕所",
        "type": 0,
        "location": {
            "lat": 29.569519,
            "lng": 114.355693
        },
        "ad_info": {
            "adcode": 421224,
            "province": "湖北省",
            "city": "咸宁市",
            "district": "通山县"
        }
    },
    {
        "id": "2666483994845243309",
        "title": "公共厕所",
        "address": "湖北省咸宁市咸安区",
        "tel": "",
        "category": "基础设施:公共设施:公共厕所",
        "type": 0,
        "location": {
            "lat": 29.758353,
            "lng": 114.411942
        },
        "ad_info": {
            "adcode": 421202,
            "province": "湖北省",
            "city": "咸宁市",
            "district": "咸安区"
        }
    },
    {
        "id": "18270705859043443765",
        "title": "公共厕所",
        "address": "湖北省咸宁市咸安区贺胜路10号",
        "tel": "",
        "category": "基础设施:公共设施:公共厕所",
        "type": 0,
        "location": {
            "lat": 29.83409,
            "lng": 114.344057
        },
        "ad_info": {
            "adcode": 421202,
            "province": "湖北省",
            "city": "咸宁市",
            "district": "咸安区"
        }
    },
    {
        "id": "18010865899717582246",
        "title": "男洗手间(嘉和城购物中心)",
        "address": "湖北省咸宁市通山县九宫大道216号嘉和城购物中心F4层",
        "tel": "",
        "category": "基础设施:公共设施:公共厕所",
        "type": 0,
        "location": {
            "lat": 29.602889,
            "lng": 114.515791
        },
        "ad_info": {
            "adcode": 421224,
            "province": "湖北省",
            "city": "咸宁市",
            "district": "通山县"
        }
    },
    {
        "id": "13295387300511660386",
        "title": "公共厕所",
        "address": "湖北省咸宁市赤壁市凤凰路与赤壁大道交叉口东南方向164米左右",
        "tel": "",
        "category": "基础设施:公共设施:公共厕所",
        "type": 0,
        "location": {
            "lat": 29.697891,
            "lng": 113.858033
        },
        "ad_info": {
            "adcode": 421281,
            "province": "湖北省",
            "city": "咸宁市",
            "district": "赤壁市"
        }
    },
    {
        "id": "13829824792300429636",
        "title": "嘉鱼服务区第一公共厕所",
        "address": "湖北省咸宁市嘉鱼县嘉鱼服务区",
        "tel": "",
        "category": "基础设施:公共设施:公共厕所",
        "type": 0,
        "location": {
            "lat": 29.994354,
            "lng": 114.11005
        },
        "ad_info": {
            "adcode": 421221,
            "province": "湖北省",
            "city": "咸宁市",
            "district": "嘉鱼县"
        }
    },
    {
        "id": "6022859014988419559",
        "title": "女洗手间",
        "address": "湖北省咸宁市咸安区渔水路233号银泰百货B1",
        "tel": "",
        "category": "基础设施:公共设施:女洗手间",
        "type": 0,
        "location": {
            "lat": 29.875741,
            "lng": 114.282275
        },
        "ad_info": {
            "adcode": 421202,
            "province": "湖北省",
            "city": "咸宁市",
            "district": "咸安区"
        }
    },
    {
        "id": "13663722388283885485",
        "title": "崇阳服务区公共厕所",
        "address": "湖北省咸宁市崇阳县创业大道与发展大道交叉口正南方向1617米左右",
        "tel": "",
        "category": "基础设施:公共设施:公共厕所",
        "type": 0,
        "location": {
            "lat": 29.494732,
            "lng": 114.051269
        },
        "ad_info": {
            "adcode": 421223,
            "province": "湖北省",
            "city": "咸宁市",
            "district": "崇阳县"
        }
    },
    {
        "id": "8360381937991791811",
        "title": "嘉鱼南停车区公共厕所",
        "address": "湖北省咸宁市嘉鱼县嘉鱼南停车区与武深高速交叉口西南方向289米左右",
        "tel": "",
        "category": "基础设施:公共设施:公共厕所",
        "type": 0,
        "location": {
            "lat": 29.80093,
            "lng": 113.853835
        },
        "ad_info": {
            "adcode": 421221,
            "province": "湖北省",
            "city": "咸宁市",
            "district": "嘉鱼县"
        }
    },
    {
        "id": "1549847871648216051",
        "title": "公共厕所",
        "address": "湖北省咸宁市赤壁市维达力科技股份有限公司招聘中心西北侧240米",
        "tel": "",
        "category": "基础设施:公共设施:公共厕所",
        "type": 0,
        "location": {
            "lat": 29.754658,
            "lng": 113.9853
        },
        "ad_info": {
            "adcode": 421281,
            "province": "湖北省",
            "city": "咸宁市",
            "district": "赤壁市"
        }
    },
    {
        "id": "2377191593353895249",
        "title": "公共厕所",
        "address": "湖北省咸宁市咸安区塔新巷与西新巷交叉口正西方向53米左右",
        "tel": "",
        "category": "基础设施:公共设施:公共厕所",
        "type": 0,
        "location": {
            "lat": 29.868438,
            "lng": 114.278226
        },
        "ad_info": {
            "adcode": 421202,
            "province": "湖北省",
            "city": "咸宁市",
            "district": "咸安区"
        }
    },
    {
        "id": "6915354306497354609",
        "title": "公共厕所",
        "address": "湖北省咸宁市赤壁市龙翔路12号",
        "tel": "",
        "category": "基础设施:公共设施:公共厕所",
        "type": 0,
        "location": {
            "lat": 29.726034,
            "lng": 113.901906
        },
        "ad_info": {
            "adcode": 421281,
            "province": "湖北省",
            "city": "咸宁市",
            "district": "赤壁市"
        }
    },
    {
        "id": "18355073956623440895",
        "title": "公共厕所",
        "address": "湖北省咸宁市咸安区书台街22号",
        "tel": "",
        "category": "基础设施:公共设施:公共厕所",
        "type": 0,
        "location": {
            "lat": 29.8744,
            "lng": 114.325273
        },
        "ad_info": {
            "adcode": 421202,
            "province": "湖北省",
            "city": "咸宁市",
            "district": "咸安区"
        }
    },
    {
        "id": "17158895110064956076",
        "title": "双溪服务区第二公共厕所",
        "address": "湖北省咸宁市咸安区中国石油双溪服务区加油站东南侧",
        "tel": "",
        "category": "基础设施:公共设施:公共厕所",
        "type": 0,
        "location": {
            "lat": 29.923137,
            "lng": 114.552076
        },
        "ad_info": {
            "adcode": 421202,
            "province": "湖北省",
            "city": "咸宁市",
            "district": "咸安区"
        }
    },
    {
        "id": "1172906241335438699",
        "title": "公共厕所",
        "address": "湖北省咸宁市赤壁市徐家巷与黄龙大道交叉口正南方向257米左右",
        "tel": "",
        "category": "基础设施:公共设施:公共厕所",
        "type": 0,
        "location": {
            "lat": 29.727545,
            "lng": 113.875683
        },
        "ad_info": {
            "adcode": 421281,
            "province": "湖北省",
            "city": "咸宁市",
            "district": "赤壁市"
        }
    },
    {
        "id": "5542728746567987045",
        "title": "嘉鱼南停车区公共厕所",
        "address": "湖北省咸宁市嘉鱼县嘉鱼南停车区与武深高速交叉口正西方向286米左右",
        "tel": "",
        "category": "基础设施:公共设施:公共厕所",
        "type": 0,
        "location": {
            "lat": 29.802967,
            "lng": 113.852325
        },
        "ad_info": {
            "adcode": 421221,
            "province": "湖北省",
            "city": "咸宁市",
            "district": "嘉鱼县"
        }
    },
    {
        "id": "13003562483753693476",
        "title": "女洗手间(嘉和城购物中心)",
        "address": "湖北省咸宁市通山县九宫大道216号嘉和城购物中心F5层",
        "tel": "",
        "category": "基础设施:公共设施:公共厕所",
        "type": 0,
        "location": {
            "lat": 29.60288,
            "lng": 114.51583
        },
        "ad_info": {
            "adcode": 421224,
            "province": "湖北省",
            "city": "咸宁市",
            "district": "通山县"
        }
    },
    {
        "id": "2574142002806869406",
        "title": "坳坪立公共厕所",
        "address": "湖北省咸宁市通山县附近",
        "tel": "",
        "category": "基础设施:公共设施:公共厕所",
        "type": 0,
        "location": {
            "lat": 29.451001,
            "lng": 114.646234
        },
        "ad_info": {
            "adcode": 421224,
            "province": "湖北省",
            "city": "咸宁市",
            "district": "通山县"
        }
    },
    {
        "id": "1655322754924737910",
        "title": "东洲大桥头南桥下公共厕所",
        "address": "湖北省咸宁市赤壁市东洲大桥39号",
        "tel": "",
        "category": "基础设施:公共设施:公共厕所",
        "type": 0,
        "location": {
            "lat": 29.711181,
            "lng": 113.887669
        },
        "ad_info": {
            "adcode": 421281,
            "province": "湖北省",
            "city": "咸宁市",
            "district": "赤壁市"
        }
    },
    {
        "id": "15766921926645860161",
        "title": "公共厕所",
        "address": "湖北省咸宁市通山县井湾大道与凤池路交叉口正东方向268米左右",
        "tel": "",
        "category": "基础设施:公共设施:公共厕所",
        "type": 0,
        "location": {
            "lat": 29.600109,
            "lng": 114.502415
        },
        "ad_info": {
            "adcode": 421224,
            "province": "湖北省",
            "city": "咸宁市",
            "district": "通山县"
        }
    },
    {
        "id": "13001568951689608218",
        "title": "公共厕所",
        "address": "湖北省咸宁市嘉鱼县考棚村与胡家山巷交叉口西南方向50米左右",
        "tel": "",
        "category": "基础设施:公共设施:公共厕所",
        "type": 0,
        "location": {
            "lat": 29.975294,
            "lng": 113.907825
        },
        "ad_info": {
            "adcode": 421221,
            "province": "湖北省",
            "city": "咸宁市",
            "district": "嘉鱼县"
        }
    },
    {
        "id": "17015029987182566905",
        "title": "通山服务区公共厕所",
        "address": "湖北省咸宁市通山县G56杭瑞高速北150米",
        "tel": "",
        "category": "基础设施:公共设施:公共厕所",
        "type": 0,
        "location": {
            "lat": 29.653879,
            "lng": 114.502944
        },
        "ad_info": {
            "adcode": 421224,
            "province": "湖北省",
            "city": "咸宁市",
            "district": "通山县"
        }
    },
    {
        "id": "7361086758116273627",
        "title": "公共厕所",
        "address": "湖北省咸宁市嘉鱼县S330与Y002交叉口西北方向53米左右",
        "tel": "",
        "category": "基础设施:公共设施:公共厕所",
        "type": 0,
        "location": {
            "lat": 30.220942,
            "lng": 113.94511
        },
        "ad_info": {
            "adcode": 421221,
            "province": "湖北省",
            "city": "咸宁市",
            "district": "嘉鱼县"
        }
    },
    {
        "id": "11946700543375584885",
        "title": "公共厕所",
        "address": "湖北省咸宁市赤壁市西湖巷与银河湾路交叉口西南方向78米左右",
        "tel": "",
        "category": "基础设施:公共设施:公共厕所",
        "type": 0,
        "location": {
            "lat": 29.718912,
            "lng": 113.88281
        },
        "ad_info": {
            "adcode": 421281,
            "province": "湖北省",
            "city": "咸宁市",
            "district": "赤壁市"
        }
    },
    {
        "id": "17583690949909761585",
        "title": "公共厕所",
        "address": "湖北省咸宁市赤壁市莼川大道与银河湾路交叉口正北方向149米左右",
        "tel": "",
        "category": "基础设施:公共设施:公共厕所",
        "type": 0,
        "location": {
            "lat": 29.719726,
            "lng": 113.873541
        },
        "ad_info": {
            "adcode": 421281,
            "province": "湖北省",
            "city": "咸宁市",
            "district": "赤壁市"
        }
    },
    {
        "id": "3453302213643121680",
        "title": "公共厕所",
        "address": "湖北省咸宁市赤壁市车站路与金鸡山路交叉口西南方向33米左右",
        "tel": "",
        "category": "基础设施:公共设施:公共厕所",
        "type": 0,
        "location": {
            "lat": 29.710199,
            "lng": 113.882818
        },
        "ad_info": {
            "adcode": 421281,
            "province": "湖北省",
            "city": "咸宁市",
            "district": "赤壁市"
        }
    },
    {
        "id": "8782828538464512042",
        "title": "公共厕所",
        "address": "湖北省咸宁市赤壁市凤凰路与发展大道交叉口正西方向70米左右",
        "tel": "",
        "category": "基础设施:公共设施:公共厕所",
        "type": 0,
        "location": {
            "lat": 29.689998,
            "lng": 113.880274
        },
        "ad_info": {
            "adcode": 421281,
            "province": "湖北省",
            "city": "咸宁市",
            "district": "赤壁市"
        }
    },
    {
        "id": "16480911596955154302",
        "title": "公共厕所",
        "address": "湖北省咸宁市嘉鱼县殷家坡路与沙阳大道交叉口东南方向76米左右",
        "tel": "",
        "category": "基础设施:公共设施:公共厕所",
        "type": 0,
        "location": {
            "lat": 29.972533,
            "lng": 113.923815
        },
        "ad_info": {
            "adcode": 421221,
            "province": "湖北省",
            "city": "咸宁市",
            "district": "嘉鱼县"
        }
    },
    {
        "id": "16696018493378867395",
        "title": "公共厕所",
        "address": "湖北省咸宁市咸安区体育街与新桂巷交叉口西北140米",
        "tel": "",
        "category": "基础设施:公共设施:公共厕所",
        "type": 0,
        "location": {
            "lat": 29.837991,
            "lng": 114.331863
        },
        "ad_info": {
            "adcode": 421202,
            "province": "湖北省",
            "city": "咸宁市",
            "district": "咸安区"
        }
    },
    {
        "id": "14039667983794506100",
        "title": "无障碍公共厕所",
        "address": "湖北省咸宁市崇阳县古堰湾农庄西北侧60米",
        "tel": "",
        "category": "基础设施:公共设施:公共厕所",
        "type": 0,
        "location": {
            "lat": 29.513737,
            "lng": 114.124708
        },
        "ad_info": {
            "adcode": 421223,
            "province": "湖北省",
            "city": "咸宁市",
            "district": "崇阳县"
        }
    },
    {
        "id": "2931973037269232088",
        "title": "公共厕所",
        "address": "湖北省咸宁市咸安区咸安大道与迎宾路交叉口正西方向374米左右",
        "tel": "",
        "category": "基础设施:公共设施:公共厕所",
        "type": 0,
        "location": {
            "lat": 29.894469,
            "lng": 114.293502
        },
        "ad_info": {
            "adcode": 421202,
            "province": "湖北省",
            "city": "咸宁市",
            "district": "咸安区"
        }
    },
    {
        "id": "12903931368651499669",
        "title": "公共厕所",
        "address": "湖北省咸宁市嘉鱼县环城路与西正街交叉口正东方向46米左右",
        "tel": "",
        "category": "基础设施:公共设施:公共厕所",
        "type": 0,
        "location": {
            "lat": 29.975873,
            "lng": 113.901602
        },
        "ad_info": {
            "adcode": 421221,
            "province": "湖北省",
            "city": "咸宁市",
            "district": "嘉鱼县"
        }
    },
    {
        "id": "11156577410008683352",
        "title": "公共厕所",
        "address": "湖北省咸宁市通城县陆家冲路与青山路交叉口东北方向639米左右",
        "tel": "",
        "category": "基础设施:公共设施:公共厕所",
        "type": 0,
        "location": {
            "lat": 29.265946,
            "lng": 113.816942
        },
        "ad_info": {
            "adcode": 421222,
            "province": "湖北省",
            "city": "咸宁市",
            "district": "通城县"
        }
    },
    {
        "id": "13772600056936158926",
        "title": "公共厕所",
        "address": "湖北省咸宁市咸安区咸安大道与迎宾路交叉口东北方向418米左右",
        "tel": "",
        "category": "基础设施:公共设施:公共厕所",
        "type": 0,
        "location": {
            "lat": 29.897473,
            "lng": 114.300913
        },
        "ad_info": {
            "adcode": 421202,
            "province": "湖北省",
            "city": "咸宁市",
            "district": "咸安区"
        }
    },
    {
        "id": "11347096791447544595",
        "title": "公共厕所",
        "address": "湖北省咸宁市赤壁市新桥路与胜利街交叉口正北方向39米左右",
        "tel": "",
        "category": "基础设施:公共设施:公共厕所",
        "type": 0,
        "location": {
            "lat": 29.564785,
            "lng": 113.719923
        },
        "ad_info": {
            "adcode": 421281,
            "province": "湖北省",
            "city": "咸宁市",
            "district": "赤壁市"
        }
    },
    {
        "id": "17484611152286526307",
        "title": "公共厕所",
        "address": "湖北省咸宁市咸安区G107与马畈桥交叉口正西方向238米左右",
        "tel": "",
        "category": "基础设施:公共设施:公共厕所",
        "type": 0,
        "location": {
            "lat": 29.835709,
            "lng": 114.206794
        },
        "ad_info": {
            "adcode": 421202,
            "province": "湖北省",
            "city": "咸宁市",
            "district": "咸安区"
        }
    },
    {
        "id": "5553868229217508903",
        "title": "公共厕所",
        "address": "湖北省咸宁市赤壁市晨鸣大道与迎宾大道交叉口东南方向191米左右",
        "tel": "",
        "category": "基础设施:公共设施:公共厕所",
        "type": 0,
        "location": {
            "lat": 29.716079,
            "lng": 113.863535
        },
        "ad_info": {
            "adcode": 421281,
            "province": "湖北省",
            "city": "咸宁市",
            "district": "赤壁市"
        }
    },
    {
        "id": "14550681885710178919",
        "title": "公共厕所",
        "address": "湖北省咸宁市嘉鱼县山湖路与陈家湾路交叉口正西方向1235米左右",
        "tel": "",
        "category": "基础设施:公共设施:公共厕所",
        "type": 0,
        "location": {
            "lat": 29.95418,
            "lng": 113.91039
        },
        "ad_info": {
            "adcode": 421221,
            "province": "湖北省",
            "city": "咸宁市",
            "district": "嘉鱼县"
        }
    },
    {
        "id": "11611368167299688842",
        "title": "公共厕所",
        "address": "湖北省咸宁市赤壁市沧湖荷风小院",
        "tel": "",
        "category": "基础设施:公共设施:公共厕所",
        "type": 0,
        "location": {
            "lat": 29.785255,
            "lng": 113.615527
        },
        "ad_info": {
            "adcode": 421281,
            "province": "湖北省",
            "city": "咸宁市",
            "district": "赤壁市"
        }
    },
    {
        "id": "15766921926645860161",
        "title": "公共厕所",
        "address": "湖北省咸宁市通山县井湾大道与凤池路交叉口正东方向268米左右",
        "tel": "",
        "category": "基础设施:公共设施:公共厕所",
        "type": 0,
        "location": {
            "lat": 29.600109,
            "lng": 114.502415
        },
        "ad_info": {
            "adcode": 421224,
            "province": "湖北省",
            "city": "咸宁市",
            "district": "通山县"
        }
    },
    {
        "id": "13001568951689608218",
        "title": "公共厕所",
        "address": "湖北省咸宁市嘉鱼县考棚村与胡家山巷交叉口西南方向50米左右",
        "tel": "",
        "category": "基础设施:公共设施:公共厕所",
        "type": 0,
        "location": {
            "lat": 29.975294,
            "lng": 113.907825
        },
        "ad_info": {
            "adcode": 421221,
            "province": "湖北省",
            "city": "咸宁市",
            "district": "嘉鱼县"
        }
    },
    {
        "id": "17015029987182566905",
        "title": "通山服务区公共厕所",
        "address": "湖北省咸宁市通山县G56杭瑞高速北150米",
        "tel": "",
        "category": "基础设施:公共设施:公共厕所",
        "type": 0,
        "location": {
            "lat": 29.653879,
            "lng": 114.502944
        },
        "ad_info": {
            "adcode": 421224,
            "province": "湖北省",
            "city": "咸宁市",
            "district": "通山县"
        }
    },
    {
        "id": "7361086758116273627",
        "title": "公共厕所",
        "address": "湖北省咸宁市嘉鱼县S330与Y002交叉口西北方向53米左右",
        "tel": "",
        "category": "基础设施:公共设施:公共厕所",
        "type": 0,
        "location": {
            "lat": 30.220942,
            "lng": 113.94511
        },
        "ad_info": {
            "adcode": 421221,
            "province": "湖北省",
            "city": "咸宁市",
            "district": "嘉鱼县"
        }
    },
    {
        "id": "11946700543375584885",
        "title": "公共厕所",
        "address": "湖北省咸宁市赤壁市西湖巷与银河湾路交叉口西南方向78米左右",
        "tel": "",
        "category": "基础设施:公共设施:公共厕所",
        "type": 0,
        "location": {
            "lat": 29.718912,
            "lng": 113.88281
        },
        "ad_info": {
            "adcode": 421281,
            "province": "湖北省",
            "city": "咸宁市",
            "district": "赤壁市"
        }
    },
    {
        "id": "17583690949909761585",
        "title": "公共厕所",
        "address": "湖北省咸宁市赤壁市莼川大道与银河湾路交叉口正北方向149米左右",
        "tel": "",
        "category": "基础设施:公共设施:公共厕所",
        "type": 0,
        "location": {
            "lat": 29.719726,
            "lng": 113.873541
        },
        "ad_info": {
            "adcode": 421281,
            "province": "湖北省",
            "city": "咸宁市",
            "district": "赤壁市"
        }
    },
    {
        "id": "3453302213643121680",
        "title": "公共厕所",
        "address": "湖北省咸宁市赤壁市车站路与金鸡山路交叉口西南方向33米左右",
        "tel": "",
        "category": "基础设施:公共设施:公共厕所",
        "type": 0,
        "location": {
            "lat": 29.710199,
            "lng": 113.882818
        },
        "ad_info": {
            "adcode": 421281,
            "province": "湖北省",
            "city": "咸宁市",
            "district": "赤壁市"
        }
    },
    {
        "id": "8782828538464512042",
        "title": "公共厕所",
        "address": "湖北省咸宁市赤壁市凤凰路与发展大道交叉口正西方向70米左右",
        "tel": "",
        "category": "基础设施:公共设施:公共厕所",
        "type": 0,
        "location": {
            "lat": 29.689998,
            "lng": 113.880274
        },
        "ad_info": {
            "adcode": 421281,
            "province": "湖北省",
            "city": "咸宁市",
            "district": "赤壁市"
        }
    },
    {
        "id": "16480911596955154302",
        "title": "公共厕所",
        "address": "湖北省咸宁市嘉鱼县殷家坡路与沙阳大道交叉口东南方向76米左右",
        "tel": "",
        "category": "基础设施:公共设施:公共厕所",
        "type": 0,
        "location": {
            "lat": 29.972533,
            "lng": 113.923815
        },
        "ad_info": {
            "adcode": 421221,
            "province": "湖北省",
            "city": "咸宁市",
            "district": "嘉鱼县"
        }
    },
    {
        "id": "16696018493378867395",
        "title": "公共厕所",
        "address": "湖北省咸宁市咸安区体育街与新桂巷交叉口西北140米",
        "tel": "",
        "category": "基础设施:公共设施:公共厕所",
        "type": 0,
        "location": {
            "lat": 29.837991,
            "lng": 114.331863
        },
        "ad_info": {
            "adcode": 421202,
            "province": "湖北省",
            "city": "咸宁市",
            "district": "咸安区"
        }
    },
    {
        "id": "14039667983794506100",
        "title": "无障碍公共厕所",
        "address": "湖北省咸宁市崇阳县古堰湾农庄西北侧60米",
        "tel": "",
        "category": "基础设施:公共设施:公共厕所",
        "type": 0,
        "location": {
            "lat": 29.513737,
            "lng": 114.124708
        },
        "ad_info": {
            "adcode": 421223,
            "province": "湖北省",
            "city": "咸宁市",
            "district": "崇阳县"
        }
    },
    {
        "id": "2931973037269232088",
        "title": "公共厕所",
        "address": "湖北省咸宁市咸安区咸安大道与迎宾路交叉口正西方向374米左右",
        "tel": "",
        "category": "基础设施:公共设施:公共厕所",
        "type": 0,
        "location": {
            "lat": 29.894469,
            "lng": 114.293502
        },
        "ad_info": {
            "adcode": 421202,
            "province": "湖北省",
            "city": "咸宁市",
            "district": "咸安区"
        }
    },
    {
        "id": "12903931368651499669",
        "title": "公共厕所",
        "address": "湖北省咸宁市嘉鱼县环城路与西正街交叉口正东方向46米左右",
        "tel": "",
        "category": "基础设施:公共设施:公共厕所",
        "type": 0,
        "location": {
            "lat": 29.975873,
            "lng": 113.901602
        },
        "ad_info": {
            "adcode": 421221,
            "province": "湖北省",
            "city": "咸宁市",
            "district": "嘉鱼县"
        }
    },
    {
        "id": "11156577410008683352",
        "title": "公共厕所",
        "address": "湖北省咸宁市通城县陆家冲路与青山路交叉口东北方向639米左右",
        "tel": "",
        "category": "基础设施:公共设施:公共厕所",
        "type": 0,
        "location": {
            "lat": 29.265946,
            "lng": 113.816942
        },
        "ad_info": {
            "adcode": 421222,
            "province": "湖北省",
            "city": "咸宁市",
            "district": "通城县"
        }
    },
    {
        "id": "13772600056936158926",
        "title": "公共厕所",
        "address": "湖北省咸宁市咸安区咸安大道与迎宾路交叉口东北方向418米左右",
        "tel": "",
        "category": "基础设施:公共设施:公共厕所",
        "type": 0,
        "location": {
            "lat": 29.897473,
            "lng": 114.300913
        },
        "ad_info": {
            "adcode": 421202,
            "province": "湖北省",
            "city": "咸宁市",
            "district": "咸安区"
        }
    },
    {
        "id": "11347096791447544595",
        "title": "公共厕所",
        "address": "湖北省咸宁市赤壁市新桥路与胜利街交叉口正北方向39米左右",
        "tel": "",
        "category": "基础设施:公共设施:公共厕所",
        "type": 0,
        "location": {
            "lat": 29.564785,
            "lng": 113.719923
        },
        "ad_info": {
            "adcode": 421281,
            "province": "湖北省",
            "city": "咸宁市",
            "district": "赤壁市"
        }
    },
    {
        "id": "17484611152286526307",
        "title": "公共厕所",
        "address": "湖北省咸宁市咸安区G107与马畈桥交叉口正西方向238米左右",
        "tel": "",
        "category": "基础设施:公共设施:公共厕所",
        "type": 0,
        "location": {
            "lat": 29.835709,
            "lng": 114.206794
        },
        "ad_info": {
            "adcode": 421202,
            "province": "湖北省",
            "city": "咸宁市",
            "district": "咸安区"
        }
    },
    {
        "id": "5553868229217508903",
        "title": "公共厕所",
        "address": "湖北省咸宁市赤壁市晨鸣大道与迎宾大道交叉口东南方向191米左右",
        "tel": "",
        "category": "基础设施:公共设施:公共厕所",
        "type": 0,
        "location": {
            "lat": 29.716079,
            "lng": 113.863535
        },
        "ad_info": {
            "adcode": 421281,
            "province": "湖北省",
            "city": "咸宁市",
            "district": "赤壁市"
        }
    },
    {
        "id": "14550681885710178919",
        "title": "公共厕所",
        "address": "湖北省咸宁市嘉鱼县山湖路与陈家湾路交叉口正西方向1235米左右",
        "tel": "",
        "category": "基础设施:公共设施:公共厕所",
        "type": 0,
        "location": {
            "lat": 29.95418,
            "lng": 113.91039
        },
        "ad_info": {
            "adcode": 421221,
            "province": "湖北省",
            "city": "咸宁市",
            "district": "嘉鱼县"
        }
    },
    {
        "id": "11611368167299688842",
        "title": "公共厕所",
        "address": "湖北省咸宁市赤壁市沧湖荷风小院",
        "tel": "",
        "category": "基础设施:公共设施:公共厕所",
        "type": 0,
        "location": {
            "lat": 29.785255,
            "lng": 113.615527
        },
        "ad_info": {
            "adcode": 421281,
            "province": "湖北省",
            "city": "咸宁市",
            "district": "赤壁市"
        }
    },
    {
        "id": "15766921926645860161",
        "title": "公共厕所",
        "address": "湖北省咸宁市通山县井湾大道与凤池路交叉口正东方向268米左右",
        "tel": "",
        "category": "基础设施:公共设施:公共厕所",
        "type": 0,
        "location": {
            "lat": 29.600109,
            "lng": 114.502415
        },
        "ad_info": {
            "adcode": 421224,
            "province": "湖北省",
            "city": "咸宁市",
            "district": "通山县"
        }
    },
    {
        "id": "13001568951689608218",
        "title": "公共厕所",
        "address": "湖北省咸宁市嘉鱼县考棚村与胡家山巷交叉口西南方向50米左右",
        "tel": "",
        "category": "基础设施:公共设施:公共厕所",
        "type": 0,
        "location": {
            "lat": 29.975294,
            "lng": 113.907825
        },
        "ad_info": {
            "adcode": 421221,
            "province": "湖北省",
            "city": "咸宁市",
            "district": "嘉鱼县"
        }
    },
    {
        "id": "17015029987182566905",
        "title": "通山服务区公共厕所",
        "address": "湖北省咸宁市通山县G56杭瑞高速北150米",
        "tel": "",
        "category": "基础设施:公共设施:公共厕所",
        "type": 0,
        "location": {
            "lat": 29.653879,
            "lng": 114.502944
        },
        "ad_info": {
            "adcode": 421224,
            "province": "湖北省",
            "city": "咸宁市",
            "district": "通山县"
        }
    },
    {
        "id": "7361086758116273627",
        "title": "公共厕所",
        "address": "湖北省咸宁市嘉鱼县S330与Y002交叉口西北方向53米左右",
        "tel": "",
        "category": "基础设施:公共设施:公共厕所",
        "type": 0,
        "location": {
            "lat": 30.220942,
            "lng": 113.94511
        },
        "ad_info": {
            "adcode": 421221,
            "province": "湖北省",
            "city": "咸宁市",
            "district": "嘉鱼县"
        }
    },
    {
        "id": "11946700543375584885",
        "title": "公共厕所",
        "address": "湖北省咸宁市赤壁市西湖巷与银河湾路交叉口西南方向78米左右",
        "tel": "",
        "category": "基础设施:公共设施:公共厕所",
        "type": 0,
        "location": {
            "lat": 29.718912,
            "lng": 113.88281
        },
        "ad_info": {
            "adcode": 421281,
            "province": "湖北省",
            "city": "咸宁市",
            "district": "赤壁市"
        }
    },
    {
        "id": "17583690949909761585",
        "title": "公共厕所",
        "address": "湖北省咸宁市赤壁市莼川大道与银河湾路交叉口正北方向149米左右",
        "tel": "",
        "category": "基础设施:公共设施:公共厕所",
        "type": 0,
        "location": {
            "lat": 29.719726,
            "lng": 113.873541
        },
        "ad_info": {
            "adcode": 421281,
            "province": "湖北省",
            "city": "咸宁市",
            "district": "赤壁市"
        }
    },
    {
        "id": "3453302213643121680",
        "title": "公共厕所",
        "address": "湖北省咸宁市赤壁市车站路与金鸡山路交叉口西南方向33米左右",
        "tel": "",
        "category": "基础设施:公共设施:公共厕所",
        "type": 0,
        "location": {
            "lat": 29.710199,
            "lng": 113.882818
        },
        "ad_info": {
            "adcode": 421281,
            "province": "湖北省",
            "city": "咸宁市",
            "district": "赤壁市"
        }
    },
    {
        "id": "8782828538464512042",
        "title": "公共厕所",
        "address": "湖北省咸宁市赤壁市凤凰路与发展大道交叉口正西方向70米左右",
        "tel": "",
        "category": "基础设施:公共设施:公共厕所",
        "type": 0,
        "location": {
            "lat": 29.689998,
            "lng": 113.880274
        },
        "ad_info": {
            "adcode": 421281,
            "province": "湖北省",
            "city": "咸宁市",
            "district": "赤壁市"
        }
    },
    {
        "id": "16480911596955154302",
        "title": "公共厕所",
        "address": "湖北省咸宁市嘉鱼县殷家坡路与沙阳大道交叉口东南方向76米左右",
        "tel": "",
        "category": "基础设施:公共设施:公共厕所",
        "type": 0,
        "location": {
            "lat": 29.972533,
            "lng": 113.923815
        },
        "ad_info": {
            "adcode": 421221,
            "province": "湖北省",
            "city": "咸宁市",
            "district": "嘉鱼县"
        }
    },
    {
        "id": "16696018493378867395",
        "title": "公共厕所",
        "address": "湖北省咸宁市咸安区体育街与新桂巷交叉口西北140米",
        "tel": "",
        "category": "基础设施:公共设施:公共厕所",
        "type": 0,
        "location": {
            "lat": 29.837991,
            "lng": 114.331863
        },
        "ad_info": {
            "adcode": 421202,
            "province": "湖北省",
            "city": "咸宁市",
            "district": "咸安区"
        }
    },
    {
        "id": "14039667983794506100",
        "title": "无障碍公共厕所",
        "address": "湖北省咸宁市崇阳县古堰湾农庄西北侧60米",
        "tel": "",
        "category": "基础设施:公共设施:公共厕所",
        "type": 0,
        "location": {
            "lat": 29.513737,
            "lng": 114.124708
        },
        "ad_info": {
            "adcode": 421223,
            "province": "湖北省",
            "city": "咸宁市",
            "district": "崇阳县"
        }
    },
    {
        "id": "2931973037269232088",
        "title": "公共厕所",
        "address": "湖北省咸宁市咸安区咸安大道与迎宾路交叉口正西方向374米左右",
        "tel": "",
        "category": "基础设施:公共设施:公共厕所",
        "type": 0,
        "location": {
            "lat": 29.894469,
            "lng": 114.293502
        },
        "ad_info": {
            "adcode": 421202,
            "province": "湖北省",
            "city": "咸宁市",
            "district": "咸安区"
        }
    },
    {
        "id": "12903931368651499669",
        "title": "公共厕所",
        "address": "湖北省咸宁市嘉鱼县环城路与西正街交叉口正东方向46米左右",
        "tel": "",
        "category": "基础设施:公共设施:公共厕所",
        "type": 0,
        "location": {
            "lat": 29.975873,
            "lng": 113.901602
        },
        "ad_info": {
            "adcode": 421221,
            "province": "湖北省",
            "city": "咸宁市",
            "district": "嘉鱼县"
        }
    },
    {
        "id": "11156577410008683352",
        "title": "公共厕所",
        "address": "湖北省咸宁市通城县陆家冲路与青山路交叉口东北方向639米左右",
        "tel": "",
        "category": "基础设施:公共设施:公共厕所",
        "type": 0,
        "location": {
            "lat": 29.265946,
            "lng": 113.816942
        },
        "ad_info": {
            "adcode": 421222,
            "province": "湖北省",
            "city": "咸宁市",
            "district": "通城县"
        }
    },
    {
        "id": "13772600056936158926",
        "title": "公共厕所",
        "address": "湖北省咸宁市咸安区咸安大道与迎宾路交叉口东北方向418米左右",
        "tel": "",
        "category": "基础设施:公共设施:公共厕所",
        "type": 0,
        "location": {
            "lat": 29.897473,
            "lng": 114.300913
        },
        "ad_info": {
            "adcode": 421202,
            "province": "湖北省",
            "city": "咸宁市",
            "district": "咸安区"
        }
    },
    {
        "id": "11347096791447544595",
        "title": "公共厕所",
        "address": "湖北省咸宁市赤壁市新桥路与胜利街交叉口正北方向39米左右",
        "tel": "",
        "category": "基础设施:公共设施:公共厕所",
        "type": 0,
        "location": {
            "lat": 29.564785,
            "lng": 113.719923
        },
        "ad_info": {
            "adcode": 421281,
            "province": "湖北省",
            "city": "咸宁市",
            "district": "赤壁市"
        }
    },
    {
        "id": "17484611152286526307",
        "title": "公共厕所",
        "address": "湖北省咸宁市咸安区G107与马畈桥交叉口正西方向238米左右",
        "tel": "",
        "category": "基础设施:公共设施:公共厕所",
        "type": 0,
        "location": {
            "lat": 29.835709,
            "lng": 114.206794
        },
        "ad_info": {
            "adcode": 421202,
            "province": "湖北省",
            "city": "咸宁市",
            "district": "咸安区"
        }
    },
    {
        "id": "5553868229217508903",
        "title": "公共厕所",
        "address": "湖北省咸宁市赤壁市晨鸣大道与迎宾大道交叉口东南方向191米左右",
        "tel": "",
        "category": "基础设施:公共设施:公共厕所",
        "type": 0,
        "location": {
            "lat": 29.716079,
            "lng": 113.863535
        },
        "ad_info": {
            "adcode": 421281,
            "province": "湖北省",
            "city": "咸宁市",
            "district": "赤壁市"
        }
    },
    {
        "id": "14550681885710178919",
        "title": "公共厕所",
        "address": "湖北省咸宁市嘉鱼县山湖路与陈家湾路交叉口正西方向1235米左右",
        "tel": "",
        "category": "基础设施:公共设施:公共厕所",
        "type": 0,
        "location": {
            "lat": 29.95418,
            "lng": 113.91039
        },
        "ad_info": {
            "adcode": 421221,
            "province": "湖北省",
            "city": "咸宁市",
            "district": "嘉鱼县"
        }
    },
    {
        "id": "11611368167299688842",
        "title": "公共厕所",
        "address": "湖北省咸宁市赤壁市沧湖荷风小院",
        "tel": "",
        "category": "基础设施:公共设施:公共厕所",
        "type": 0,
        "location": {
            "lat": 29.785255,
            "lng": 113.615527
        },
        "ad_info": {
            "adcode": 421281,
            "province": "湖北省",
            "city": "咸宁市",
            "district": "赤壁市"
        }
    },
    {
        "id": "15766921926645860161",
        "title": "公共厕所",
        "address": "湖北省咸宁市通山县井湾大道与凤池路交叉口正东方向268米左右",
        "tel": "",
        "category": "基础设施:公共设施:公共厕所",
        "type": 0,
        "location": {
            "lat": 29.600109,
            "lng": 114.502415
        },
        "ad_info": {
            "adcode": 421224,
            "province": "湖北省",
            "city": "咸宁市",
            "district": "通山县"
        }
    },
    {
        "id": "13001568951689608218",
        "title": "公共厕所",
        "address": "湖北省咸宁市嘉鱼县考棚村与胡家山巷交叉口西南方向50米左右",
        "tel": "",
        "category": "基础设施:公共设施:公共厕所",
        "type": 0,
        "location": {
            "lat": 29.975294,
            "lng": 113.907825
        },
        "ad_info": {
            "adcode": 421221,
            "province": "湖北省",
            "city": "咸宁市",
            "district": "嘉鱼县"
        }
    },
    {
        "id": "17015029987182566905",
        "title": "通山服务区公共厕所",
        "address": "湖北省咸宁市通山县G56杭瑞高速北150米",
        "tel": "",
        "category": "基础设施:公共设施:公共厕所",
        "type": 0,
        "location": {
            "lat": 29.653879,
            "lng": 114.502944
        },
        "ad_info": {
            "adcode": 421224,
            "province": "湖北省",
            "city": "咸宁市",
            "district": "通山县"
        }
    },
    {
        "id": "7361086758116273627",
        "title": "公共厕所",
        "address": "湖北省咸宁市嘉鱼县S330与Y002交叉口西北方向53米左右",
        "tel": "",
        "category": "基础设施:公共设施:公共厕所",
        "type": 0,
        "location": {
            "lat": 30.220942,
            "lng": 113.94511
        },
        "ad_info": {
            "adcode": 421221,
            "province": "湖北省",
            "city": "咸宁市",
            "district": "嘉鱼县"
        }
    },
    {
        "id": "11946700543375584885",
        "title": "公共厕所",
        "address": "湖北省咸宁市赤壁市西湖巷与银河湾路交叉口西南方向78米左右",
        "tel": "",
        "category": "基础设施:公共设施:公共厕所",
        "type": 0,
        "location": {
            "lat": 29.718912,
            "lng": 113.88281
        },
        "ad_info": {
            "adcode": 421281,
            "province": "湖北省",
            "city": "咸宁市",
            "district": "赤壁市"
        }
    },
    {
        "id": "17583690949909761585",
        "title": "公共厕所",
        "address": "湖北省咸宁市赤壁市莼川大道与银河湾路交叉口正北方向149米左右",
        "tel": "",
        "category": "基础设施:公共设施:公共厕所",
        "type": 0,
        "location": {
            "lat": 29.719726,
            "lng": 113.873541
        },
        "ad_info": {
            "adcode": 421281,
            "province": "湖北省",
            "city": "咸宁市",
            "district": "赤壁市"
        }
    },
    {
        "id": "3453302213643121680",
        "title": "公共厕所",
        "address": "湖北省咸宁市赤壁市车站路与金鸡山路交叉口西南方向33米左右",
        "tel": "",
        "category": "基础设施:公共设施:公共厕所",
        "type": 0,
        "location": {
            "lat": 29.710199,
            "lng": 113.882818
        },
        "ad_info": {
            "adcode": 421281,
            "province": "湖北省",
            "city": "咸宁市",
            "district": "赤壁市"
        }
    },
    {
        "id": "8782828538464512042",
        "title": "公共厕所",
        "address": "湖北省咸宁市赤壁市凤凰路与发展大道交叉口正西方向70米左右",
        "tel": "",
        "category": "基础设施:公共设施:公共厕所",
        "type": 0,
        "location": {
            "lat": 29.689998,
            "lng": 113.880274
        },
        "ad_info": {
            "adcode": 421281,
            "province": "湖北省",
            "city": "咸宁市",
            "district": "赤壁市"
        }
    },
    {
        "id": "16480911596955154302",
        "title": "公共厕所",
        "address": "湖北省咸宁市嘉鱼县殷家坡路与沙阳大道交叉口东南方向76米左右",
        "tel": "",
        "category": "基础设施:公共设施:公共厕所",
        "type": 0,
        "location": {
            "lat": 29.972533,
            "lng": 113.923815
        },
        "ad_info": {
            "adcode": 421221,
            "province": "湖北省",
            "city": "咸宁市",
            "district": "嘉鱼县"
        }
    },
    {
        "id": "16696018493378867395",
        "title": "公共厕所",
        "address": "湖北省咸宁市咸安区体育街与新桂巷交叉口西北140米",
        "tel": "",
        "category": "基础设施:公共设施:公共厕所",
        "type": 0,
        "location": {
            "lat": 29.837991,
            "lng": 114.331863
        },
        "ad_info": {
            "adcode": 421202,
            "province": "湖北省",
            "city": "咸宁市",
            "district": "咸安区"
        }
    },
    {
        "id": "14039667983794506100",
        "title": "无障碍公共厕所",
        "address": "湖北省咸宁市崇阳县古堰湾农庄西北侧60米",
        "tel": "",
        "category": "基础设施:公共设施:公共厕所",
        "type": 0,
        "location": {
            "lat": 29.513737,
            "lng": 114.124708
        },
        "ad_info": {
            "adcode": 421223,
            "province": "湖北省",
            "city": "咸宁市",
            "district": "崇阳县"
        }
    },
    {
        "id": "2931973037269232088",
        "title": "公共厕所",
        "address": "湖北省咸宁市咸安区咸安大道与迎宾路交叉口正西方向374米左右",
        "tel": "",
        "category": "基础设施:公共设施:公共厕所",
        "type": 0,
        "location": {
            "lat": 29.894469,
            "lng": 114.293502
        },
        "ad_info": {
            "adcode": 421202,
            "province": "湖北省",
            "city": "咸宁市",
            "district": "咸安区"
        }
    },
    {
        "id": "12903931368651499669",
        "title": "公共厕所",
        "address": "湖北省咸宁市嘉鱼县环城路与西正街交叉口正东方向46米左右",
        "tel": "",
        "category": "基础设施:公共设施:公共厕所",
        "type": 0,
        "location": {
            "lat": 29.975873,
            "lng": 113.901602
        },
        "ad_info": {
            "adcode": 421221,
            "province": "湖北省",
            "city": "咸宁市",
            "district": "嘉鱼县"
        }
    },
    {
        "id": "11156577410008683352",
        "title": "公共厕所",
        "address": "湖北省咸宁市通城县陆家冲路与青山路交叉口东北方向639米左右",
        "tel": "",
        "category": "基础设施:公共设施:公共厕所",
        "type": 0,
        "location": {
            "lat": 29.265946,
            "lng": 113.816942
        },
        "ad_info": {
            "adcode": 421222,
            "province": "湖北省",
            "city": "咸宁市",
            "district": "通城县"
        }
    },
    {
        "id": "13772600056936158926",
        "title": "公共厕所",
        "address": "湖北省咸宁市咸安区咸安大道与迎宾路交叉口东北方向418米左右",
        "tel": "",
        "category": "基础设施:公共设施:公共厕所",
        "type": 0,
        "location": {
            "lat": 29.897473,
            "lng": 114.300913
        },
        "ad_info": {
            "adcode": 421202,
            "province": "湖北省",
            "city": "咸宁市",
            "district": "咸安区"
        }
    },
    {
        "id": "11347096791447544595",
        "title": "公共厕所",
        "address": "湖北省咸宁市赤壁市新桥路与胜利街交叉口正北方向39米左右",
        "tel": "",
        "category": "基础设施:公共设施:公共厕所",
        "type": 0,
        "location": {
            "lat": 29.564785,
            "lng": 113.719923
        },
        "ad_info": {
            "adcode": 421281,
            "province": "湖北省",
            "city": "咸宁市",
            "district": "赤壁市"
        }
    },
    {
        "id": "17484611152286526307",
        "title": "公共厕所",
        "address": "湖北省咸宁市咸安区G107与马畈桥交叉口正西方向238米左右",
        "tel": "",
        "category": "基础设施:公共设施:公共厕所",
        "type": 0,
        "location": {
            "lat": 29.835709,
            "lng": 114.206794
        },
        "ad_info": {
            "adcode": 421202,
            "province": "湖北省",
            "city": "咸宁市",
            "district": "咸安区"
        }
    },
    {
        "id": "5553868229217508903",
        "title": "公共厕所",
        "address": "湖北省咸宁市赤壁市晨鸣大道与迎宾大道交叉口东南方向191米左右",
        "tel": "",
        "category": "基础设施:公共设施:公共厕所",
        "type": 0,
        "location": {
            "lat": 29.716079,
            "lng": 113.863535
        },
        "ad_info": {
            "adcode": 421281,
            "province": "湖北省",
            "city": "咸宁市",
            "district": "赤壁市"
        }
    },
    {
        "id": "14550681885710178919",
        "title": "公共厕所",
        "address": "湖北省咸宁市嘉鱼县山湖路与陈家湾路交叉口正西方向1235米左右",
        "tel": "",
        "category": "基础设施:公共设施:公共厕所",
        "type": 0,
        "location": {
            "lat": 29.95418,
            "lng": 113.91039
        },
        "ad_info": {
            "adcode": 421221,
            "province": "湖北省",
            "city": "咸宁市",
            "district": "嘉鱼县"
        }
    },
    {
        "id": "11611368167299688842",
        "title": "公共厕所",
        "address": "湖北省咸宁市赤壁市沧湖荷风小院",
        "tel": "",
        "category": "基础设施:公共设施:公共厕所",
        "type": 0,
        "location": {
            "lat": 29.785255,
            "lng": 113.615527
        },
        "ad_info": {
            "adcode": 421281,
            "province": "湖北省",
            "city": "咸宁市",
            "district": "赤壁市"
        }
    }
]