[
    {
        "id": "6641812336514011816",
        "title": "公共厕所",
        "address": "新疆维吾尔自治区哈密市伊州区丝绸大道与翰林路交叉口西南方向87米左右",
        "tel": "",
        "category": "基础设施:公共设施:公共厕所",
        "type": 0,
        "location": {
            "lat": 42.828109,
            "lng": 93.459521
        },
        "ad_info": {
            "adcode": 650502,
            "province": "新疆维吾尔自治区",
            "city": "哈密市",
            "district": "伊州区"
        }
    },
    {
        "id": "6695144090933506833",
        "title": "公共厕所",
        "address": "新疆维吾尔自治区哈密市伊州区人民路宝农农贸市场西北侧约220米",
        "tel": "",
        "category": "基础设施:公共设施:公共厕所",
        "type": 0,
        "location": {
            "lat": 42.824252,
            "lng": 93.476213
        },
        "ad_info": {
            "adcode": 650502,
            "province": "新疆维吾尔自治区",
            "city": "哈密市",
            "district": "伊州区"
        }
    },
    {
        "id": "16780363029375462446",
        "title": "公共厕所",
        "address": "新疆维吾尔自治区哈密市巴里坤哈萨克自治县天山路与新市路交叉口东北方向76米左右",
        "tel": "",
        "category": "基础设施:公共设施:公共厕所",
        "type": 0,
        "location": {
            "lat": 43.596348,
            "lng": 93.026365
        },
        "ad_info": {
            "adcode": 650521,
            "province": "新疆维吾尔自治区",
            "city": "哈密市",
            "district": "巴里坤哈萨克自治县"
        }
    },
    {
        "id": "13133247686967019820",
        "title": "公共厕所",
        "address": "新疆维吾尔自治区哈密市伊州区宗棠路与环城路交叉口正北方向334米左右",
        "tel": "",
        "category": "基础设施:公共设施:公共厕所",
        "type": 0,
        "location": {
            "lat": 42.815349,
            "lng": 93.510414
        },
        "ad_info": {
            "adcode": 650502,
            "province": "新疆维吾尔自治区",
            "city": "哈密市",
            "district": "伊州区"
        }
    },
    {
        "id": "1859654809773770189",
        "title": "公共厕所",
        "address": "新疆维吾尔自治区哈密市伊州区惠康园路与环城路交叉口西北方向93米左右",
        "tel": "",
        "category": "基础设施:公共设施:公共厕所",
        "type": 0,
        "location": {
            "lat": 42.817306,
            "lng": 93.487105
        },
        "ad_info": {
            "adcode": 650502,
            "province": "新疆维吾尔自治区",
            "city": "哈密市",
            "district": "伊州区"
        }
    },
    {
        "id": "10279715293125355890",
        "title": "公共厕所",
        "address": "新疆维吾尔自治区哈密市伊州区北京路与北环路交叉口西北方向49米左右",
        "tel": "",
        "category": "基础设施:公共设施:公共厕所",
        "type": 0,
        "location": {
            "lat": 42.855485,
            "lng": 93.515788
        },
        "ad_info": {
            "adcode": 650502,
            "province": "新疆维吾尔自治区",
            "city": "哈密市",
            "district": "伊州区"
        }
    },
    {
        "id": "11138654410013191567",
        "title": "公共厕所",
        "address": "新疆维吾尔自治区哈密市伊州区仁和路与泰和路交叉口西南方向170米左右",
        "tel": "",
        "category": "基础设施:公共设施:公共厕所",
        "type": 0,
        "location": {
            "lat": 42.833868,
            "lng": 93.482923
        },
        "ad_info": {
            "adcode": 650502,
            "province": "新疆维吾尔自治区",
            "city": "哈密市",
            "district": "伊州区"
        }
    },
    {
        "id": "32931819752001236",
        "title": "公共厕所",
        "address": "新疆维吾尔自治区哈密市伊州区人民路与经十二路交叉口东南方向81米左右",
        "tel": "",
        "category": "基础设施:公共设施:公共厕所",
        "type": 0,
        "location": {
            "lat": 42.821074,
            "lng": 93.485388
        },
        "ad_info": {
            "adcode": 650502,
            "province": "新疆维吾尔自治区",
            "city": "哈密市",
            "district": "伊州区"
        }
    },
    {
        "id": "17669623959372540695",
        "title": "公共厕所",
        "address": "新疆维吾尔自治区哈密市伊吾县S302与光明路交叉口东南方向85米左右",
        "tel": "",
        "category": "基础设施:公共设施:公共厕所",
        "type": 0,
        "location": {
            "lat": 43.3309,
            "lng": 94.297539
        },
        "ad_info": {
            "adcode": 650522,
            "province": "新疆维吾尔自治区",
            "city": "哈密市",
            "district": "伊吾县"
        }
    },
    {
        "id": "8053628453036107537",
        "title": "公共厕所",
        "address": "新疆维吾尔自治区哈密市巴里坤哈萨克自治县Z501与建业路交叉口正北方向183米左右",
        "tel": "",
        "category": "基础设施:公共设施:公共厕所",
        "type": 0,
        "location": {
            "lat": 43.71579,
            "lng": 93.150305
        },
        "ad_info": {
            "adcode": 650521,
            "province": "新疆维吾尔自治区",
            "city": "哈密市",
            "district": "巴里坤哈萨克自治县"
        }
    },
    {
        "id": "17472980577774162743",
        "title": "公共厕所",
        "address": "新疆维吾尔自治区哈密市伊州区千禧花园对面",
        "tel": "",
        "category": "基础设施:公共设施:公共厕所",
        "type": 0,
        "location": {
            "lat": 42.832434,
            "lng": 93.5246
        },
        "ad_info": {
            "adcode": 650502,
            "province": "新疆维吾尔自治区",
            "city": "哈密市",
            "district": "伊州区"
        }
    },
    {
        "id": "9582033517127059084",
        "title": "公共厕所",
        "address": "新疆维吾尔自治区哈密市伊州区复兴南路与建设东路交叉口正东方向129米左右",
        "tel": "",
        "category": "基础设施:公共设施:公共厕所",
        "type": 0,
        "location": {
            "lat": 42.836304,
            "lng": 93.507659
        },
        "ad_info": {
            "adcode": 650502,
            "province": "新疆维吾尔自治区",
            "city": "哈密市",
            "district": "伊州区"
        }
    },
    {
        "id": "9510141484524917462",
        "title": "公共厕所",
        "address": "新疆维吾尔自治区哈密市伊州区广东路与爱国北路交叉口东北方向177米左右",
        "tel": "",
        "category": "基础设施:公共设施:公共厕所",
        "type": 0,
        "location": {
            "lat": 42.82821,
            "lng": 93.51778
        },
        "ad_info": {
            "adcode": 650502,
            "province": "新疆维吾尔自治区",
            "city": "哈密市",
            "district": "伊州区"
        }
    },
    {
        "id": "11951312344792230291",
        "title": "公共卫生间",
        "address": "新疆维吾尔自治区哈密市伊州区东园路与中阿牙路交叉口东北方向284米左右",
        "tel": "",
        "category": "基础设施:公共设施:公共厕所",
        "type": 0,
        "location": {
            "lat": 42.816426,
            "lng": 93.519562
        },
        "ad_info": {
            "adcode": 650502,
            "province": "新疆维吾尔自治区",
            "city": "哈密市",
            "district": "伊州区"
        }
    },
    {
        "id": "10509670504768089274",
        "title": "公共厕所",
        "address": "新疆维吾尔自治区哈密市伊州区大营门路与经十二路交叉口正南方向100米左右",
        "tel": "",
        "category": "基础设施:公共设施:公共厕所",
        "type": 0,
        "location": {
            "lat": 42.824155,
            "lng": 93.48574
        },
        "ad_info": {
            "adcode": 650502,
            "province": "新疆维吾尔自治区",
            "city": "哈密市",
            "district": "伊州区"
        }
    },
    {
        "id": "11339755878875659614",
        "title": "公共厕所",
        "address": "新疆维吾尔自治区哈密市伊州区中华路与人民路交叉口西北方向147米左右",
        "tel": "",
        "category": "基础设施:公共设施:公共厕所",
        "type": 0,
        "location": {
            "lat": 42.82213,
            "lng": 93.508285
        },
        "ad_info": {
            "adcode": 650502,
            "province": "新疆维吾尔自治区",
            "city": "哈密市",
            "district": "伊州区"
        }
    },
    {
        "id": "6134492166260698653",
        "title": "公共厕所",
        "address": "新疆维吾尔自治区哈密市伊吾县团结东路与新风巷交叉口西北方向129米左右",
        "tel": "",
        "category": "基础设施:公共设施:公共厕所",
        "type": 0,
        "location": {
            "lat": 43.758459,
            "lng": 94.981893
        },
        "ad_info": {
            "adcode": 650522,
            "province": "新疆维吾尔自治区",
            "city": "哈密市",
            "district": "伊吾县"
        }
    },
    {
        "id": "16046568796172832657",
        "title": "公共厕所",
        "address": "新疆维吾尔自治区哈密市伊州区复兴北路与建设东路交叉口西北方向38米左右",
        "tel": "",
        "category": "基础设施:公共设施:公共厕所",
        "type": 0,
        "location": {
            "lat": 42.836656,
            "lng": 93.505685
        },
        "ad_info": {
            "adcode": 650502,
            "province": "新疆维吾尔自治区",
            "city": "哈密市",
            "district": "伊州区"
        }
    },
    {
        "id": "2870739897600780617",
        "title": "公共厕所",
        "address": "新疆维吾尔自治区哈密市伊州区复兴南路与广东路交叉口东北方向121米左右",
        "tel": "",
        "category": "基础设施:公共设施:公共厕所",
        "type": 0,
        "location": {
            "lat": 42.832483,
            "lng": 93.505617
        },
        "ad_info": {
            "adcode": 650502,
            "province": "新疆维吾尔自治区",
            "city": "哈密市",
            "district": "伊州区"
        }
    },
    {
        "id": "12183685717516584800",
        "title": "公共厕所",
        "address": "新疆维吾尔自治区哈密市伊州区广场北路与胜利路交叉口东南方向114米左右",
        "tel": "",
        "category": "基础设施:公共设施:公共厕所",
        "type": 0,
        "location": {
            "lat": 42.828379,
            "lng": 93.522647
        },
        "ad_info": {
            "adcode": 650502,
            "province": "新疆维吾尔自治区",
            "city": "哈密市",
            "district": "伊州区"
        }
    },
    {
        "id": "5484106881494609329",
        "title": "公共厕所",
        "address": "新疆维吾尔自治区哈密市伊州区前进东路103号",
        "tel": "",
        "category": "基础设施:公共设施:公共厕所",
        "type": 0,
        "location": {
            "lat": 42.847466,
            "lng": 93.507073
        },
        "ad_info": {
            "adcode": 650502,
            "province": "新疆维吾尔自治区",
            "city": "哈密市",
            "district": "伊州区"
        }
    },
    {
        "id": "2615342904842555881",
        "title": "公共厕所",
        "address": "新疆维吾尔自治区哈密市伊州区友谊路与步行街交叉口正西方向194米左右",
        "tel": "",
        "category": "基础设施:公共设施:公共厕所",
        "type": 0,
        "location": {
            "lat": 42.84556,
            "lng": 93.499133
        },
        "ad_info": {
            "adcode": 650502,
            "province": "新疆维吾尔自治区",
            "city": "哈密市",
            "district": "伊州区"
        }
    },
    {
        "id": "7355219055422179845",
        "title": "公共厕所",
        "address": "新疆维吾尔自治区哈密市巴里坤哈萨克自治县光明北路与团结东路交叉口西北方向68米左右",
        "tel": "",
        "category": "基础设施:公共设施:公共厕所",
        "type": 0,
        "location": {
            "lat": 43.602813,
            "lng": 93.041523
        },
        "ad_info": {
            "adcode": 650521,
            "province": "新疆维吾尔自治区",
            "city": "哈密市",
            "district": "巴里坤哈萨克自治县"
        }
    },
    {
        "id": "1306441753176395176",
        "title": "公共厕所",
        "address": "新疆维吾尔自治区哈密市伊州区八一北路雅馨苑小区",
        "tel": "",
        "category": "基础设施:公共设施:公共厕所",
        "type": 0,
        "location": {
            "lat": 42.852205,
            "lng": 93.488029
        },
        "ad_info": {
            "adcode": 650502,
            "province": "新疆维吾尔自治区",
            "city": "哈密市",
            "district": "伊州区"
        }
    },
    {
        "id": "15518591427132050283",
        "title": "公共厕所",
        "address": "新疆维吾尔自治区哈密市伊州区幸福路与思源路交叉口东北方向79米左右",
        "tel": "",
        "category": "基础设施:公共设施:公共厕所",
        "type": 0,
        "location": {
            "lat": 42.8259,
            "lng": 93.550616
        },
        "ad_info": {
            "adcode": 650502,
            "province": "新疆维吾尔自治区",
            "city": "哈密市",
            "district": "伊州区"
        }
    },
    {
        "id": "11659700295425906518",
        "title": "公共厕所",
        "address": "新疆维吾尔自治区哈密市伊州区内环东路与校园路交叉口正东方向253米左右",
        "tel": "",
        "category": "基础设施:公共设施:公共厕所",
        "type": 0,
        "location": {
            "lat": 42.91083,
            "lng": 93.49992
        },
        "ad_info": {
            "adcode": 650502,
            "province": "新疆维吾尔自治区",
            "city": "哈密市",
            "district": "伊州区"
        }
    },
    {
        "id": "12220985177662441585",
        "title": "公共厕所",
        "address": "新疆维吾尔自治区哈密市伊州区幸福路与延安路交叉口东北方向222米左右",
        "tel": "",
        "category": "基础设施:公共设施:公共厕所",
        "type": 0,
        "location": {
            "lat": 42.84891,
            "lng": 93.52739
        },
        "ad_info": {
            "adcode": 650502,
            "province": "新疆维吾尔自治区",
            "city": "哈密市",
            "district": "伊州区"
        }
    },
    {
        "id": "3198029520847043975",
        "title": "公共厕所",
        "address": "新疆维吾尔自治区哈密市伊州区八一北路与八一南大道交叉口东南方向160米左右",
        "tel": "",
        "category": "基础设施:公共设施:公共厕所",
        "type": 0,
        "location": {
            "lat": 42.842865,
            "lng": 93.49342
        },
        "ad_info": {
            "adcode": 650502,
            "province": "新疆维吾尔自治区",
            "city": "哈密市",
            "district": "伊州区"
        }
    },
    {
        "id": "1476759295105131499",
        "title": "公共厕所",
        "address": "新疆维吾尔自治区哈密市伊州区亚欧路与迎宾大道交叉口正西方向471米左右",
        "tel": "",
        "category": "基础设施:公共设施:公共厕所",
        "type": 0,
        "location": {
            "lat": 42.845339,
            "lng": 93.541035
        },
        "ad_info": {
            "adcode": 650502,
            "province": "新疆维吾尔自治区",
            "city": "哈密市",
            "district": "伊州区"
        }
    },
    {
        "id": "1992664543612250752",
        "title": "公共厕所",
        "address": "新疆维吾尔自治区哈密市伊州区外环东路与外环南路交叉口东北方向142米左右",
        "tel": "",
        "category": "基础设施:公共设施:公共厕所",
        "type": 0,
        "location": {
            "lat": 42.897493,
            "lng": 93.494843
        },
        "ad_info": {
            "adcode": 650502,
            "province": "新疆维吾尔自治区",
            "city": "哈密市",
            "district": "伊州区"
        }
    },
    {
        "id": "5584034327549334802",
        "title": "公共厕所",
        "address": "新疆维吾尔自治区哈密市伊州区前进西路与新华路交叉口东南方向471米左右",
        "tel": "",
        "category": "基础设施:公共设施:公共厕所",
        "type": 0,
        "location": {
            "lat": 42.851385,
            "lng": 93.499508
        },
        "ad_info": {
            "adcode": 650502,
            "province": "新疆维吾尔自治区",
            "city": "哈密市",
            "district": "伊州区"
        }
    },
    {
        "id": "14450967391828526718",
        "title": "公共厕所",
        "address": "新疆维吾尔自治区哈密市巴里坤哈萨克自治县蒲类景观小区东侧110米",
        "tel": "",
        "category": "基础设施:公共设施:公共厕所",
        "type": 0,
        "location": {
            "lat": 43.601058,
            "lng": 93.013992
        },
        "ad_info": {
            "adcode": 650521,
            "province": "新疆维吾尔自治区",
            "city": "哈密市",
            "district": "巴里坤哈萨克自治县"
        }
    },
    {
        "id": "3721767630790642218",
        "title": "公共厕所",
        "address": "新疆维吾尔自治区哈密市伊州区中山北路与文化东路交叉口正东方向128米左右",
        "tel": "",
        "category": "基础设施:公共设施:公共厕所",
        "type": 0,
        "location": {
            "lat": 42.821458,
            "lng": 93.516695
        },
        "ad_info": {
            "adcode": 650502,
            "province": "新疆维吾尔自治区",
            "city": "哈密市",
            "district": "伊州区"
        }
    },
    {
        "id": "2951548137685162675",
        "title": "公共厕所",
        "address": "新疆维吾尔自治区哈密市伊州区G312与S303交叉口西北方向586米左右",
        "tel": "",
        "category": "基础设施:公共设施:公共厕所",
        "type": 0,
        "location": {
            "lat": 42.867321,
            "lng": 93.561015
        },
        "ad_info": {
            "adcode": 650502,
            "province": "新疆维吾尔自治区",
            "city": "哈密市",
            "district": "伊州区"
        }
    },
    {
        "id": "18058148097106444639",
        "title": "公共厕所",
        "address": "新疆维吾尔自治区哈密市伊州区内环东路与迎宾东路交叉口正东方向38米左右",
        "tel": "",
        "category": "基础设施:公共设施:公共厕所",
        "type": 0,
        "location": {
            "lat": 42.905567,
            "lng": 93.49371
        },
        "ad_info": {
            "adcode": 650502,
            "province": "新疆维吾尔自治区",
            "city": "哈密市",
            "district": "伊州区"
        }
    },
    {
        "id": "16530367081873159885",
        "title": "公共厕所",
        "address": "新疆维吾尔自治区哈密市伊吾县新区半圆市场",
        "tel": "",
        "category": "基础设施:公共设施:公共厕所",
        "type": 0,
        "location": {
            "lat": 43.246128,
            "lng": 94.681285
        },
        "ad_info": {
            "adcode": 650522,
            "province": "新疆维吾尔自治区",
            "city": "哈密市",
            "district": "伊吾县"
        }
    },
    {
        "id": "17356450033209300535",
        "title": "公共厕所",
        "address": "新疆维吾尔自治区哈密市伊州区和谐路与锦绣路交叉口东北方向169米左右",
        "tel": "",
        "category": "基础设施:公共设施:公共厕所",
        "type": 0,
        "location": {
            "lat": 42.866065,
            "lng": 93.446041
        },
        "ad_info": {
            "adcode": 650502,
            "province": "新疆维吾尔自治区",
            "city": "哈密市",
            "district": "伊州区"
        }
    },
    {
        "id": "1486320427158433153",
        "title": "公共厕所",
        "address": "新疆维吾尔自治区哈密市伊吾县双拥路与建设路交叉口东北方向109米左右",
        "tel": "",
        "category": "基础设施:公共设施:公共厕所",
        "type": 0,
        "location": {
            "lat": 43.251392,
            "lng": 94.69275
        },
        "ad_info": {
            "adcode": 650522,
            "province": "新疆维吾尔自治区",
            "city": "哈密市",
            "district": "伊吾县"
        }
    },
    {
        "id": "15506728397282565714",
        "title": "公共厕所",
        "address": "新疆维吾尔自治区哈密市伊州区天山南路与天山西路交叉口西南方向144米左右",
        "tel": "",
        "category": "基础设施:公共设施:公共厕所",
        "type": 0,
        "location": {
            "lat": 42.831225,
            "lng": 93.502253
        },
        "ad_info": {
            "adcode": 650502,
            "province": "新疆维吾尔自治区",
            "city": "哈密市",
            "district": "伊州区"
        }
    },
    {
        "id": "17337043871593840602",
        "title": "公共厕所",
        "address": "新疆维吾尔自治区哈密市伊州区八一北路正帮达·科苑城",
        "tel": "",
        "category": "基础设施:公共设施:公共厕所",
        "type": 0,
        "location": {
            "lat": 42.836684,
            "lng": 93.495466
        },
        "ad_info": {
            "adcode": 650502,
            "province": "新疆维吾尔自治区",
            "city": "哈密市",
            "district": "伊州区"
        }
    },
    {
        "id": "14610714950261285785",
        "title": "公共厕所",
        "address": "新疆维吾尔自治区哈密市伊州区光明路与田园东路交叉口正西方向69米左右",
        "tel": "",
        "category": "基础设施:公共设施:公共厕所",
        "type": 0,
        "location": {
            "lat": 42.839886,
            "lng": 93.518232
        },
        "ad_info": {
            "adcode": 650502,
            "province": "新疆维吾尔自治区",
            "city": "哈密市",
            "district": "伊州区"
        }
    },
    {
        "id": "2849851565393695409",
        "title": "公共厕所",
        "address": "新疆维吾尔自治区哈密市伊州区融合南路与融合路交叉口正北方向53米左右",
        "tel": "",
        "category": "基础设施:公共设施:公共厕所",
        "type": 0,
        "location": {
            "lat": 42.844024,
            "lng": 93.530469
        },
        "ad_info": {
            "adcode": 650502,
            "province": "新疆维吾尔自治区",
            "city": "哈密市",
            "district": "伊州区"
        }
    },
    {
        "id": "17256681155752857328",
        "title": "公共厕所",
        "address": "新疆维吾尔自治区哈密市伊吾县",
        "tel": "",
        "category": "基础设施:公共设施:公共厕所",
        "type": 0,
        "location": {
            "lat": 43.402667,
            "lng": 94.256736
        },
        "ad_info": {
            "adcode": 650522,
            "province": "新疆维吾尔自治区",
            "city": "哈密市",
            "district": "伊吾县"
        }
    },
    {
        "id": "6621700427779933365",
        "title": "公共厕所",
        "address": "新疆维吾尔自治区哈密市伊州区天山北路与建设东路交叉口正西方向70米左右",
        "tel": "",
        "category": "基础设施:公共设施:公共厕所",
        "type": 0,
        "location": {
            "lat": 42.837043,
            "lng": 93.502035
        },
        "ad_info": {
            "adcode": 650502,
            "province": "新疆维吾尔自治区",
            "city": "哈密市",
            "district": "伊州区"
        }
    },
    {
        "id": "9862891900038200196",
        "title": "公共厕所",
        "address": "新疆维吾尔自治区哈密市伊州区延安路与迎宾大道交叉口正西方向61米左右",
        "tel": "",
        "category": "基础设施:公共设施:公共厕所",
        "type": 0,
        "location": {
            "lat": 42.83931,
            "lng": 93.539559
        },
        "ad_info": {
            "adcode": 650502,
            "province": "新疆维吾尔自治区",
            "city": "哈密市",
            "district": "伊州区"
        }
    },
    {
        "id": "3757193720552116175",
        "title": "公共卫生间",
        "address": "新疆维吾尔自治区哈密市伊州区建设东路兴业文轩苑",
        "tel": "",
        "category": "基础设施:公共设施:公共厕所",
        "type": 0,
        "location": {
            "lat": 42.837148,
            "lng": 93.513201
        },
        "ad_info": {
            "adcode": 650502,
            "province": "新疆维吾尔自治区",
            "city": "哈密市",
            "district": "伊州区"
        }
    },
    {
        "id": "12681258453820421997",
        "title": "公共厕所",
        "address": "新疆维吾尔自治区哈密市伊州区伊州大道与八一南大道交叉口正东方向149米左右",
        "tel": "",
        "category": "基础设施:公共设施:公共厕所",
        "type": 0,
        "location": {
            "lat": 42.831405,
            "lng": 93.495635
        },
        "ad_info": {
            "adcode": 650502,
            "province": "新疆维吾尔自治区",
            "city": "哈密市",
            "district": "伊州区"
        }
    },
    {
        "id": "10901248922661874810",
        "title": "公共厕所",
        "address": "新疆维吾尔自治区哈密市伊州区红星东路与青年北路交叉口正南方向274米左右",
        "tel": "",
        "category": "基础设施:公共设施:公共厕所",
        "type": 0,
        "location": {
            "lat": 42.829004,
            "lng": 93.541479
        },
        "ad_info": {
            "adcode": 650502,
            "province": "新疆维吾尔自治区",
            "city": "哈密市",
            "district": "伊州区"
        }
    },
    {
        "id": "14915739010872457504",
        "title": "公共厕所",
        "address": "新疆维吾尔自治区哈密市伊州区光明路与建设东路交叉口正西方向195米左右",
        "tel": "",
        "category": "基础设施:公共设施:公共厕所",
        "type": 0,
        "location": {
            "lat": 42.836483,
            "lng": 93.516737
        },
        "ad_info": {
            "adcode": 650502,
            "province": "新疆维吾尔自治区",
            "city": "哈密市",
            "district": "伊州区"
        }
    },
    {
        "id": "1869151696373351152",
        "title": "公共厕所",
        "address": "新疆维吾尔自治区哈密市伊州区自由路顺驰苑",
        "tel": "",
        "category": "基础设施:公共设施:公共厕所",
        "type": 0,
        "location": {
            "lat": 42.812666,
            "lng": 93.50849
        },
        "ad_info": {
            "adcode": 650502,
            "province": "新疆维吾尔自治区",
            "city": "哈密市",
            "district": "伊州区"
        }
    },
    {
        "id": "9080935649901952702",
        "title": "公共厕所",
        "address": "新疆维吾尔自治区哈密市伊州区中山北路与文化东路交叉口正东方向103米左右",
        "tel": "",
        "category": "基础设施:公共设施:公共厕所",
        "type": 0,
        "location": {
            "lat": 42.822141,
            "lng": 93.516375
        },
        "ad_info": {
            "adcode": 650502,
            "province": "新疆维吾尔自治区",
            "city": "哈密市",
            "district": "伊州区"
        }
    },
    {
        "id": "14231355746288417765",
        "title": "公共厕所",
        "address": "新疆维吾尔自治区哈密市伊州区友四段与友好东路交叉口正北方向43米左右",
        "tel": "",
        "category": "基础设施:公共设施:公共厕所",
        "type": 0,
        "location": {
            "lat": 42.879291,
            "lng": 93.435606
        },
        "ad_info": {
            "adcode": 650502,
            "province": "新疆维吾尔自治区",
            "city": "哈密市",
            "district": "伊州区"
        }
    },
    {
        "id": "16496480580884651709",
        "title": "公共厕所",
        "address": "新疆维吾尔自治区哈密市巴里坤哈萨克自治县303省道北50米",
        "tel": "",
        "category": "基础设施:公共设施:公共厕所",
        "type": 0,
        "location": {
            "lat": 43.598507,
            "lng": 92.778006
        },
        "ad_info": {
            "adcode": 650521,
            "province": "新疆维吾尔自治区",
            "city": "哈密市",
            "district": "巴里坤哈萨克自治县"
        }
    },
    {
        "id": "15935001550558468969",
        "title": "公共厕所",
        "address": "新疆维吾尔自治区哈密市伊州区新民三路银顺苑",
        "tel": "",
        "category": "基础设施:公共设施:公共厕所",
        "type": 0,
        "location": {
            "lat": 42.847771,
            "lng": 93.488379
        },
        "ad_info": {
            "adcode": 650502,
            "province": "新疆维吾尔自治区",
            "city": "哈密市",
            "district": "伊州区"
        }
    },
    {
        "id": "179559834049661508",
        "title": "公共厕所",
        "address": "新疆维吾尔自治区哈密市伊州区时代城-二区",
        "tel": "",
        "category": "基础设施:公共设施:公共厕所",
        "type": 0,
        "location": {
            "lat": 42.818377,
            "lng": 93.481252
        },
        "ad_info": {
            "adcode": 650502,
            "province": "新疆维吾尔自治区",
            "city": "哈密市",
            "district": "伊州区"
        }
    },
    {
        "id": "12186481778189157171",
        "title": "公共厕所",
        "address": "新疆维吾尔自治区哈密市伊州区惠康北路与惠康西巷交叉口西北方向155米左右",
        "tel": "",
        "category": "基础设施:公共设施:公共厕所",
        "type": 0,
        "location": {
            "lat": 42.820717,
            "lng": 93.479455
        },
        "ad_info": {
            "adcode": 650502,
            "province": "新疆维吾尔自治区",
            "city": "哈密市",
            "district": "伊州区"
        }
    },
    {
        "id": "18351189206529458777",
        "title": "公共厕所",
        "address": "新疆维吾尔自治区哈密市伊州区创业路2号-22室",
        "tel": "",
        "category": "基础设施:公共设施:公共厕所",
        "type": 0,
        "location": {
            "lat": 42.902162,
            "lng": 93.498204
        },
        "ad_info": {
            "adcode": 650502,
            "province": "新疆维吾尔自治区",
            "city": "哈密市",
            "district": "伊州区"
        }
    },
    {
        "id": "15813330065940350128",
        "title": "公共厕所",
        "address": "新疆维吾尔自治区哈密市伊州区天山东路与饭店路交叉口正南方向209米左右",
        "tel": "",
        "category": "基础设施:公共设施:公共厕所",
        "type": 0,
        "location": {
            "lat": 42.831572,
            "lng": 93.512199
        },
        "ad_info": {
            "adcode": 650502,
            "province": "新疆维吾尔自治区",
            "city": "哈密市",
            "district": "伊州区"
        }
    },
    {
        "id": "8173267698090977094",
        "title": "公共厕所",
        "address": "新疆维吾尔自治区哈密市巴里坤哈萨克自治县303省道与658乡道交叉口南150米",
        "tel": "",
        "category": "基础设施:公共设施:公共厕所",
        "type": 0,
        "location": {
            "lat": 43.471971,
            "lng": 93.518326
        },
        "ad_info": {
            "adcode": 650521,
            "province": "新疆维吾尔自治区",
            "city": "哈密市",
            "district": "巴里坤哈萨克自治县"
        }
    },
    {
        "id": "5208266695901800484",
        "title": "公共厕所",
        "address": "新疆维吾尔自治区哈密市伊州区大西洋路与羊城大道交叉口正北方向66米左右",
        "tel": "",
        "category": "基础设施:公共设施:公共厕所",
        "type": 0,
        "location": {
            "lat": 42.887224,
            "lng": 93.59085
        },
        "ad_info": {
            "adcode": 650502,
            "province": "新疆维吾尔自治区",
            "city": "哈密市",
            "district": "伊州区"
        }
    },
    {
        "id": "9192944890805025611",
        "title": "公共厕所",
        "address": "新疆维吾尔自治区哈密市伊州区延安路与融合路交叉口东北方向122米左右",
        "tel": "",
        "category": "基础设施:公共设施:公共厕所",
        "type": 0,
        "location": {
            "lat": 42.844862,
            "lng": 93.532521
        },
        "ad_info": {
            "adcode": 650502,
            "province": "新疆维吾尔自治区",
            "city": "哈密市",
            "district": "伊州区"
        }
    },
    {
        "id": "17069959251419294312",
        "title": "公共厕所",
        "address": "新疆维吾尔自治区哈密市伊州区仁和路与伊州大道交叉口正东方向230米左右",
        "tel": "",
        "category": "基础设施:公共设施:公共厕所",
        "type": 0,
        "location": {
            "lat": 42.832161,
            "lng": 93.486807
        },
        "ad_info": {
            "adcode": 650502,
            "province": "新疆维吾尔自治区",
            "city": "哈密市",
            "district": "伊州区"
        }
    },
    {
        "id": "14128178484350319408",
        "title": "公共厕所",
        "address": "新疆维吾尔自治区哈密市伊州区红星东路与红星北路交叉口西南方向78米左右",
        "tel": "",
        "category": "基础设施:公共设施:公共厕所",
        "type": 0,
        "location": {
            "lat": 42.834255,
            "lng": 93.539092
        },
        "ad_info": {
            "adcode": 650502,
            "province": "新疆维吾尔自治区",
            "city": "哈密市",
            "district": "伊州区"
        }
    },
    {
        "id": "4690011289542388632",
        "title": "卫生间",
        "address": "新疆维吾尔自治区哈密市伊州区人民中路与人民南路交叉口正北方向223米左右",
        "tel": "",
        "category": "基础设施:公共设施:公共厕所",
        "type": 0,
        "location": {
            "lat": 43.151557,
            "lng": 92.67606
        },
        "ad_info": {
            "adcode": 650502,
            "province": "新疆维吾尔自治区",
            "city": "哈密市",
            "district": "伊州区"
        }
    },
    {
        "id": "16940766698986081032",
        "title": "公共厕所",
        "address": "新疆维吾尔自治区哈密市伊州区云杉南路与延安路交叉口西南方向155米左右",
        "tel": "",
        "category": "基础设施:公共设施:公共厕所",
        "type": 0,
        "location": {
            "lat": 42.842141,
            "lng": 93.532028
        },
        "ad_info": {
            "adcode": 650502,
            "province": "新疆维吾尔自治区",
            "city": "哈密市",
            "district": "伊州区"
        }
    },
    {
        "id": "11872802484983789502",
        "title": "公共厕所",
        "address": "新疆维吾尔自治区哈密市伊州区安全路海大风尚酒店",
        "tel": "",
        "category": "基础设施:公共设施:公共厕所",
        "type": 0,
        "location": {
            "lat": 42.842139,
            "lng": 93.537678
        },
        "ad_info": {
            "adcode": 650502,
            "province": "新疆维吾尔自治区",
            "city": "哈密市",
            "district": "伊州区"
        }
    },
    {
        "id": "11330441089545195643",
        "title": "公共厕所",
        "address": "新疆维吾尔自治区哈密市伊州区中华路与人民路交叉口东北方向140米左右",
        "tel": "",
        "category": "基础设施:公共设施:公共厕所",
        "type": 0,
        "location": {
            "lat": 42.822086,
            "lng": 93.509823
        },
        "ad_info": {
            "adcode": 650502,
            "province": "新疆维吾尔自治区",
            "city": "哈密市",
            "district": "伊州区"
        }
    },
    {
        "id": "6427966279941322958",
        "title": "公共厕所",
        "address": "新疆维吾尔自治区哈密市伊州区建安路与育才路交叉口正东方向112米左右",
        "tel": "",
        "category": "基础设施:公共设施:公共厕所",
        "type": 0,
        "location": {
            "lat": 43.149466,
            "lng": 92.674375
        },
        "ad_info": {
            "adcode": 650502,
            "province": "新疆维吾尔自治区",
            "city": "哈密市",
            "district": "伊州区"
        }
    },
    {
        "id": "3236174821293468503",
        "title": "公共厕所",
        "address": "新疆维吾尔自治区哈密市伊州区军工西路与松香西路交叉口正西方向432米左右",
        "tel": "",
        "category": "基础设施:公共设施:公共厕所",
        "type": 0,
        "location": {
            "lat": 43.370484,
            "lng": 93.62005
        },
        "ad_info": {
            "adcode": 650502,
            "province": "新疆维吾尔自治区",
            "city": "哈密市",
            "district": "伊州区"
        }
    },
    {
        "id": "14403896246449664709",
        "title": "公共厕所",
        "address": "新疆维吾尔自治区哈密市伊州区红星东路与青年北路交叉口正东方向187米左右",
        "tel": "",
        "category": "基础设施:公共设施:公共厕所",
        "type": 0,
        "location": {
            "lat": 42.830956,
            "lng": 93.543985
        },
        "ad_info": {
            "adcode": 650502,
            "province": "新疆维吾尔自治区",
            "city": "哈密市",
            "district": "伊州区"
        }
    },
    {
        "id": "15417836112641872719",
        "title": "公共厕所",
        "address": "新疆维吾尔自治区哈密市伊州区安全路高铁安置小区",
        "tel": "",
        "category": "基础设施:公共设施:公共厕所",
        "type": 0,
        "location": {
            "lat": 42.845224,
            "lng": 93.540571
        },
        "ad_info": {
            "adcode": 650502,
            "province": "新疆维吾尔自治区",
            "city": "哈密市",
            "district": "伊州区"
        }
    },
    {
        "id": "10245097427555323",
        "title": "公共厕所",
        "address": "新疆维吾尔自治区哈密市伊州区二堡农机加油站东北侧250米",
        "tel": "",
        "category": "基础设施:公共设施:公共厕所",
        "type": 0,
        "location": {
            "lat": 42.963598,
            "lng": 93.170932
        },
        "ad_info": {
            "adcode": 650502,
            "province": "新疆维吾尔自治区",
            "city": "哈密市",
            "district": "伊州区"
        }
    },
    {
        "id": "18086665844994122938",
        "title": "公共厕所",
        "address": "新疆维吾尔自治区哈密市伊州区仁和路与伊州大道交叉口正北方向116米左右",
        "tel": "",
        "category": "基础设施:公共设施:公共厕所",
        "type": 0,
        "location": {
            "lat": 42.832832,
            "lng": 93.483786
        },
        "ad_info": {
            "adcode": 650502,
            "province": "新疆维吾尔自治区",
            "city": "哈密市",
            "district": "伊州区"
        }
    },
    {
        "id": "3739520554748557765",
        "title": "公共厕所",
        "address": "新疆维吾尔自治区哈密市伊州区安全北路与安全南路交叉口东北方向465米左右",
        "tel": "",
        "category": "基础设施:公共设施:公共厕所",
        "type": 0,
        "location": {
            "lat": 42.843968,
            "lng": 93.541142
        },
        "ad_info": {
            "adcode": 650502,
            "province": "新疆维吾尔自治区",
            "city": "哈密市",
            "district": "伊州区"
        }
    },
    {
        "id": "6756471809858398894",
        "title": "公共厕所",
        "address": "新疆维吾尔自治区哈密市伊州区S249与X087交叉口正北方向43米左右",
        "tel": "",
        "category": "基础设施:公共设施:公共厕所",
        "type": 0,
        "location": {
            "lat": 43.183409,
            "lng": 93.681784
        },
        "ad_info": {
            "adcode": 650502,
            "province": "新疆维吾尔自治区",
            "city": "哈密市",
            "district": "伊州区"
        }
    },
    {
        "id": "257869457230714101",
        "title": "公共厕所",
        "address": "新疆维吾尔自治区哈密市伊州区光明路与建设东路交叉口西北方向77米左右",
        "tel": "",
        "category": "基础设施:公共设施:公共厕所",
        "type": 0,
        "location": {
            "lat": 42.837486,
            "lng": 93.518479
        },
        "ad_info": {
            "adcode": 650502,
            "province": "新疆维吾尔自治区",
            "city": "哈密市",
            "district": "伊州区"
        }
    },
    {
        "id": "17216344640548370430",
        "title": "公共厕所",
        "address": "新疆维吾尔自治区哈密市伊州区X085与Y016交叉口西南方向767米左右",
        "tel": "",
        "category": "基础设施:公共设施:公共厕所",
        "type": 0,
        "location": {
            "lat": 42.744373,
            "lng": 93.475891
        },
        "ad_info": {
            "adcode": 650502,
            "province": "新疆维吾尔自治区",
            "city": "哈密市",
            "district": "伊州区"
        }
    },
    {
        "id": "12742098874706031806",
        "title": "公共厕所",
        "address": "新疆维吾尔自治区哈密市伊州区S235与Y018交叉口正南方向980米左右",
        "tel": "",
        "category": "基础设施:公共设施:公共厕所",
        "type": 0,
        "location": {
            "lat": 42.568591,
            "lng": 93.413286
        },
        "ad_info": {
            "adcode": 650502,
            "province": "新疆维吾尔自治区",
            "city": "哈密市",
            "district": "伊州区"
        }
    },
    {
        "id": "12711929701158571366",
        "title": "公共厕所",
        "address": "新疆维吾尔自治区哈密市伊州区东疆西大道与朝阳路交叉口正北方向246米左右",
        "tel": "",
        "category": "基础设施:公共设施:公共厕所",
        "type": 0,
        "location": {
            "lat": 42.906587,
            "lng": 93.47059
        },
        "ad_info": {
            "adcode": 650502,
            "province": "新疆维吾尔自治区",
            "city": "哈密市",
            "district": "伊州区"
        }
    },
    {
        "id": "4769178847222823536",
        "title": "公共厕所",
        "address": "新疆维吾尔自治区哈密市伊州区云杉南路与延安路交叉口东北方向41米左右",
        "tel": "",
        "category": "基础设施:公共设施:公共厕所",
        "type": 0,
        "location": {
            "lat": 42.843646,
            "lng": 93.533216
        },
        "ad_info": {
            "adcode": 650502,
            "province": "新疆维吾尔自治区",
            "city": "哈密市",
            "district": "伊州区"
        }
    },
    {
        "id": "10337879994650982655",
        "title": "公共厕所",
        "address": "新疆维吾尔自治区哈密市伊州区S235与Y018交叉口正南方向171米左右",
        "tel": "",
        "category": "基础设施:公共设施:公共厕所",
        "type": 0,
        "location": {
            "lat": 42.57538,
            "lng": 93.416887
        },
        "ad_info": {
            "adcode": 650502,
            "province": "新疆维吾尔自治区",
            "city": "哈密市",
            "district": "伊州区"
        }
    },
    {
        "id": "13344467211760906637",
        "title": "公共厕所",
        "address": "新疆维吾尔自治区哈密市巴里坤哈萨克自治县广场南巷与汉城东街交叉口正南方向67米左右",
        "tel": "",
        "category": "基础设施:公共设施:公共厕所",
        "type": 0,
        "location": {
            "lat": 43.599088,
            "lng": 93.015487
        },
        "ad_info": {
            "adcode": 650521,
            "province": "新疆维吾尔自治区",
            "city": "哈密市",
            "district": "巴里坤哈萨克自治县"
        }
    },
    {
        "id": "17611088939179325307",
        "title": "公共厕所",
        "address": "新疆维吾尔自治区哈密市伊州区天山北路唯美商务宾馆",
        "tel": "",
        "category": "基础设施:公共设施:公共厕所",
        "type": 0,
        "location": {
            "lat": 42.846757,
            "lng": 93.503645
        },
        "ad_info": {
            "adcode": 650502,
            "province": "新疆维吾尔自治区",
            "city": "哈密市",
            "district": "伊州区"
        }
    },
    {
        "id": "6336258962575992158",
        "title": "公共厕所",
        "address": "新疆维吾尔自治区哈密市伊州区友谊路友谊商贸城",
        "tel": "",
        "category": "基础设施:公共设施:公共厕所",
        "type": 0,
        "location": {
            "lat": 42.843769,
            "lng": 93.497897
        },
        "ad_info": {
            "adcode": 650502,
            "province": "新疆维吾尔自治区",
            "city": "哈密市",
            "district": "伊州区"
        }
    },
    {
        "id": "9015307358692842912",
        "title": "公共厕所",
        "address": "新疆维吾尔自治区哈密市伊州区北京路与园林路交叉口正北方向82米左右",
        "tel": "",
        "category": "基础设施:公共设施:公共厕所",
        "type": 0,
        "location": {
            "lat": 42.849168,
            "lng": 93.523468
        },
        "ad_info": {
            "adcode": 650502,
            "province": "新疆维吾尔自治区",
            "city": "哈密市",
            "district": "伊州区"
        }
    },
    {
        "id": "13757638293731632610",
        "title": "下马崖服务区公共厕所",
        "address": "新疆维吾尔自治区哈密市伊吾县下马崖服务区南40米",
        "tel": "",
        "category": "基础设施:公共设施:公共厕所",
        "type": 0,
        "location": {
            "lat": 43.139214,
            "lng": 95.347228
        },
        "ad_info": {
            "adcode": 650522,
            "province": "新疆维吾尔自治区",
            "city": "哈密市",
            "district": "伊吾县"
        }
    },
    {
        "id": "16243675568779887570",
        "title": "下涝坝服务区公共厕所",
        "address": "新疆维吾尔自治区哈密市巴里坤哈萨克自治县下涝坝服务区与G7京新高速交叉口东480米",
        "tel": "",
        "category": "基础设施:公共设施:公共厕所",
        "type": 0,
        "location": {
            "lat": 43.776162,
            "lng": 91.7732
        },
        "ad_info": {
            "adcode": 650521,
            "province": "新疆维吾尔自治区",
            "city": "哈密市",
            "district": "巴里坤哈萨克自治县"
        }
    },
    {
        "id": "7695482096537493165",
        "title": "盐池服务区公共厕所",
        "address": "新疆维吾尔自治区哈密市伊吾县中铁建新疆京新高速公路有限公司中国石油盐池服务区南加油站西侧190米",
        "tel": "",
        "category": "基础设施:公共设施:公共厕所",
        "type": 0,
        "location": {
            "lat": 43.340855,
            "lng": 94.226247
        },
        "ad_info": {
            "adcode": 650522,
            "province": "新疆维吾尔自治区",
            "city": "哈密市",
            "district": "伊吾县"
        }
    },
    {
        "id": "18004239687272412098",
        "title": "新疆旅游厕所",
        "address": "新疆维吾尔自治区哈密市巴里坤哈萨克自治县汉城南街17-3",
        "tel": "",
        "category": "基础设施:公共设施:公共厕所",
        "type": 0,
        "location": {
            "lat": 43.595447,
            "lng": 93.013371
        },
        "ad_info": {
            "adcode": 650521,
            "province": "新疆维吾尔自治区",
            "city": "哈密市",
            "district": "巴里坤哈萨克自治县"
        }
    },
    {
        "id": "9808383172935676241",
        "title": "骆驼井子服务区公共厕所",
        "address": "新疆维吾尔自治区哈密市巴里坤哈萨克自治县中国石油骆驼井子服务区加油站北侧210米",
        "tel": "",
        "category": "基础设施:公共设施:公共厕所",
        "type": 0,
        "location": {
            "lat": 43.739472,
            "lng": 92.376948
        },
        "ad_info": {
            "adcode": 650521,
            "province": "新疆维吾尔自治区",
            "city": "哈密市",
            "district": "巴里坤哈萨克自治县"
        }
    },
    {
        "id": "15336026929990670255",
        "title": "下马崖服务区公共厕所",
        "address": "新疆维吾尔自治区哈密市伊吾县中国石油下马崖服务区加油站东侧170米",
        "tel": "",
        "category": "基础设施:公共设施:公共厕所",
        "type": 0,
        "location": {
            "lat": 43.142685,
            "lng": 95.348201
        },
        "ad_info": {
            "adcode": 650522,
            "province": "新疆维吾尔自治区",
            "city": "哈密市",
            "district": "伊吾县"
        }
    },
    {
        "id": "15866545940754796857",
        "title": "哑口停车区公共厕所",
        "address": "新疆维吾尔自治区哈密市伊州区连霍高速哑口停车区",
        "tel": "",
        "category": "基础设施:公共设施:公共厕所",
        "type": 0,
        "location": {
            "lat": 43.40155,
            "lng": 91.817794
        },
        "ad_info": {
            "adcode": 650502,
            "province": "新疆维吾尔自治区",
            "city": "哈密市",
            "district": "伊州区"
        }
    },
    {
        "id": "7058687842970048594",
        "title": "服务区公共厕所",
        "address": "新疆维吾尔自治区哈密市伊州区G30连霍高速与加油加气站交叉口东180米",
        "tel": "",
        "category": "基础设施:公共设施:公共厕所",
        "type": 0,
        "location": {
            "lat": 42.297194,
            "lng": 94.222987
        },
        "ad_info": {
            "adcode": 650502,
            "province": "新疆维吾尔自治区",
            "city": "哈密市",
            "district": "伊州区"
        }
    },
    {
        "id": "3959014184759016329",
        "title": "骆驼圈子服务区公共厕所",
        "address": "新疆维吾尔自治区哈密市伊州区G30连霍高速与骆驼圈子服务区交叉口西北340米",
        "tel": "",
        "category": "基础设施:公共设施:公共厕所",
        "type": 0,
        "location": {
            "lat": 42.576876,
            "lng": 94.130398
        },
        "ad_info": {
            "adcode": 650502,
            "province": "新疆维吾尔自治区",
            "city": "哈密市",
            "district": "伊州区"
        }
    },
    {
        "id": "3023947707747468578",
        "title": "大河服务区公共厕所",
        "address": "新疆维吾尔自治区哈密市巴里坤哈萨克自治县中国石油大河服务区LNG加气站西侧180米",
        "tel": "",
        "category": "基础设施:公共设施:公共厕所",
        "type": 0,
        "location": {
            "lat": 43.77761,
            "lng": 93.140987
        },
        "ad_info": {
            "adcode": 650521,
            "province": "新疆维吾尔自治区",
            "city": "哈密市",
            "district": "巴里坤哈萨克自治县"
        }
    },
    {
        "id": "16985049176356851443",
        "title": "大河服务区公共厕所",
        "address": "新疆维吾尔自治区哈密市巴里坤哈萨克自治县中国石油大河服务区加油站东侧170米",
        "tel": "",
        "category": "基础设施:公共设施:公共厕所",
        "type": 0,
        "location": {
            "lat": 43.778177,
            "lng": 93.145539
        },
        "ad_info": {
            "adcode": 650521,
            "province": "新疆维吾尔自治区",
            "city": "哈密市",
            "district": "巴里坤哈萨克自治县"
        }
    },
    {
        "id": "4085099169417014138",
        "title": "骆驼井子服务区公共厕所",
        "address": "新疆维吾尔自治区哈密市巴里坤哈萨克自治县中国石油骆驼井子服务区加油站西南侧170米",
        "tel": "",
        "category": "基础设施:公共设施:公共厕所",
        "type": 0,
        "location": {
            "lat": 43.736624,
            "lng": 92.375773
        },
        "ad_info": {
            "adcode": 650521,
            "province": "新疆维吾尔自治区",
            "city": "哈密市",
            "district": "巴里坤哈萨克自治县"
        }
    },
    {
        "id": "18142005471796457614",
        "title": "哈密鑫华商务宾馆-洗手间",
        "address": "新疆维吾尔自治区哈密市伊州区友谊路友谊商贸城4期8栋6楼",
        "tel": "",
        "category": "基础设施:公共设施:公共厕所",
        "type": 0,
        "location": {
            "lat": 42.844819,
            "lng": 93.496609
        },
        "ad_info": {
            "adcode": 650502,
            "province": "新疆维吾尔自治区",
            "city": "哈密市",
            "district": "伊州区"
        }
    },
    {
        "id": "11164874527317005085",
        "title": "苦水停车区公共厕所",
        "address": "新疆维吾尔自治区哈密市伊州区大泉湾乡连霍高速公路苦水停车区",
        "tel": "",
        "category": "基础设施:公共设施:公共厕所",
        "type": 0,
        "location": {
            "lat": 42.084221,
            "lng": 94.493576
        },
        "ad_info": {
            "adcode": 650502,
            "province": "新疆维吾尔自治区",
            "city": "哈密市",
            "district": "伊州区"
        }
    },
    {
        "id": "10653701265778047442",
        "title": "梯子泉服务区公共厕所",
        "address": "新疆维吾尔自治区哈密市伊州区中国石化梯子泉服务区加油站西侧130米",
        "tel": "",
        "category": "基础设施:公共设施:公共厕所",
        "type": 0,
        "location": {
            "lat": 43.252469,
            "lng": 92.547788
        },
        "ad_info": {
            "adcode": 650502,
            "province": "新疆维吾尔自治区",
            "city": "哈密市",
            "district": "伊州区"
        }
    },
    {
        "id": "8078838993356157142",
        "title": "风电场停车区公共厕所",
        "address": "新疆维吾尔自治区哈密市伊州区中国石化风电场停车区LNG加气站东侧",
        "tel": "",
        "category": "基础设施:公共设施:公共厕所",
        "type": 0,
        "location": {
            "lat": 41.82212,
            "lng": 94.959193
        },
        "ad_info": {
            "adcode": 650502,
            "province": "新疆维吾尔自治区",
            "city": "哈密市",
            "district": "伊州区"
        }
    },
    {
        "id": "370376443230577953",
        "title": "下涝坝服务区卫生间",
        "address": "新疆维吾尔自治区哈密市巴里坤哈萨克自治县下涝坝服务区与G7京新高速交叉口东南300米",
        "tel": "",
        "category": "基础设施:公共设施:公共厕所",
        "type": 0,
        "location": {
            "lat": 43.774024,
            "lng": 91.770424
        },
        "ad_info": {
            "adcode": 650521,
            "province": "新疆维吾尔自治区",
            "city": "哈密市",
            "district": "巴里坤哈萨克自治县"
        }
    },
    {
        "id": "491224259892257564",
        "title": "哈密服务区第二公共厕所",
        "address": "新疆维吾尔自治区哈密市伊州区",
        "tel": "",
        "category": "基础设施:公共设施:公共厕所",
        "type": 0,
        "location": {
            "lat": 42.888837,
            "lng": 93.642939
        },
        "ad_info": {
            "adcode": 650502,
            "province": "新疆维吾尔自治区",
            "city": "哈密市",
            "district": "伊州区"
        }
    },
    {
        "id": "10778224563403815431",
        "title": "风电场停车区公共厕所",
        "address": "新疆维吾尔自治区哈密市伊州区风电场南侧加油站西侧",
        "tel": "",
        "category": "基础设施:公共设施:公共厕所",
        "type": 0,
        "location": {
            "lat": 41.820805,
            "lng": 94.95494
        },
        "ad_info": {
            "adcode": 650502,
            "province": "新疆维吾尔自治区",
            "city": "哈密市",
            "district": "伊州区"
        }
    },
    {
        "id": "16441513121281779173",
        "title": "哈密服务区第三公共厕所",
        "address": "新疆维吾尔自治区哈密市伊州区G30连霍高速与哈密服务区交叉口东340米",
        "tel": "",
        "category": "基础设施:公共设施:公共厕所",
        "type": 0,
        "location": {
            "lat": 42.89006,
            "lng": 93.64084
        },
        "ad_info": {
            "adcode": 650502,
            "province": "新疆维吾尔自治区",
            "city": "哈密市",
            "district": "伊州区"
        }
    },
    {
        "id": "4679355540478751233",
        "title": "哈密服务区第一公共厕所",
        "address": "新疆维吾尔自治区哈密市伊州区G30连霍高速与哈密服务区交叉口西南120米",
        "tel": "",
        "category": "基础设施:公共设施:公共厕所",
        "type": 0,
        "location": {
            "lat": 42.889985,
            "lng": 93.635735
        },
        "ad_info": {
            "adcode": 650502,
            "province": "新疆维吾尔自治区",
            "city": "哈密市",
            "district": "伊州区"
        }
    },
    {
        "id": "353959023133850627",
        "title": "骆驼圈子服务区公共厕所",
        "address": "新疆维吾尔自治区哈密市伊州区骆驼圈子服务区与G30连霍高速交叉口西北240米",
        "tel": "",
        "category": "基础设施:公共设施:公共厕所",
        "type": 0,
        "location": {
            "lat": 42.57717,
            "lng": 94.132713
        },
        "ad_info": {
            "adcode": 650502,
            "province": "新疆维吾尔自治区",
            "city": "哈密市",
            "district": "伊州区"
        }
    },
    {
        "id": "2949459753125497852",
        "title": "白山泉服务区公共厕所",
        "address": "新疆维吾尔自治区哈密市伊州区白山泉汽修轮胎救援西侧70米",
        "tel": "",
        "category": "基础设施:公共设施:公共厕所",
        "type": 0,
        "location": {
            "lat": 42.115126,
            "lng": 96.045665
        },
        "ad_info": {
            "adcode": 650502,
            "province": "新疆维吾尔自治区",
            "city": "哈密市",
            "district": "伊州区"
        }
    },
    {
        "id": "17152077098971583390",
        "title": "大泉湾停车区公共厕所",
        "address": "新疆维吾尔自治区哈密市伊州区大泉湾停车区",
        "tel": "",
        "category": "基础设施:公共设施:公共厕所",
        "type": 0,
        "location": {
            "lat": 42.783506,
            "lng": 93.831857
        },
        "ad_info": {
            "adcode": 650502,
            "province": "新疆维吾尔自治区",
            "city": "哈密市",
            "district": "伊州区"
        }
    },
    {
        "id": "3326529884340855847",
        "title": "白山泉服务区公共厕所",
        "address": "新疆维吾尔自治区哈密市伊州区",
        "tel": "",
        "category": "基础设施:公共设施:公共厕所",
        "type": 0,
        "location": {
            "lat": 42.112061,
            "lng": 96.04634
        },
        "ad_info": {
            "adcode": 650502,
            "province": "新疆维吾尔自治区",
            "city": "哈密市",
            "district": "伊州区"
        }
    },
    {
        "id": "13743770628638321499",
        "title": "星星峡服务区公共厕所",
        "address": "新疆维吾尔自治区哈密市伊州区G30连霍高速与星星峡服务区交叉口南220米",
        "tel": "",
        "category": "基础设施:公共设施:公共厕所",
        "type": 0,
        "location": {
            "lat": 41.79509,
            "lng": 95.131848
        },
        "ad_info": {
            "adcode": 650502,
            "province": "新疆维吾尔自治区",
            "city": "哈密市",
            "district": "伊州区"
        }
    },
    {
        "id": "13768028904579915248",
        "title": "二堡停车区第一公共厕所",
        "address": "新疆维吾尔自治区哈密市伊州区二堡镇连霍高速公路二堡收费站西北",
        "tel": "",
        "category": "基础设施:公共设施:公共厕所",
        "type": 0,
        "location": {
            "lat": 43.016387,
            "lng": 93.160735
        },
        "ad_info": {
            "adcode": 650502,
            "province": "新疆维吾尔自治区",
            "city": "哈密市",
            "district": "伊州区"
        }
    },
    {
        "id": "13053328739734220999",
        "title": "大泉湾停车区公共厕所",
        "address": "新疆维吾尔自治区哈密市伊州区大泉湾停车区与G30连霍高速交叉口西北420米",
        "tel": "",
        "category": "基础设施:公共设施:公共厕所",
        "type": 0,
        "location": {
            "lat": 42.752062,
            "lng": 93.900414
        },
        "ad_info": {
            "adcode": 650502,
            "province": "新疆维吾尔自治区",
            "city": "哈密市",
            "district": "伊州区"
        }
    },
    {
        "id": "6892156719571977055",
        "title": "鸭子泉服务区公共厕所",
        "address": "新疆维吾尔自治区哈密市伊州区京新高速鸭子泉服务区",
        "tel": "",
        "category": "基础设施:公共设施:公共厕所",
        "type": 0,
        "location": {
            "lat": 42.415306,
            "lng": 95.407197
        },
        "ad_info": {
            "adcode": 650502,
            "province": "新疆维吾尔自治区",
            "city": "哈密市",
            "district": "伊州区"
        }
    },
    {
        "id": "8179753105648916757",
        "title": "哈密服务区第四公共厕所",
        "address": "新疆维吾尔自治区哈密市伊州区G30连霍高速与哈密服务区交叉口东360米",
        "tel": "",
        "category": "基础设施:公共设施:公共厕所",
        "type": 0,
        "location": {
            "lat": 42.88998,
            "lng": 93.640969
        },
        "ad_info": {
            "adcode": 650502,
            "province": "新疆维吾尔自治区",
            "city": "哈密市",
            "district": "伊州区"
        }
    },
    {
        "id": "16861653539947326452",
        "title": "一碗泉服务区公共厕所",
        "address": "新疆维吾尔自治区哈密市伊州区G30连霍高速与一碗泉服务区交叉口东180米",
        "tel": "",
        "category": "基础设施:公共设施:公共厕所",
        "type": 0,
        "location": {
            "lat": 43.379991,
            "lng": 92.128859
        },
        "ad_info": {
            "adcode": 650502,
            "province": "新疆维吾尔自治区",
            "city": "哈密市",
            "district": "伊州区"
        }
    },
    {
        "id": "16215585629621462447",
        "title": "二堡停车区第二公共厕所",
        "address": "新疆维吾尔自治区哈密市伊州区G30连霍高速与二堡停车区交叉口西180米",
        "tel": "",
        "category": "基础设施:公共设施:公共厕所",
        "type": 0,
        "location": {
            "lat": 43.015525,
            "lng": 93.159055
        },
        "ad_info": {
            "adcode": 650502,
            "province": "新疆维吾尔自治区",
            "city": "哈密市",
            "district": "伊州区"
        }
    },
    {
        "id": "2459994577603132547",
        "title": "哈密服务区第二公共厕所",
        "address": "新疆维吾尔自治区哈密市伊州区连霍高速",
        "tel": "",
        "category": "基础设施:公共设施:公共厕所",
        "type": 0,
        "location": {
            "lat": 42.88874,
            "lng": 93.642656
        },
        "ad_info": {
            "adcode": 650502,
            "province": "新疆维吾尔自治区",
            "city": "哈密市",
            "district": "伊州区"
        }
    },
    {
        "id": "11640094550301121179",
        "title": "公共厕所",
        "address": "新疆维吾尔自治区哈密市伊州区建国南路与解放路交叉口正北方向101米左右",
        "tel": "",
        "category": "基础设施:公共设施:公共厕所",
        "type": 0,
        "location": {
            "lat": 42.817774,
            "lng": 93.515229
        },
        "ad_info": {
            "adcode": 650502,
            "province": "新疆维吾尔自治区",
            "city": "哈密市",
            "district": "伊州区"
        }
    },
    {
        "id": "12511222274184543607",
        "title": "哈密服务区第一公共厕所",
        "address": "新疆维吾尔自治区哈密市伊州区北通宾馆东南侧",
        "tel": "",
        "category": "基础设施:公共设施:公共厕所",
        "type": 0,
        "location": {
            "lat": 42.888137,
            "lng": 93.643831
        },
        "ad_info": {
            "adcode": 650502,
            "province": "新疆维吾尔自治区",
            "city": "哈密市",
            "district": "伊州区"
        }
    },
    {
        "id": "2814430312885229482",
        "title": "公共厕所",
        "address": "新疆维吾尔自治区哈密市伊州区前进西路与新华路交叉口西南方向121米左右",
        "tel": "",
        "category": "基础设施:公共设施:公共厕所",
        "type": 0,
        "location": {
            "lat": 42.853431,
            "lng": 93.494084
        },
        "ad_info": {
            "adcode": 650502,
            "province": "新疆维吾尔自治区",
            "city": "哈密市",
            "district": "伊州区"
        }
    },
    {
        "id": "5409521424346007894",
        "title": "公共厕所",
        "address": "新疆维吾尔自治区哈密市伊州区大十字清真寺东南(中山北路北)",
        "tel": "",
        "category": "基础设施:公共设施:公共厕所",
        "type": 0,
        "location": {
            "lat": 42.818843,
            "lng": 93.512342
        },
        "ad_info": {
            "adcode": 650502,
            "province": "新疆维吾尔自治区",
            "city": "哈密市",
            "district": "伊州区"
        }
    },
    {
        "id": "10121742124050995104",
        "title": "公共厕所",
        "address": "新疆维吾尔自治区哈密市伊州区红星东路与红星北路交叉口正南方向123米左右",
        "tel": "",
        "category": "基础设施:公共设施:公共厕所",
        "type": 0,
        "location": {
            "lat": 42.833578,
            "lng": 93.54009
        },
        "ad_info": {
            "adcode": 650502,
            "province": "新疆维吾尔自治区",
            "city": "哈密市",
            "district": "伊州区"
        }
    },
    {
        "id": "4947554127618905650",
        "title": "公共厕所",
        "address": "新疆维吾尔自治区哈密市伊吾县山城大道与幻彩路交叉口正北方向213米左右",
        "tel": "",
        "category": "基础设施:公共设施:公共厕所",
        "type": 0,
        "location": {
            "lat": 43.248821,
            "lng": 94.682733
        },
        "ad_info": {
            "adcode": 650522,
            "province": "新疆维吾尔自治区",
            "city": "哈密市",
            "district": "伊吾县"
        }
    },
    {
        "id": "3099572863096287183",
        "title": "公共厕所",
        "address": "新疆维吾尔自治区哈密市伊吾县拜其尔路与胡杨路交叉口东南方向134米左右",
        "tel": "",
        "category": "基础设施:公共设施:公共厕所",
        "type": 0,
        "location": {
            "lat": 43.246278,
            "lng": 94.678216
        },
        "ad_info": {
            "adcode": 650522,
            "province": "新疆维吾尔自治区",
            "city": "哈密市",
            "district": "伊吾县"
        }
    },
    {
        "id": "16628847002304922336",
        "title": "公共厕所",
        "address": "新疆维吾尔自治区哈密市伊州区前进东路与胜利路交叉口东南方向49米左右",
        "tel": "",
        "category": "基础设施:公共设施:公共厕所",
        "type": 0,
        "location": {
            "lat": 42.836226,
            "lng": 93.529442
        },
        "ad_info": {
            "adcode": 650502,
            "province": "新疆维吾尔自治区",
            "city": "哈密市",
            "district": "伊州区"
        }
    },
    {
        "id": "14226378211285562204",
        "title": "公共厕所",
        "address": "新疆维吾尔自治区哈密市伊州区Y404与衡山路交叉口西北方向181米左右",
        "tel": "",
        "category": "基础设施:公共设施:公共厕所",
        "type": 0,
        "location": {
            "lat": 42.856209,
            "lng": 93.446467
        },
        "ad_info": {
            "adcode": 650502,
            "province": "新疆维吾尔自治区",
            "city": "哈密市",
            "district": "伊州区"
        }
    },
    {
        "id": "11079679758131428677",
        "title": "一碗泉服务区公共厕所",
        "address": "新疆维吾尔自治区哈密市伊州区连霍高速一碗泉服务区",
        "tel": "",
        "category": "基础设施:公共设施:公共厕所",
        "type": 0,
        "location": {
            "lat": 43.378251,
            "lng": 92.129423
        },
        "ad_info": {
            "adcode": 650502,
            "province": "新疆维吾尔自治区",
            "city": "哈密市",
            "district": "伊州区"
        }
    },
    {
        "id": "8101230956125424055",
        "title": "哈密服务区第二公共厕所",
        "address": "新疆维吾尔自治区哈密市伊州区G30连霍高速与哈密服务区交叉口南220米",
        "tel": "",
        "category": "基础设施:公共设施:公共厕所",
        "type": 0,
        "location": {
            "lat": 42.888941,
            "lng": 93.637464
        },
        "ad_info": {
            "adcode": 650502,
            "province": "新疆维吾尔自治区",
            "city": "哈密市",
            "district": "伊州区"
        }
    },
    {
        "id": "15869685284737704943",
        "title": "公共厕所",
        "address": "新疆维吾尔自治区哈密市伊吾县滨河大道与潮安街交叉口西北方向128米左右",
        "tel": "",
        "category": "基础设施:公共设施:公共厕所",
        "type": 0,
        "location": {
            "lat": 43.253066,
            "lng": 94.700575
        },
        "ad_info": {
            "adcode": 650522,
            "province": "新疆维吾尔自治区",
            "city": "哈密市",
            "district": "伊吾县"
        }
    },
    {
        "id": "4797513050956453506",
        "title": "厕所配钥匙",
        "address": "新疆维吾尔自治区哈密市伊州区红星东路与青年北路交叉口正东方向149米左右",
        "tel": "",
        "category": "基础设施:公共设施:公共厕所",
        "type": 0,
        "location": {
            "lat": 42.831636,
            "lng": 93.543604
        },
        "ad_info": {
            "adcode": 650502,
            "province": "新疆维吾尔自治区",
            "city": "哈密市",
            "district": "伊州区"
        }
    },
    {
        "id": "16337934536708370418",
        "title": "鸭子泉服务区公共厕所",
        "address": "新疆维吾尔自治区哈密市伊州区鸭子泉服务区餐厅西北侧60米",
        "tel": "",
        "category": "基础设施:公共设施:公共厕所",
        "type": 0,
        "location": {
            "lat": 42.41394,
            "lng": 95.404369
        },
        "ad_info": {
            "adcode": 650502,
            "province": "新疆维吾尔自治区",
            "city": "哈密市",
            "district": "伊州区"
        }
    },
    {
        "id": "5272467346366976798",
        "title": "公共厕所",
        "address": "新疆维吾尔自治区哈密市伊州区前进东路与北环东路交叉口西南方向111米左右",
        "tel": "",
        "category": "基础设施:公共设施:公共厕所",
        "type": 0,
        "location": {
            "lat": 42.846255,
            "lng": 93.507881
        },
        "ad_info": {
            "adcode": 650502,
            "province": "新疆维吾尔自治区",
            "city": "哈密市",
            "district": "伊州区"
        }
    },
    {
        "id": "13673581880492189318",
        "title": "二堡停车区第一公共厕所",
        "address": "新疆维吾尔自治区哈密市伊州区中国石油二堡停车区加油站西侧50米",
        "tel": "",
        "category": "基础设施:公共设施:公共厕所",
        "type": 0,
        "location": {
            "lat": 43.016844,
            "lng": 93.153778
        },
        "ad_info": {
            "adcode": 650502,
            "province": "新疆维吾尔自治区",
            "city": "哈密市",
            "district": "伊州区"
        }
    }
]