[
    {
        "id": "10157761169390946404",
        "title": "公共厕所",
        "address": "陕西省商洛市商州区南街与南门路交叉口西南方向50米左右",
        "tel": "",
        "category": "基础设施:公共设施:公共厕所",
        "type": 0,
        "location": {
            "lat": 33.861963,
            "lng": 109.941351
        },
        "ad_info": {
            "adcode": 611002,
            "province": "陕西省",
            "city": "商洛市",
            "district": "商州区"
        }
    },
    {
        "id": "14488202071765747566",
        "title": "公共厕所",
        "address": "陕西省商洛市商州区惠民东路与龟山中路交叉口正北方向183米左右",
        "tel": "",
        "category": "基础设施:公共设施:公共厕所",
        "type": 0,
        "location": {
            "lat": 33.850579,
            "lng": 109.93479
        },
        "ad_info": {
            "adcode": 611002,
            "province": "陕西省",
            "city": "商洛市",
            "district": "商州区"
        }
    },
    {
        "id": "18185450168678278368",
        "title": "公共厕所",
        "address": "陕西省商洛市商州区州城街与工农路交叉口正西方向34米左右",
        "tel": "",
        "category": "基础设施:公共设施:公共厕所",
        "type": 0,
        "location": {
            "lat": 33.864931,
            "lng": 109.934821
        },
        "ad_info": {
            "adcode": 611002,
            "province": "陕西省",
            "city": "商洛市",
            "district": "商州区"
        }
    },
    {
        "id": "11690439502927947306",
        "title": "公共厕所",
        "address": "陕西省商洛市商州区东环路与东背街交叉口正南方向54米左右",
        "tel": "",
        "category": "基础设施:公共设施:公共厕所",
        "type": 0,
        "location": {
            "lat": 33.864051,
            "lng": 109.946571
        },
        "ad_info": {
            "adcode": 611002,
            "province": "陕西省",
            "city": "商洛市",
            "district": "商州区"
        }
    },
    {
        "id": "13660749044191771874",
        "title": "公共厕所",
        "address": "陕西省商洛市商州区G312与环城北路交叉口正西方向518米左右",
        "tel": "",
        "category": "基础设施:公共设施:公共厕所",
        "type": 0,
        "location": {
            "lat": 33.839792,
            "lng": 109.970311
        },
        "ad_info": {
            "adcode": 611002,
            "province": "陕西省",
            "city": "商洛市",
            "district": "商州区"
        }
    },
    {
        "id": "11302819224995713381",
        "title": "公共厕所",
        "address": "陕西省商洛市商州区移动路3号",
        "tel": "",
        "category": "基础设施:公共设施:公共厕所",
        "type": 0,
        "location": {
            "lat": 33.866045,
            "lng": 109.925167
        },
        "ad_info": {
            "adcode": 611002,
            "province": "陕西省",
            "city": "商洛市",
            "district": "商州区"
        }
    },
    {
        "id": "13425470079477913224",
        "title": "公共厕所",
        "address": "陕西省商洛市商州区州城街与工农路交叉口正南方向154米左右",
        "tel": "",
        "category": "基础设施:公共设施:公共厕所",
        "type": 0,
        "location": {
            "lat": 33.863606,
            "lng": 109.935696
        },
        "ad_info": {
            "adcode": 611002,
            "province": "陕西省",
            "city": "商洛市",
            "district": "商州区"
        }
    },
    {
        "id": "11852760919099500438",
        "title": "公共厕所",
        "address": "陕西省商洛市商州区丹南大道商洛职业技术学院",
        "tel": "",
        "category": "基础设施:公共设施:公共厕所",
        "type": 0,
        "location": {
            "lat": 33.87799,
            "lng": 109.911567
        },
        "ad_info": {
            "adcode": 611002,
            "province": "陕西省",
            "city": "商洛市",
            "district": "商州区"
        }
    },
    {
        "id": "1965373397816855767",
        "title": "公共厕所",
        "address": "陕西省商洛市商州区东新路与江滨大道交叉口正南方向39米左右",
        "tel": "",
        "category": "基础设施:公共设施:公共厕所",
        "type": 0,
        "location": {
            "lat": 33.857435,
            "lng": 109.951613
        },
        "ad_info": {
            "adcode": 611002,
            "province": "陕西省",
            "city": "商洛市",
            "district": "商州区"
        }
    },
    {
        "id": "4498781211056915669",
        "title": "公共厕所",
        "address": "陕西省商洛市商州区联络线与麻池河联络线交叉口西北方向906米左右",
        "tel": "",
        "category": "基础设施:公共设施:公共厕所",
        "type": 0,
        "location": {
            "lat": 33.85401,
            "lng": 109.90675
        },
        "ad_info": {
            "adcode": 611002,
            "province": "陕西省",
            "city": "商洛市",
            "district": "商州区"
        }
    },
    {
        "id": "17735697675148317020",
        "title": "公共厕所",
        "address": "陕西省商洛市商州区全兴紫苑(通江西路北)",
        "tel": "",
        "category": "基础设施:公共设施:公共厕所",
        "type": 0,
        "location": {
            "lat": 33.869518,
            "lng": 109.922223
        },
        "ad_info": {
            "adcode": 611002,
            "province": "陕西省",
            "city": "商洛市",
            "district": "商州区"
        }
    },
    {
        "id": "3614755853362569449",
        "title": "公共厕所",
        "address": "陕西省商洛市商州区丹江西路与商州西路交叉口正南方向140米左右",
        "tel": "",
        "category": "基础设施:公共设施:公共厕所",
        "type": 0,
        "location": {
            "lat": 33.870539,
            "lng": 109.915883
        },
        "ad_info": {
            "adcode": 611002,
            "province": "陕西省",
            "city": "商洛市",
            "district": "商州区"
        }
    },
    {
        "id": "11230265563188496825",
        "title": "公共厕所",
        "address": "陕西省商洛市商州区北新街(中段)与金凤路交叉口南40米",
        "tel": "",
        "category": "基础设施:公共设施:公共厕所",
        "type": 0,
        "location": {
            "lat": 33.867963,
            "lng": 109.941252
        },
        "ad_info": {
            "adcode": 611002,
            "province": "陕西省",
            "city": "商洛市",
            "district": "商州区"
        }
    },
    {
        "id": "2442793444596632795",
        "title": "公共厕所",
        "address": "陕西省商洛市山阳县G242与县河桥交叉口正北方向71米左右",
        "tel": "",
        "category": "基础设施:公共设施:公共厕所",
        "type": 0,
        "location": {
            "lat": 33.531999,
            "lng": 109.870491
        },
        "ad_info": {
            "adcode": 611024,
            "province": "陕西省",
            "city": "商洛市",
            "district": "山阳县"
        }
    },
    {
        "id": "3763435477814878105",
        "title": "公共厕所",
        "address": "陕西省商洛市商南县南大街64号",
        "tel": "",
        "category": "基础设施:公共设施:公共厕所",
        "type": 0,
        "location": {
            "lat": 33.525952,
            "lng": 110.885906
        },
        "ad_info": {
            "adcode": 611023,
            "province": "陕西省",
            "city": "商洛市",
            "district": "商南县"
        }
    },
    {
        "id": "6869117546147352359",
        "title": "公共厕所",
        "address": "陕西省商洛市镇安县桂花路与永安路交叉口东南方向137米左右",
        "tel": "",
        "category": "基础设施:公共设施:公共厕所",
        "type": 0,
        "location": {
            "lat": 33.424035,
            "lng": 109.149224
        },
        "ad_info": {
            "adcode": 611025,
            "province": "陕西省",
            "city": "商洛市",
            "district": "镇安县"
        }
    },
    {
        "id": "4664431425549500821",
        "title": "公共厕所",
        "address": "陕西省商洛市商州区商鞅大道与江滨北路交叉口正北方向175米左右",
        "tel": "",
        "category": "基础设施:公共设施:公共厕所",
        "type": 0,
        "location": {
            "lat": 33.846153,
            "lng": 109.967589
        },
        "ad_info": {
            "adcode": 611002,
            "province": "陕西省",
            "city": "商洛市",
            "district": "商州区"
        }
    },
    {
        "id": "886641648519622277",
        "title": "公共厕所",
        "address": "陕西省商洛市柞水县乾佑街(南)与临河路(南段)交叉口东北60米",
        "tel": "",
        "category": "基础设施:公共设施:公共厕所",
        "type": 0,
        "location": {
            "lat": 33.674744,
            "lng": 109.110512
        },
        "ad_info": {
            "adcode": 611026,
            "province": "陕西省",
            "city": "商洛市",
            "district": "柞水县"
        }
    },
    {
        "id": "17360950276994631536",
        "title": "公共厕所",
        "address": "陕西省商洛市山阳县西河三路与西河东路交叉口正东方向89米左右",
        "tel": "",
        "category": "基础设施:公共设施:公共厕所",
        "type": 0,
        "location": {
            "lat": 33.535838,
            "lng": 109.874217
        },
        "ad_info": {
            "adcode": 611024,
            "province": "陕西省",
            "city": "商洛市",
            "district": "山阳县"
        }
    },
    {
        "id": "12491685087320223910",
        "title": "公共厕所",
        "address": "陕西省商洛市柞水县G211与太小路交叉口正东方向37米左右",
        "tel": "",
        "category": "基础设施:公共设施:公共厕所",
        "type": 0,
        "location": {
            "lat": 33.805102,
            "lng": 109.028384
        },
        "ad_info": {
            "adcode": 611026,
            "province": "陕西省",
            "city": "商洛市",
            "district": "柞水县"
        }
    },
    {
        "id": "17714919204424848793",
        "title": "公共厕所",
        "address": "陕西省商洛市商南县沪霍线商南文化广场(西南角)",
        "tel": "",
        "category": "基础设施:公共设施:公共厕所",
        "type": 0,
        "location": {
            "lat": 33.516774,
            "lng": 110.8841
        },
        "ad_info": {
            "adcode": 611023,
            "province": "陕西省",
            "city": "商洛市",
            "district": "商南县"
        }
    },
    {
        "id": "5349929633771013682",
        "title": "公共厕所",
        "address": "陕西省商洛市商南县G312与长新路交叉口正南方向35米左右",
        "tel": "",
        "category": "基础设施:公共设施:公共厕所",
        "type": 0,
        "location": {
            "lat": 33.51777,
            "lng": 110.902171
        },
        "ad_info": {
            "adcode": 611023,
            "province": "陕西省",
            "city": "商洛市",
            "district": "商南县"
        }
    },
    {
        "id": "15711547112716198122",
        "title": "公共厕所",
        "address": "陕西省商洛市柞水县乾佑街与迎春路交叉口东南方向48米左右",
        "tel": "",
        "category": "基础设施:公共设施:公共厕所",
        "type": 0,
        "location": {
            "lat": 33.680328,
            "lng": 109.111719
        },
        "ad_info": {
            "adcode": 611026,
            "province": "陕西省",
            "city": "商洛市",
            "district": "柞水县"
        }
    },
    {
        "id": "4057268577374151378",
        "title": "公共厕所",
        "address": "陕西省商洛市商州区中心街与南街交叉口西南方向111米左右",
        "tel": "",
        "category": "基础设施:公共设施:公共厕所",
        "type": 0,
        "location": {
            "lat": 33.862105,
            "lng": 109.93912
        },
        "ad_info": {
            "adcode": 611002,
            "province": "陕西省",
            "city": "商洛市",
            "district": "商州区"
        }
    },
    {
        "id": "6952376332221139786",
        "title": "公共厕所",
        "address": "陕西省商洛市柞水县临河路与土管巷交叉口西南方向81米左右",
        "tel": "",
        "category": "基础设施:公共设施:公共厕所",
        "type": 0,
        "location": {
            "lat": 33.679182,
            "lng": 109.106936
        },
        "ad_info": {
            "adcode": 611026,
            "province": "陕西省",
            "city": "商洛市",
            "district": "柞水县"
        }
    },
    {
        "id": "15298801833811944667",
        "title": "公共厕所",
        "address": "陕西省商洛市柞水县三道井西路与临河路交叉口东南方向81米左右",
        "tel": "",
        "category": "基础设施:公共设施:公共厕所",
        "type": 0,
        "location": {
            "lat": 33.677169,
            "lng": 109.108337
        },
        "ad_info": {
            "adcode": 611026,
            "province": "陕西省",
            "city": "商洛市",
            "district": "柞水县"
        }
    },
    {
        "id": "10047139593306153155",
        "title": "公共厕所",
        "address": "陕西省商洛市商州区Y243与东板路交叉口正西方向478米左右",
        "tel": "",
        "category": "基础设施:公共设施:公共厕所",
        "type": 0,
        "location": {
            "lat": 34.033937,
            "lng": 109.859676
        },
        "ad_info": {
            "adcode": 611002,
            "province": "陕西省",
            "city": "商洛市",
            "district": "商州区"
        }
    },
    {
        "id": "13177684505262322446",
        "title": "公共厕所",
        "address": "陕西省商洛市山阳县二小路与南大街交叉口西北方向35米左右",
        "tel": "",
        "category": "基础设施:公共设施:公共厕所",
        "type": 0,
        "location": {
            "lat": 33.527374,
            "lng": 109.890169
        },
        "ad_info": {
            "adcode": 611024,
            "province": "陕西省",
            "city": "商洛市",
            "district": "山阳县"
        }
    },
    {
        "id": "15760754566460446955",
        "title": "公共厕所",
        "address": "陕西省商洛市柞水县农林巷与乾佑街(中段)交叉口东40米",
        "tel": "",
        "category": "基础设施:公共设施:公共厕所",
        "type": 0,
        "location": {
            "lat": 33.685493,
            "lng": 109.112104
        },
        "ad_info": {
            "adcode": 611026,
            "province": "陕西省",
            "city": "商洛市",
            "district": "柞水县"
        }
    },
    {
        "id": "6246049285328717180",
        "title": "公共厕所",
        "address": "陕西省商洛市商州区商洛学院(丹江校区)北侧400米",
        "tel": "",
        "category": "基础设施:公共设施:公共厕所",
        "type": 0,
        "location": {
            "lat": 33.840004,
            "lng": 109.974364
        },
        "ad_info": {
            "adcode": 611002,
            "province": "陕西省",
            "city": "商洛市",
            "district": "商州区"
        }
    },
    {
        "id": "2929502060927821187",
        "title": "公共厕所",
        "address": "陕西省商洛市商州区G242与江滨北路交叉口东南方向357米左右",
        "tel": "",
        "category": "基础设施:公共设施:公共厕所",
        "type": 0,
        "location": {
            "lat": 33.851997,
            "lng": 109.967383
        },
        "ad_info": {
            "adcode": 611002,
            "province": "陕西省",
            "city": "商洛市",
            "district": "商州区"
        }
    },
    {
        "id": "11327403526427642591",
        "title": "公共厕所",
        "address": "陕西省商洛市商州区商鞅大道与江滨南路交叉口西南方向152米左右",
        "tel": "",
        "category": "基础设施:公共设施:公共厕所",
        "type": 0,
        "location": {
            "lat": 33.85767,
            "lng": 109.930164
        },
        "ad_info": {
            "adcode": 611002,
            "province": "陕西省",
            "city": "商洛市",
            "district": "商州区"
        }
    },
    {
        "id": "13515308639768010351",
        "title": "公共厕所",
        "address": "陕西省商洛市柞水县临河路与乾佑街交叉口正北方向32米左右",
        "tel": "",
        "category": "基础设施:公共设施:公共厕所",
        "type": 0,
        "location": {
            "lat": 33.675075,
            "lng": 109.109716
        },
        "ad_info": {
            "adcode": 611026,
            "province": "陕西省",
            "city": "商洛市",
            "district": "柞水县"
        }
    },
    {
        "id": "2592423802107857541",
        "title": "公共厕所",
        "address": "陕西省商洛市商州区向阳路与正阳街交叉口西北方向125米左右",
        "tel": "",
        "category": "基础设施:公共设施:公共厕所",
        "type": 0,
        "location": {
            "lat": 33.858314,
            "lng": 109.960933
        },
        "ad_info": {
            "adcode": 611002,
            "province": "陕西省",
            "city": "商洛市",
            "district": "商州区"
        }
    },
    {
        "id": "15887923190844815750",
        "title": "公共厕所",
        "address": "陕西省商洛市柞水县G211与磨沟口桥交叉口正南方向762米左右",
        "tel": "",
        "category": "基础设施:公共设施:公共厕所",
        "type": 0,
        "location": {
            "lat": 33.586306,
            "lng": 109.164922
        },
        "ad_info": {
            "adcode": 611026,
            "province": "陕西省",
            "city": "商洛市",
            "district": "柞水县"
        }
    },
    {
        "id": "2392519398752987628",
        "title": "公共厕所",
        "address": "陕西省商洛市镇安县杨泗石油东北侧260米",
        "tel": "",
        "category": "基础设施:公共设施:公共厕所",
        "type": 0,
        "location": {
            "lat": 33.452199,
            "lng": 108.662413
        },
        "ad_info": {
            "adcode": 611025,
            "province": "陕西省",
            "city": "商洛市",
            "district": "镇安县"
        }
    },
    {
        "id": "13449860392057112170",
        "title": "公共厕所",
        "address": "陕西省商洛市商州区李龙路北50米",
        "tel": "",
        "category": "基础设施:公共设施:公共厕所",
        "type": 0,
        "location": {
            "lat": 33.97212,
            "lng": 109.742094
        },
        "ad_info": {
            "adcode": 611002,
            "province": "陕西省",
            "city": "商洛市",
            "district": "商州区"
        }
    },
    {
        "id": "13606775863658919484",
        "title": "公共厕所",
        "address": "陕西省商洛市柞水县G211与红卫路交叉口东南方向112米左右",
        "tel": "",
        "category": "基础设施:公共设施:公共厕所",
        "type": 0,
        "location": {
            "lat": 33.63787,
            "lng": 109.154758
        },
        "ad_info": {
            "adcode": 611026,
            "province": "陕西省",
            "city": "商洛市",
            "district": "柞水县"
        }
    },
    {
        "id": "6516190437763434281",
        "title": "公共厕所",
        "address": "陕西省商洛市柞水县乾佑街与迎春路交叉口正东方向87米左右",
        "tel": "",
        "category": "基础设施:公共设施:公共厕所",
        "type": 0,
        "location": {
            "lat": 33.680307,
            "lng": 109.112149
        },
        "ad_info": {
            "adcode": 611026,
            "province": "陕西省",
            "city": "商洛市",
            "district": "柞水县"
        }
    },
    {
        "id": "6218746946846636316",
        "title": "公共厕所",
        "address": "陕西省商洛市山阳县文体路与滨河北路交叉口正西方向161米左右",
        "tel": "",
        "category": "基础设施:公共设施:公共厕所",
        "type": 0,
        "location": {
            "lat": 33.52536,
            "lng": 109.891374
        },
        "ad_info": {
            "adcode": 611024,
            "province": "陕西省",
            "city": "商洛市",
            "district": "山阳县"
        }
    },
    {
        "id": "11327403526427642591",
        "title": "公共厕所",
        "address": "陕西省商洛市商州区商鞅大道与江滨南路交叉口西南方向152米左右",
        "tel": "",
        "category": "基础设施:公共设施:公共厕所",
        "type": 0,
        "location": {
            "lat": 33.85767,
            "lng": 109.930164
        },
        "ad_info": {
            "adcode": 611002,
            "province": "陕西省",
            "city": "商洛市",
            "district": "商州区"
        }
    },
    {
        "id": "15887923190844815750",
        "title": "公共厕所",
        "address": "陕西省商洛市柞水县G211与磨沟口桥交叉口正南方向762米左右",
        "tel": "",
        "category": "基础设施:公共设施:公共厕所",
        "type": 0,
        "location": {
            "lat": 33.586306,
            "lng": 109.164922
        },
        "ad_info": {
            "adcode": 611026,
            "province": "陕西省",
            "city": "商洛市",
            "district": "柞水县"
        }
    },
    {
        "id": "2392519398752987628",
        "title": "公共厕所",
        "address": "陕西省商洛市镇安县杨泗石油东北侧260米",
        "tel": "",
        "category": "基础设施:公共设施:公共厕所",
        "type": 0,
        "location": {
            "lat": 33.452199,
            "lng": 108.662413
        },
        "ad_info": {
            "adcode": 611025,
            "province": "陕西省",
            "city": "商洛市",
            "district": "镇安县"
        }
    },
    {
        "id": "6516190437763434281",
        "title": "公共厕所",
        "address": "陕西省商洛市柞水县乾佑街与迎春路交叉口正东方向87米左右",
        "tel": "",
        "category": "基础设施:公共设施:公共厕所",
        "type": 0,
        "location": {
            "lat": 33.680307,
            "lng": 109.112149
        },
        "ad_info": {
            "adcode": 611026,
            "province": "陕西省",
            "city": "商洛市",
            "district": "柞水县"
        }
    },
    {
        "id": "97082483073169039",
        "title": "翠屏小区公共厕所",
        "address": "陕西省商洛市山阳县东城路与翠屏路交叉口东南方向23米左右",
        "tel": "",
        "category": "基础设施:公共设施:公共厕所",
        "type": 0,
        "location": {
            "lat": 33.526815,
            "lng": 109.881844
        },
        "ad_info": {
            "adcode": 611024,
            "province": "陕西省",
            "city": "商洛市",
            "district": "山阳县"
        }
    },
    {
        "id": "418872216227102742",
        "title": "公共厕所",
        "address": "陕西省商洛市商州区西街与西街步行街交叉口正西方向131米左右",
        "tel": "",
        "category": "基础设施:公共设施:公共厕所",
        "type": 0,
        "location": {
            "lat": 33.865371,
            "lng": 109.938141
        },
        "ad_info": {
            "adcode": 611002,
            "province": "陕西省",
            "city": "商洛市",
            "district": "商州区"
        }
    },
    {
        "id": "13449860392057112170",
        "title": "公共厕所",
        "address": "陕西省商洛市商州区李龙路北50米",
        "tel": "",
        "category": "基础设施:公共设施:公共厕所",
        "type": 0,
        "location": {
            "lat": 33.97212,
            "lng": 109.742094
        },
        "ad_info": {
            "adcode": 611002,
            "province": "陕西省",
            "city": "商洛市",
            "district": "商州区"
        }
    },
    {
        "id": "15433793010868042134",
        "title": "柞水服务区公共厕所",
        "address": "陕西省商洛市柞水县G211与赤水路交叉口东南方向708米左右",
        "tel": "",
        "category": "基础设施:公共设施:公共厕所",
        "type": 0,
        "location": {
            "lat": 33.630357,
            "lng": 109.164136
        },
        "ad_info": {
            "adcode": 611026,
            "province": "陕西省",
            "city": "商洛市",
            "district": "柞水县"
        }
    },
    {
        "id": "16853077911412426455",
        "title": "公共厕所",
        "address": "陕西省商洛市商南县广场大道与滨河东路南段交叉口正南方向136米左右",
        "tel": "",
        "category": "基础设施:公共设施:公共厕所",
        "type": 0,
        "location": {
            "lat": 33.518156,
            "lng": 110.883698
        },
        "ad_info": {
            "adcode": 611023,
            "province": "陕西省",
            "city": "商洛市",
            "district": "商南县"
        }
    },
    {
        "id": "4224805182565093823",
        "title": "公共厕所",
        "address": "陕西省商洛市镇安县G211与黄午路交叉口西北方向1309米左右",
        "tel": "",
        "category": "基础设施:公共设施:公共厕所",
        "type": 0,
        "location": {
            "lat": 33.455648,
            "lng": 109.173866
        },
        "ad_info": {
            "adcode": 611025,
            "province": "陕西省",
            "city": "商洛市",
            "district": "镇安县"
        }
    },
    {
        "id": "2753241491538501467",
        "title": "公共厕所",
        "address": "陕西省商洛市山阳县户表路与色杏路交叉口正北方向31米左右",
        "tel": "",
        "category": "基础设施:公共设施:公共厕所",
        "type": 0,
        "location": {
            "lat": 33.416061,
            "lng": 109.62049
        },
        "ad_info": {
            "adcode": 611024,
            "province": "陕西省",
            "city": "商洛市",
            "district": "山阳县"
        }
    },
    {
        "id": "13002342619923025224",
        "title": "柞水县县城东门旅游公共厕所",
        "address": "陕西省商洛市柞水县乾佑街(中段)与民乐巷交叉口南120米",
        "tel": "",
        "category": "基础设施:公共设施:公共厕所",
        "type": 0,
        "location": {
            "lat": 33.68055,
            "lng": 109.112038
        },
        "ad_info": {
            "adcode": 611026,
            "province": "陕西省",
            "city": "商洛市",
            "district": "柞水县"
        }
    },
    {
        "id": "12164959724385466354",
        "title": "公共厕所",
        "address": "陕西省商洛市柞水县九天山游客服务中心",
        "tel": "",
        "category": "基础设施:公共设施:公共厕所",
        "type": 0,
        "location": {
            "lat": 33.61248,
            "lng": 109.13034
        },
        "ad_info": {
            "adcode": 611026,
            "province": "陕西省",
            "city": "商洛市",
            "district": "柞水县"
        }
    },
    {
        "id": "18397125709742745913",
        "title": "公共厕所",
        "address": "陕西省商洛市柞水县S307与瓦丰路交叉口西南方向59米左右",
        "tel": "",
        "category": "基础设施:公共设施:公共厕所",
        "type": 0,
        "location": {
            "lat": 33.577278,
            "lng": 109.493659
        },
        "ad_info": {
            "adcode": 611026,
            "province": "陕西省",
            "city": "商洛市",
            "district": "柞水县"
        }
    },
    {
        "id": "6644482406939337727",
        "title": "公共厕所",
        "address": "陕西省商洛市商南县湘太路与郭山路交叉口西北方向825米左右",
        "tel": "",
        "category": "基础设施:公共设施:公共厕所",
        "type": 0,
        "location": {
            "lat": 33.452444,
            "lng": 110.576479
        },
        "ad_info": {
            "adcode": 611023,
            "province": "陕西省",
            "city": "商洛市",
            "district": "商南县"
        }
    },
    {
        "id": "5154097559161841431",
        "title": "公共厕所",
        "address": "陕西省商洛市山阳县县中西路与滨河北路交叉口东南方向302米左右",
        "tel": "",
        "category": "基础设施:公共设施:公共厕所",
        "type": 0,
        "location": {
            "lat": 33.5222,
            "lng": 109.90013
        },
        "ad_info": {
            "adcode": 611024,
            "province": "陕西省",
            "city": "商洛市",
            "district": "山阳县"
        }
    },
    {
        "id": "2777228917578484191",
        "title": "公共厕所",
        "address": "陕西省商洛市商州区红花村卫生室南侧",
        "tel": "",
        "category": "基础设施:公共设施:公共厕所",
        "type": 0,
        "location": {
            "lat": 33.915663,
            "lng": 110.147589
        },
        "ad_info": {
            "adcode": 611002,
            "province": "陕西省",
            "city": "商洛市",
            "district": "商州区"
        }
    },
    {
        "id": "6625806656743411487",
        "title": "公共厕所",
        "address": "陕西省商洛市商州区G312与S101交叉口正东方向550米左右",
        "tel": "",
        "category": "基础设施:公共设施:公共厕所",
        "type": 0,
        "location": {
            "lat": 33.99812,
            "lng": 109.751497
        },
        "ad_info": {
            "adcode": 611002,
            "province": "陕西省",
            "city": "商洛市",
            "district": "商州区"
        }
    },
    {
        "id": "17582776989749764958",
        "title": "公共厕所",
        "address": "陕西省商洛市商州区S101与韩胡路交叉口正南方向1096米左右",
        "tel": "",
        "category": "基础设施:公共设施:公共厕所",
        "type": 0,
        "location": {
            "lat": 34.018205,
            "lng": 109.718051
        },
        "ad_info": {
            "adcode": 611002,
            "province": "陕西省",
            "city": "商洛市",
            "district": "商州区"
        }
    },
    {
        "id": "10380497295327405220",
        "title": "公共厕所",
        "address": "陕西省商洛市柞水县102省道南50米",
        "tel": "",
        "category": "基础设施:公共设施:公共厕所",
        "type": 0,
        "location": {
            "lat": 33.805323,
            "lng": 108.947191
        },
        "ad_info": {
            "adcode": 611026,
            "province": "陕西省",
            "city": "商洛市",
            "district": "柞水县"
        }
    },
    {
        "id": "2412825536219141189",
        "title": "公共厕所",
        "address": "陕西省商洛市山阳县文体路与滨河北路交叉口东南方向88米左右",
        "tel": "",
        "category": "基础设施:公共设施:公共厕所",
        "type": 0,
        "location": {
            "lat": 33.524911,
            "lng": 109.89389
        },
        "ad_info": {
            "adcode": 611024,
            "province": "陕西省",
            "city": "商洛市",
            "district": "山阳县"
        }
    },
    {
        "id": "5324075606464836565",
        "title": "公共厕所",
        "address": "陕西省商洛市商州区团结路与文卫路(北段)交叉口东南方向23米左右",
        "tel": "",
        "category": "基础设施:公共设施:公共厕所",
        "type": 0,
        "location": {
            "lat": 33.869851,
            "lng": 109.93235
        },
        "ad_info": {
            "adcode": 611002,
            "province": "陕西省",
            "city": "商洛市",
            "district": "商州区"
        }
    },
    {
        "id": "3769524424930883973",
        "title": "文化广场公共厕所",
        "address": "陕西省商洛市商州区北新街文化广场(东侧)",
        "tel": "",
        "category": "基础设施:公共设施:公共厕所",
        "type": 0,
        "location": {
            "lat": 33.86945,
            "lng": 109.937607
        },
        "ad_info": {
            "adcode": 611002,
            "province": "陕西省",
            "city": "商洛市",
            "district": "商州区"
        }
    },
    {
        "id": "418872216227102742",
        "title": "公共厕所",
        "address": "陕西省商洛市商州区西街与西街步行街交叉口正西方向131米左右",
        "tel": "",
        "category": "基础设施:公共设施:公共厕所",
        "type": 0,
        "location": {
            "lat": 33.865371,
            "lng": 109.938141
        },
        "ad_info": {
            "adcode": 611002,
            "province": "陕西省",
            "city": "商洛市",
            "district": "商州区"
        }
    },
    {
        "id": "11887220038580148822",
        "title": "公共厕所",
        "address": "陕西省商洛市丹凤县金山盛景西南侧200米",
        "tel": "",
        "category": "基础设施:公共设施:公共厕所",
        "type": 0,
        "location": {
            "lat": 33.684378,
            "lng": 110.341485
        },
        "ad_info": {
            "adcode": 611022,
            "province": "陕西省",
            "city": "商洛市",
            "district": "丹凤县"
        }
    },
    {
        "id": "2580101236724825036",
        "title": "公共厕所",
        "address": "陕西省商洛市丹凤县中心街与人民路交叉口西南方向78米左右",
        "tel": "",
        "category": "基础设施:公共设施:公共厕所",
        "type": 0,
        "location": {
            "lat": 33.695471,
            "lng": 110.32527
        },
        "ad_info": {
            "adcode": 611022,
            "province": "陕西省",
            "city": "商洛市",
            "district": "丹凤县"
        }
    },
    {
        "id": "10488223647579395041",
        "title": "公共厕所",
        "address": "陕西省商洛市商州区州城街与银泉路交叉口正西方向39米左右",
        "tel": "",
        "category": "基础设施:公共设施:公共厕所",
        "type": 0,
        "location": {
            "lat": 33.866872,
            "lng": 109.930791
        },
        "ad_info": {
            "adcode": 611002,
            "province": "陕西省",
            "city": "商洛市",
            "district": "商州区"
        }
    },
    {
        "id": "2992920406904095682",
        "title": "公共厕所",
        "address": "陕西省商洛市商州区S313与北新街交叉口正南方向102米左右",
        "tel": "",
        "category": "基础设施:公共设施:公共厕所",
        "type": 0,
        "location": {
            "lat": 33.883561,
            "lng": 109.91356
        },
        "ad_info": {
            "adcode": 611002,
            "province": "陕西省",
            "city": "商洛市",
            "district": "商州区"
        }
    },
    {
        "id": "11883333243950733357",
        "title": "公共厕所",
        "address": "陕西省商洛市丹凤县广场南路与彩虹桥交叉口正南方向394米左右",
        "tel": "",
        "category": "基础设施:公共设施:公共厕所",
        "type": 0,
        "location": {
            "lat": 33.68395,
            "lng": 110.326926
        },
        "ad_info": {
            "adcode": 611022,
            "province": "陕西省",
            "city": "商洛市",
            "district": "丹凤县"
        }
    },
    {
        "id": "1719106813237224428",
        "title": "公共厕所",
        "address": "陕西省商洛市丹凤县光明路与滨河大道交叉口正南方向7米左右",
        "tel": "",
        "category": "基础设施:公共设施:公共厕所",
        "type": 0,
        "location": {
            "lat": 33.465303,
            "lng": 110.428663
        },
        "ad_info": {
            "adcode": 611022,
            "province": "陕西省",
            "city": "商洛市",
            "district": "丹凤县"
        }
    },
    {
        "id": "6180851898342010821",
        "title": "公共厕所",
        "address": "陕西省商洛市商州区通江路与长平路交叉口正南方向36米左右",
        "tel": "",
        "category": "基础设施:公共设施:公共厕所",
        "type": 0,
        "location": {
            "lat": 33.872982,
            "lng": 109.926421
        },
        "ad_info": {
            "adcode": 611002,
            "province": "陕西省",
            "city": "商洛市",
            "district": "商州区"
        }
    },
    {
        "id": "10569005922406809514",
        "title": "公共厕所",
        "address": "陕西省商洛市商州区东环路与南街交叉口西南方向19米左右",
        "tel": "",
        "category": "基础设施:公共设施:公共厕所",
        "type": 0,
        "location": {
            "lat": 33.861333,
            "lng": 109.944901
        },
        "ad_info": {
            "adcode": 611002,
            "province": "陕西省",
            "city": "商洛市",
            "district": "商州区"
        }
    },
    {
        "id": "9822180596411629756",
        "title": "公共厕所",
        "address": "陕西省商洛市山阳县东城路与苍龙路交叉口正东方向12米左右",
        "tel": "",
        "category": "基础设施:公共设施:公共厕所",
        "type": 0,
        "location": {
            "lat": 33.532812,
            "lng": 109.882784
        },
        "ad_info": {
            "adcode": 611024,
            "province": "陕西省",
            "city": "商洛市",
            "district": "山阳县"
        }
    },
    {
        "id": "6232779958952796972",
        "title": "公共厕所",
        "address": "陕西省商洛市丹凤县Y210与铁竹路交叉口东南方向491米左右",
        "tel": "",
        "category": "基础设施:公共设施:公共厕所",
        "type": 0,
        "location": {
            "lat": 33.468575,
            "lng": 110.44179
        },
        "ad_info": {
            "adcode": 611022,
            "province": "陕西省",
            "city": "商洛市",
            "district": "丹凤县"
        }
    },
    {
        "id": "11539112942537099618",
        "title": "公共厕所",
        "address": "陕西省商洛市镇安县西沟路与西环路交叉口正南方向44米左右",
        "tel": "",
        "category": "基础设施:公共设施:公共厕所",
        "type": 0,
        "location": {
            "lat": 33.428125,
            "lng": 109.14883
        },
        "ad_info": {
            "adcode": 611025,
            "province": "陕西省",
            "city": "商洛市",
            "district": "镇安县"
        }
    },
    {
        "id": "6210082915052128632",
        "title": "公共厕所",
        "address": "陕西省商洛市丹凤县人民路与朝阳街交叉口西北方向103米左右",
        "tel": "",
        "category": "基础设施:公共设施:公共厕所",
        "type": 0,
        "location": {
            "lat": 33.69764,
            "lng": 110.32561
        },
        "ad_info": {
            "adcode": 611022,
            "province": "陕西省",
            "city": "商洛市",
            "district": "丹凤县"
        }
    },
    {
        "id": "17131133804702513600",
        "title": "公共厕所",
        "address": "陕西省商洛市丹凤县广场南路与彩虹桥交叉口正南方向443米左右",
        "tel": "",
        "category": "基础设施:公共设施:公共厕所",
        "type": 0,
        "location": {
            "lat": 33.683527,
            "lng": 110.32667
        },
        "ad_info": {
            "adcode": 611022,
            "province": "陕西省",
            "city": "商洛市",
            "district": "丹凤县"
        }
    },
    {
        "id": "13300650580095480184",
        "title": "公共厕所",
        "address": "陕西省商洛市商南县东环路与文化路交叉口正北方向23米左右",
        "tel": "",
        "category": "基础设施:公共设施:公共厕所",
        "type": 0,
        "location": {
            "lat": 33.52931,
            "lng": 110.88307
        },
        "ad_info": {
            "adcode": 611023,
            "province": "陕西省",
            "city": "商洛市",
            "district": "商南县"
        }
    },
    {
        "id": "13933344002153432118",
        "title": "公共厕所",
        "address": "陕西省商洛市商州区江滨南路与通信路交叉口正东方向107米左右",
        "tel": "",
        "category": "基础设施:公共设施:公共厕所",
        "type": 0,
        "location": {
            "lat": 33.862692,
            "lng": 109.924021
        },
        "ad_info": {
            "adcode": 611002,
            "province": "陕西省",
            "city": "商洛市",
            "district": "商州区"
        }
    },
    {
        "id": "16058278315554212850",
        "title": "公共厕所",
        "address": "陕西省商洛市丹凤县S204与江滨南路交叉口正东方向232米左右",
        "tel": "",
        "category": "基础设施:公共设施:公共厕所",
        "type": 0,
        "location": {
            "lat": 33.694113,
            "lng": 110.317171
        },
        "ad_info": {
            "adcode": 611022,
            "province": "陕西省",
            "city": "商洛市",
            "district": "丹凤县"
        }
    },
    {
        "id": "7653177153418502927",
        "title": "公共厕所",
        "address": "陕西省商洛市丹凤县竹林关中学东南侧130米",
        "tel": "",
        "category": "基础设施:公共设施:公共厕所",
        "type": 0,
        "location": {
            "lat": 33.463886,
            "lng": 110.443651
        },
        "ad_info": {
            "adcode": 611022,
            "province": "陕西省",
            "city": "商洛市",
            "district": "丹凤县"
        }
    },
    {
        "id": "5640190515653168837",
        "title": "公共厕所",
        "address": "陕西省商洛市商州区北新街与北新街(东段)交叉口西北方向95米",
        "tel": "",
        "category": "基础设施:公共设施:公共厕所",
        "type": 0,
        "location": {
            "lat": 33.861154,
            "lng": 109.958428
        },
        "ad_info": {
            "adcode": 611002,
            "province": "陕西省",
            "city": "商洛市",
            "district": "商州区"
        }
    },
    {
        "id": "17291271835425678283",
        "title": "公共卫生间",
        "address": "陕西省商洛市镇安县G211与月青路交叉口东南方向894米左右",
        "tel": "",
        "category": "基础设施:公共设施:公共厕所",
        "type": 0,
        "location": {
            "lat": 33.23491,
            "lng": 109.169117
        },
        "ad_info": {
            "adcode": 611025,
            "province": "陕西省",
            "city": "商洛市",
            "district": "镇安县"
        }
    },
    {
        "id": "2785407531634889036",
        "title": "公共厕所",
        "address": "陕西省商洛市丹凤县商山红酒业东北侧260米",
        "tel": "",
        "category": "基础设施:公共设施:公共厕所",
        "type": 0,
        "location": {
            "lat": 33.709388,
            "lng": 110.27361
        },
        "ad_info": {
            "adcode": 611022,
            "province": "陕西省",
            "city": "商洛市",
            "district": "丹凤县"
        }
    },
    {
        "id": "7560979167404347769",
        "title": "公共厕所",
        "address": "陕西省商洛市丹凤县广场南路与彩虹桥交叉口正南方向102米左右",
        "tel": "",
        "category": "基础设施:公共设施:公共厕所",
        "type": 0,
        "location": {
            "lat": 33.686614,
            "lng": 110.327391
        },
        "ad_info": {
            "adcode": 611022,
            "province": "陕西省",
            "city": "商洛市",
            "district": "丹凤县"
        }
    },
    {
        "id": "9751423027829731214",
        "title": "金丝峡服务区公共厕所",
        "address": "陕西省商洛市商南县金丝峡服务区与G40沪陕高速交叉口西380米",
        "tel": "",
        "category": "基础设施:公共设施:公共厕所",
        "type": 0,
        "location": {
            "lat": 33.447483,
            "lng": 110.601269
        },
        "ad_info": {
            "adcode": 611023,
            "province": "陕西省",
            "city": "商洛市",
            "district": "商南县"
        }
    },
    {
        "id": "13246825790628238511",
        "title": "公共厕所",
        "address": "陕西省商洛市商州区江滨南路与金源二路交叉口正南方向46米左右",
        "tel": "",
        "category": "基础设施:公共设施:公共厕所",
        "type": 0,
        "location": {
            "lat": 33.864492,
            "lng": 109.920291
        },
        "ad_info": {
            "adcode": 611002,
            "province": "陕西省",
            "city": "商洛市",
            "district": "商州区"
        }
    },
    {
        "id": "15262492196168126311",
        "title": "公共厕所",
        "address": "陕西省商洛市商州区联合诊所北侧120米",
        "tel": "",
        "category": "基础设施:公共设施:公共厕所",
        "type": 0,
        "location": {
            "lat": 33.859108,
            "lng": 109.936647
        },
        "ad_info": {
            "adcode": 611002,
            "province": "陕西省",
            "city": "商洛市",
            "district": "商州区"
        }
    },
    {
        "id": "16484405932046514717",
        "title": "公共厕所",
        "address": "陕西省商洛市洛南县北环路与爱民巷交叉口正南方向59米左右",
        "tel": "",
        "category": "基础设施:公共设施:公共厕所",
        "type": 0,
        "location": {
            "lat": 34.090859,
            "lng": 110.146734
        },
        "ad_info": {
            "adcode": 611021,
            "province": "陕西省",
            "city": "商洛市",
            "district": "洛南县"
        }
    },
    {
        "id": "3291251410467517362",
        "title": "公共厕所",
        "address": "陕西省商洛市丹凤县竹林老街与郭山路交叉口东北方向267米左右",
        "tel": "",
        "category": "基础设施:公共设施:公共厕所",
        "type": 0,
        "location": {
            "lat": 33.467566,
            "lng": 110.436602
        },
        "ad_info": {
            "adcode": 611022,
            "province": "陕西省",
            "city": "商洛市",
            "district": "丹凤县"
        }
    },
    {
        "id": "15433793010868042134",
        "title": "柞水服务区公共厕所",
        "address": "陕西省商洛市柞水县G211与赤水路交叉口东南方向708米左右",
        "tel": "",
        "category": "基础设施:公共设施:公共厕所",
        "type": 0,
        "location": {
            "lat": 33.630357,
            "lng": 109.164136
        },
        "ad_info": {
            "adcode": 611026,
            "province": "陕西省",
            "city": "商洛市",
            "district": "柞水县"
        }
    },
    {
        "id": "97082483073169039",
        "title": "翠屏小区公共厕所",
        "address": "陕西省商洛市山阳县东城路与翠屏路交叉口东南方向23米左右",
        "tel": "",
        "category": "基础设施:公共设施:公共厕所",
        "type": 0,
        "location": {
            "lat": 33.526815,
            "lng": 109.881844
        },
        "ad_info": {
            "adcode": 611024,
            "province": "陕西省",
            "city": "商洛市",
            "district": "山阳县"
        }
    },
    {
        "id": "13201864851568574526",
        "title": "公共厕所",
        "address": "陕西省商洛市山阳县丰阳大道与西河六路交叉口西南方向160米左右",
        "tel": "",
        "category": "基础设施:公共设施:公共厕所",
        "type": 0,
        "location": {
            "lat": 33.540455,
            "lng": 109.877721
        },
        "ad_info": {
            "adcode": 611024,
            "province": "陕西省",
            "city": "商洛市",
            "district": "山阳县"
        }
    },
    {
        "id": "2761779650637394865",
        "title": "公共厕所",
        "address": "陕西省商洛市商南县邮政巷街与长新路交叉口西北方向44米左右",
        "tel": "",
        "category": "基础设施:公共设施:公共厕所",
        "type": 0,
        "location": {
            "lat": 33.526391,
            "lng": 110.88435
        },
        "ad_info": {
            "adcode": 611023,
            "province": "陕西省",
            "city": "商洛市",
            "district": "商南县"
        }
    },
    {
        "id": "6411973587861448236",
        "title": "公共厕所",
        "address": "陕西省商洛市山阳县西河三路与西河大道交叉口东北方向76米左右",
        "tel": "",
        "category": "基础设施:公共设施:公共厕所",
        "type": 0,
        "location": {
            "lat": 33.537869,
            "lng": 109.87258
        },
        "ad_info": {
            "adcode": 611024,
            "province": "陕西省",
            "city": "商洛市",
            "district": "山阳县"
        }
    },
    {
        "id": "18305069585274714204",
        "title": "公共厕所",
        "address": "陕西省商洛市洛南县北环路与西新街交叉口正南方向53米左右",
        "tel": "",
        "category": "基础设施:公共设施:公共厕所",
        "type": 0,
        "location": {
            "lat": 34.089478,
            "lng": 110.144424
        },
        "ad_info": {
            "adcode": 611021,
            "province": "陕西省",
            "city": "商洛市",
            "district": "洛南县"
        }
    },
    {
        "id": "13002342619923025224",
        "title": "柞水县县城东门旅游公共厕所",
        "address": "陕西省商洛市柞水县乾佑街(中段)与民乐巷交叉口南120米",
        "tel": "",
        "category": "基础设施:公共设施:公共厕所",
        "type": 0,
        "location": {
            "lat": 33.68055,
            "lng": 109.112038
        },
        "ad_info": {
            "adcode": 611026,
            "province": "陕西省",
            "city": "商洛市",
            "district": "柞水县"
        }
    },
    {
        "id": "4948078565155861170",
        "title": "商洛北服务区公共厕所",
        "address": "陕西省商洛市商州区洛洪线商洛北服务区",
        "tel": "",
        "category": "基础设施:公共设施:公共厕所",
        "type": 0,
        "location": {
            "lat": 34.045626,
            "lng": 109.909202
        },
        "ad_info": {
            "adcode": 611002,
            "province": "陕西省",
            "city": "商洛市",
            "district": "商州区"
        }
    },
    {
        "id": "5873611399814325991",
        "title": "柞水东服务区公共厕所",
        "address": "陕西省商洛市柞水县色杏路与马云路交叉口正东方向1246米左右",
        "tel": "",
        "category": "基础设施:公共设施:公共厕所",
        "type": 0,
        "location": {
            "lat": 33.483961,
            "lng": 109.503997
        },
        "ad_info": {
            "adcode": 611026,
            "province": "陕西省",
            "city": "商洛市",
            "district": "柞水县"
        }
    },
    {
        "id": "16310171096248177457",
        "title": "公共厕所",
        "address": "陕西省商洛市山阳县西河东路",
        "tel": "",
        "category": "基础设施:公共设施:公共厕所",
        "type": 0,
        "location": {
            "lat": 33.537369,
            "lng": 109.874698
        },
        "ad_info": {
            "adcode": 611024,
            "province": "陕西省",
            "city": "商洛市",
            "district": "山阳县"
        }
    },
    {
        "id": "8398905867845965507",
        "title": "公共厕所",
        "address": "陕西省商洛市洛南县北环路与环城北路交叉口西南方向18米左右",
        "tel": "",
        "category": "基础设施:公共设施:公共厕所",
        "type": 0,
        "location": {
            "lat": 34.088698,
            "lng": 110.142294
        },
        "ad_info": {
            "adcode": 611021,
            "province": "陕西省",
            "city": "商洛市",
            "district": "洛南县"
        }
    },
    {
        "id": "18176243915973180988",
        "title": "公共厕所",
        "address": "陕西省商洛市洛南县人民路与河滨南路交叉口东北方向48米左右",
        "tel": "",
        "category": "基础设施:公共设施:公共厕所",
        "type": 0,
        "location": {
            "lat": 34.088271,
            "lng": 110.150472
        },
        "ad_info": {
            "adcode": 611021,
            "province": "陕西省",
            "city": "商洛市",
            "district": "洛南县"
        }
    },
    {
        "id": "9436899414371134995",
        "title": "后湾村旅游公厕",
        "address": "陕西省商洛市商南县",
        "tel": "",
        "category": "基础设施:公共设施:公共厕所",
        "type": 0,
        "location": {
            "lat": 33.578275,
            "lng": 110.741098
        },
        "ad_info": {
            "adcode": 611023,
            "province": "陕西省",
            "city": "商洛市",
            "district": "商南县"
        }
    },
    {
        "id": "11142148342560820605",
        "title": "天竺山服务区第二公共厕所",
        "address": "陕西省商洛市山阳县G70福银高速与天竺山服务区交叉口南380米",
        "tel": "",
        "category": "基础设施:公共设施:公共厕所",
        "type": 0,
        "location": {
            "lat": 33.29694,
            "lng": 110.065902
        },
        "ad_info": {
            "adcode": 611024,
            "province": "陕西省",
            "city": "商洛市",
            "district": "山阳县"
        }
    },
    {
        "id": "18173951720936644456",
        "title": "公共厕所",
        "address": "陕西省商洛市洛南县清川路4号",
        "tel": "",
        "category": "基础设施:公共设施:公共厕所",
        "type": 0,
        "location": {
            "lat": 34.08667,
            "lng": 110.14298
        },
        "ad_info": {
            "adcode": 611021,
            "province": "陕西省",
            "city": "商洛市",
            "district": "洛南县"
        }
    },
    {
        "id": "10858971364885412264",
        "title": "公共厕所",
        "address": "陕西省商洛市洛南县华阳路与南街交叉口正北方向75米左右",
        "tel": "",
        "category": "基础设施:公共设施:公共厕所",
        "type": 0,
        "location": {
            "lat": 34.090111,
            "lng": 110.149204
        },
        "ad_info": {
            "adcode": 611021,
            "province": "陕西省",
            "city": "商洛市",
            "district": "洛南县"
        }
    },
    {
        "id": "12403439035153326813",
        "title": "公共厕所",
        "address": "陕西省商洛市丹凤县南凤街与花庙路交叉口东北方向47米左右",
        "tel": "",
        "category": "基础设施:公共设施:公共厕所",
        "type": 0,
        "location": {
            "lat": 33.693991,
            "lng": 110.32487
        },
        "ad_info": {
            "adcode": 611022,
            "province": "陕西省",
            "city": "商洛市",
            "district": "丹凤县"
        }
    },
    {
        "id": "15136272395994633878",
        "title": "公共厕所",
        "address": "陕西省商洛市洛南县五一路与河滨南路交叉口西南方向91米左右",
        "tel": "",
        "category": "基础设施:公共设施:公共厕所",
        "type": 0,
        "location": {
            "lat": 34.085975,
            "lng": 110.146015
        },
        "ad_info": {
            "adcode": 611021,
            "province": "陕西省",
            "city": "商洛市",
            "district": "洛南县"
        }
    },
    {
        "id": "14007701729233076123",
        "title": "天竺山服务区公共厕所",
        "address": "陕西省商洛市山阳县黄漫路西50米",
        "tel": "",
        "category": "基础设施:公共设施:公共厕所",
        "type": 0,
        "location": {
            "lat": 33.295097,
            "lng": 110.070401
        },
        "ad_info": {
            "adcode": 611024,
            "province": "陕西省",
            "city": "商洛市",
            "district": "山阳县"
        }
    },
    {
        "id": "3977268317226679383",
        "title": "柞水服务区公共厕所",
        "address": "陕西省商洛市柞水县石化柞水服务区加油站西南侧140米",
        "tel": "",
        "category": "基础设施:公共设施:公共厕所",
        "type": 0,
        "location": {
            "lat": 33.630631,
            "lng": 109.162649
        },
        "ad_info": {
            "adcode": 611026,
            "province": "陕西省",
            "city": "商洛市",
            "district": "柞水县"
        }
    },
    {
        "id": "15907844240964249509",
        "title": "公共厕所",
        "address": "陕西省商洛市洛南县人民路与河滨南路交叉口东北方向98米左右",
        "tel": "",
        "category": "基础设施:公共设施:公共厕所",
        "type": 0,
        "location": {
            "lat": 34.088746,
            "lng": 110.150726
        },
        "ad_info": {
            "adcode": 611021,
            "province": "陕西省",
            "city": "商洛市",
            "district": "洛南县"
        }
    },
    {
        "id": "14638210067205816246",
        "title": "公共厕所",
        "address": "陕西省商洛市商州区人民路与金凤路交叉口正南方向33米左右",
        "tel": "",
        "category": "基础设施:公共设施:公共厕所",
        "type": 0,
        "location": {
            "lat": 33.86907,
            "lng": 109.941876
        },
        "ad_info": {
            "adcode": 611002,
            "province": "陕西省",
            "city": "商洛市",
            "district": "商州区"
        }
    },
    {
        "id": "10390866095907254348",
        "title": "公共厕所",
        "address": "陕西省商洛市洛南县健康路与劳动路交叉口东北方向13米左右",
        "tel": "",
        "category": "基础设施:公共设施:公共厕所",
        "type": 0,
        "location": {
            "lat": 34.084311,
            "lng": 110.14369
        },
        "ad_info": {
            "adcode": 611021,
            "province": "陕西省",
            "city": "商洛市",
            "district": "洛南县"
        }
    },
    {
        "id": "11693676352090948333",
        "title": "公共厕所",
        "address": "陕西省商洛市丹凤县中心街与紫阳宫路交叉口正北方向165米左右",
        "tel": "",
        "category": "基础设施:公共设施:公共厕所",
        "type": 0,
        "location": {
            "lat": 33.696472,
            "lng": 110.329381
        },
        "ad_info": {
            "adcode": 611022,
            "province": "陕西省",
            "city": "商洛市",
            "district": "丹凤县"
        }
    },
    {
        "id": "656329468423118447",
        "title": "公共厕所",
        "address": "陕西省商洛市丹凤县新凤街与机耕路交叉口东北方向23米左右",
        "tel": "",
        "category": "基础设施:公共设施:公共厕所",
        "type": 0,
        "location": {
            "lat": 33.696897,
            "lng": 110.339354
        },
        "ad_info": {
            "adcode": 611022,
            "province": "陕西省",
            "city": "商洛市",
            "district": "丹凤县"
        }
    },
    {
        "id": "14250672794387794323",
        "title": "丹凤服务区公共厕所",
        "address": "陕西省商洛市丹凤县丹牌路与沙渠路交叉口正南方向711米左右",
        "tel": "",
        "category": "基础设施:公共设施:公共厕所",
        "type": 0,
        "location": {
            "lat": 33.680577,
            "lng": 110.310589
        },
        "ad_info": {
            "adcode": 611022,
            "province": "陕西省",
            "city": "商洛市",
            "district": "丹凤县"
        }
    },
    {
        "id": "15806018248841207340",
        "title": "丹凤服务区公共厕所",
        "address": "陕西省商洛市丹凤县沙渠路与电渠东路交叉口正西方向624米左右",
        "tel": "",
        "category": "基础设施:公共设施:公共厕所",
        "type": 0,
        "location": {
            "lat": 33.681174,
            "lng": 110.311818
        },
        "ad_info": {
            "adcode": 611022,
            "province": "陕西省",
            "city": "商洛市",
            "district": "丹凤县"
        }
    },
    {
        "id": "13584773925043635737",
        "title": "公共厕所",
        "address": "陕西省商洛市洛南县东新街与中甫街交叉口西北方向24米左右",
        "tel": "",
        "category": "基础设施:公共设施:公共厕所",
        "type": 0,
        "location": {
            "lat": 34.091618,
            "lng": 110.151704
        },
        "ad_info": {
            "adcode": 611021,
            "province": "陕西省",
            "city": "商洛市",
            "district": "洛南县"
        }
    },
    {
        "id": "6071997554465775525",
        "title": "山阳服务区公共厕所",
        "address": "陕西省商洛市山阳县城关街道福银高速公路山阳服务区",
        "tel": "",
        "category": "基础设施:公共设施:公共厕所",
        "type": 0,
        "location": {
            "lat": 33.636691,
            "lng": 109.879647
        },
        "ad_info": {
            "adcode": 611024,
            "province": "陕西省",
            "city": "商洛市",
            "district": "山阳县"
        }
    },
    {
        "id": "7769024774108147968",
        "title": "商洛北服务区公共厕所",
        "address": "陕西省商洛市商州区商洛北服务区(沪陕高速公路南)",
        "tel": "",
        "category": "基础设施:公共设施:公共厕所",
        "type": 0,
        "location": {
            "lat": 34.043336,
            "lng": 109.908265
        },
        "ad_info": {
            "adcode": 611002,
            "province": "陕西省",
            "city": "商洛市",
            "district": "商州区"
        }
    },
    {
        "id": "2565974527121863772",
        "title": "百家岗村公厕",
        "address": "陕西省商洛市商南县",
        "tel": "",
        "category": "基础设施:公共设施:公共厕所",
        "type": 0,
        "location": {
            "lat": 33.528369,
            "lng": 110.757563
        },
        "ad_info": {
            "adcode": 611023,
            "province": "陕西省",
            "city": "商洛市",
            "district": "商南县"
        }
    },
    {
        "id": "3269685608760131577",
        "title": "公共厕所",
        "address": "陕西省商洛市洛南县玫瑰小镇景区",
        "tel": "",
        "category": "基础设施:公共设施:公共厕所",
        "type": 0,
        "location": {
            "lat": 34.028559,
            "lng": 110.340406
        },
        "ad_info": {
            "adcode": 611021,
            "province": "陕西省",
            "city": "商洛市",
            "district": "洛南县"
        }
    },
    {
        "id": "3169153782734249595",
        "title": "山阳县延坪镇铁炉子村旅游公厕",
        "address": "陕西省商洛市山阳县",
        "tel": "",
        "category": "基础设施:公共设施:公共厕所",
        "type": 0,
        "location": {
            "lat": 33.362256,
            "lng": 110.133049
        },
        "ad_info": {
            "adcode": 611024,
            "province": "陕西省",
            "city": "商洛市",
            "district": "山阳县"
        }
    },
    {
        "id": "3397511782120153212",
        "title": "党台村杨家湾搬迁点公厕",
        "address": "陕西省商洛市柞水县S307",
        "tel": "",
        "category": "基础设施:公共设施:公共厕所",
        "type": 0,
        "location": {
            "lat": 33.571816,
            "lng": 109.492804
        },
        "ad_info": {
            "adcode": 611026,
            "province": "陕西省",
            "city": "商洛市",
            "district": "柞水县"
        }
    },
    {
        "id": "2194501594490112828",
        "title": "公共厕所",
        "address": "陕西省商洛市洛南县保安镇永洛路仓颉小镇",
        "tel": "",
        "category": "基础设施:公共设施:公共厕所",
        "type": 0,
        "location": {
            "lat": 34.146229,
            "lng": 109.96416
        },
        "ad_info": {
            "adcode": 611021,
            "province": "陕西省",
            "city": "商洛市",
            "district": "洛南县"
        }
    },
    {
        "id": "14618452851300463913",
        "title": "四新村四组公厕",
        "address": "陕西省商洛市柞水县",
        "tel": "",
        "category": "基础设施:公共设施:公共厕所",
        "type": 0,
        "location": {
            "lat": 33.657635,
            "lng": 109.242387
        },
        "ad_info": {
            "adcode": 611026,
            "province": "陕西省",
            "city": "商洛市",
            "district": "柞水县"
        }
    },
    {
        "id": "15299709689898690172",
        "title": "天书寨桥头公共厕所",
        "address": "陕西省商洛市柞水县S102",
        "tel": "",
        "category": "基础设施:公共设施:公共厕所",
        "type": 0,
        "location": {
            "lat": 33.569858,
            "lng": 109.164969
        },
        "ad_info": {
            "adcode": 611026,
            "province": "陕西省",
            "city": "商洛市",
            "district": "柞水县"
        }
    },
    {
        "id": "12966611830845689165",
        "title": "公共厕所",
        "address": "陕西省商洛市山阳县268乡道与色杏路交叉口西南100米",
        "tel": "",
        "category": "基础设施:公共设施:公共厕所",
        "type": 0,
        "location": {
            "lat": 33.47151,
            "lng": 109.638506
        },
        "ad_info": {
            "adcode": 611024,
            "province": "陕西省",
            "city": "商洛市",
            "district": "山阳县"
        }
    },
    {
        "id": "2301143045733385886",
        "title": "老庵寺村一组公共卫生间",
        "address": "陕西省商洛市柞水县",
        "tel": "",
        "category": "基础设施:公共设施:公共厕所",
        "type": 0,
        "location": {
            "lat": 33.727217,
            "lng": 109.217577
        },
        "ad_info": {
            "adcode": 611026,
            "province": "陕西省",
            "city": "商洛市",
            "district": "柞水县"
        }
    },
    {
        "id": "2699516992638432599",
        "title": "大寺沟村公厕",
        "address": "陕西省商洛市柞水县",
        "tel": "",
        "category": "基础设施:公共设施:公共厕所",
        "type": 0,
        "location": {
            "lat": 33.479723,
            "lng": 109.400767
        },
        "ad_info": {
            "adcode": 611026,
            "province": "陕西省",
            "city": "商洛市",
            "district": "柞水县"
        }
    },
    {
        "id": "7645649773846307859",
        "title": "公共厕所",
        "address": "陕西省商洛市商州区民居路与通江路交叉口西北方向51米左右",
        "tel": "",
        "category": "基础设施:公共设施:公共厕所",
        "type": 0,
        "location": {
            "lat": 33.872674,
            "lng": 109.925253
        },
        "ad_info": {
            "adcode": 611002,
            "province": "陕西省",
            "city": "商洛市",
            "district": "商州区"
        }
    },
    {
        "id": "2073908470223762369",
        "title": "安沟口公共卫生间",
        "address": "陕西省商洛市柞水县",
        "tel": "",
        "category": "基础设施:公共设施:公共厕所",
        "type": 0,
        "location": {
            "lat": 33.664811,
            "lng": 109.081464
        },
        "ad_info": {
            "adcode": 611026,
            "province": "陕西省",
            "city": "商洛市",
            "district": "柞水县"
        }
    },
    {
        "id": "11212948432154328712",
        "title": "泉河院长公共厕所",
        "address": "陕西省商洛市山阳县",
        "tel": "",
        "category": "基础设施:公共设施:公共厕所",
        "type": 0,
        "location": {
            "lat": 33.317324,
            "lng": 110.178365
        },
        "ad_info": {
            "adcode": 611024,
            "province": "陕西省",
            "city": "商洛市",
            "district": "山阳县"
        }
    },
    {
        "id": "9174708442616894725",
        "title": "公共厕所",
        "address": "陕西省商洛市商州区体育北路与商鞅大道交叉口正东方向266米左右",
        "tel": "",
        "category": "基础设施:公共设施:公共厕所",
        "type": 0,
        "location": {
            "lat": 33.878133,
            "lng": 109.916759
        },
        "ad_info": {
            "adcode": 611002,
            "province": "陕西省",
            "city": "商洛市",
            "district": "商州区"
        }
    },
    {
        "id": "4256010591971862147",
        "title": "公共厕所",
        "address": "陕西省商洛市商州区G40沪陕高速出口与G40沪陕高速交叉口西南280米",
        "tel": "",
        "category": "基础设施:公共设施:公共厕所",
        "type": 0,
        "location": {
            "lat": 33.863449,
            "lng": 109.974374
        },
        "ad_info": {
            "adcode": 611002,
            "province": "陕西省",
            "city": "商洛市",
            "district": "商州区"
        }
    },
    {
        "id": "1102140992515794575",
        "title": "金盆村三组聂家沟口公共厕所",
        "address": "陕西省商洛市柞水县",
        "tel": "",
        "category": "基础设施:公共设施:公共厕所",
        "type": 0,
        "location": {
            "lat": 33.70682,
            "lng": 109.20103
        },
        "ad_info": {
            "adcode": 611026,
            "province": "陕西省",
            "city": "商洛市",
            "district": "柞水县"
        }
    },
    {
        "id": "9975770242398683265",
        "title": "过风楼社区公厕",
        "address": "陕西省商洛市山阳县G70",
        "tel": "",
        "category": "基础设施:公共设施:公共厕所",
        "type": 0,
        "location": {
            "lat": 33.507074,
            "lng": 110.016051
        },
        "ad_info": {
            "adcode": 611024,
            "province": "陕西省",
            "city": "商洛市",
            "district": "山阳县"
        }
    },
    {
        "id": "6606624635136462853",
        "title": "公共厕所",
        "address": "陕西省商洛市柞水县G211与临河路交叉口西北方向116米左右",
        "tel": "",
        "category": "基础设施:公共设施:公共厕所",
        "type": 0,
        "location": {
            "lat": 33.690863,
            "lng": 109.11285
        },
        "ad_info": {
            "adcode": 611026,
            "province": "陕西省",
            "city": "商洛市",
            "district": "柞水县"
        }
    },
    {
        "id": "2404500568681592621",
        "title": "马家店村公共厕所",
        "address": "陕西省商洛市山阳县",
        "tel": "",
        "category": "基础设施:公共设施:公共厕所",
        "type": 0,
        "location": {
            "lat": 33.344138,
            "lng": 110.135515
        },
        "ad_info": {
            "adcode": 611024,
            "province": "陕西省",
            "city": "商洛市",
            "district": "山阳县"
        }
    },
    {
        "id": "2669672830776595662",
        "title": "天埫村公共卫生间",
        "address": "陕西省商洛市柞水县",
        "tel": "",
        "category": "基础设施:公共设施:公共厕所",
        "type": 0,
        "location": {
            "lat": 33.481478,
            "lng": 109.545485
        },
        "ad_info": {
            "adcode": 611026,
            "province": "陕西省",
            "city": "商洛市",
            "district": "柞水县"
        }
    },
    {
        "id": "2477855846784561036",
        "title": "西沟口公厕",
        "address": "陕西省商洛市柞水县S315",
        "tel": "",
        "category": "基础设施:公共设施:公共厕所",
        "type": 0,
        "location": {
            "lat": 33.57918,
            "lng": 109.279551
        },
        "ad_info": {
            "adcode": 611026,
            "province": "陕西省",
            "city": "商洛市",
            "district": "柞水县"
        }
    },
    {
        "id": "6198371663245005406",
        "title": "柞水县下梁镇西川村村委会公厕",
        "address": "陕西省商洛市柞水县",
        "tel": "",
        "category": "基础设施:公共设施:公共厕所",
        "type": 0,
        "location": {
            "lat": 33.697292,
            "lng": 109.179781
        },
        "ad_info": {
            "adcode": 611026,
            "province": "陕西省",
            "city": "商洛市",
            "district": "柞水县"
        }
    },
    {
        "id": "2787293653552333427",
        "title": "清水村一组台子公厕",
        "address": "陕西省商洛市柞水县S307",
        "tel": "",
        "category": "基础设施:公共设施:公共厕所",
        "type": 0,
        "location": {
            "lat": 33.539095,
            "lng": 109.353393
        },
        "ad_info": {
            "adcode": 611026,
            "province": "陕西省",
            "city": "商洛市",
            "district": "柞水县"
        }
    },
    {
        "id": "10906021655411229227",
        "title": "公共厕所",
        "address": "陕西省商洛市洛南县四洪路与迎宾大道交叉口正南方向607米左右",
        "tel": "",
        "category": "基础设施:公共设施:公共厕所",
        "type": 0,
        "location": {
            "lat": 34.073025,
            "lng": 110.130807
        },
        "ad_info": {
            "adcode": 611021,
            "province": "陕西省",
            "city": "商洛市",
            "district": "洛南县"
        }
    },
    {
        "id": "14806113205418852025",
        "title": "公共厕所(SX-SL-0721)",
        "address": "陕西省商洛市柞水县",
        "tel": "",
        "category": "基础设施:公共设施:公共厕所",
        "type": 0,
        "location": {
            "lat": 33.584992,
            "lng": 109.309716
        },
        "ad_info": {
            "adcode": 611026,
            "province": "陕西省",
            "city": "商洛市",
            "district": "柞水县"
        }
    },
    {
        "id": "5622076043444390046",
        "title": "镇安服务区公共厕所",
        "address": "陕西省商洛市镇安县G211与东龙路交叉口东北方向426米左右",
        "tel": "",
        "category": "基础设施:公共设施:公共厕所",
        "type": 0,
        "location": {
            "lat": 33.30109,
            "lng": 109.177304
        },
        "ad_info": {
            "adcode": 611025,
            "province": "陕西省",
            "city": "商洛市",
            "district": "镇安县"
        }
    },
    {
        "id": "2248655153390890077",
        "title": "女洗手间",
        "address": "陕西省商洛市柞水县211国道与G65包茂高速出口交叉口西北140米",
        "tel": "",
        "category": "基础设施:公共设施:公共厕所",
        "type": 0,
        "location": {
            "lat": 33.66877,
            "lng": 109.116769
        },
        "ad_info": {
            "adcode": 611026,
            "province": "陕西省",
            "city": "商洛市",
            "district": "柞水县"
        }
    },
    {
        "id": "15922848743775314583",
        "title": "工会爱心驿站(城管系统莲湖公园南公共厕所)",
        "address": "陕西省商洛市商州区莲湖公园南段",
        "tel": "",
        "category": "基础设施:公共设施:公共厕所",
        "type": 0,
        "location": {
            "lat": 33.862673,
            "lng": 109.938881
        },
        "ad_info": {
            "adcode": 611002,
            "province": "陕西省",
            "city": "商洛市",
            "district": "商州区"
        }
    },
    {
        "id": "17463112571045611201",
        "title": "金盆村三组公共厕所",
        "address": "陕西省商洛市柞水县",
        "tel": "",
        "category": "基础设施:公共设施:公共厕所",
        "type": 0,
        "location": {
            "lat": 33.710477,
            "lng": 109.206256
        },
        "ad_info": {
            "adcode": 611026,
            "province": "陕西省",
            "city": "商洛市",
            "district": "柞水县"
        }
    },
    {
        "id": "10549567565203304129",
        "title": "联丰村公厕",
        "address": "陕西省商洛市柞水县",
        "tel": "",
        "category": "基础设施:公共设施:公共厕所",
        "type": 0,
        "location": {
            "lat": 33.475333,
            "lng": 109.43774
        },
        "ad_info": {
            "adcode": 611026,
            "province": "陕西省",
            "city": "商洛市",
            "district": "柞水县"
        }
    },
    {
        "id": "15745844537243164577",
        "title": "公共厕所",
        "address": "陕西省商洛市商州区东关与东新路交叉口西北方向36米左右",
        "tel": "",
        "category": "基础设施:公共设施:公共厕所",
        "type": 0,
        "location": {
            "lat": 33.862139,
            "lng": 109.950433
        },
        "ad_info": {
            "adcode": 611002,
            "province": "陕西省",
            "city": "商洛市",
            "district": "商州区"
        }
    },
    {
        "id": "2660097543084211116",
        "title": "岭丰村朱家院子公厕",
        "address": "陕西省商洛市柞水县柞山高速公路",
        "tel": "",
        "category": "基础设施:公共设施:公共厕所",
        "type": 0,
        "location": {
            "lat": 33.58752,
            "lng": 109.253068
        },
        "ad_info": {
            "adcode": 611026,
            "province": "陕西省",
            "city": "商洛市",
            "district": "柞水县"
        }
    },
    {
        "id": "18225459930182555249",
        "title": "小河子村公共厕所",
        "address": "陕西省商洛市镇安县城灵路",
        "tel": "",
        "category": "基础设施:公共设施:公共厕所",
        "type": 0,
        "location": {
            "lat": 33.350435,
            "lng": 109.494482
        },
        "ad_info": {
            "adcode": 611025,
            "province": "陕西省",
            "city": "商洛市",
            "district": "镇安县"
        }
    },
    {
        "id": "4006710615618185619",
        "title": "芦河涧村三组公厕",
        "address": "陕西省商洛市商州区G312",
        "tel": "",
        "category": "基础设施:公共设施:公共厕所",
        "type": 0,
        "location": {
            "lat": 33.863469,
            "lng": 109.974729
        },
        "ad_info": {
            "adcode": 611002,
            "province": "陕西省",
            "city": "商洛市",
            "district": "商州区"
        }
    },
    {
        "id": "18107988835762015111",
        "title": "公共厕所",
        "address": "陕西省商洛市商州区刘湾街道办初级中学西南侧200米",
        "tel": "",
        "category": "基础设施:公共设施:公共厕所",
        "type": 0,
        "location": {
            "lat": 33.848538,
            "lng": 109.952669
        },
        "ad_info": {
            "adcode": 611002,
            "province": "陕西省",
            "city": "商洛市",
            "district": "商州区"
        }
    },
    {
        "id": "2587718725054936171",
        "title": "金米村天壶公厕",
        "address": "陕西省商洛市柞水县",
        "tel": "",
        "category": "基础设施:公共设施:公共厕所",
        "type": 0,
        "location": {
            "lat": 33.58637,
            "lng": 109.309693
        },
        "ad_info": {
            "adcode": 611026,
            "province": "陕西省",
            "city": "商洛市",
            "district": "柞水县"
        }
    },
    {
        "id": "2017394644870715497",
        "title": "小河口镇宁家沟村公共厕所2",
        "address": "陕西省商洛市山阳县",
        "tel": "",
        "category": "基础设施:公共设施:公共厕所",
        "type": 0,
        "location": {
            "lat": 33.610649,
            "lng": 109.664676
        },
        "ad_info": {
            "adcode": 611024,
            "province": "陕西省",
            "city": "商洛市",
            "district": "山阳县"
        }
    },
    {
        "id": "1037499511840399516",
        "title": "联合村公共厕所",
        "address": "陕西省商洛市柞水县",
        "tel": "",
        "category": "基础设施:公共设施:公共厕所",
        "type": 0,
        "location": {
            "lat": 33.522373,
            "lng": 109.544935
        },
        "ad_info": {
            "adcode": 611026,
            "province": "陕西省",
            "city": "商洛市",
            "district": "柞水县"
        }
    },
    {
        "id": "1908455332570102054",
        "title": "营盘镇药王堂村公厕",
        "address": "陕西省商洛市柞水县S102",
        "tel": "",
        "category": "基础设施:公共设施:公共厕所",
        "type": 0,
        "location": {
            "lat": 33.749697,
            "lng": 109.06805
        },
        "ad_info": {
            "adcode": 611026,
            "province": "陕西省",
            "city": "商洛市",
            "district": "柞水县"
        }
    },
    {
        "id": "4111546434394020067",
        "title": "公共厕所",
        "address": "陕西省商洛市山阳县县中西路与滨河北路交叉口东南方向331米左右",
        "tel": "",
        "category": "基础设施:公共设施:公共厕所",
        "type": 0,
        "location": {
            "lat": 33.521945,
            "lng": 109.900305
        },
        "ad_info": {
            "adcode": 611024,
            "province": "陕西省",
            "city": "商洛市",
            "district": "山阳县"
        }
    },
    {
        "id": "2966538021535186159",
        "title": "韭菜沟口公共卫生间",
        "address": "陕西省商洛市柞水县S102",
        "tel": "",
        "category": "基础设施:公共设施:公共厕所",
        "type": 0,
        "location": {
            "lat": 33.694188,
            "lng": 109.114187
        },
        "ad_info": {
            "adcode": 611026,
            "province": "陕西省",
            "city": "商洛市",
            "district": "柞水县"
        }
    },
    {
        "id": "2164750089894590702",
        "title": "党台村公共卫生间",
        "address": "陕西省商洛市柞水县S307",
        "tel": "",
        "category": "基础设施:公共设施:公共厕所",
        "type": 0,
        "location": {
            "lat": 33.557549,
            "lng": 109.484167
        },
        "ad_info": {
            "adcode": 611026,
            "province": "陕西省",
            "city": "商洛市",
            "district": "柞水县"
        }
    },
    {
        "id": "1033915096358400570",
        "title": "灵口镇灵口街社区公厕",
        "address": "陕西省商洛市洛南县古灵路",
        "tel": "",
        "category": "基础设施:公共设施:公共厕所",
        "type": 0,
        "location": {
            "lat": 34.082338,
            "lng": 110.48714
        },
        "ad_info": {
            "adcode": 611021,
            "province": "陕西省",
            "city": "商洛市",
            "district": "洛南县"
        }
    },
    {
        "id": "2303775469986841611",
        "title": "永丰村公共厕所",
        "address": "陕西省商洛市镇安县X312",
        "tel": "",
        "category": "基础设施:公共设施:公共厕所",
        "type": 0,
        "location": {
            "lat": 33.29781,
            "lng": 109.279025
        },
        "ad_info": {
            "adcode": 611025,
            "province": "陕西省",
            "city": "商洛市",
            "district": "镇安县"
        }
    },
    {
        "id": "3648479127003847563",
        "title": "长湾小区公共厕所",
        "address": "陕西省商洛市山阳县",
        "tel": "",
        "category": "基础设施:公共设施:公共厕所",
        "type": 0,
        "location": {
            "lat": 33.321259,
            "lng": 110.176123
        },
        "ad_info": {
            "adcode": 611024,
            "province": "陕西省",
            "city": "商洛市",
            "district": "山阳县"
        }
    },
    {
        "id": "17101047876465280573",
        "title": "公共厕所",
        "address": "陕西省商洛市丹凤县凤冠新城广场东侧",
        "tel": "",
        "category": "基础设施:公共设施:公共厕所",
        "type": 0,
        "location": {
            "lat": 33.706859,
            "lng": 110.312355
        },
        "ad_info": {
            "adcode": 611022,
            "province": "陕西省",
            "city": "商洛市",
            "district": "丹凤县"
        }
    },
    {
        "id": "3273167674073869080",
        "title": "柏峪寺街社区公厕",
        "address": "陕西省商洛市洛南县",
        "tel": "",
        "category": "基础设施:公共设施:公共厕所",
        "type": 0,
        "location": {
            "lat": 34.11459,
            "lng": 110.335146
        },
        "ad_info": {
            "adcode": 611021,
            "province": "陕西省",
            "city": "商洛市",
            "district": "洛南县"
        }
    },
    {
        "id": "12809559844136923045",
        "title": "公共厕所",
        "address": "陕西省商洛市山阳县商中路与郭山路交叉口正西方向1691米左右",
        "tel": "",
        "category": "基础设施:公共设施:公共厕所",
        "type": 0,
        "location": {
            "lat": 33.461336,
            "lng": 110.174583
        },
        "ad_info": {
            "adcode": 611024,
            "province": "陕西省",
            "city": "商洛市",
            "district": "山阳县"
        }
    },
    {
        "id": "2070594570518541226",
        "title": "大沙河村公厕",
        "address": "陕西省商洛市柞水县S307",
        "tel": "",
        "category": "基础设施:公共设施:公共厕所",
        "type": 0,
        "location": {
            "lat": 33.649997,
            "lng": 109.542318
        },
        "ad_info": {
            "adcode": 611026,
            "province": "陕西省",
            "city": "商洛市",
            "district": "柞水县"
        }
    },
    {
        "id": "16533167121898158105",
        "title": "月星村公厕",
        "address": "陕西省商洛市镇安县",
        "tel": "",
        "category": "基础设施:公共设施:公共厕所",
        "type": 0,
        "location": {
            "lat": 33.23352,
            "lng": 109.191001
        },
        "ad_info": {
            "adcode": 611025,
            "province": "陕西省",
            "city": "商洛市",
            "district": "镇安县"
        }
    },
    {
        "id": "12514369197903927961",
        "title": "高坝店镇牛家坪村公租房公共厕所",
        "address": "陕西省商洛市山阳县",
        "tel": "",
        "category": "基础设施:公共设施:公共厕所",
        "type": 0,
        "location": {
            "lat": 33.563855,
            "lng": 110.021632
        },
        "ad_info": {
            "adcode": 611024,
            "province": "陕西省",
            "city": "商洛市",
            "district": "山阳县"
        }
    },
    {
        "id": "16713808974647100291",
        "title": "厕所",
        "address": "陕西省商洛市商州区东兴五路与东兴四路交叉口正西方向467米左右",
        "tel": "18829687771",
        "category": "基础设施:公共设施:公共厕所",
        "type": 0,
        "location": {
            "lat": 33.826718,
            "lng": 109.991526
        },
        "ad_info": {
            "adcode": 611002,
            "province": "陕西省",
            "city": "商洛市",
            "district": "商州区"
        }
    },
    {
        "id": "8431613550058209572",
        "title": "饶家湾公厕",
        "address": "陕西省商洛市柞水县S307",
        "tel": "",
        "category": "基础设施:公共设施:公共厕所",
        "type": 0,
        "location": {
            "lat": 33.579572,
            "lng": 109.498377
        },
        "ad_info": {
            "adcode": 611026,
            "province": "陕西省",
            "city": "商洛市",
            "district": "柞水县"
        }
    },
    {
        "id": "6734293755549293865",
        "title": "新合村二组一旦坡公厕",
        "address": "陕西省商洛市柞水县",
        "tel": "",
        "category": "基础设施:公共设施:公共厕所",
        "type": 0,
        "location": {
            "lat": 33.678976,
            "lng": 109.170712
        },
        "ad_info": {
            "adcode": 611026,
            "province": "陕西省",
            "city": "商洛市",
            "district": "柞水县"
        }
    },
    {
        "id": "1579142674570071780",
        "title": "金米村村史馆公厕",
        "address": "陕西省商洛市柞水县",
        "tel": "",
        "category": "基础设施:公共设施:公共厕所",
        "type": 0,
        "location": {
            "lat": 33.58637,
            "lng": 109.309693
        },
        "ad_info": {
            "adcode": 611026,
            "province": "陕西省",
            "city": "商洛市",
            "district": "柞水县"
        }
    },
    {
        "id": "1755598975814236394",
        "title": "正沟村公共厕所",
        "address": "陕西省商洛市柞水县",
        "tel": "",
        "category": "基础设施:公共设施:公共厕所",
        "type": 0,
        "location": {
            "lat": 33.730978,
            "lng": 109.570835
        },
        "ad_info": {
            "adcode": 611026,
            "province": "陕西省",
            "city": "商洛市",
            "district": "柞水县"
        }
    },
    {
        "id": "6383470984055954915",
        "title": "庵底村公共厕所",
        "address": "陕西省商洛市丹凤县C178",
        "tel": "",
        "category": "基础设施:公共设施:公共厕所",
        "type": 0,
        "location": {
            "lat": 33.799071,
            "lng": 110.319262
        },
        "ad_info": {
            "adcode": 611022,
            "province": "陕西省",
            "city": "商洛市",
            "district": "丹凤县"
        }
    },
    {
        "id": "271948207708878524",
        "title": "厕所",
        "address": "陕西省商洛市商州区S101与韩胡路交叉口东南方向1615米左右",
        "tel": "",
        "category": "基础设施:公共设施:公共厕所",
        "type": 0,
        "location": {
            "lat": 34.016181,
            "lng": 109.73092
        },
        "ad_info": {
            "adcode": 611002,
            "province": "陕西省",
            "city": "商洛市",
            "district": "商州区"
        }
    },
    {
        "id": "17458697032647650508",
        "title": "公共厕所",
        "address": "陕西省商洛市洛南县S101与S202交叉口东南方向172米左右",
        "tel": "",
        "category": "基础设施:公共设施:公共厕所",
        "type": 0,
        "location": {
            "lat": 34.110629,
            "lng": 110.168604
        },
        "ad_info": {
            "adcode": 611021,
            "province": "陕西省",
            "city": "商洛市",
            "district": "洛南县"
        }
    },
    {
        "id": "6717209238557179728",
        "title": "郭王村公厕",
        "address": "陕西省商洛市商州区东兴二路",
        "tel": "",
        "category": "基础设施:公共设施:公共厕所",
        "type": 0,
        "location": {
            "lat": 33.821903,
            "lng": 109.99997
        },
        "ad_info": {
            "adcode": 611002,
            "province": "陕西省",
            "city": "商洛市",
            "district": "商州区"
        }
    },
    {
        "id": "1924420408109213775",
        "title": "中山村公共卫生间",
        "address": "陕西省商洛市柞水县",
        "tel": "",
        "category": "基础设施:公共设施:公共厕所",
        "type": 0,
        "location": {
            "lat": 33.457737,
            "lng": 109.450577
        },
        "ad_info": {
            "adcode": 611026,
            "province": "陕西省",
            "city": "商洛市",
            "district": "柞水县"
        }
    },
    {
        "id": "1305594622888877968",
        "title": "中台村公共厕所",
        "address": "陕西省商洛市柞水县S30",
        "tel": "",
        "category": "基础设施:公共设施:公共厕所",
        "type": 0,
        "location": {
            "lat": 33.482178,
            "lng": 109.511327
        },
        "ad_info": {
            "adcode": 611026,
            "province": "陕西省",
            "city": "商洛市",
            "district": "柞水县"
        }
    },
    {
        "id": "6106861107359256248",
        "title": "姜家沟口公厕",
        "address": "陕西省商洛市柞水县S102",
        "tel": "",
        "category": "基础设施:公共设施:公共厕所",
        "type": 0,
        "location": {
            "lat": 33.614917,
            "lng": 109.163226
        },
        "ad_info": {
            "adcode": 611026,
            "province": "陕西省",
            "city": "商洛市",
            "district": "柞水县"
        }
    },
    {
        "id": "9607727242222820660",
        "title": "花溪弄公共厕所",
        "address": "陕西省商洛市洛南县四洪路与迎宾大道交叉口正西方向517米左右",
        "tel": "",
        "category": "基础设施:公共设施:公共厕所",
        "type": 0,
        "location": {
            "lat": 34.077806,
            "lng": 110.126084
        },
        "ad_info": {
            "adcode": 611021,
            "province": "陕西省",
            "city": "商洛市",
            "district": "洛南县"
        }
    },
    {
        "id": "1662520443556743075",
        "title": "金盆村汇生源院子内公共厕所",
        "address": "陕西省商洛市柞水县",
        "tel": "",
        "category": "基础设施:公共设施:公共厕所",
        "type": 0,
        "location": {
            "lat": 33.702573,
            "lng": 109.195585
        },
        "ad_info": {
            "adcode": 611026,
            "province": "陕西省",
            "city": "商洛市",
            "district": "柞水县"
        }
    },
    {
        "id": "14621472376660452488",
        "title": "公共厕所",
        "address": "陕西省商洛市镇安县户冷路北50米",
        "tel": "",
        "category": "基础设施:公共设施:公共厕所",
        "type": 0,
        "location": {
            "lat": 33.300062,
            "lng": 109.218613
        },
        "ad_info": {
            "adcode": 611025,
            "province": "陕西省",
            "city": "商洛市",
            "district": "镇安县"
        }
    },
    {
        "id": "5965430602439381470",
        "title": "荫沟村二组公厕",
        "address": "陕西省商洛市柞水县曹坪镇荫沟二组公厕",
        "tel": "",
        "category": "基础设施:公共设施:公共厕所",
        "type": 0,
        "location": {
            "lat": 33.734031,
            "lng": 109.357475
        },
        "ad_info": {
            "adcode": 611026,
            "province": "陕西省",
            "city": "商洛市",
            "district": "柞水县"
        }
    },
    {
        "id": "6963045173703017949",
        "title": "公共厕所",
        "address": "陕西省商洛市丹凤县丹水路与滨河大道交叉口西南方向174米左右",
        "tel": "",
        "category": "基础设施:公共设施:公共厕所",
        "type": 0,
        "location": {
            "lat": 33.462891,
            "lng": 110.426753
        },
        "ad_info": {
            "adcode": 611022,
            "province": "陕西省",
            "city": "商洛市",
            "district": "丹凤县"
        }
    },
    {
        "id": "1685940465573597162",
        "title": "金盆村四组公共厕所",
        "address": "陕西省商洛市柞水县",
        "tel": "",
        "category": "基础设施:公共设施:公共厕所",
        "type": 0,
        "location": {
            "lat": 33.718995,
            "lng": 109.212732
        },
        "ad_info": {
            "adcode": 611026,
            "province": "陕西省",
            "city": "商洛市",
            "district": "柞水县"
        }
    },
    {
        "id": "4250529885188908747",
        "title": "杏坪镇云蒙村公厕",
        "address": "陕西省商洛市柞水县",
        "tel": "",
        "category": "基础设施:公共设施:公共厕所",
        "type": 0,
        "location": {
            "lat": 33.443616,
            "lng": 109.490959
        },
        "ad_info": {
            "adcode": 611026,
            "province": "陕西省",
            "city": "商洛市",
            "district": "柞水县"
        }
    },
    {
        "id": "1005905350568807234",
        "title": "聂家沟村公共卫生间",
        "address": "陕西省商洛市镇安县X025",
        "tel": "",
        "category": "基础设施:公共设施:公共厕所",
        "type": 0,
        "location": {
            "lat": 33.26085,
            "lng": 109.343074
        },
        "ad_info": {
            "adcode": 611025,
            "province": "陕西省",
            "city": "商洛市",
            "district": "镇安县"
        }
    },
    {
        "id": "1179962082238998298",
        "title": "葫芦沟口一组公共厕所",
        "address": "陕西省商洛市柞水县",
        "tel": "",
        "category": "基础设施:公共设施:公共厕所",
        "type": 0,
        "location": {
            "lat": 33.697611,
            "lng": 109.187388
        },
        "ad_info": {
            "adcode": 611026,
            "province": "陕西省",
            "city": "商洛市",
            "district": "柞水县"
        }
    },
    {
        "id": "12566515532784762615",
        "title": "公共厕所",
        "address": "陕西省商洛市洛南县保安镇仓颉小镇东公园",
        "tel": "",
        "category": "基础设施:公共设施:公共厕所",
        "type": 0,
        "location": {
            "lat": 34.144689,
            "lng": 109.965671
        },
        "ad_info": {
            "adcode": 611021,
            "province": "陕西省",
            "city": "商洛市",
            "district": "洛南县"
        }
    },
    {
        "id": "14244762753367186673",
        "title": "公共厕所",
        "address": "陕西省商洛市商州区向阳路与正阳街交叉口西北方向97米左右",
        "tel": "",
        "category": "基础设施:公共设施:公共厕所",
        "type": 0,
        "location": {
            "lat": 33.858305,
            "lng": 109.961348
        },
        "ad_info": {
            "adcode": 611002,
            "province": "陕西省",
            "city": "商洛市",
            "district": "商州区"
        }
    },
    {
        "id": "6860699135180276861",
        "title": "公共厕所",
        "address": "陕西省商洛市商州区G312",
        "tel": "",
        "category": "基础设施:公共设施:公共厕所",
        "type": 0,
        "location": {
            "lat": 33.818425,
            "lng": 110.033519
        },
        "ad_info": {
            "adcode": 611002,
            "province": "陕西省",
            "city": "商洛市",
            "district": "商州区"
        }
    },
    {
        "id": "15367971477934861376",
        "title": "冀村公共厕所",
        "address": "陕西省商洛市商州区",
        "tel": "",
        "category": "基础设施:公共设施:公共厕所",
        "type": 0,
        "location": {
            "lat": 33.840801,
            "lng": 109.992229
        },
        "ad_info": {
            "adcode": 611002,
            "province": "陕西省",
            "city": "商洛市",
            "district": "商州区"
        }
    },
    {
        "id": "10733402738395078850",
        "title": "公共卫生间",
        "address": "陕西省商洛市柞水县瓦房口镇颜家庄村四组红东路",
        "tel": "",
        "category": "基础设施:公共设施:公共厕所",
        "type": 0,
        "location": {
            "lat": 33.698659,
            "lng": 109.48292
        },
        "ad_info": {
            "adcode": 611026,
            "province": "陕西省",
            "city": "商洛市",
            "district": "柞水县"
        }
    },
    {
        "id": "1397042481288707073",
        "title": "磨沟里村公厕",
        "address": "陕西省商洛市山阳县",
        "tel": "",
        "category": "基础设施:公共设施:公共厕所",
        "type": 0,
        "location": {
            "lat": 33.563811,
            "lng": 109.980921
        },
        "ad_info": {
            "adcode": 611024,
            "province": "陕西省",
            "city": "商洛市",
            "district": "山阳县"
        }
    },
    {
        "id": "12603423868877489991",
        "title": "高坝店镇牛家坪村移民小区公共厕所",
        "address": "陕西省商洛市山阳县",
        "tel": "",
        "category": "基础设施:公共设施:公共厕所",
        "type": 0,
        "location": {
            "lat": 33.564342,
            "lng": 110.02095
        },
        "ad_info": {
            "adcode": 611024,
            "province": "陕西省",
            "city": "商洛市",
            "district": "山阳县"
        }
    },
    {
        "id": "11256819697737198756",
        "title": "公共厕所(SX-SL-0684)",
        "address": "陕西省商洛市柞水县",
        "tel": "",
        "category": "基础设施:公共设施:公共厕所",
        "type": 0,
        "location": {
            "lat": 33.576659,
            "lng": 109.310389
        },
        "ad_info": {
            "adcode": 611026,
            "province": "陕西省",
            "city": "商洛市",
            "district": "柞水县"
        }
    },
    {
        "id": "1924420408109213775",
        "title": "中山村公共卫生间",
        "address": "陕西省商洛市柞水县",
        "tel": "",
        "category": "基础设施:公共设施:公共厕所",
        "type": 0,
        "location": {
            "lat": 33.457737,
            "lng": 109.450577
        },
        "ad_info": {
            "adcode": 611026,
            "province": "陕西省",
            "city": "商洛市",
            "district": "柞水县"
        }
    },
    {
        "id": "1305594622888877968",
        "title": "中台村公共厕所",
        "address": "陕西省商洛市柞水县S30",
        "tel": "",
        "category": "基础设施:公共设施:公共厕所",
        "type": 0,
        "location": {
            "lat": 33.482178,
            "lng": 109.511327
        },
        "ad_info": {
            "adcode": 611026,
            "province": "陕西省",
            "city": "商洛市",
            "district": "柞水县"
        }
    },
    {
        "id": "6106861107359256248",
        "title": "姜家沟口公厕",
        "address": "陕西省商洛市柞水县S102",
        "tel": "",
        "category": "基础设施:公共设施:公共厕所",
        "type": 0,
        "location": {
            "lat": 33.614917,
            "lng": 109.163226
        },
        "ad_info": {
            "adcode": 611026,
            "province": "陕西省",
            "city": "商洛市",
            "district": "柞水县"
        }
    },
    {
        "id": "9607727242222820660",
        "title": "花溪弄公共厕所",
        "address": "陕西省商洛市洛南县四洪路与迎宾大道交叉口正西方向517米左右",
        "tel": "",
        "category": "基础设施:公共设施:公共厕所",
        "type": 0,
        "location": {
            "lat": 34.077806,
            "lng": 110.126084
        },
        "ad_info": {
            "adcode": 611021,
            "province": "陕西省",
            "city": "商洛市",
            "district": "洛南县"
        }
    },
    {
        "id": "1662520443556743075",
        "title": "金盆村汇生源院子内公共厕所",
        "address": "陕西省商洛市柞水县",
        "tel": "",
        "category": "基础设施:公共设施:公共厕所",
        "type": 0,
        "location": {
            "lat": 33.702573,
            "lng": 109.195585
        },
        "ad_info": {
            "adcode": 611026,
            "province": "陕西省",
            "city": "商洛市",
            "district": "柞水县"
        }
    },
    {
        "id": "14621472376660452488",
        "title": "公共厕所",
        "address": "陕西省商洛市镇安县户冷路北50米",
        "tel": "",
        "category": "基础设施:公共设施:公共厕所",
        "type": 0,
        "location": {
            "lat": 33.300062,
            "lng": 109.218613
        },
        "ad_info": {
            "adcode": 611025,
            "province": "陕西省",
            "city": "商洛市",
            "district": "镇安县"
        }
    },
    {
        "id": "5965430602439381470",
        "title": "荫沟村二组公厕",
        "address": "陕西省商洛市柞水县曹坪镇荫沟二组公厕",
        "tel": "",
        "category": "基础设施:公共设施:公共厕所",
        "type": 0,
        "location": {
            "lat": 33.734031,
            "lng": 109.357475
        },
        "ad_info": {
            "adcode": 611026,
            "province": "陕西省",
            "city": "商洛市",
            "district": "柞水县"
        }
    },
    {
        "id": "6963045173703017949",
        "title": "公共厕所",
        "address": "陕西省商洛市丹凤县丹水路与滨河大道交叉口西南方向174米左右",
        "tel": "",
        "category": "基础设施:公共设施:公共厕所",
        "type": 0,
        "location": {
            "lat": 33.462891,
            "lng": 110.426753
        },
        "ad_info": {
            "adcode": 611022,
            "province": "陕西省",
            "city": "商洛市",
            "district": "丹凤县"
        }
    },
    {
        "id": "1685940465573597162",
        "title": "金盆村四组公共厕所",
        "address": "陕西省商洛市柞水县",
        "tel": "",
        "category": "基础设施:公共设施:公共厕所",
        "type": 0,
        "location": {
            "lat": 33.718995,
            "lng": 109.212732
        },
        "ad_info": {
            "adcode": 611026,
            "province": "陕西省",
            "city": "商洛市",
            "district": "柞水县"
        }
    },
    {
        "id": "4250529885188908747",
        "title": "杏坪镇云蒙村公厕",
        "address": "陕西省商洛市柞水县",
        "tel": "",
        "category": "基础设施:公共设施:公共厕所",
        "type": 0,
        "location": {
            "lat": 33.443616,
            "lng": 109.490959
        },
        "ad_info": {
            "adcode": 611026,
            "province": "陕西省",
            "city": "商洛市",
            "district": "柞水县"
        }
    },
    {
        "id": "1005905350568807234",
        "title": "聂家沟村公共卫生间",
        "address": "陕西省商洛市镇安县X025",
        "tel": "",
        "category": "基础设施:公共设施:公共厕所",
        "type": 0,
        "location": {
            "lat": 33.26085,
            "lng": 109.343074
        },
        "ad_info": {
            "adcode": 611025,
            "province": "陕西省",
            "city": "商洛市",
            "district": "镇安县"
        }
    },
    {
        "id": "1179962082238998298",
        "title": "葫芦沟口一组公共厕所",
        "address": "陕西省商洛市柞水县",
        "tel": "",
        "category": "基础设施:公共设施:公共厕所",
        "type": 0,
        "location": {
            "lat": 33.697611,
            "lng": 109.187388
        },
        "ad_info": {
            "adcode": 611026,
            "province": "陕西省",
            "city": "商洛市",
            "district": "柞水县"
        }
    },
    {
        "id": "12566515532784762615",
        "title": "公共厕所",
        "address": "陕西省商洛市洛南县保安镇仓颉小镇东公园",
        "tel": "",
        "category": "基础设施:公共设施:公共厕所",
        "type": 0,
        "location": {
            "lat": 34.144689,
            "lng": 109.965671
        },
        "ad_info": {
            "adcode": 611021,
            "province": "陕西省",
            "city": "商洛市",
            "district": "洛南县"
        }
    },
    {
        "id": "14244762753367186673",
        "title": "公共厕所",
        "address": "陕西省商洛市商州区向阳路与正阳街交叉口西北方向97米左右",
        "tel": "",
        "category": "基础设施:公共设施:公共厕所",
        "type": 0,
        "location": {
            "lat": 33.858305,
            "lng": 109.961348
        },
        "ad_info": {
            "adcode": 611002,
            "province": "陕西省",
            "city": "商洛市",
            "district": "商州区"
        }
    },
    {
        "id": "6860699135180276861",
        "title": "公共厕所",
        "address": "陕西省商洛市商州区G312",
        "tel": "",
        "category": "基础设施:公共设施:公共厕所",
        "type": 0,
        "location": {
            "lat": 33.818425,
            "lng": 110.033519
        },
        "ad_info": {
            "adcode": 611002,
            "province": "陕西省",
            "city": "商洛市",
            "district": "商州区"
        }
    },
    {
        "id": "15367971477934861376",
        "title": "冀村公共厕所",
        "address": "陕西省商洛市商州区",
        "tel": "",
        "category": "基础设施:公共设施:公共厕所",
        "type": 0,
        "location": {
            "lat": 33.840801,
            "lng": 109.992229
        },
        "ad_info": {
            "adcode": 611002,
            "province": "陕西省",
            "city": "商洛市",
            "district": "商州区"
        }
    },
    {
        "id": "10733402738395078850",
        "title": "公共卫生间",
        "address": "陕西省商洛市柞水县瓦房口镇颜家庄村四组红东路",
        "tel": "",
        "category": "基础设施:公共设施:公共厕所",
        "type": 0,
        "location": {
            "lat": 33.698659,
            "lng": 109.48292
        },
        "ad_info": {
            "adcode": 611026,
            "province": "陕西省",
            "city": "商洛市",
            "district": "柞水县"
        }
    },
    {
        "id": "1397042481288707073",
        "title": "磨沟里村公厕",
        "address": "陕西省商洛市山阳县",
        "tel": "",
        "category": "基础设施:公共设施:公共厕所",
        "type": 0,
        "location": {
            "lat": 33.563811,
            "lng": 109.980921
        },
        "ad_info": {
            "adcode": 611024,
            "province": "陕西省",
            "city": "商洛市",
            "district": "山阳县"
        }
    },
    {
        "id": "12603423868877489991",
        "title": "高坝店镇牛家坪村移民小区公共厕所",
        "address": "陕西省商洛市山阳县",
        "tel": "",
        "category": "基础设施:公共设施:公共厕所",
        "type": 0,
        "location": {
            "lat": 33.564342,
            "lng": 110.02095
        },
        "ad_info": {
            "adcode": 611024,
            "province": "陕西省",
            "city": "商洛市",
            "district": "山阳县"
        }
    },
    {
        "id": "11256819697737198756",
        "title": "公共厕所(SX-SL-0684)",
        "address": "陕西省商洛市柞水县",
        "tel": "",
        "category": "基础设施:公共设施:公共厕所",
        "type": 0,
        "location": {
            "lat": 33.576659,
            "lng": 109.310389
        },
        "ad_info": {
            "adcode": 611026,
            "province": "陕西省",
            "city": "商洛市",
            "district": "柞水县"
        }
    },
    {
        "id": "1924420408109213775",
        "title": "中山村公共卫生间",
        "address": "陕西省商洛市柞水县",
        "tel": "",
        "category": "基础设施:公共设施:公共厕所",
        "type": 0,
        "location": {
            "lat": 33.457737,
            "lng": 109.450577
        },
        "ad_info": {
            "adcode": 611026,
            "province": "陕西省",
            "city": "商洛市",
            "district": "柞水县"
        }
    },
    {
        "id": "1305594622888877968",
        "title": "中台村公共厕所",
        "address": "陕西省商洛市柞水县S30",
        "tel": "",
        "category": "基础设施:公共设施:公共厕所",
        "type": 0,
        "location": {
            "lat": 33.482178,
            "lng": 109.511327
        },
        "ad_info": {
            "adcode": 611026,
            "province": "陕西省",
            "city": "商洛市",
            "district": "柞水县"
        }
    },
    {
        "id": "6106861107359256248",
        "title": "姜家沟口公厕",
        "address": "陕西省商洛市柞水县S102",
        "tel": "",
        "category": "基础设施:公共设施:公共厕所",
        "type": 0,
        "location": {
            "lat": 33.614917,
            "lng": 109.163226
        },
        "ad_info": {
            "adcode": 611026,
            "province": "陕西省",
            "city": "商洛市",
            "district": "柞水县"
        }
    },
    {
        "id": "9607727242222820660",
        "title": "花溪弄公共厕所",
        "address": "陕西省商洛市洛南县四洪路与迎宾大道交叉口正西方向517米左右",
        "tel": "",
        "category": "基础设施:公共设施:公共厕所",
        "type": 0,
        "location": {
            "lat": 34.077806,
            "lng": 110.126084
        },
        "ad_info": {
            "adcode": 611021,
            "province": "陕西省",
            "city": "商洛市",
            "district": "洛南县"
        }
    },
    {
        "id": "1662520443556743075",
        "title": "金盆村汇生源院子内公共厕所",
        "address": "陕西省商洛市柞水县",
        "tel": "",
        "category": "基础设施:公共设施:公共厕所",
        "type": 0,
        "location": {
            "lat": 33.702573,
            "lng": 109.195585
        },
        "ad_info": {
            "adcode": 611026,
            "province": "陕西省",
            "city": "商洛市",
            "district": "柞水县"
        }
    },
    {
        "id": "14621472376660452488",
        "title": "公共厕所",
        "address": "陕西省商洛市镇安县户冷路北50米",
        "tel": "",
        "category": "基础设施:公共设施:公共厕所",
        "type": 0,
        "location": {
            "lat": 33.300062,
            "lng": 109.218613
        },
        "ad_info": {
            "adcode": 611025,
            "province": "陕西省",
            "city": "商洛市",
            "district": "镇安县"
        }
    },
    {
        "id": "5965430602439381470",
        "title": "荫沟村二组公厕",
        "address": "陕西省商洛市柞水县曹坪镇荫沟二组公厕",
        "tel": "",
        "category": "基础设施:公共设施:公共厕所",
        "type": 0,
        "location": {
            "lat": 33.734031,
            "lng": 109.357475
        },
        "ad_info": {
            "adcode": 611026,
            "province": "陕西省",
            "city": "商洛市",
            "district": "柞水县"
        }
    },
    {
        "id": "6963045173703017949",
        "title": "公共厕所",
        "address": "陕西省商洛市丹凤县丹水路与滨河大道交叉口西南方向174米左右",
        "tel": "",
        "category": "基础设施:公共设施:公共厕所",
        "type": 0,
        "location": {
            "lat": 33.462891,
            "lng": 110.426753
        },
        "ad_info": {
            "adcode": 611022,
            "province": "陕西省",
            "city": "商洛市",
            "district": "丹凤县"
        }
    },
    {
        "id": "1685940465573597162",
        "title": "金盆村四组公共厕所",
        "address": "陕西省商洛市柞水县",
        "tel": "",
        "category": "基础设施:公共设施:公共厕所",
        "type": 0,
        "location": {
            "lat": 33.718995,
            "lng": 109.212732
        },
        "ad_info": {
            "adcode": 611026,
            "province": "陕西省",
            "city": "商洛市",
            "district": "柞水县"
        }
    },
    {
        "id": "4250529885188908747",
        "title": "杏坪镇云蒙村公厕",
        "address": "陕西省商洛市柞水县",
        "tel": "",
        "category": "基础设施:公共设施:公共厕所",
        "type": 0,
        "location": {
            "lat": 33.443616,
            "lng": 109.490959
        },
        "ad_info": {
            "adcode": 611026,
            "province": "陕西省",
            "city": "商洛市",
            "district": "柞水县"
        }
    },
    {
        "id": "1005905350568807234",
        "title": "聂家沟村公共卫生间",
        "address": "陕西省商洛市镇安县X025",
        "tel": "",
        "category": "基础设施:公共设施:公共厕所",
        "type": 0,
        "location": {
            "lat": 33.26085,
            "lng": 109.343074
        },
        "ad_info": {
            "adcode": 611025,
            "province": "陕西省",
            "city": "商洛市",
            "district": "镇安县"
        }
    },
    {
        "id": "1179962082238998298",
        "title": "葫芦沟口一组公共厕所",
        "address": "陕西省商洛市柞水县",
        "tel": "",
        "category": "基础设施:公共设施:公共厕所",
        "type": 0,
        "location": {
            "lat": 33.697611,
            "lng": 109.187388
        },
        "ad_info": {
            "adcode": 611026,
            "province": "陕西省",
            "city": "商洛市",
            "district": "柞水县"
        }
    },
    {
        "id": "12566515532784762615",
        "title": "公共厕所",
        "address": "陕西省商洛市洛南县保安镇仓颉小镇东公园",
        "tel": "",
        "category": "基础设施:公共设施:公共厕所",
        "type": 0,
        "location": {
            "lat": 34.144689,
            "lng": 109.965671
        },
        "ad_info": {
            "adcode": 611021,
            "province": "陕西省",
            "city": "商洛市",
            "district": "洛南县"
        }
    },
    {
        "id": "14244762753367186673",
        "title": "公共厕所",
        "address": "陕西省商洛市商州区向阳路与正阳街交叉口西北方向97米左右",
        "tel": "",
        "category": "基础设施:公共设施:公共厕所",
        "type": 0,
        "location": {
            "lat": 33.858305,
            "lng": 109.961348
        },
        "ad_info": {
            "adcode": 611002,
            "province": "陕西省",
            "city": "商洛市",
            "district": "商州区"
        }
    },
    {
        "id": "6860699135180276861",
        "title": "公共厕所",
        "address": "陕西省商洛市商州区G312",
        "tel": "",
        "category": "基础设施:公共设施:公共厕所",
        "type": 0,
        "location": {
            "lat": 33.818425,
            "lng": 110.033519
        },
        "ad_info": {
            "adcode": 611002,
            "province": "陕西省",
            "city": "商洛市",
            "district": "商州区"
        }
    },
    {
        "id": "15367971477934861376",
        "title": "冀村公共厕所",
        "address": "陕西省商洛市商州区",
        "tel": "",
        "category": "基础设施:公共设施:公共厕所",
        "type": 0,
        "location": {
            "lat": 33.840801,
            "lng": 109.992229
        },
        "ad_info": {
            "adcode": 611002,
            "province": "陕西省",
            "city": "商洛市",
            "district": "商州区"
        }
    },
    {
        "id": "10733402738395078850",
        "title": "公共卫生间",
        "address": "陕西省商洛市柞水县瓦房口镇颜家庄村四组红东路",
        "tel": "",
        "category": "基础设施:公共设施:公共厕所",
        "type": 0,
        "location": {
            "lat": 33.698659,
            "lng": 109.48292
        },
        "ad_info": {
            "adcode": 611026,
            "province": "陕西省",
            "city": "商洛市",
            "district": "柞水县"
        }
    },
    {
        "id": "1397042481288707073",
        "title": "磨沟里村公厕",
        "address": "陕西省商洛市山阳县",
        "tel": "",
        "category": "基础设施:公共设施:公共厕所",
        "type": 0,
        "location": {
            "lat": 33.563811,
            "lng": 109.980921
        },
        "ad_info": {
            "adcode": 611024,
            "province": "陕西省",
            "city": "商洛市",
            "district": "山阳县"
        }
    },
    {
        "id": "12603423868877489991",
        "title": "高坝店镇牛家坪村移民小区公共厕所",
        "address": "陕西省商洛市山阳县",
        "tel": "",
        "category": "基础设施:公共设施:公共厕所",
        "type": 0,
        "location": {
            "lat": 33.564342,
            "lng": 110.02095
        },
        "ad_info": {
            "adcode": 611024,
            "province": "陕西省",
            "city": "商洛市",
            "district": "山阳县"
        }
    },
    {
        "id": "11256819697737198756",
        "title": "公共厕所(SX-SL-0684)",
        "address": "陕西省商洛市柞水县",
        "tel": "",
        "category": "基础设施:公共设施:公共厕所",
        "type": 0,
        "location": {
            "lat": 33.576659,
            "lng": 109.310389
        },
        "ad_info": {
            "adcode": 611026,
            "province": "陕西省",
            "city": "商洛市",
            "district": "柞水县"
        }
    },
    {
        "id": "1924420408109213775",
        "title": "中山村公共卫生间",
        "address": "陕西省商洛市柞水县",
        "tel": "",
        "category": "基础设施:公共设施:公共厕所",
        "type": 0,
        "location": {
            "lat": 33.457737,
            "lng": 109.450577
        },
        "ad_info": {
            "adcode": 611026,
            "province": "陕西省",
            "city": "商洛市",
            "district": "柞水县"
        }
    },
    {
        "id": "1305594622888877968",
        "title": "中台村公共厕所",
        "address": "陕西省商洛市柞水县S30",
        "tel": "",
        "category": "基础设施:公共设施:公共厕所",
        "type": 0,
        "location": {
            "lat": 33.482178,
            "lng": 109.511327
        },
        "ad_info": {
            "adcode": 611026,
            "province": "陕西省",
            "city": "商洛市",
            "district": "柞水县"
        }
    },
    {
        "id": "6106861107359256248",
        "title": "姜家沟口公厕",
        "address": "陕西省商洛市柞水县S102",
        "tel": "",
        "category": "基础设施:公共设施:公共厕所",
        "type": 0,
        "location": {
            "lat": 33.614917,
            "lng": 109.163226
        },
        "ad_info": {
            "adcode": 611026,
            "province": "陕西省",
            "city": "商洛市",
            "district": "柞水县"
        }
    },
    {
        "id": "9607727242222820660",
        "title": "花溪弄公共厕所",
        "address": "陕西省商洛市洛南县四洪路与迎宾大道交叉口正西方向517米左右",
        "tel": "",
        "category": "基础设施:公共设施:公共厕所",
        "type": 0,
        "location": {
            "lat": 34.077806,
            "lng": 110.126084
        },
        "ad_info": {
            "adcode": 611021,
            "province": "陕西省",
            "city": "商洛市",
            "district": "洛南县"
        }
    },
    {
        "id": "1662520443556743075",
        "title": "金盆村汇生源院子内公共厕所",
        "address": "陕西省商洛市柞水县",
        "tel": "",
        "category": "基础设施:公共设施:公共厕所",
        "type": 0,
        "location": {
            "lat": 33.702573,
            "lng": 109.195585
        },
        "ad_info": {
            "adcode": 611026,
            "province": "陕西省",
            "city": "商洛市",
            "district": "柞水县"
        }
    },
    {
        "id": "14621472376660452488",
        "title": "公共厕所",
        "address": "陕西省商洛市镇安县户冷路北50米",
        "tel": "",
        "category": "基础设施:公共设施:公共厕所",
        "type": 0,
        "location": {
            "lat": 33.300062,
            "lng": 109.218613
        },
        "ad_info": {
            "adcode": 611025,
            "province": "陕西省",
            "city": "商洛市",
            "district": "镇安县"
        }
    },
    {
        "id": "5965430602439381470",
        "title": "荫沟村二组公厕",
        "address": "陕西省商洛市柞水县曹坪镇荫沟二组公厕",
        "tel": "",
        "category": "基础设施:公共设施:公共厕所",
        "type": 0,
        "location": {
            "lat": 33.734031,
            "lng": 109.357475
        },
        "ad_info": {
            "adcode": 611026,
            "province": "陕西省",
            "city": "商洛市",
            "district": "柞水县"
        }
    },
    {
        "id": "6963045173703017949",
        "title": "公共厕所",
        "address": "陕西省商洛市丹凤县丹水路与滨河大道交叉口西南方向174米左右",
        "tel": "",
        "category": "基础设施:公共设施:公共厕所",
        "type": 0,
        "location": {
            "lat": 33.462891,
            "lng": 110.426753
        },
        "ad_info": {
            "adcode": 611022,
            "province": "陕西省",
            "city": "商洛市",
            "district": "丹凤县"
        }
    },
    {
        "id": "1685940465573597162",
        "title": "金盆村四组公共厕所",
        "address": "陕西省商洛市柞水县",
        "tel": "",
        "category": "基础设施:公共设施:公共厕所",
        "type": 0,
        "location": {
            "lat": 33.718995,
            "lng": 109.212732
        },
        "ad_info": {
            "adcode": 611026,
            "province": "陕西省",
            "city": "商洛市",
            "district": "柞水县"
        }
    },
    {
        "id": "4250529885188908747",
        "title": "杏坪镇云蒙村公厕",
        "address": "陕西省商洛市柞水县",
        "tel": "",
        "category": "基础设施:公共设施:公共厕所",
        "type": 0,
        "location": {
            "lat": 33.443616,
            "lng": 109.490959
        },
        "ad_info": {
            "adcode": 611026,
            "province": "陕西省",
            "city": "商洛市",
            "district": "柞水县"
        }
    },
    {
        "id": "1005905350568807234",
        "title": "聂家沟村公共卫生间",
        "address": "陕西省商洛市镇安县X025",
        "tel": "",
        "category": "基础设施:公共设施:公共厕所",
        "type": 0,
        "location": {
            "lat": 33.26085,
            "lng": 109.343074
        },
        "ad_info": {
            "adcode": 611025,
            "province": "陕西省",
            "city": "商洛市",
            "district": "镇安县"
        }
    },
    {
        "id": "1179962082238998298",
        "title": "葫芦沟口一组公共厕所",
        "address": "陕西省商洛市柞水县",
        "tel": "",
        "category": "基础设施:公共设施:公共厕所",
        "type": 0,
        "location": {
            "lat": 33.697611,
            "lng": 109.187388
        },
        "ad_info": {
            "adcode": 611026,
            "province": "陕西省",
            "city": "商洛市",
            "district": "柞水县"
        }
    },
    {
        "id": "12566515532784762615",
        "title": "公共厕所",
        "address": "陕西省商洛市洛南县保安镇仓颉小镇东公园",
        "tel": "",
        "category": "基础设施:公共设施:公共厕所",
        "type": 0,
        "location": {
            "lat": 34.144689,
            "lng": 109.965671
        },
        "ad_info": {
            "adcode": 611021,
            "province": "陕西省",
            "city": "商洛市",
            "district": "洛南县"
        }
    },
    {
        "id": "14244762753367186673",
        "title": "公共厕所",
        "address": "陕西省商洛市商州区向阳路与正阳街交叉口西北方向97米左右",
        "tel": "",
        "category": "基础设施:公共设施:公共厕所",
        "type": 0,
        "location": {
            "lat": 33.858305,
            "lng": 109.961348
        },
        "ad_info": {
            "adcode": 611002,
            "province": "陕西省",
            "city": "商洛市",
            "district": "商州区"
        }
    },
    {
        "id": "6860699135180276861",
        "title": "公共厕所",
        "address": "陕西省商洛市商州区G312",
        "tel": "",
        "category": "基础设施:公共设施:公共厕所",
        "type": 0,
        "location": {
            "lat": 33.818425,
            "lng": 110.033519
        },
        "ad_info": {
            "adcode": 611002,
            "province": "陕西省",
            "city": "商洛市",
            "district": "商州区"
        }
    },
    {
        "id": "15367971477934861376",
        "title": "冀村公共厕所",
        "address": "陕西省商洛市商州区",
        "tel": "",
        "category": "基础设施:公共设施:公共厕所",
        "type": 0,
        "location": {
            "lat": 33.840801,
            "lng": 109.992229
        },
        "ad_info": {
            "adcode": 611002,
            "province": "陕西省",
            "city": "商洛市",
            "district": "商州区"
        }
    },
    {
        "id": "10733402738395078850",
        "title": "公共卫生间",
        "address": "陕西省商洛市柞水县瓦房口镇颜家庄村四组红东路",
        "tel": "",
        "category": "基础设施:公共设施:公共厕所",
        "type": 0,
        "location": {
            "lat": 33.698659,
            "lng": 109.48292
        },
        "ad_info": {
            "adcode": 611026,
            "province": "陕西省",
            "city": "商洛市",
            "district": "柞水县"
        }
    },
    {
        "id": "1397042481288707073",
        "title": "磨沟里村公厕",
        "address": "陕西省商洛市山阳县",
        "tel": "",
        "category": "基础设施:公共设施:公共厕所",
        "type": 0,
        "location": {
            "lat": 33.563811,
            "lng": 109.980921
        },
        "ad_info": {
            "adcode": 611024,
            "province": "陕西省",
            "city": "商洛市",
            "district": "山阳县"
        }
    },
    {
        "id": "12603423868877489991",
        "title": "高坝店镇牛家坪村移民小区公共厕所",
        "address": "陕西省商洛市山阳县",
        "tel": "",
        "category": "基础设施:公共设施:公共厕所",
        "type": 0,
        "location": {
            "lat": 33.564342,
            "lng": 110.02095
        },
        "ad_info": {
            "adcode": 611024,
            "province": "陕西省",
            "city": "商洛市",
            "district": "山阳县"
        }
    },
    {
        "id": "11256819697737198756",
        "title": "公共厕所(SX-SL-0684)",
        "address": "陕西省商洛市柞水县",
        "tel": "",
        "category": "基础设施:公共设施:公共厕所",
        "type": 0,
        "location": {
            "lat": 33.576659,
            "lng": 109.310389
        },
        "ad_info": {
            "adcode": 611026,
            "province": "陕西省",
            "city": "商洛市",
            "district": "柞水县"
        }
    },
    {
        "id": "1924420408109213775",
        "title": "中山村公共卫生间",
        "address": "陕西省商洛市柞水县",
        "tel": "",
        "category": "基础设施:公共设施:公共厕所",
        "type": 0,
        "location": {
            "lat": 33.457737,
            "lng": 109.450577
        },
        "ad_info": {
            "adcode": 611026,
            "province": "陕西省",
            "city": "商洛市",
            "district": "柞水县"
        }
    },
    {
        "id": "1305594622888877968",
        "title": "中台村公共厕所",
        "address": "陕西省商洛市柞水县S30",
        "tel": "",
        "category": "基础设施:公共设施:公共厕所",
        "type": 0,
        "location": {
            "lat": 33.482178,
            "lng": 109.511327
        },
        "ad_info": {
            "adcode": 611026,
            "province": "陕西省",
            "city": "商洛市",
            "district": "柞水县"
        }
    },
    {
        "id": "6106861107359256248",
        "title": "姜家沟口公厕",
        "address": "陕西省商洛市柞水县S102",
        "tel": "",
        "category": "基础设施:公共设施:公共厕所",
        "type": 0,
        "location": {
            "lat": 33.614917,
            "lng": 109.163226
        },
        "ad_info": {
            "adcode": 611026,
            "province": "陕西省",
            "city": "商洛市",
            "district": "柞水县"
        }
    },
    {
        "id": "9607727242222820660",
        "title": "花溪弄公共厕所",
        "address": "陕西省商洛市洛南县四洪路与迎宾大道交叉口正西方向517米左右",
        "tel": "",
        "category": "基础设施:公共设施:公共厕所",
        "type": 0,
        "location": {
            "lat": 34.077806,
            "lng": 110.126084
        },
        "ad_info": {
            "adcode": 611021,
            "province": "陕西省",
            "city": "商洛市",
            "district": "洛南县"
        }
    },
    {
        "id": "1662520443556743075",
        "title": "金盆村汇生源院子内公共厕所",
        "address": "陕西省商洛市柞水县",
        "tel": "",
        "category": "基础设施:公共设施:公共厕所",
        "type": 0,
        "location": {
            "lat": 33.702573,
            "lng": 109.195585
        },
        "ad_info": {
            "adcode": 611026,
            "province": "陕西省",
            "city": "商洛市",
            "district": "柞水县"
        }
    },
    {
        "id": "14621472376660452488",
        "title": "公共厕所",
        "address": "陕西省商洛市镇安县户冷路北50米",
        "tel": "",
        "category": "基础设施:公共设施:公共厕所",
        "type": 0,
        "location": {
            "lat": 33.300062,
            "lng": 109.218613
        },
        "ad_info": {
            "adcode": 611025,
            "province": "陕西省",
            "city": "商洛市",
            "district": "镇安县"
        }
    },
    {
        "id": "5965430602439381470",
        "title": "荫沟村二组公厕",
        "address": "陕西省商洛市柞水县曹坪镇荫沟二组公厕",
        "tel": "",
        "category": "基础设施:公共设施:公共厕所",
        "type": 0,
        "location": {
            "lat": 33.734031,
            "lng": 109.357475
        },
        "ad_info": {
            "adcode": 611026,
            "province": "陕西省",
            "city": "商洛市",
            "district": "柞水县"
        }
    },
    {
        "id": "6963045173703017949",
        "title": "公共厕所",
        "address": "陕西省商洛市丹凤县丹水路与滨河大道交叉口西南方向174米左右",
        "tel": "",
        "category": "基础设施:公共设施:公共厕所",
        "type": 0,
        "location": {
            "lat": 33.462891,
            "lng": 110.426753
        },
        "ad_info": {
            "adcode": 611022,
            "province": "陕西省",
            "city": "商洛市",
            "district": "丹凤县"
        }
    },
    {
        "id": "1685940465573597162",
        "title": "金盆村四组公共厕所",
        "address": "陕西省商洛市柞水县",
        "tel": "",
        "category": "基础设施:公共设施:公共厕所",
        "type": 0,
        "location": {
            "lat": 33.718995,
            "lng": 109.212732
        },
        "ad_info": {
            "adcode": 611026,
            "province": "陕西省",
            "city": "商洛市",
            "district": "柞水县"
        }
    },
    {
        "id": "4250529885188908747",
        "title": "杏坪镇云蒙村公厕",
        "address": "陕西省商洛市柞水县",
        "tel": "",
        "category": "基础设施:公共设施:公共厕所",
        "type": 0,
        "location": {
            "lat": 33.443616,
            "lng": 109.490959
        },
        "ad_info": {
            "adcode": 611026,
            "province": "陕西省",
            "city": "商洛市",
            "district": "柞水县"
        }
    },
    {
        "id": "1005905350568807234",
        "title": "聂家沟村公共卫生间",
        "address": "陕西省商洛市镇安县X025",
        "tel": "",
        "category": "基础设施:公共设施:公共厕所",
        "type": 0,
        "location": {
            "lat": 33.26085,
            "lng": 109.343074
        },
        "ad_info": {
            "adcode": 611025,
            "province": "陕西省",
            "city": "商洛市",
            "district": "镇安县"
        }
    },
    {
        "id": "1179962082238998298",
        "title": "葫芦沟口一组公共厕所",
        "address": "陕西省商洛市柞水县",
        "tel": "",
        "category": "基础设施:公共设施:公共厕所",
        "type": 0,
        "location": {
            "lat": 33.697611,
            "lng": 109.187388
        },
        "ad_info": {
            "adcode": 611026,
            "province": "陕西省",
            "city": "商洛市",
            "district": "柞水县"
        }
    },
    {
        "id": "12566515532784762615",
        "title": "公共厕所",
        "address": "陕西省商洛市洛南县保安镇仓颉小镇东公园",
        "tel": "",
        "category": "基础设施:公共设施:公共厕所",
        "type": 0,
        "location": {
            "lat": 34.144689,
            "lng": 109.965671
        },
        "ad_info": {
            "adcode": 611021,
            "province": "陕西省",
            "city": "商洛市",
            "district": "洛南县"
        }
    },
    {
        "id": "14244762753367186673",
        "title": "公共厕所",
        "address": "陕西省商洛市商州区向阳路与正阳街交叉口西北方向97米左右",
        "tel": "",
        "category": "基础设施:公共设施:公共厕所",
        "type": 0,
        "location": {
            "lat": 33.858305,
            "lng": 109.961348
        },
        "ad_info": {
            "adcode": 611002,
            "province": "陕西省",
            "city": "商洛市",
            "district": "商州区"
        }
    },
    {
        "id": "6860699135180276861",
        "title": "公共厕所",
        "address": "陕西省商洛市商州区G312",
        "tel": "",
        "category": "基础设施:公共设施:公共厕所",
        "type": 0,
        "location": {
            "lat": 33.818425,
            "lng": 110.033519
        },
        "ad_info": {
            "adcode": 611002,
            "province": "陕西省",
            "city": "商洛市",
            "district": "商州区"
        }
    },
    {
        "id": "15367971477934861376",
        "title": "冀村公共厕所",
        "address": "陕西省商洛市商州区",
        "tel": "",
        "category": "基础设施:公共设施:公共厕所",
        "type": 0,
        "location": {
            "lat": 33.840801,
            "lng": 109.992229
        },
        "ad_info": {
            "adcode": 611002,
            "province": "陕西省",
            "city": "商洛市",
            "district": "商州区"
        }
    },
    {
        "id": "10733402738395078850",
        "title": "公共卫生间",
        "address": "陕西省商洛市柞水县瓦房口镇颜家庄村四组红东路",
        "tel": "",
        "category": "基础设施:公共设施:公共厕所",
        "type": 0,
        "location": {
            "lat": 33.698659,
            "lng": 109.48292
        },
        "ad_info": {
            "adcode": 611026,
            "province": "陕西省",
            "city": "商洛市",
            "district": "柞水县"
        }
    },
    {
        "id": "1397042481288707073",
        "title": "磨沟里村公厕",
        "address": "陕西省商洛市山阳县",
        "tel": "",
        "category": "基础设施:公共设施:公共厕所",
        "type": 0,
        "location": {
            "lat": 33.563811,
            "lng": 109.980921
        },
        "ad_info": {
            "adcode": 611024,
            "province": "陕西省",
            "city": "商洛市",
            "district": "山阳县"
        }
    },
    {
        "id": "12603423868877489991",
        "title": "高坝店镇牛家坪村移民小区公共厕所",
        "address": "陕西省商洛市山阳县",
        "tel": "",
        "category": "基础设施:公共设施:公共厕所",
        "type": 0,
        "location": {
            "lat": 33.564342,
            "lng": 110.02095
        },
        "ad_info": {
            "adcode": 611024,
            "province": "陕西省",
            "city": "商洛市",
            "district": "山阳县"
        }
    },
    {
        "id": "11256819697737198756",
        "title": "公共厕所(SX-SL-0684)",
        "address": "陕西省商洛市柞水县",
        "tel": "",
        "category": "基础设施:公共设施:公共厕所",
        "type": 0,
        "location": {
            "lat": 33.576659,
            "lng": 109.310389
        },
        "ad_info": {
            "adcode": 611026,
            "province": "陕西省",
            "city": "商洛市",
            "district": "柞水县"
        }
    },
    {
        "id": "1924420408109213775",
        "title": "中山村公共卫生间",
        "address": "陕西省商洛市柞水县",
        "tel": "",
        "category": "基础设施:公共设施:公共厕所",
        "type": 0,
        "location": {
            "lat": 33.457737,
            "lng": 109.450577
        },
        "ad_info": {
            "adcode": 611026,
            "province": "陕西省",
            "city": "商洛市",
            "district": "柞水县"
        }
    },
    {
        "id": "1305594622888877968",
        "title": "中台村公共厕所",
        "address": "陕西省商洛市柞水县S30",
        "tel": "",
        "category": "基础设施:公共设施:公共厕所",
        "type": 0,
        "location": {
            "lat": 33.482178,
            "lng": 109.511327
        },
        "ad_info": {
            "adcode": 611026,
            "province": "陕西省",
            "city": "商洛市",
            "district": "柞水县"
        }
    },
    {
        "id": "6106861107359256248",
        "title": "姜家沟口公厕",
        "address": "陕西省商洛市柞水县S102",
        "tel": "",
        "category": "基础设施:公共设施:公共厕所",
        "type": 0,
        "location": {
            "lat": 33.614917,
            "lng": 109.163226
        },
        "ad_info": {
            "adcode": 611026,
            "province": "陕西省",
            "city": "商洛市",
            "district": "柞水县"
        }
    },
    {
        "id": "9607727242222820660",
        "title": "花溪弄公共厕所",
        "address": "陕西省商洛市洛南县四洪路与迎宾大道交叉口正西方向517米左右",
        "tel": "",
        "category": "基础设施:公共设施:公共厕所",
        "type": 0,
        "location": {
            "lat": 34.077806,
            "lng": 110.126084
        },
        "ad_info": {
            "adcode": 611021,
            "province": "陕西省",
            "city": "商洛市",
            "district": "洛南县"
        }
    },
    {
        "id": "1662520443556743075",
        "title": "金盆村汇生源院子内公共厕所",
        "address": "陕西省商洛市柞水县",
        "tel": "",
        "category": "基础设施:公共设施:公共厕所",
        "type": 0,
        "location": {
            "lat": 33.702573,
            "lng": 109.195585
        },
        "ad_info": {
            "adcode": 611026,
            "province": "陕西省",
            "city": "商洛市",
            "district": "柞水县"
        }
    },
    {
        "id": "14621472376660452488",
        "title": "公共厕所",
        "address": "陕西省商洛市镇安县户冷路北50米",
        "tel": "",
        "category": "基础设施:公共设施:公共厕所",
        "type": 0,
        "location": {
            "lat": 33.300062,
            "lng": 109.218613
        },
        "ad_info": {
            "adcode": 611025,
            "province": "陕西省",
            "city": "商洛市",
            "district": "镇安县"
        }
    },
    {
        "id": "5965430602439381470",
        "title": "荫沟村二组公厕",
        "address": "陕西省商洛市柞水县曹坪镇荫沟二组公厕",
        "tel": "",
        "category": "基础设施:公共设施:公共厕所",
        "type": 0,
        "location": {
            "lat": 33.734031,
            "lng": 109.357475
        },
        "ad_info": {
            "adcode": 611026,
            "province": "陕西省",
            "city": "商洛市",
            "district": "柞水县"
        }
    },
    {
        "id": "6963045173703017949",
        "title": "公共厕所",
        "address": "陕西省商洛市丹凤县丹水路与滨河大道交叉口西南方向174米左右",
        "tel": "",
        "category": "基础设施:公共设施:公共厕所",
        "type": 0,
        "location": {
            "lat": 33.462891,
            "lng": 110.426753
        },
        "ad_info": {
            "adcode": 611022,
            "province": "陕西省",
            "city": "商洛市",
            "district": "丹凤县"
        }
    },
    {
        "id": "1685940465573597162",
        "title": "金盆村四组公共厕所",
        "address": "陕西省商洛市柞水县",
        "tel": "",
        "category": "基础设施:公共设施:公共厕所",
        "type": 0,
        "location": {
            "lat": 33.718995,
            "lng": 109.212732
        },
        "ad_info": {
            "adcode": 611026,
            "province": "陕西省",
            "city": "商洛市",
            "district": "柞水县"
        }
    },
    {
        "id": "4250529885188908747",
        "title": "杏坪镇云蒙村公厕",
        "address": "陕西省商洛市柞水县",
        "tel": "",
        "category": "基础设施:公共设施:公共厕所",
        "type": 0,
        "location": {
            "lat": 33.443616,
            "lng": 109.490959
        },
        "ad_info": {
            "adcode": 611026,
            "province": "陕西省",
            "city": "商洛市",
            "district": "柞水县"
        }
    },
    {
        "id": "1005905350568807234",
        "title": "聂家沟村公共卫生间",
        "address": "陕西省商洛市镇安县X025",
        "tel": "",
        "category": "基础设施:公共设施:公共厕所",
        "type": 0,
        "location": {
            "lat": 33.26085,
            "lng": 109.343074
        },
        "ad_info": {
            "adcode": 611025,
            "province": "陕西省",
            "city": "商洛市",
            "district": "镇安县"
        }
    },
    {
        "id": "1179962082238998298",
        "title": "葫芦沟口一组公共厕所",
        "address": "陕西省商洛市柞水县",
        "tel": "",
        "category": "基础设施:公共设施:公共厕所",
        "type": 0,
        "location": {
            "lat": 33.697611,
            "lng": 109.187388
        },
        "ad_info": {
            "adcode": 611026,
            "province": "陕西省",
            "city": "商洛市",
            "district": "柞水县"
        }
    },
    {
        "id": "12566515532784762615",
        "title": "公共厕所",
        "address": "陕西省商洛市洛南县保安镇仓颉小镇东公园",
        "tel": "",
        "category": "基础设施:公共设施:公共厕所",
        "type": 0,
        "location": {
            "lat": 34.144689,
            "lng": 109.965671
        },
        "ad_info": {
            "adcode": 611021,
            "province": "陕西省",
            "city": "商洛市",
            "district": "洛南县"
        }
    },
    {
        "id": "14244762753367186673",
        "title": "公共厕所",
        "address": "陕西省商洛市商州区向阳路与正阳街交叉口西北方向97米左右",
        "tel": "",
        "category": "基础设施:公共设施:公共厕所",
        "type": 0,
        "location": {
            "lat": 33.858305,
            "lng": 109.961348
        },
        "ad_info": {
            "adcode": 611002,
            "province": "陕西省",
            "city": "商洛市",
            "district": "商州区"
        }
    },
    {
        "id": "6860699135180276861",
        "title": "公共厕所",
        "address": "陕西省商洛市商州区G312",
        "tel": "",
        "category": "基础设施:公共设施:公共厕所",
        "type": 0,
        "location": {
            "lat": 33.818425,
            "lng": 110.033519
        },
        "ad_info": {
            "adcode": 611002,
            "province": "陕西省",
            "city": "商洛市",
            "district": "商州区"
        }
    },
    {
        "id": "15367971477934861376",
        "title": "冀村公共厕所",
        "address": "陕西省商洛市商州区",
        "tel": "",
        "category": "基础设施:公共设施:公共厕所",
        "type": 0,
        "location": {
            "lat": 33.840801,
            "lng": 109.992229
        },
        "ad_info": {
            "adcode": 611002,
            "province": "陕西省",
            "city": "商洛市",
            "district": "商州区"
        }
    },
    {
        "id": "10733402738395078850",
        "title": "公共卫生间",
        "address": "陕西省商洛市柞水县瓦房口镇颜家庄村四组红东路",
        "tel": "",
        "category": "基础设施:公共设施:公共厕所",
        "type": 0,
        "location": {
            "lat": 33.698659,
            "lng": 109.48292
        },
        "ad_info": {
            "adcode": 611026,
            "province": "陕西省",
            "city": "商洛市",
            "district": "柞水县"
        }
    },
    {
        "id": "1397042481288707073",
        "title": "磨沟里村公厕",
        "address": "陕西省商洛市山阳县",
        "tel": "",
        "category": "基础设施:公共设施:公共厕所",
        "type": 0,
        "location": {
            "lat": 33.563811,
            "lng": 109.980921
        },
        "ad_info": {
            "adcode": 611024,
            "province": "陕西省",
            "city": "商洛市",
            "district": "山阳县"
        }
    },
    {
        "id": "12603423868877489991",
        "title": "高坝店镇牛家坪村移民小区公共厕所",
        "address": "陕西省商洛市山阳县",
        "tel": "",
        "category": "基础设施:公共设施:公共厕所",
        "type": 0,
        "location": {
            "lat": 33.564342,
            "lng": 110.02095
        },
        "ad_info": {
            "adcode": 611024,
            "province": "陕西省",
            "city": "商洛市",
            "district": "山阳县"
        }
    },
    {
        "id": "11256819697737198756",
        "title": "公共厕所(SX-SL-0684)",
        "address": "陕西省商洛市柞水县",
        "tel": "",
        "category": "基础设施:公共设施:公共厕所",
        "type": 0,
        "location": {
            "lat": 33.576659,
            "lng": 109.310389
        },
        "ad_info": {
            "adcode": 611026,
            "province": "陕西省",
            "city": "商洛市",
            "district": "柞水县"
        }
    },
    {
        "id": "1924420408109213775",
        "title": "中山村公共卫生间",
        "address": "陕西省商洛市柞水县",
        "tel": "",
        "category": "基础设施:公共设施:公共厕所",
        "type": 0,
        "location": {
            "lat": 33.457737,
            "lng": 109.450577
        },
        "ad_info": {
            "adcode": 611026,
            "province": "陕西省",
            "city": "商洛市",
            "district": "柞水县"
        }
    },
    {
        "id": "1305594622888877968",
        "title": "中台村公共厕所",
        "address": "陕西省商洛市柞水县S30",
        "tel": "",
        "category": "基础设施:公共设施:公共厕所",
        "type": 0,
        "location": {
            "lat": 33.482178,
            "lng": 109.511327
        },
        "ad_info": {
            "adcode": 611026,
            "province": "陕西省",
            "city": "商洛市",
            "district": "柞水县"
        }
    },
    {
        "id": "6106861107359256248",
        "title": "姜家沟口公厕",
        "address": "陕西省商洛市柞水县S102",
        "tel": "",
        "category": "基础设施:公共设施:公共厕所",
        "type": 0,
        "location": {
            "lat": 33.614917,
            "lng": 109.163226
        },
        "ad_info": {
            "adcode": 611026,
            "province": "陕西省",
            "city": "商洛市",
            "district": "柞水县"
        }
    },
    {
        "id": "9607727242222820660",
        "title": "花溪弄公共厕所",
        "address": "陕西省商洛市洛南县四洪路与迎宾大道交叉口正西方向517米左右",
        "tel": "",
        "category": "基础设施:公共设施:公共厕所",
        "type": 0,
        "location": {
            "lat": 34.077806,
            "lng": 110.126084
        },
        "ad_info": {
            "adcode": 611021,
            "province": "陕西省",
            "city": "商洛市",
            "district": "洛南县"
        }
    },
    {
        "id": "1662520443556743075",
        "title": "金盆村汇生源院子内公共厕所",
        "address": "陕西省商洛市柞水县",
        "tel": "",
        "category": "基础设施:公共设施:公共厕所",
        "type": 0,
        "location": {
            "lat": 33.702573,
            "lng": 109.195585
        },
        "ad_info": {
            "adcode": 611026,
            "province": "陕西省",
            "city": "商洛市",
            "district": "柞水县"
        }
    },
    {
        "id": "14621472376660452488",
        "title": "公共厕所",
        "address": "陕西省商洛市镇安县户冷路北50米",
        "tel": "",
        "category": "基础设施:公共设施:公共厕所",
        "type": 0,
        "location": {
            "lat": 33.300062,
            "lng": 109.218613
        },
        "ad_info": {
            "adcode": 611025,
            "province": "陕西省",
            "city": "商洛市",
            "district": "镇安县"
        }
    },
    {
        "id": "5965430602439381470",
        "title": "荫沟村二组公厕",
        "address": "陕西省商洛市柞水县曹坪镇荫沟二组公厕",
        "tel": "",
        "category": "基础设施:公共设施:公共厕所",
        "type": 0,
        "location": {
            "lat": 33.734031,
            "lng": 109.357475
        },
        "ad_info": {
            "adcode": 611026,
            "province": "陕西省",
            "city": "商洛市",
            "district": "柞水县"
        }
    },
    {
        "id": "6963045173703017949",
        "title": "公共厕所",
        "address": "陕西省商洛市丹凤县丹水路与滨河大道交叉口西南方向174米左右",
        "tel": "",
        "category": "基础设施:公共设施:公共厕所",
        "type": 0,
        "location": {
            "lat": 33.462891,
            "lng": 110.426753
        },
        "ad_info": {
            "adcode": 611022,
            "province": "陕西省",
            "city": "商洛市",
            "district": "丹凤县"
        }
    },
    {
        "id": "1685940465573597162",
        "title": "金盆村四组公共厕所",
        "address": "陕西省商洛市柞水县",
        "tel": "",
        "category": "基础设施:公共设施:公共厕所",
        "type": 0,
        "location": {
            "lat": 33.718995,
            "lng": 109.212732
        },
        "ad_info": {
            "adcode": 611026,
            "province": "陕西省",
            "city": "商洛市",
            "district": "柞水县"
        }
    },
    {
        "id": "4250529885188908747",
        "title": "杏坪镇云蒙村公厕",
        "address": "陕西省商洛市柞水县",
        "tel": "",
        "category": "基础设施:公共设施:公共厕所",
        "type": 0,
        "location": {
            "lat": 33.443616,
            "lng": 109.490959
        },
        "ad_info": {
            "adcode": 611026,
            "province": "陕西省",
            "city": "商洛市",
            "district": "柞水县"
        }
    },
    {
        "id": "1005905350568807234",
        "title": "聂家沟村公共卫生间",
        "address": "陕西省商洛市镇安县X025",
        "tel": "",
        "category": "基础设施:公共设施:公共厕所",
        "type": 0,
        "location": {
            "lat": 33.26085,
            "lng": 109.343074
        },
        "ad_info": {
            "adcode": 611025,
            "province": "陕西省",
            "city": "商洛市",
            "district": "镇安县"
        }
    },
    {
        "id": "1179962082238998298",
        "title": "葫芦沟口一组公共厕所",
        "address": "陕西省商洛市柞水县",
        "tel": "",
        "category": "基础设施:公共设施:公共厕所",
        "type": 0,
        "location": {
            "lat": 33.697611,
            "lng": 109.187388
        },
        "ad_info": {
            "adcode": 611026,
            "province": "陕西省",
            "city": "商洛市",
            "district": "柞水县"
        }
    },
    {
        "id": "12566515532784762615",
        "title": "公共厕所",
        "address": "陕西省商洛市洛南县保安镇仓颉小镇东公园",
        "tel": "",
        "category": "基础设施:公共设施:公共厕所",
        "type": 0,
        "location": {
            "lat": 34.144689,
            "lng": 109.965671
        },
        "ad_info": {
            "adcode": 611021,
            "province": "陕西省",
            "city": "商洛市",
            "district": "洛南县"
        }
    },
    {
        "id": "14244762753367186673",
        "title": "公共厕所",
        "address": "陕西省商洛市商州区向阳路与正阳街交叉口西北方向97米左右",
        "tel": "",
        "category": "基础设施:公共设施:公共厕所",
        "type": 0,
        "location": {
            "lat": 33.858305,
            "lng": 109.961348
        },
        "ad_info": {
            "adcode": 611002,
            "province": "陕西省",
            "city": "商洛市",
            "district": "商州区"
        }
    },
    {
        "id": "6860699135180276861",
        "title": "公共厕所",
        "address": "陕西省商洛市商州区G312",
        "tel": "",
        "category": "基础设施:公共设施:公共厕所",
        "type": 0,
        "location": {
            "lat": 33.818425,
            "lng": 110.033519
        },
        "ad_info": {
            "adcode": 611002,
            "province": "陕西省",
            "city": "商洛市",
            "district": "商州区"
        }
    },
    {
        "id": "15367971477934861376",
        "title": "冀村公共厕所",
        "address": "陕西省商洛市商州区",
        "tel": "",
        "category": "基础设施:公共设施:公共厕所",
        "type": 0,
        "location": {
            "lat": 33.840801,
            "lng": 109.992229
        },
        "ad_info": {
            "adcode": 611002,
            "province": "陕西省",
            "city": "商洛市",
            "district": "商州区"
        }
    },
    {
        "id": "10733402738395078850",
        "title": "公共卫生间",
        "address": "陕西省商洛市柞水县瓦房口镇颜家庄村四组红东路",
        "tel": "",
        "category": "基础设施:公共设施:公共厕所",
        "type": 0,
        "location": {
            "lat": 33.698659,
            "lng": 109.48292
        },
        "ad_info": {
            "adcode": 611026,
            "province": "陕西省",
            "city": "商洛市",
            "district": "柞水县"
        }
    },
    {
        "id": "1397042481288707073",
        "title": "磨沟里村公厕",
        "address": "陕西省商洛市山阳县",
        "tel": "",
        "category": "基础设施:公共设施:公共厕所",
        "type": 0,
        "location": {
            "lat": 33.563811,
            "lng": 109.980921
        },
        "ad_info": {
            "adcode": 611024,
            "province": "陕西省",
            "city": "商洛市",
            "district": "山阳县"
        }
    },
    {
        "id": "12603423868877489991",
        "title": "高坝店镇牛家坪村移民小区公共厕所",
        "address": "陕西省商洛市山阳县",
        "tel": "",
        "category": "基础设施:公共设施:公共厕所",
        "type": 0,
        "location": {
            "lat": 33.564342,
            "lng": 110.02095
        },
        "ad_info": {
            "adcode": 611024,
            "province": "陕西省",
            "city": "商洛市",
            "district": "山阳县"
        }
    },
    {
        "id": "11256819697737198756",
        "title": "公共厕所(SX-SL-0684)",
        "address": "陕西省商洛市柞水县",
        "tel": "",
        "category": "基础设施:公共设施:公共厕所",
        "type": 0,
        "location": {
            "lat": 33.576659,
            "lng": 109.310389
        },
        "ad_info": {
            "adcode": 611026,
            "province": "陕西省",
            "city": "商洛市",
            "district": "柞水县"
        }
    }
]