[
    {
        "id": "11611143136375176853",
        "title": "公共厕所",
        "address": "新疆维吾尔自治区喀什地区伽师县健康路与古宰尔西路交叉口正西方向172米左右",
        "tel": "",
        "category": "基础设施:公共设施:公共厕所",
        "type": 0,
        "location": {
            "lat": 39.491016,
            "lng": 76.733035
        },
        "ad_info": {
            "adcode": 653129,
            "province": "新疆维吾尔自治区",
            "city": "喀什地区",
            "district": "伽师县"
        }
    },
    {
        "id": "17162341988694640548",
        "title": "公共厕所",
        "address": "新疆维吾尔自治区喀什地区伽师县胡杨林生态园",
        "tel": "",
        "category": "基础设施:公共设施:公共厕所",
        "type": 0,
        "location": {
            "lat": 39.496236,
            "lng": 76.708909
        },
        "ad_info": {
            "adcode": 653129,
            "province": "新疆维吾尔自治区",
            "city": "喀什地区",
            "district": "伽师县"
        }
    },
    {
        "id": "16259263056482818548",
        "title": "公共厕所",
        "address": "新疆维吾尔自治区喀什地区伽师县巴仁镇人民政府东南侧150米",
        "tel": "",
        "category": "基础设施:公共设施:公共厕所",
        "type": 0,
        "location": {
            "lat": 39.486363,
            "lng": 76.746215
        },
        "ad_info": {
            "adcode": 653129,
            "province": "新疆维吾尔自治区",
            "city": "喀什地区",
            "district": "伽师县"
        }
    },
    {
        "id": "6747317445025206337",
        "title": "公共厕所",
        "address": "新疆维吾尔自治区喀什地区伽师县古宰尔路与园区路交叉口正东方向87米左右",
        "tel": "",
        "category": "基础设施:公共设施:公共厕所",
        "type": 0,
        "location": {
            "lat": 39.494079,
            "lng": 76.745036
        },
        "ad_info": {
            "adcode": 653129,
            "province": "新疆维吾尔自治区",
            "city": "喀什地区",
            "district": "伽师县"
        }
    },
    {
        "id": "301364010490819141",
        "title": "公共厕所",
        "address": "新疆维吾尔自治区喀什地区喀什市清泉钢材西北90米(G315西)",
        "tel": "",
        "category": "基础设施:公共设施:公共厕所",
        "type": 0,
        "location": {
            "lat": 39.420747,
            "lng": 76.016562
        },
        "ad_info": {
            "adcode": 653101,
            "province": "新疆维吾尔自治区",
            "city": "喀什地区",
            "district": "喀什市"
        }
    },
    {
        "id": "11154265395705522618",
        "title": "公共厕所",
        "address": "新疆维吾尔自治区喀什地区喀什市中西亚市场路与滨河北路交叉口东北方向192米左右",
        "tel": "",
        "category": "基础设施:公共设施:公共厕所",
        "type": 0,
        "location": {
            "lat": 39.474309,
            "lng": 76.005204
        },
        "ad_info": {
            "adcode": 653101,
            "province": "新疆维吾尔自治区",
            "city": "喀什地区",
            "district": "喀什市"
        }
    },
    {
        "id": "1098048317149669824",
        "title": "公共厕所",
        "address": "新疆维吾尔自治区喀什地区喀什市华凌东路辅路与珠海路交叉口正东方向222米左右",
        "tel": "",
        "category": "基础设施:公共设施:公共厕所",
        "type": 0,
        "location": {
            "lat": 39.464766,
            "lng": 76.102609
        },
        "ad_info": {
            "adcode": 653101,
            "province": "新疆维吾尔自治区",
            "city": "喀什地区",
            "district": "喀什市"
        }
    },
    {
        "id": "6293649847703575824",
        "title": "公共厕所",
        "address": "新疆维吾尔自治区喀什地区喀什市库如克铁热克一巷与西域大道交叉口正南方向27米左右",
        "tel": "",
        "category": "基础设施:公共设施:公共厕所",
        "type": 0,
        "location": {
            "lat": 39.465986,
            "lng": 75.972781
        },
        "ad_info": {
            "adcode": 653101,
            "province": "新疆维吾尔自治区",
            "city": "喀什地区",
            "district": "喀什市"
        }
    },
    {
        "id": "1138589927503188321",
        "title": "公厕",
        "address": "新疆维吾尔自治区喀什地区喀什市莱巴扎路",
        "tel": "",
        "category": "基础设施:公共设施:公共厕所",
        "type": 0,
        "location": {
            "lat": 39.470596,
            "lng": 75.987188
        },
        "ad_info": {
            "adcode": 653101,
            "province": "新疆维吾尔自治区",
            "city": "喀什地区",
            "district": "喀什市"
        }
    },
    {
        "id": "4950047459012124493",
        "title": "吐曼路南厕所",
        "address": "新疆维吾尔自治区喀什地区喀什市吐曼路",
        "tel": "15109050321",
        "category": "基础设施:公共设施:公共厕所",
        "type": 0,
        "location": {
            "lat": 39.474737,
            "lng": 75.996886
        },
        "ad_info": {
            "adcode": 653101,
            "province": "新疆维吾尔自治区",
            "city": "喀什地区",
            "district": "喀什市"
        }
    },
    {
        "id": "13134877825332097234",
        "title": "公共厕所",
        "address": "新疆维吾尔自治区喀什地区喀什市中西亚市场路与香妃路交叉口正南方向79米左右",
        "tel": "",
        "category": "基础设施:公共设施:公共厕所",
        "type": 0,
        "location": {
            "lat": 39.485116,
            "lng": 76.026475
        },
        "ad_info": {
            "adcode": 653101,
            "province": "新疆维吾尔自治区",
            "city": "喀什地区",
            "district": "喀什市"
        }
    },
    {
        "id": "12456425446494026047",
        "title": "公共厕所",
        "address": "新疆维吾尔自治区喀什地区喀什市南湖路与班超路交叉口西南方向263米左右",
        "tel": "",
        "category": "基础设施:公共设施:公共厕所",
        "type": 0,
        "location": {
            "lat": 39.45235,
            "lng": 76.006079
        },
        "ad_info": {
            "adcode": 653101,
            "province": "新疆维吾尔自治区",
            "city": "喀什地区",
            "district": "喀什市"
        }
    },
    {
        "id": "14981595194083469383",
        "title": "公共厕所",
        "address": "新疆维吾尔自治区喀什地区喀什市解放北路258号",
        "tel": "",
        "category": "基础设施:公共设施:公共厕所",
        "type": 0,
        "location": {
            "lat": 39.475163,
            "lng": 75.990055
        },
        "ad_info": {
            "adcode": 653101,
            "province": "新疆维吾尔自治区",
            "city": "喀什地区",
            "district": "喀什市"
        }
    },
    {
        "id": "7682477767479962929",
        "title": "公厕",
        "address": "新疆维吾尔自治区喀什地区喀什市恰萨路178号",
        "tel": "15109050321",
        "category": "基础设施:公共设施:公共厕所",
        "type": 0,
        "location": {
            "lat": 39.471742,
            "lng": 75.994564
        },
        "ad_info": {
            "adcode": 653101,
            "province": "新疆维吾尔自治区",
            "city": "喀什地区",
            "district": "喀什市"
        }
    },
    {
        "id": "13629982829117811722",
        "title": "公共厕所",
        "address": "新疆维吾尔自治区喀什地区喀什市和谐东路与喀麦大道交叉口正西方向658米左右",
        "tel": "",
        "category": "基础设施:公共设施:公共厕所",
        "type": 0,
        "location": {
            "lat": 39.474849,
            "lng": 76.059638
        },
        "ad_info": {
            "adcode": 653101,
            "province": "新疆维吾尔自治区",
            "city": "喀什地区",
            "district": "喀什市"
        }
    },
    {
        "id": "8550299716305705899",
        "title": "公共厕所",
        "address": "新疆维吾尔自治区喀什地区喀什市中西亚市场路与香妃路交叉口正西方向128米左右",
        "tel": "",
        "category": "基础设施:公共设施:公共厕所",
        "type": 0,
        "location": {
            "lat": 39.48611,
            "lng": 76.02531
        },
        "ad_info": {
            "adcode": 653101,
            "province": "新疆维吾尔自治区",
            "city": "喀什地区",
            "district": "喀什市"
        }
    },
    {
        "id": "10904274997292720450",
        "title": "公共厕所",
        "address": "新疆维吾尔自治区喀什地区喀什市西域大道15号",
        "tel": "",
        "category": "基础设施:公共设施:公共厕所",
        "type": 0,
        "location": {
            "lat": 39.466047,
            "lng": 75.975486
        },
        "ad_info": {
            "adcode": 653101,
            "province": "新疆维吾尔自治区",
            "city": "喀什地区",
            "district": "喀什市"
        }
    },
    {
        "id": "2395491789616862558",
        "title": "公共卫生间",
        "address": "新疆维吾尔自治区喀什地区喀什市曙光国际五金建材家居博览城",
        "tel": "",
        "category": "基础设施:公共设施:公共厕所",
        "type": 0,
        "location": {
            "lat": 39.437196,
            "lng": 76.033106
        },
        "ad_info": {
            "adcode": 653101,
            "province": "新疆维吾尔自治区",
            "city": "喀什地区",
            "district": "喀什市"
        }
    },
    {
        "id": "5588871358417946570",
        "title": "公共厕所",
        "address": "新疆维吾尔自治区喀什地区喀什市打馕街与机场路交叉口西南方向19米左右",
        "tel": "",
        "category": "基础设施:公共设施:公共厕所",
        "type": 0,
        "location": {
            "lat": 39.489051,
            "lng": 75.991555
        },
        "ad_info": {
            "adcode": 653101,
            "province": "新疆维吾尔自治区",
            "city": "喀什地区",
            "district": "喀什市"
        }
    },
    {
        "id": "9479545976607375498",
        "title": "公共厕所",
        "address": "新疆维吾尔自治区喀什地区喀什市克孜勒都维路与团结路交叉口西北方向240米左右",
        "tel": "",
        "category": "基础设施:公共设施:公共厕所",
        "type": 0,
        "location": {
            "lat": 39.463707,
            "lng": 75.978714
        },
        "ad_info": {
            "adcode": 653101,
            "province": "新疆维吾尔自治区",
            "city": "喀什地区",
            "district": "喀什市"
        }
    },
    {
        "id": "15548054453837493077",
        "title": "公共厕所",
        "address": "新疆维吾尔自治区喀什地区喀什市库如克铁热克一巷与色满路一巷交叉口正东方向189米左右",
        "tel": "",
        "category": "基础设施:公共设施:公共厕所",
        "type": 0,
        "location": {
            "lat": 39.471565,
            "lng": 75.968834
        },
        "ad_info": {
            "adcode": 653101,
            "province": "新疆维吾尔自治区",
            "city": "喀什地区",
            "district": "喀什市"
        }
    },
    {
        "id": "2945591091272936950",
        "title": "公共厕所",
        "address": "新疆维吾尔自治区喀什地区喀什市人民东路与广场西路交叉口正南方向162米左右",
        "tel": "",
        "category": "基础设施:公共设施:公共厕所",
        "type": 0,
        "location": {
            "lat": 39.46586,
            "lng": 75.99133
        },
        "ad_info": {
            "adcode": 653101,
            "province": "新疆维吾尔自治区",
            "city": "喀什地区",
            "district": "喀什市"
        }
    },
    {
        "id": "16418310129511845414",
        "title": "公共厕所",
        "address": "新疆维吾尔自治区喀什地区喀什市阿热亚路",
        "tel": "15109050321",
        "category": "基础设施:公共设施:公共厕所",
        "type": 0,
        "location": {
            "lat": 39.471463,
            "lng": 75.991318
        },
        "ad_info": {
            "adcode": 653101,
            "province": "新疆维吾尔自治区",
            "city": "喀什地区",
            "district": "喀什市"
        }
    },
    {
        "id": "12216681312416864330",
        "title": "公共厕所(XJ-KS-0215)",
        "address": "新疆维吾尔自治区喀什地区喀什市体育路福乐智慧园景区",
        "tel": "",
        "category": "基础设施:公共设施:公共厕所",
        "type": 0,
        "location": {
            "lat": 39.459588,
            "lng": 75.994937
        },
        "ad_info": {
            "adcode": 653101,
            "province": "新疆维吾尔自治区",
            "city": "喀什地区",
            "district": "喀什市"
        }
    },
    {
        "id": "1533206839079632848",
        "title": "公共厕所",
        "address": "新疆维吾尔自治区喀什地区喀什市园丁路与西域大道交叉口正东方向120米左右",
        "tel": "",
        "category": "基础设施:公共设施:公共厕所",
        "type": 0,
        "location": {
            "lat": 39.464404,
            "lng": 75.955323
        },
        "ad_info": {
            "adcode": 653101,
            "province": "新疆维吾尔自治区",
            "city": "喀什地区",
            "district": "喀什市"
        }
    },
    {
        "id": "2729873890882535891",
        "title": "公共厕所",
        "address": "新疆维吾尔自治区喀什地区喀什市园丁路与西域大道交叉口正西方向211米左右",
        "tel": "",
        "category": "基础设施:公共设施:公共厕所",
        "type": 0,
        "location": {
            "lat": 39.464903,
            "lng": 75.951562
        },
        "ad_info": {
            "adcode": 653101,
            "province": "新疆维吾尔自治区",
            "city": "喀什地区",
            "district": "喀什市"
        }
    },
    {
        "id": "1478759780409203453",
        "title": "公共厕所",
        "address": "新疆维吾尔自治区喀什地区喀什市团结路与托克扎克路南巷交叉口东南方向47米左右",
        "tel": "",
        "category": "基础设施:公共设施:公共厕所",
        "type": 0,
        "location": {
            "lat": 39.459264,
            "lng": 75.97229
        },
        "ad_info": {
            "adcode": 653101,
            "province": "新疆维吾尔自治区",
            "city": "喀什地区",
            "district": "喀什市"
        }
    },
    {
        "id": "7938294407953573550",
        "title": "公共厕所",
        "address": "新疆维吾尔自治区喀什地区喀什市人民西路与帕合塔巴扎北路交叉口正西方向111米左右",
        "tel": "",
        "category": "基础设施:公共设施:公共厕所",
        "type": 0,
        "location": {
            "lat": 39.466617,
            "lng": 75.980151
        },
        "ad_info": {
            "adcode": 653101,
            "province": "新疆维吾尔自治区",
            "city": "喀什地区",
            "district": "喀什市"
        }
    },
    {
        "id": "15342716802025496998",
        "title": "公共厕所",
        "address": "新疆维吾尔自治区喀什地区喀什市滨河北路与阿瓦提路交叉口东南方向35米左右",
        "tel": "",
        "category": "基础设施:公共设施:公共厕所",
        "type": 0,
        "location": {
            "lat": 39.4715,
            "lng": 76.007593
        },
        "ad_info": {
            "adcode": 653101,
            "province": "新疆维吾尔自治区",
            "city": "喀什地区",
            "district": "喀什市"
        }
    },
    {
        "id": "6771743535893825548",
        "title": "公共厕所",
        "address": "新疆维吾尔自治区喀什地区疏附县帕米尔大道与津海路交叉口东南方向224米左右",
        "tel": "",
        "category": "基础设施:公共设施:公共厕所",
        "type": 0,
        "location": {
            "lat": 39.414701,
            "lng": 75.906697
        },
        "ad_info": {
            "adcode": 653121,
            "province": "新疆维吾尔自治区",
            "city": "喀什地区",
            "district": "疏附县"
        }
    },
    {
        "id": "15629576094660678281",
        "title": "公共厕所",
        "address": "新疆维吾尔自治区喀什地区塔什库尔干塔吉克自治县盘龙古道",
        "tel": "",
        "category": "基础设施:公共设施:公共厕所",
        "type": 0,
        "location": {
            "lat": 37.632267,
            "lng": 75.496024
        },
        "ad_info": {
            "adcode": 653131,
            "province": "新疆维吾尔自治区",
            "city": "喀什地区",
            "district": "塔什库尔干塔吉克自治县"
        }
    },
    {
        "id": "8263444378522702039",
        "title": "公共厕所",
        "address": "新疆维吾尔自治区喀什地区喀什市世纪大道南路与昆仑大道交叉口西北方向193米左右",
        "tel": "",
        "category": "基础设施:公共设施:公共厕所",
        "type": 0,
        "location": {
            "lat": 39.433234,
            "lng": 76.01156
        },
        "ad_info": {
            "adcode": 653101,
            "province": "新疆维吾尔自治区",
            "city": "喀什地区",
            "district": "喀什市"
        }
    },
    {
        "id": "268420028025468835",
        "title": "公共厕所",
        "address": "新疆维吾尔自治区喀什地区喀什市人民东路与吐曼路交叉口正西方向61米左右",
        "tel": "",
        "category": "基础设施:公共设施:公共厕所",
        "type": 0,
        "location": {
            "lat": 39.467882,
            "lng": 76.000173
        },
        "ad_info": {
            "adcode": 653101,
            "province": "新疆维吾尔自治区",
            "city": "喀什地区",
            "district": "喀什市"
        }
    },
    {
        "id": "6930817079621102084",
        "title": "公共厕所",
        "address": "新疆维吾尔自治区喀什地区喀什市体育路10号",
        "tel": "",
        "category": "基础设施:公共设施:公共厕所",
        "type": 0,
        "location": {
            "lat": 39.460023,
            "lng": 75.995294
        },
        "ad_info": {
            "adcode": 653101,
            "province": "新疆维吾尔自治区",
            "city": "喀什地区",
            "district": "喀什市"
        }
    },
    {
        "id": "12412967219715697834",
        "title": "公共厕所",
        "address": "新疆维吾尔自治区喀什地区喀什市团结路北三巷与托克扎克路南巷交叉口正西方向14米左右",
        "tel": "",
        "category": "基础设施:公共设施:公共厕所",
        "type": 0,
        "location": {
            "lat": 39.461662,
            "lng": 75.970612
        },
        "ad_info": {
            "adcode": 653101,
            "province": "新疆维吾尔自治区",
            "city": "喀什地区",
            "district": "喀什市"
        }
    },
    {
        "id": "1131833110658722701",
        "title": "公共厕所",
        "address": "新疆维吾尔自治区喀什地区喀什市人民东路与广场东路交叉口正东方向66米左右",
        "tel": "",
        "category": "基础设施:公共设施:公共厕所",
        "type": 0,
        "location": {
            "lat": 39.467243,
            "lng": 75.995012
        },
        "ad_info": {
            "adcode": 653101,
            "province": "新疆维吾尔自治区",
            "city": "喀什地区",
            "district": "喀什市"
        }
    },
    {
        "id": "14105155713615744983",
        "title": "公共厕所(湿地公园旅游景区环线)",
        "address": "新疆维吾尔自治区喀什地区莎车县喀和路与育才路交叉口正南方向54米左右",
        "tel": "",
        "category": "基础设施:公共设施:公共厕所",
        "type": 0,
        "location": {
            "lat": 38.396096,
            "lng": 77.232525
        },
        "ad_info": {
            "adcode": 653125,
            "province": "新疆维吾尔自治区",
            "city": "喀什地区",
            "district": "莎车县"
        }
    },
    {
        "id": "12804592643549486870",
        "title": "公共厕所",
        "address": "新疆维吾尔自治区喀什地区喀什市克孜勒都维路与人民西路交叉口东南200米",
        "tel": "",
        "category": "基础设施:公共设施:公共厕所",
        "type": 0,
        "location": {
            "lat": 39.464824,
            "lng": 75.979119
        },
        "ad_info": {
            "adcode": 653101,
            "province": "新疆维吾尔自治区",
            "city": "喀什地区",
            "district": "喀什市"
        }
    },
    {
        "id": "14753918233905379343",
        "title": "公共厕所",
        "address": "新疆维吾尔自治区喀什地区喀什市人民东路与广场东路交叉口正北方向271米左右",
        "tel": "15109050321",
        "category": "基础设施:公共设施:公共厕所",
        "type": 0,
        "location": {
            "lat": 39.469647,
            "lng": 75.993094
        },
        "ad_info": {
            "adcode": 653101,
            "province": "新疆维吾尔自治区",
            "city": "喀什地区",
            "district": "喀什市"
        }
    },
    {
        "id": "12951007075129355559",
        "title": "公共厕所",
        "address": "新疆维吾尔自治区喀什地区喀什市巴格艾日克路与迎宾大道交叉口东南方向245米左右",
        "tel": "",
        "category": "基础设施:公共设施:公共厕所",
        "type": 0,
        "location": {
            "lat": 39.521966,
            "lng": 75.998793
        },
        "ad_info": {
            "adcode": 653101,
            "province": "新疆维吾尔自治区",
            "city": "喀什地区",
            "district": "喀什市"
        }
    },
    {
        "id": "11774809563183668240",
        "title": "公共厕所",
        "address": "新疆维吾尔自治区喀什地区莎车县戈尔巴格路与英麦拉路交叉口西北方向129米左右",
        "tel": "",
        "category": "基础设施:公共设施:公共厕所",
        "type": 0,
        "location": {
            "lat": 38.415326,
            "lng": 77.258166
        },
        "ad_info": {
            "adcode": 653125,
            "province": "新疆维吾尔自治区",
            "city": "喀什地区",
            "district": "莎车县"
        }
    },
    {
        "id": "18354331888719992849",
        "title": "公共厕所",
        "address": "新疆维吾尔自治区喀什地区巴楚县G217与图火路交叉口西北方向134米左右",
        "tel": "",
        "category": "基础设施:公共设施:公共厕所",
        "type": 0,
        "location": {
            "lat": 39.835714,
            "lng": 78.549652
        },
        "ad_info": {
            "adcode": 653130,
            "province": "新疆维吾尔自治区",
            "city": "喀什地区",
            "district": "巴楚县"
        }
    },
    {
        "id": "8621527638539114367",
        "title": "公共厕所",
        "address": "新疆维吾尔自治区喀什地区喀什市机场路三巷与迎宾大道交叉口东北方向46米左右",
        "tel": "",
        "category": "基础设施:公共设施:公共厕所",
        "type": 0,
        "location": {
            "lat": 39.532472,
            "lng": 75.996084
        },
        "ad_info": {
            "adcode": 653101,
            "province": "新疆维吾尔自治区",
            "city": "喀什地区",
            "district": "喀什市"
        }
    },
    {
        "id": "8539488503259205246",
        "title": "公共厕所",
        "address": "新疆维吾尔自治区喀什地区叶城县喀和东路与昆仑大道交叉口西南方向58米左右",
        "tel": "",
        "category": "基础设施:公共设施:公共厕所",
        "type": 0,
        "location": {
            "lat": 37.880842,
            "lng": 77.444551
        },
        "ad_info": {
            "adcode": 653126,
            "province": "新疆维吾尔自治区",
            "city": "喀什地区",
            "district": "叶城县"
        }
    },
    {
        "id": "4898562144958839108",
        "title": "公共厕所(喀尔苏沙漠旅游景区环线)",
        "address": "新疆维吾尔自治区喀什地区莎车县X509与仔力克水渠桥交叉口正南方向1502米左右",
        "tel": "",
        "category": "基础设施:公共设施:公共厕所",
        "type": 0,
        "location": {
            "lat": 38.338199,
            "lng": 77.472022
        },
        "ad_info": {
            "adcode": 653125,
            "province": "新疆维吾尔自治区",
            "city": "喀什地区",
            "district": "莎车县"
        }
    },
    {
        "id": "11309267142851182654",
        "title": "公共厕所",
        "address": "新疆维吾尔自治区喀什地区喀什市帕米尔大道与库木巴格路交叉口正北方向805米左右",
        "tel": "",
        "category": "基础设施:公共设施:公共厕所",
        "type": 0,
        "location": {
            "lat": 39.514554,
            "lng": 75.933422
        },
        "ad_info": {
            "adcode": 653101,
            "province": "新疆维吾尔自治区",
            "city": "喀什地区",
            "district": "喀什市"
        }
    },
    {
        "id": "6235171491118879081",
        "title": "喀什古城公共厕所",
        "address": "新疆维吾尔自治区喀什地区喀什市中西亚市场路与吐曼路交叉口西南方向95米左右",
        "tel": "",
        "category": "基础设施:公共设施:公共厕所",
        "type": 0,
        "location": {
            "lat": 39.471292,
            "lng": 75.999119
        },
        "ad_info": {
            "adcode": 653101,
            "province": "新疆维吾尔自治区",
            "city": "喀什地区",
            "district": "喀什市"
        }
    },
    {
        "id": "13268991175209347265",
        "title": "公共厕所",
        "address": "新疆维吾尔自治区喀什地区莎车县喀和路与明德北路交叉口正北方向198米左右",
        "tel": "",
        "category": "基础设施:公共设施:公共厕所",
        "type": 0,
        "location": {
            "lat": 38.398196,
            "lng": 77.235163
        },
        "ad_info": {
            "adcode": 653125,
            "province": "新疆维吾尔自治区",
            "city": "喀什地区",
            "district": "莎车县"
        }
    },
    {
        "id": "3111389287643415525",
        "title": "公共厕所",
        "address": "新疆维吾尔自治区喀什地区叶城县昆仑大道与昆仑巷交叉口正东方向223米左右",
        "tel": "",
        "category": "基础设施:公共设施:公共厕所",
        "type": 0,
        "location": {
            "lat": 37.878136,
            "lng": 77.466214
        },
        "ad_info": {
            "adcode": 653126,
            "province": "新疆维吾尔自治区",
            "city": "喀什地区",
            "district": "叶城县"
        }
    },
    {
        "id": "4920330579055370183",
        "title": "公共厕所",
        "address": "新疆维吾尔自治区喀什地区疏附县人民南路与肖古孜东路交叉口西北方向61米左右",
        "tel": "",
        "category": "基础设施:公共设施:公共厕所",
        "type": 0,
        "location": {
            "lat": 39.373527,
            "lng": 75.858732
        },
        "ad_info": {
            "adcode": 653121,
            "province": "新疆维吾尔自治区",
            "city": "喀什地区",
            "district": "疏附县"
        }
    },
    {
        "id": "15196282983642617355",
        "title": "公共厕所",
        "address": "新疆维吾尔自治区喀什地区莎车县Y248与米夏路交叉口正南方向712米左右",
        "tel": "",
        "category": "基础设施:公共设施:公共厕所",
        "type": 0,
        "location": {
            "lat": 38.432099,
            "lng": 77.249761
        },
        "ad_info": {
            "adcode": 653125,
            "province": "新疆维吾尔自治区",
            "city": "喀什地区",
            "district": "莎车县"
        }
    },
    {
        "id": "14681589308877028372",
        "title": "共公共厕所所",
        "address": "新疆维吾尔自治区喀什地区喀什市中西亚市场路喀什中西亚国际贸易市场",
        "tel": "",
        "category": "基础设施:公共设施:公共厕所",
        "type": 0,
        "location": {
            "lat": 39.476194,
            "lng": 76.008829
        },
        "ad_info": {
            "adcode": 653101,
            "province": "新疆维吾尔自治区",
            "city": "喀什地区",
            "district": "喀什市"
        }
    },
    {
        "id": "17709793027627686959",
        "title": "公共厕所",
        "address": "新疆维吾尔自治区喀什地区莎车县体育路与巴格恰阿力迪路交叉口正西方向180米左右",
        "tel": "",
        "category": "基础设施:公共设施:公共厕所",
        "type": 0,
        "location": {
            "lat": 38.410398,
            "lng": 77.256041
        },
        "ad_info": {
            "adcode": 653125,
            "province": "新疆维吾尔自治区",
            "city": "喀什地区",
            "district": "莎车县"
        }
    },
    {
        "id": "2619731174369975242",
        "title": "公共厕所",
        "address": "新疆维吾尔自治区喀什地区叶城县宗郎灵泉风景区东北侧210米",
        "tel": "",
        "category": "基础设施:公共设施:公共厕所",
        "type": 0,
        "location": {
            "lat": 37.613355,
            "lng": 77.456252
        },
        "ad_info": {
            "adcode": 653126,
            "province": "新疆维吾尔自治区",
            "city": "喀什地区",
            "district": "叶城县"
        }
    },
    {
        "id": "3232409478843598733",
        "title": "公共厕所",
        "address": "新疆维吾尔自治区喀什地区喀什市帕依纳普路与雪莲路交叉口西北方向48米左右",
        "tel": "",
        "category": "基础设施:公共设施:公共厕所",
        "type": 0,
        "location": {
            "lat": 39.457337,
            "lng": 76.001616
        },
        "ad_info": {
            "adcode": 653101,
            "province": "新疆维吾尔自治区",
            "city": "喀什地区",
            "district": "喀什市"
        }
    },
    {
        "id": "1897112000370148777",
        "title": "洗澡堂公共厕所",
        "address": "新疆维吾尔自治区喀什地区喀什市兰干路与西域大道交叉口正南方向33米左右",
        "tel": "",
        "category": "基础设施:公共设施:公共厕所",
        "type": 0,
        "location": {
            "lat": 39.465858,
            "lng": 75.973067
        },
        "ad_info": {
            "adcode": 653101,
            "province": "新疆维吾尔自治区",
            "city": "喀什地区",
            "district": "喀什市"
        }
    },
    {
        "id": "46409155906958264",
        "title": "西克尔服务区第一公共厕所",
        "address": "新疆维吾尔自治区喀什地区伽师县G3012吐和高速附近",
        "tel": "",
        "category": "基础设施:公共设施:公共厕所",
        "type": 0,
        "location": {
            "lat": 39.81791,
            "lng": 77.451859
        },
        "ad_info": {
            "adcode": 653129,
            "province": "新疆维吾尔自治区",
            "city": "喀什地区",
            "district": "伽师县"
        }
    },
    {
        "id": "3939010789653294834",
        "title": "公共厕所(农业科技示范园景区)",
        "address": "新疆维吾尔自治区喀什地区莎车县G217与X513交叉口正北方向1532米左右",
        "tel": "",
        "category": "基础设施:公共设施:公共厕所",
        "type": 0,
        "location": {
            "lat": 38.507858,
            "lng": 77.24957
        },
        "ad_info": {
            "adcode": 653125,
            "province": "新疆维吾尔自治区",
            "city": "喀什地区",
            "district": "莎车县"
        }
    },
    {
        "id": "12871352252915303010",
        "title": "公共厕所",
        "address": "新疆维吾尔自治区喀什地区麦盖提县刀朗商业步行街与央塔克南路交叉口西北方向90米左右",
        "tel": "",
        "category": "基础设施:公共设施:公共厕所",
        "type": 0,
        "location": {
            "lat": 38.905073,
            "lng": 77.656144
        },
        "ad_info": {
            "adcode": 653127,
            "province": "新疆维吾尔自治区",
            "city": "喀什地区",
            "district": "麦盖提县"
        }
    },
    {
        "id": "8010620331477569314",
        "title": "公共厕所",
        "address": "新疆维吾尔自治区喀什地区喀什市帕依纳普路与雪莲路交叉口正西方向190米左右",
        "tel": "",
        "category": "基础设施:公共设施:公共厕所",
        "type": 0,
        "location": {
            "lat": 39.456437,
            "lng": 75.999774
        },
        "ad_info": {
            "adcode": 653101,
            "province": "新疆维吾尔自治区",
            "city": "喀什地区",
            "district": "喀什市"
        }
    },
    {
        "id": "15473718925805961786",
        "title": "公共厕所",
        "address": "新疆维吾尔自治区喀什地区喀什市解放南路渝都大厦南门西南侧",
        "tel": "",
        "category": "基础设施:公共设施:公共厕所",
        "type": 0,
        "location": {
            "lat": 39.464818,
            "lng": 75.989929
        },
        "ad_info": {
            "adcode": 653101,
            "province": "新疆维吾尔自治区",
            "city": "喀什地区",
            "district": "喀什市"
        }
    },
    {
        "id": "13479607343288267629",
        "title": "公共厕所",
        "address": "新疆维吾尔自治区喀什地区莎车县G217与Y264交叉口西南方向553米左右",
        "tel": "",
        "category": "基础设施:公共设施:公共厕所",
        "type": 0,
        "location": {
            "lat": 38.804647,
            "lng": 77.445631
        },
        "ad_info": {
            "adcode": 653125,
            "province": "新疆维吾尔自治区",
            "city": "喀什地区",
            "district": "莎车县"
        }
    },
    {
        "id": "6756839129966740213",
        "title": "公共厕所",
        "address": "新疆维吾尔自治区喀什地区莎车县Y248与米夏路交叉口正南方向644米左右",
        "tel": "",
        "category": "基础设施:公共设施:公共厕所",
        "type": 0,
        "location": {
            "lat": 38.432718,
            "lng": 77.24977
        },
        "ad_info": {
            "adcode": 653125,
            "province": "新疆维吾尔自治区",
            "city": "喀什地区",
            "district": "莎车县"
        }
    },
    {
        "id": "3796702489987282274",
        "title": "公共厕所",
        "address": "新疆维吾尔自治区喀什地区巴楚县S215与Y487交叉口西南方向115米左右",
        "tel": "",
        "category": "基础设施:公共设施:公共厕所",
        "type": 0,
        "location": {
            "lat": 39.302469,
            "lng": 77.82277
        },
        "ad_info": {
            "adcode": 653130,
            "province": "新疆维吾尔自治区",
            "city": "喀什地区",
            "district": "巴楚县"
        }
    },
    {
        "id": "18348912407890252149",
        "title": "公共厕所",
        "address": "新疆维吾尔自治区喀什地区英吉沙县中交大道与克孜勒路交叉口西北方向100米左右",
        "tel": "",
        "category": "基础设施:公共设施:公共厕所",
        "type": 0,
        "location": {
            "lat": 38.929652,
            "lng": 76.176343
        },
        "ad_info": {
            "adcode": 653123,
            "province": "新疆维吾尔自治区",
            "city": "喀什地区",
            "district": "英吉沙县"
        }
    },
    {
        "id": "6769402120992971465",
        "title": "公共厕所",
        "address": "新疆维吾尔自治区喀什地区泽普县团结西街法桐生态公园内(北侧)",
        "tel": "",
        "category": "基础设施:公共设施:公共厕所",
        "type": 0,
        "location": {
            "lat": 38.183753,
            "lng": 77.262106
        },
        "ad_info": {
            "adcode": 653124,
            "province": "新疆维吾尔自治区",
            "city": "喀什地区",
            "district": "泽普县"
        }
    },
    {
        "id": "3597161523991244626",
        "title": "公共厕所",
        "address": "新疆维吾尔自治区喀什地区疏附县人民南路与伊西来木其东路交叉口正南方向238米左右",
        "tel": "",
        "category": "基础设施:公共设施:公共厕所",
        "type": 0,
        "location": {
            "lat": 39.367269,
            "lng": 75.854548
        },
        "ad_info": {
            "adcode": 653121,
            "province": "新疆维吾尔自治区",
            "city": "喀什地区",
            "district": "疏附县"
        }
    },
    {
        "id": "13403941785613282718",
        "title": "公共厕所",
        "address": "新疆维吾尔自治区喀什地区麦盖提县人民南路与人民路交叉口正南方向180米左右",
        "tel": "",
        "category": "基础设施:公共设施:公共厕所",
        "type": 0,
        "location": {
            "lat": 38.895429,
            "lng": 77.655669
        },
        "ad_info": {
            "adcode": 653127,
            "province": "新疆维吾尔自治区",
            "city": "喀什地区",
            "district": "麦盖提县"
        }
    },
    {
        "id": "2664361955579512382",
        "title": "公共厕所",
        "address": "新疆维吾尔自治区喀什地区叶城县G315与昆仑大道交叉口正北方向1716米左右",
        "tel": "",
        "category": "基础设施:公共设施:公共厕所",
        "type": 0,
        "location": {
            "lat": 37.892177,
            "lng": 77.474579
        },
        "ad_info": {
            "adcode": 653126,
            "province": "新疆维吾尔自治区",
            "city": "喀什地区",
            "district": "叶城县"
        }
    },
    {
        "id": "8306404808581288194",
        "title": "公共厕所",
        "address": "新疆维吾尔自治区喀什地区麦盖提县G217与Y367交叉口西南方向706米左右",
        "tel": "",
        "category": "基础设施:公共设施:公共厕所",
        "type": 0,
        "location": {
            "lat": 38.895593,
            "lng": 77.606564
        },
        "ad_info": {
            "adcode": 653127,
            "province": "新疆维吾尔自治区",
            "city": "喀什地区",
            "district": "麦盖提县"
        }
    },
    {
        "id": "9185582672627625689",
        "title": "塔什库尔干县盘龙古道终点服务区旅游公共厕所",
        "address": "新疆维吾尔自治区喀什地区塔什库尔干塔吉克自治县盘龙古道终点服务区",
        "tel": "",
        "category": "基础设施:公共设施:公共厕所",
        "type": 0,
        "location": {
            "lat": 37.633506,
            "lng": 75.571014
        },
        "ad_info": {
            "adcode": 653131,
            "province": "新疆维吾尔自治区",
            "city": "喀什地区",
            "district": "塔什库尔干塔吉克自治县"
        }
    },
    {
        "id": "5098512548781541744",
        "title": "公共厕所",
        "address": "新疆维吾尔自治区喀什地区莎车县310省道东50米",
        "tel": "",
        "category": "基础设施:公共设施:公共厕所",
        "type": 0,
        "location": {
            "lat": 38.967876,
            "lng": 77.442771
        },
        "ad_info": {
            "adcode": 653125,
            "province": "新疆维吾尔自治区",
            "city": "喀什地区",
            "district": "莎车县"
        }
    },
    {
        "id": "15060553005852850746",
        "title": "公共厕所",
        "address": "新疆维吾尔自治区喀什地区莎车县G315与Y267交叉口东南方向55米左右",
        "tel": "",
        "category": "基础设施:公共设施:公共厕所",
        "type": 0,
        "location": {
            "lat": 38.382914,
            "lng": 77.271285
        },
        "ad_info": {
            "adcode": 653125,
            "province": "新疆维吾尔自治区",
            "city": "喀什地区",
            "district": "莎车县"
        }
    },
    {
        "id": "15847793714723581682",
        "title": "公共厕所",
        "address": "新疆维吾尔自治区喀什地区疏勒县巴合齐乡13村",
        "tel": "",
        "category": "基础设施:公共设施:公共厕所",
        "type": 0,
        "location": {
            "lat": 39.348619,
            "lng": 76.072073
        },
        "ad_info": {
            "adcode": 653122,
            "province": "新疆维吾尔自治区",
            "city": "喀什地区",
            "district": "疏勒县"
        }
    },
    {
        "id": "16647225781481413659",
        "title": "温州国际大酒店-洗手间",
        "address": "新疆维吾尔自治区喀什地区喀什市人民东路与人民西路交叉口西南方向33米左右",
        "tel": "",
        "category": "基础设施:公共设施:公共厕所",
        "type": 0,
        "location": {
            "lat": 39.467184,
            "lng": 75.989229
        },
        "ad_info": {
            "adcode": 653101,
            "province": "新疆维吾尔自治区",
            "city": "喀什地区",
            "district": "喀什市"
        }
    },
    {
        "id": "8945265163244540744",
        "title": "公共厕所",
        "address": "新疆维吾尔自治区喀什地区叶城县S234北",
        "tel": "",
        "category": "基础设施:公共设施:公共厕所",
        "type": 0,
        "location": {
            "lat": 37.973988,
            "lng": 77.464336
        },
        "ad_info": {
            "adcode": 653126,
            "province": "新疆维吾尔自治区",
            "city": "喀什地区",
            "district": "叶城县"
        }
    },
    {
        "id": "5191185603283463938",
        "title": "公共厕所",
        "address": "新疆维吾尔自治区喀什地区叶城县坡隆生态旅游景点",
        "tel": "",
        "category": "基础设施:公共设施:公共厕所",
        "type": 0,
        "location": {
            "lat": 37.089086,
            "lng": 77.1253
        },
        "ad_info": {
            "adcode": 653126,
            "province": "新疆维吾尔自治区",
            "city": "喀什地区",
            "district": "叶城县"
        }
    },
    {
        "id": "12573961907134976612",
        "title": "恰萨路古城公共厕所",
        "address": "新疆维吾尔自治区喀什地区喀什市人民东路与广场东路交叉口正北方向280米左右",
        "tel": "15109050321",
        "category": "基础设施:公共设施:公共厕所",
        "type": 0,
        "location": {
            "lat": 39.46985,
            "lng": 75.994894
        },
        "ad_info": {
            "adcode": 653101,
            "province": "新疆维吾尔自治区",
            "city": "喀什地区",
            "district": "喀什市"
        }
    },
    {
        "id": "11237603737998737911",
        "title": "公共厕所",
        "address": "新疆维吾尔自治区喀什地区巴楚县215省道南50米",
        "tel": "",
        "category": "基础设施:公共设施:公共厕所",
        "type": 0,
        "location": {
            "lat": 39.62726,
            "lng": 78.398341
        },
        "ad_info": {
            "adcode": 653130,
            "province": "新疆维吾尔自治区",
            "city": "喀什地区",
            "district": "巴楚县"
        }
    },
    {
        "id": "7591337412934255367",
        "title": "公共厕所(喀什地区疏勒县亚曼牙乡14村)",
        "address": "新疆维吾尔自治区喀什地区疏勒县Y115与Y121交叉口正东方向1925米左右",
        "tel": "",
        "category": "基础设施:公共设施:公共厕所",
        "type": 0,
        "location": {
            "lat": 39.357578,
            "lng": 76.309454
        },
        "ad_info": {
            "adcode": 653122,
            "province": "新疆维吾尔自治区",
            "city": "喀什地区",
            "district": "疏勒县"
        }
    },
    {
        "id": "14711504616507691537",
        "title": "公共厕所",
        "address": "新疆维吾尔自治区喀什地区麦盖提县234省道东50米",
        "tel": "",
        "category": "基础设施:公共设施:公共厕所",
        "type": 0,
        "location": {
            "lat": 38.651647,
            "lng": 77.627924
        },
        "ad_info": {
            "adcode": 653127,
            "province": "新疆维吾尔自治区",
            "city": "喀什地区",
            "district": "麦盖提县"
        }
    },
    {
        "id": "2880959279448654643",
        "title": "尤木拉克京其旅游公共厕所",
        "address": "新疆维吾尔自治区喀什地区喀什市吾斯塘博依路与尤木拉克协海尔路交叉口正东方向89米左右",
        "tel": "15109050321",
        "category": "基础设施:公共设施:公共厕所",
        "type": 0,
        "location": {
            "lat": 39.470898,
            "lng": 75.981896
        },
        "ad_info": {
            "adcode": 653101,
            "province": "新疆维吾尔自治区",
            "city": "喀什地区",
            "district": "喀什市"
        }
    },
    {
        "id": "6453749189504006817",
        "title": "公共厕所",
        "address": "新疆维吾尔自治区喀什地区巴楚县G314",
        "tel": "",
        "category": "基础设施:公共设施:公共厕所",
        "type": 0,
        "location": {
            "lat": 39.926399,
            "lng": 78.286814
        },
        "ad_info": {
            "adcode": 653130,
            "province": "新疆维吾尔自治区",
            "city": "喀什地区",
            "district": "巴楚县"
        }
    },
    {
        "id": "15160301307473618975",
        "title": "公共厕所",
        "address": "新疆维吾尔自治区喀什地区泽普县东大街41-2号",
        "tel": "",
        "category": "基础设施:公共设施:公共厕所",
        "type": 0,
        "location": {
            "lat": 38.190866,
            "lng": 77.268886
        },
        "ad_info": {
            "adcode": 653124,
            "province": "新疆维吾尔自治区",
            "city": "喀什地区",
            "district": "泽普县"
        }
    },
    {
        "id": "10836605378795699709",
        "title": "古城东门游客中心卫生间",
        "address": "新疆维吾尔自治区喀什地区喀什市喀什古城景区东门(恰萨路西)",
        "tel": "15109050321",
        "category": "基础设施:公共设施:公共厕所",
        "type": 0,
        "location": {
            "lat": 39.471341,
            "lng": 75.998788
        },
        "ad_info": {
            "adcode": 653101,
            "province": "新疆维吾尔自治区",
            "city": "喀什地区",
            "district": "喀什市"
        }
    },
    {
        "id": "5761439700389149273",
        "title": "公共厕所",
        "address": "新疆维吾尔自治区喀什地区疏勒县巴合齐乡13村",
        "tel": "",
        "category": "基础设施:公共设施:公共厕所",
        "type": 0,
        "location": {
            "lat": 39.350404,
            "lng": 76.048762
        },
        "ad_info": {
            "adcode": 653122,
            "province": "新疆维吾尔自治区",
            "city": "喀什地区",
            "district": "疏勒县"
        }
    },
    {
        "id": "15415796506463564777",
        "title": "公共厕所",
        "address": "新疆维吾尔自治区喀什地区莎车县古勒巴格路与团结路交叉口正南方向76米左右",
        "tel": "",
        "category": "基础设施:公共设施:公共厕所",
        "type": 0,
        "location": {
            "lat": 38.409436,
            "lng": 77.239204
        },
        "ad_info": {
            "adcode": 653125,
            "province": "新疆维吾尔自治区",
            "city": "喀什地区",
            "district": "莎车县"
        }
    },
    {
        "id": "10242454726947556820",
        "title": "公共厕所",
        "address": "新疆维吾尔自治区喀什地区莎车县其乃巴格路与新城路交叉口西南方向71米左右",
        "tel": "",
        "category": "基础设施:公共设施:公共厕所",
        "type": 0,
        "location": {
            "lat": 38.411703,
            "lng": 77.249354
        },
        "ad_info": {
            "adcode": 653125,
            "province": "新疆维吾尔自治区",
            "city": "喀什地区",
            "district": "莎车县"
        }
    },
    {
        "id": "18288618279601376686",
        "title": "公共厕所(库木西力克乡11村)",
        "address": "新疆维吾尔自治区喀什地区疏勒县188乡道",
        "tel": "",
        "category": "基础设施:公共设施:公共厕所",
        "type": 0,
        "location": {
            "lat": 39.240236,
            "lng": 76.435972
        },
        "ad_info": {
            "adcode": 653122,
            "province": "新疆维吾尔自治区",
            "city": "喀什地区",
            "district": "疏勒县"
        }
    },
    {
        "id": "4328901614081548781",
        "title": "塔什库尔干石头城遗址公共厕所",
        "address": "新疆维吾尔自治区喀什地区塔什库尔干塔吉克自治县尕勒路215号",
        "tel": "",
        "category": "基础设施:公共设施:公共厕所",
        "type": 0,
        "location": {
            "lat": 37.78048,
            "lng": 75.235974
        },
        "ad_info": {
            "adcode": 653131,
            "province": "新疆维吾尔自治区",
            "city": "喀什地区",
            "district": "塔什库尔干塔吉克自治县"
        }
    },
    {
        "id": "13221667632712542703",
        "title": "公厕",
        "address": "新疆维吾尔自治区喀什地区喀什市阿热亚路77号",
        "tel": "",
        "category": "基础设施:公共设施:公共厕所",
        "type": 0,
        "location": {
            "lat": 39.469358,
            "lng": 75.997153
        },
        "ad_info": {
            "adcode": 653101,
            "province": "新疆维吾尔自治区",
            "city": "喀什地区",
            "district": "喀什市"
        }
    },
    {
        "id": "15911537401798948240",
        "title": "喀什服务区第二公共厕所",
        "address": "新疆维吾尔自治区喀什地区喀什市阿克喀什乡麦喀高速公路北附近",
        "tel": "",
        "category": "基础设施:公共设施:公共厕所",
        "type": 0,
        "location": {
            "lat": 39.497895,
            "lng": 76.447478
        },
        "ad_info": {
            "adcode": 653101,
            "province": "新疆维吾尔自治区",
            "city": "喀什地区",
            "district": "喀什市"
        }
    },
    {
        "id": "13166728524043113336",
        "title": "公共厕所",
        "address": "新疆维吾尔自治区喀什地区英吉沙县其兰路与芒辛路交叉口正西方向72米左右",
        "tel": "",
        "category": "基础设施:公共设施:公共厕所",
        "type": 0,
        "location": {
            "lat": 38.929368,
            "lng": 76.178828
        },
        "ad_info": {
            "adcode": 653123,
            "province": "新疆维吾尔自治区",
            "city": "喀什地区",
            "district": "英吉沙县"
        }
    },
    {
        "id": "14899912381559619304",
        "title": "公共厕所",
        "address": "新疆维吾尔自治区喀什地区疏勒县北京路与幸福路交叉口正南方向117米左右",
        "tel": "",
        "category": "基础设施:公共设施:公共厕所",
        "type": 0,
        "location": {
            "lat": 39.289977,
            "lng": 76.016561
        },
        "ad_info": {
            "adcode": 653122,
            "province": "新疆维吾尔自治区",
            "city": "喀什地区",
            "district": "疏勒县"
        }
    },
    {
        "id": "7314952191253484995",
        "title": "公共厕所",
        "address": "新疆维吾尔自治区喀什地区泽普县东二路与南二路交叉口西南方向40米左右",
        "tel": "",
        "category": "基础设施:公共设施:公共厕所",
        "type": 0,
        "location": {
            "lat": 38.072983,
            "lng": 77.15869
        },
        "ad_info": {
            "adcode": 653124,
            "province": "新疆维吾尔自治区",
            "city": "喀什地区",
            "district": "泽普县"
        }
    },
    {
        "id": "9380722039935518521",
        "title": "樱桃园卫生间WC(厕所)",
        "address": "新疆维吾尔自治区喀什地区莎车县Y246与环城路交叉口西南方向631米左右",
        "tel": "13579344288",
        "category": "基础设施:公共设施:公共厕所",
        "type": 0,
        "location": {
            "lat": 38.446845,
            "lng": 77.278574
        },
        "ad_info": {
            "adcode": 653125,
            "province": "新疆维吾尔自治区",
            "city": "喀什地区",
            "district": "莎车县"
        }
    },
    {
        "id": "16566462866510839335",
        "title": "公共厕所",
        "address": "新疆维吾尔自治区喀什地区英吉沙县克孜勒路与艾提尕路交叉口西南方向91米左右",
        "tel": "",
        "category": "基础设施:公共设施:公共厕所",
        "type": 0,
        "location": {
            "lat": 38.926545,
            "lng": 76.176849
        },
        "ad_info": {
            "adcode": 653123,
            "province": "新疆维吾尔自治区",
            "city": "喀什地区",
            "district": "英吉沙县"
        }
    },
    {
        "id": "1660366026788816004",
        "title": "公共厕所",
        "address": "新疆维吾尔自治区喀什地区莎车县艾斯提皮尔路与人民路交叉口南120米",
        "tel": "",
        "category": "基础设施:公共设施:公共厕所",
        "type": 0,
        "location": {
            "lat": 38.418669,
            "lng": 77.249265
        },
        "ad_info": {
            "adcode": 653125,
            "province": "新疆维吾尔自治区",
            "city": "喀什地区",
            "district": "莎车县"
        }
    },
    {
        "id": "10916654182464415139",
        "title": "公共厕所",
        "address": "新疆维吾尔自治区喀什地区疏勒县金湖农庄东北侧190米",
        "tel": "",
        "category": "基础设施:公共设施:公共厕所",
        "type": 0,
        "location": {
            "lat": 39.335902,
            "lng": 76.032217
        },
        "ad_info": {
            "adcode": 653122,
            "province": "新疆维吾尔自治区",
            "city": "喀什地区",
            "district": "疏勒县"
        }
    },
    {
        "id": "239583152170631962",
        "title": "喀什城东服务区公共厕所",
        "address": "新疆维吾尔自治区喀什地区喀什市便利店西北侧",
        "tel": "",
        "category": "基础设施:公共设施:公共厕所",
        "type": 0,
        "location": {
            "lat": 39.530082,
            "lng": 76.159833
        },
        "ad_info": {
            "adcode": 653101,
            "province": "新疆维吾尔自治区",
            "city": "喀什地区",
            "district": "喀什市"
        }
    },
    {
        "id": "7817907845533316015",
        "title": "公共厕所",
        "address": "新疆维吾尔自治区喀什地区疏勒县S311与夏合曼桥交叉口西南方向360米左右",
        "tel": "",
        "category": "基础设施:公共设施:公共厕所",
        "type": 0,
        "location": {
            "lat": 39.444985,
            "lng": 76.476599
        },
        "ad_info": {
            "adcode": 653122,
            "province": "新疆维吾尔自治区",
            "city": "喀什地区",
            "district": "疏勒县"
        }
    },
    {
        "id": "7026066219790639680",
        "title": "公共厕所",
        "address": "新疆维吾尔自治区喀什地区岳普湖县兴岳中路与兴岳西路交叉口东南方向251米左右",
        "tel": "",
        "category": "基础设施:公共设施:公共厕所",
        "type": 0,
        "location": {
            "lat": 39.229833,
            "lng": 76.771963
        },
        "ad_info": {
            "adcode": 653128,
            "province": "新疆维吾尔自治区",
            "city": "喀什地区",
            "district": "岳普湖县"
        }
    },
    {
        "id": "2173141519576983304",
        "title": "公共厕所",
        "address": "新疆维吾尔自治区喀什地区岳普湖县利民南路与达瓦昆路交叉口东南方向370米左右",
        "tel": "",
        "category": "基础设施:公共设施:公共厕所",
        "type": 0,
        "location": {
            "lat": 39.219011,
            "lng": 76.793472
        },
        "ad_info": {
            "adcode": 653128,
            "province": "新疆维吾尔自治区",
            "city": "喀什地区",
            "district": "岳普湖县"
        }
    },
    {
        "id": "14932297414587101527",
        "title": "公共厕所",
        "address": "新疆维吾尔自治区喀什地区英吉沙县G219与克孜勒路交叉口正北方向899米左右",
        "tel": "",
        "category": "基础设施:公共设施:公共厕所",
        "type": 0,
        "location": {
            "lat": 38.911834,
            "lng": 76.181708
        },
        "ad_info": {
            "adcode": 653123,
            "province": "新疆维吾尔自治区",
            "city": "喀什地区",
            "district": "英吉沙县"
        }
    },
    {
        "id": "14175396533477167429",
        "title": "巴楚服务区-公共厕所",
        "address": "新疆维吾尔自治区喀什地区巴楚县中国石油巴楚服务区加油站东南侧210米",
        "tel": "",
        "category": "基础设施:公共设施:公共厕所",
        "type": 0,
        "location": {
            "lat": 39.555134,
            "lng": 78.13576
        },
        "ad_info": {
            "adcode": 653130,
            "province": "新疆维吾尔自治区",
            "city": "喀什地区",
            "district": "巴楚县"
        }
    },
    {
        "id": "8329096458655456779",
        "title": "公共厕所",
        "address": "新疆维吾尔自治区喀什地区岳普湖县利民南路与达瓦昆路交叉口东南方向160米左右",
        "tel": "",
        "category": "基础设施:公共设施:公共厕所",
        "type": 0,
        "location": {
            "lat": 39.220227,
            "lng": 76.791561
        },
        "ad_info": {
            "adcode": 653128,
            "province": "新疆维吾尔自治区",
            "city": "喀什地区",
            "district": "岳普湖县"
        }
    },
    {
        "id": "1380574285271424490",
        "title": "三岔口服务区公共厕所",
        "address": "新疆维吾尔自治区喀什地区巴楚县G314与S215交叉口正东方向1142米左右",
        "tel": "",
        "category": "基础设施:公共设施:公共厕所",
        "type": 0,
        "location": {
            "lat": 39.950414,
            "lng": 78.454274
        },
        "ad_info": {
            "adcode": 653130,
            "province": "新疆维吾尔自治区",
            "city": "喀什地区",
            "district": "巴楚县"
        }
    },
    {
        "id": "1290531275364216935",
        "title": "克孜勒服务区公共卫生间",
        "address": "新疆维吾尔自治区喀什地区英吉沙县G219与X478交叉口西南方向1658米左右",
        "tel": "",
        "category": "基础设施:公共设施:公共厕所",
        "type": 0,
        "location": {
            "lat": 38.661577,
            "lng": 76.421474
        },
        "ad_info": {
            "adcode": 653123,
            "province": "新疆维吾尔自治区",
            "city": "喀什地区",
            "district": "英吉沙县"
        }
    },
    {
        "id": "2461982208844265987",
        "title": "莎车服务区第一公共厕所",
        "address": "新疆维吾尔自治区喀什地区莎车县莎车服务区西北侧",
        "tel": "",
        "category": "基础设施:公共设施:公共厕所",
        "type": 0,
        "location": {
            "lat": 38.739414,
            "lng": 77.329751
        },
        "ad_info": {
            "adcode": 653125,
            "province": "新疆维吾尔自治区",
            "city": "喀什地区",
            "district": "莎车县"
        }
    },
    {
        "id": "10235021312096512682",
        "title": "英吾斯塘服务区第二公共厕所",
        "address": "新疆维吾尔自治区喀什地区巴楚县与S13三莎高速交叉口北300米",
        "tel": "",
        "category": "基础设施:公共设施:公共厕所",
        "type": 0,
        "location": {
            "lat": 39.215894,
            "lng": 77.599363
        },
        "ad_info": {
            "adcode": 653130,
            "province": "新疆维吾尔自治区",
            "city": "喀什地区",
            "district": "巴楚县"
        }
    },
    {
        "id": "763177553395885712",
        "title": "叶城服务区公共厕所",
        "address": "新疆维吾尔自治区喀什地区叶城县叶城服务区东北30米",
        "tel": "",
        "category": "基础设施:公共设施:公共厕所",
        "type": 0,
        "location": {
            "lat": 37.807514,
            "lng": 77.641692
        },
        "ad_info": {
            "adcode": 653126,
            "province": "新疆维吾尔自治区",
            "city": "喀什地区",
            "district": "叶城县"
        }
    },
    {
        "id": "12063291437561151515",
        "title": "公共厕所",
        "address": "新疆维吾尔自治区喀什地区疏勒县巴合齐路与疏勒大道交叉口东南方向70米左右",
        "tel": "",
        "category": "基础设施:公共设施:公共厕所",
        "type": 0,
        "location": {
            "lat": 39.398298,
            "lng": 76.049192
        },
        "ad_info": {
            "adcode": 653122,
            "province": "新疆维吾尔自治区",
            "city": "喀什地区",
            "district": "疏勒县"
        }
    },
    {
        "id": "2378729661535641215",
        "title": "莎车服务区第二公共厕所",
        "address": "新疆维吾尔自治区喀什地区莎车县Y255与艾力西湖立交交叉口东北方向1767米左右",
        "tel": "",
        "category": "基础设施:公共设施:公共厕所",
        "type": 0,
        "location": {
            "lat": 38.73678,
            "lng": 77.327886
        },
        "ad_info": {
            "adcode": 653125,
            "province": "新疆维吾尔自治区",
            "city": "喀什地区",
            "district": "莎车县"
        }
    },
    {
        "id": "9432193790377842854",
        "title": "克孜勒服务区公共厕所",
        "address": "新疆维吾尔自治区喀什地区英吉沙县G219与X478交叉口西南方向1875米左右",
        "tel": "",
        "category": "基础设施:公共设施:公共厕所",
        "type": 0,
        "location": {
            "lat": 38.661677,
            "lng": 76.418591
        },
        "ad_info": {
            "adcode": 653123,
            "province": "新疆维吾尔自治区",
            "city": "喀什地区",
            "district": "英吉沙县"
        }
    },
    {
        "id": "18156213582746320242",
        "title": "叶城服务区公共厕所",
        "address": "新疆维吾尔自治区喀什地区叶城县叶城服务区加油站东侧180米",
        "tel": "",
        "category": "基础设施:公共设施:公共厕所",
        "type": 0,
        "location": {
            "lat": 37.809741,
            "lng": 77.644873
        },
        "ad_info": {
            "adcode": 653126,
            "province": "新疆维吾尔自治区",
            "city": "喀什地区",
            "district": "叶城县"
        }
    },
    {
        "id": "17412638534542105031",
        "title": "克孜勒服务区公共厕所",
        "address": "新疆维吾尔自治区喀什地区英吉沙县G219与X478交叉口西南方向1913米左右",
        "tel": "",
        "category": "基础设施:公共设施:公共厕所",
        "type": 0,
        "location": {
            "lat": 38.661444,
            "lng": 76.418248
        },
        "ad_info": {
            "adcode": 653123,
            "province": "新疆维吾尔自治区",
            "city": "喀什地区",
            "district": "英吉沙县"
        }
    },
    {
        "id": "9086532565886598460",
        "title": "泽普服务区第一公共厕所",
        "address": "新疆维吾尔自治区喀什地区泽普县G3012吐和高速与泽普服务区交叉口北400米",
        "tel": "",
        "category": "基础设施:公共设施:公共厕所",
        "type": 0,
        "location": {
            "lat": 38.135458,
            "lng": 77.308978
        },
        "ad_info": {
            "adcode": 653124,
            "province": "新疆维吾尔自治区",
            "city": "喀什地区",
            "district": "泽普县"
        }
    },
    {
        "id": "11478073137441604004",
        "title": "岳普湖服务区公共厕所",
        "address": "新疆维吾尔自治区喀什地区岳普湖县麦喀高速西50米",
        "tel": "",
        "category": "基础设施:公共设施:公共厕所",
        "type": 0,
        "location": {
            "lat": 39.186381,
            "lng": 76.951011
        },
        "ad_info": {
            "adcode": 653128,
            "province": "新疆维吾尔自治区",
            "city": "喀什地区",
            "district": "岳普湖县"
        }
    },
    {
        "id": "6731317379785590734",
        "title": "岳普湖服务区公共厕所",
        "address": "新疆维吾尔自治区喀什地区岳普湖县S16麦喀高速附近",
        "tel": "",
        "category": "基础设施:公共设施:公共厕所",
        "type": 0,
        "location": {
            "lat": 39.187842,
            "lng": 76.951227
        },
        "ad_info": {
            "adcode": 653128,
            "province": "新疆维吾尔自治区",
            "city": "喀什地区",
            "district": "岳普湖县"
        }
    },
    {
        "id": "4989154232580203825",
        "title": "公共厕所",
        "address": "新疆维吾尔自治区喀什地区喀什市人民东路与吐曼路交叉口正南方向213米左右",
        "tel": "",
        "category": "基础设施:公共设施:公共厕所",
        "type": 0,
        "location": {
            "lat": 39.465874,
            "lng": 76.000202
        },
        "ad_info": {
            "adcode": 653101,
            "province": "新疆维吾尔自治区",
            "city": "喀什地区",
            "district": "喀什市"
        }
    },
    {
        "id": "5868433681687062532",
        "title": "公共厕所",
        "address": "新疆维吾尔自治区喀什地区泽普县旅途驿站特色地锅炖南侧",
        "tel": "",
        "category": "基础设施:公共设施:公共厕所",
        "type": 0,
        "location": {
            "lat": 38.156214,
            "lng": 77.163216
        },
        "ad_info": {
            "adcode": 653124,
            "province": "新疆维吾尔自治区",
            "city": "喀什地区",
            "district": "泽普县"
        }
    },
    {
        "id": "1929901787610423055",
        "title": "公共厕所",
        "address": "新疆维吾尔自治区喀什地区巴楚县881乡道附近",
        "tel": "",
        "category": "基础设施:公共设施:公共厕所",
        "type": 0,
        "location": {
            "lat": 39.77305,
            "lng": 78.32418
        },
        "ad_info": {
            "adcode": 653130,
            "province": "新疆维吾尔自治区",
            "city": "喀什地区",
            "district": "巴楚县"
        }
    },
    {
        "id": "733223957793559488",
        "title": "公共厕所(XJ-KS-0199)",
        "address": "新疆维吾尔自治区喀什地区疏勒县巴合齐乡13村",
        "tel": "",
        "category": "基础设施:公共设施:公共厕所",
        "type": 0,
        "location": {
            "lat": 39.347528,
            "lng": 76.052352
        },
        "ad_info": {
            "adcode": 653122,
            "province": "新疆维吾尔自治区",
            "city": "喀什地区",
            "district": "疏勒县"
        }
    },
    {
        "id": "12201949719504319777",
        "title": "公共厕所",
        "address": "新疆维吾尔自治区喀什地区莎车县其乃巴格路与新城路交叉口正南方向218米左右",
        "tel": "",
        "category": "基础设施:公共设施:公共厕所",
        "type": 0,
        "location": {
            "lat": 38.410412,
            "lng": 77.250442
        },
        "ad_info": {
            "adcode": 653125,
            "province": "新疆维吾尔自治区",
            "city": "喀什地区",
            "district": "莎车县"
        }
    },
    {
        "id": "3031827933066734465",
        "title": "公共厕所",
        "address": "新疆维吾尔自治区喀什地区泽普县东一路与南二路交叉口东北方向22米左右",
        "tel": "",
        "category": "基础设施:公共设施:公共厕所",
        "type": 0,
        "location": {
            "lat": 38.0733,
            "lng": 77.153483
        },
        "ad_info": {
            "adcode": 653124,
            "province": "新疆维吾尔自治区",
            "city": "喀什地区",
            "district": "泽普县"
        }
    },
    {
        "id": "13488441960518810145",
        "title": "公共厕所",
        "address": "新疆维吾尔自治区喀什地区疏勒县幸福路与梧桐街交叉口正东方向45米左右",
        "tel": "",
        "category": "基础设施:公共设施:公共厕所",
        "type": 0,
        "location": {
            "lat": 39.286584,
            "lng": 76.016591
        },
        "ad_info": {
            "adcode": 653122,
            "province": "新疆维吾尔自治区",
            "city": "喀什地区",
            "district": "疏勒县"
        }
    },
    {
        "id": "5158888565908185189",
        "title": "公共厕所(巴合齐乡1村山东水发现代蔬菜产业园)",
        "address": "新疆维吾尔自治区喀什地区疏勒县幸福路与高新路交叉口正南方向1811米左右",
        "tel": "",
        "category": "基础设施:公共设施:公共厕所",
        "type": 0,
        "location": {
            "lat": 39.354163,
            "lng": 76.025854
        },
        "ad_info": {
            "adcode": 653122,
            "province": "新疆维吾尔自治区",
            "city": "喀什地区",
            "district": "疏勒县"
        }
    },
    {
        "id": "8668290305453528990",
        "title": "白杨镇11村公共厕所",
        "address": "新疆维吾尔自治区喀什地区叶城县Y335",
        "tel": "",
        "category": "基础设施:公共设施:公共厕所",
        "type": 0,
        "location": {
            "lat": 38.024746,
            "lng": 77.472752
        },
        "ad_info": {
            "adcode": 653126,
            "province": "新疆维吾尔自治区",
            "city": "喀什地区",
            "district": "叶城县"
        }
    },
    {
        "id": "9296096878520036614",
        "title": "英吾斯塘服务区公共厕所",
        "address": "新疆维吾尔自治区喀什地区巴楚县与S13三莎高速交叉口东北480米",
        "tel": "",
        "category": "基础设施:公共设施:公共厕所",
        "type": 0,
        "location": {
            "lat": 39.215844,
            "lng": 77.60292
        },
        "ad_info": {
            "adcode": 653130,
            "province": "新疆维吾尔自治区",
            "city": "喀什地区",
            "district": "巴楚县"
        }
    },
    {
        "id": "5664947584174907549",
        "title": "公厕",
        "address": "新疆维吾尔自治区喀什地区喀什市阿热亚路3号",
        "tel": "15109050321",
        "category": "基础设施:公共设施:公共厕所",
        "type": 0,
        "location": {
            "lat": 39.469306,
            "lng": 75.995004
        },
        "ad_info": {
            "adcode": 653101,
            "province": "新疆维吾尔自治区",
            "city": "喀什地区",
            "district": "喀什市"
        }
    },
    {
        "id": "16893794420077199489",
        "title": "喀什古城公共厕所",
        "address": "新疆维吾尔自治区喀什地区喀什市中西亚市场路与吐曼路交叉口正西方向52米左右",
        "tel": "15109050321",
        "category": "基础设施:公共设施:公共厕所",
        "type": 0,
        "location": {
            "lat": 39.471725,
            "lng": 75.999332
        },
        "ad_info": {
            "adcode": 653101,
            "province": "新疆维吾尔自治区",
            "city": "喀什地区",
            "district": "喀什市"
        }
    },
    {
        "id": "13142270893498076702",
        "title": "公共厕所",
        "address": "新疆维吾尔自治区喀什地区岳普湖县文化中路12号院",
        "tel": "",
        "category": "基础设施:公共设施:公共厕所",
        "type": 0,
        "location": {
            "lat": 39.232274,
            "lng": 76.775741
        },
        "ad_info": {
            "adcode": 653128,
            "province": "新疆维吾尔自治区",
            "city": "喀什地区",
            "district": "岳普湖县"
        }
    },
    {
        "id": "17469217278278654412",
        "title": "公共厕所",
        "address": "新疆维吾尔自治区喀什地区莎车县G315与X509交叉口正南方向43米左右",
        "tel": "",
        "category": "基础设施:公共设施:公共厕所",
        "type": 0,
        "location": {
            "lat": 38.395676,
            "lng": 77.265908
        },
        "ad_info": {
            "adcode": 653125,
            "province": "新疆维吾尔自治区",
            "city": "喀什地区",
            "district": "莎车县"
        }
    },
    {
        "id": "15025976036951429760",
        "title": "吾斯塘博依路第四派对面卫生间",
        "address": "新疆维吾尔自治区喀什地区喀什市监察委员会派出吾斯塘博依街道监察办公室",
        "tel": "15109050321",
        "category": "基础设施:公共设施:公共厕所",
        "type": 0,
        "location": {
            "lat": 39.470649,
            "lng": 75.984168
        },
        "ad_info": {
            "adcode": 653101,
            "province": "新疆维吾尔自治区",
            "city": "喀什地区",
            "district": "喀什市"
        }
    },
    {
        "id": "4326143172775828729",
        "title": "白杨镇11村公共厕所",
        "address": "新疆维吾尔自治区喀什地区叶城县托格拉克村2组001号",
        "tel": "",
        "category": "基础设施:公共设施:公共厕所",
        "type": 0,
        "location": {
            "lat": 38.024189,
            "lng": 77.47303
        },
        "ad_info": {
            "adcode": 653126,
            "province": "新疆维吾尔自治区",
            "city": "喀什地区",
            "district": "叶城县"
        }
    },
    {
        "id": "13980704491186308755",
        "title": "泽普服务区第二公共厕所",
        "address": "新疆维吾尔自治区喀什地区泽普县G3012吐和高速与泽普服务区交叉口东北300米",
        "tel": "",
        "category": "基础设施:公共设施:公共厕所",
        "type": 0,
        "location": {
            "lat": 38.1346,
            "lng": 77.311295
        },
        "ad_info": {
            "adcode": 653124,
            "province": "新疆维吾尔自治区",
            "city": "喀什地区",
            "district": "泽普县"
        }
    },
    {
        "id": "3413832545528899159",
        "title": "公共厕所",
        "address": "新疆维吾尔自治区喀什地区喀什市人民西路与香榭大街交叉口东南方向73米左右",
        "tel": "",
        "category": "基础设施:公共设施:公共厕所",
        "type": 0,
        "location": {
            "lat": 39.46665,
            "lng": 75.983617
        },
        "ad_info": {
            "adcode": 653101,
            "province": "新疆维吾尔自治区",
            "city": "喀什地区",
            "district": "喀什市"
        }
    },
    {
        "id": "17519941591306634657",
        "title": "三岔口服务区公共厕所",
        "address": "新疆维吾尔自治区喀什地区巴楚县G3012吐和高速与三岔口服务区交叉口西400米",
        "tel": "",
        "category": "基础设施:公共设施:公共厕所",
        "type": 0,
        "location": {
            "lat": 39.952604,
            "lng": 78.454409
        },
        "ad_info": {
            "adcode": 653130,
            "province": "新疆维吾尔自治区",
            "city": "喀什地区",
            "district": "巴楚县"
        }
    },
    {
        "id": "18098441968442806964",
        "title": "公共厕所",
        "address": "新疆维吾尔自治区喀什地区伽师县X584与Y465交叉口东北方向78米左右",
        "tel": "",
        "category": "基础设施:公共设施:公共厕所",
        "type": 0,
        "location": {
            "lat": 39.609791,
            "lng": 76.794018
        },
        "ad_info": {
            "adcode": 653129,
            "province": "新疆维吾尔自治区",
            "city": "喀什地区",
            "district": "伽师县"
        }
    },
    {
        "id": "10596616053785706615",
        "title": "喀什城东服务区公共厕所",
        "address": "新疆维吾尔自治区喀什地区喀什市G3012吐和高速与喀什城东服务区交叉口北480米",
        "tel": "",
        "category": "基础设施:公共设施:公共厕所",
        "type": 0,
        "location": {
            "lat": 39.530819,
            "lng": 76.163017
        },
        "ad_info": {
            "adcode": 653101,
            "province": "新疆维吾尔自治区",
            "city": "喀什地区",
            "district": "喀什市"
        }
    },
    {
        "id": "1999773718165990566",
        "title": "第八幼儿园(阔纳克巴扎路)古城公共厕所",
        "address": "新疆维吾尔自治区喀什地区喀什市第八幼儿园东北",
        "tel": "",
        "category": "基础设施:公共设施:公共厕所",
        "type": 0,
        "location": {
            "lat": 39.468787,
            "lng": 75.992487
        },
        "ad_info": {
            "adcode": 653101,
            "province": "新疆维吾尔自治区",
            "city": "喀什地区",
            "district": "喀什市"
        }
    },
    {
        "id": "3859725802669445539",
        "title": "公共厕所(疏附县乌帕尔镇)",
        "address": "新疆维吾尔自治区喀什地区疏附县G314与Y041交叉口西南方向345米左右",
        "tel": "",
        "category": "基础设施:公共设施:公共厕所",
        "type": 0,
        "location": {
            "lat": 39.302915,
            "lng": 75.541048
        },
        "ad_info": {
            "adcode": 653121,
            "province": "新疆维吾尔自治区",
            "city": "喀什地区",
            "district": "疏附县"
        }
    },
    {
        "id": "1619981612020856270",
        "title": "公共厕所",
        "address": "新疆维吾尔自治区喀什地区喀什市第八中学西北侧240米",
        "tel": "",
        "category": "基础设施:公共设施:公共厕所",
        "type": 0,
        "location": {
            "lat": 39.484915,
            "lng": 75.973335
        },
        "ad_info": {
            "adcode": 653101,
            "province": "新疆维吾尔自治区",
            "city": "喀什地区",
            "district": "喀什市"
        }
    },
    {
        "id": "15423860775472673244",
        "title": "公共厕所",
        "address": "新疆维吾尔自治区喀什地区泽普县幸福北路中央公园",
        "tel": "",
        "category": "基础设施:公共设施:公共厕所",
        "type": 0,
        "location": {
            "lat": 38.189261,
            "lng": 77.270864
        },
        "ad_info": {
            "adcode": 653124,
            "province": "新疆维吾尔自治区",
            "city": "喀什地区",
            "district": "泽普县"
        }
    },
    {
        "id": "18285878419706049416",
        "title": "公共厕所",
        "address": "新疆维吾尔自治区喀什地区岳普湖县正宗牛肉面店西侧160米",
        "tel": "",
        "category": "基础设施:公共设施:公共厕所",
        "type": 0,
        "location": {
            "lat": 39.266291,
            "lng": 76.587669
        },
        "ad_info": {
            "adcode": 653128,
            "province": "新疆维吾尔自治区",
            "city": "喀什地区",
            "district": "岳普湖县"
        }
    },
    {
        "id": "13281029704956646359",
        "title": "公共厕所",
        "address": "新疆维吾尔自治区喀什地区麦盖提县234省道与384乡道交叉口北280米",
        "tel": "",
        "category": "基础设施:公共设施:公共厕所",
        "type": 0,
        "location": {
            "lat": 38.795174,
            "lng": 77.606265
        },
        "ad_info": {
            "adcode": 653127,
            "province": "新疆维吾尔自治区",
            "city": "喀什地区",
            "district": "麦盖提县"
        }
    },
    {
        "id": "12378185810159298121",
        "title": "公共厕所",
        "address": "新疆维吾尔自治区喀什地区伽师县",
        "tel": "",
        "category": "基础设施:公共设施:公共厕所",
        "type": 0,
        "location": {
            "lat": 39.681554,
            "lng": 77.694881
        },
        "ad_info": {
            "adcode": 653129,
            "province": "新疆维吾尔自治区",
            "city": "喀什地区",
            "district": "伽师县"
        }
    },
    {
        "id": "1358171755034330169",
        "title": "公共厕所",
        "address": "新疆维吾尔自治区喀什地区喀什市塔里木路与帕依纳普路交叉口正北方向234米左右",
        "tel": "",
        "category": "基础设施:公共设施:公共厕所",
        "type": 0,
        "location": {
            "lat": 39.465098,
            "lng": 76.001248
        },
        "ad_info": {
            "adcode": 653101,
            "province": "新疆维吾尔自治区",
            "city": "喀什地区",
            "district": "喀什市"
        }
    },
    {
        "id": "578872180781570142",
        "title": "公共厕所",
        "address": "新疆维吾尔自治区喀什地区莎车县前进路与明德北路交叉口正南方向212米左右",
        "tel": "",
        "category": "基础设施:公共设施:公共厕所",
        "type": 0,
        "location": {
            "lat": 38.399658,
            "lng": 77.235324
        },
        "ad_info": {
            "adcode": 653125,
            "province": "新疆维吾尔自治区",
            "city": "喀什地区",
            "district": "莎车县"
        }
    },
    {
        "id": "11261003671805046706",
        "title": "公共厕所",
        "address": "新疆维吾尔自治区喀什地区莎车县叶尔羌机场航站楼",
        "tel": "",
        "category": "基础设施:公共设施:公共厕所",
        "type": 0,
        "location": {
            "lat": 38.246463,
            "lng": 77.063989
        },
        "ad_info": {
            "adcode": 653125,
            "province": "新疆维吾尔自治区",
            "city": "喀什地区",
            "district": "莎车县"
        }
    },
    {
        "id": "1734584843926649505",
        "title": "公厕",
        "address": "新疆维吾尔自治区喀什地区喀什市巴格其阔恰巷",
        "tel": "",
        "category": "基础设施:公共设施:公共厕所",
        "type": 0,
        "location": {
            "lat": 39.471398,
            "lng": 75.984306
        },
        "ad_info": {
            "adcode": 653101,
            "province": "新疆维吾尔自治区",
            "city": "喀什地区",
            "district": "喀什市"
        }
    },
    {
        "id": "17567346247081493241",
        "title": "公共厕所(XJ-KS-0040)",
        "address": "新疆维吾尔自治区喀什地区喀什市欧尔达希克路91号",
        "tel": "",
        "category": "基础设施:公共设施:公共厕所",
        "type": 0,
        "location": {
            "lat": 39.473835,
            "lng": 75.991464
        },
        "ad_info": {
            "adcode": 653101,
            "province": "新疆维吾尔自治区",
            "city": "喀什地区",
            "district": "喀什市"
        }
    },
    {
        "id": "10435503377107992668",
        "title": "公共厕所(湿地公园景区环线)",
        "address": "新疆维吾尔自治区喀什地区莎车县工业路28号",
        "tel": "",
        "category": "基础设施:公共设施:公共厕所",
        "type": 0,
        "location": {
            "lat": 38.397953,
            "lng": 77.226034
        },
        "ad_info": {
            "adcode": 653125,
            "province": "新疆维吾尔自治区",
            "city": "喀什地区",
            "district": "莎车县"
        }
    },
    {
        "id": "14814802689028967905",
        "title": "公共厕所",
        "address": "新疆维吾尔自治区喀什地区疏勒县吐和高速与阿克陶互通交叉口正东方向515米左右",
        "tel": "",
        "category": "基础设施:公共设施:公共厕所",
        "type": 0,
        "location": {
            "lat": 39.209328,
            "lng": 76.166814
        },
        "ad_info": {
            "adcode": 653122,
            "province": "新疆维吾尔自治区",
            "city": "喀什地区",
            "district": "疏勒县"
        }
    },
    {
        "id": "15269585258912276358",
        "title": "公共厕所",
        "address": "新疆维吾尔自治区喀什地区麦盖提县G217与Y367交叉口西南方向1131米左右",
        "tel": "",
        "category": "基础设施:公共设施:公共厕所",
        "type": 0,
        "location": {
            "lat": 38.894383,
            "lng": 77.60188
        },
        "ad_info": {
            "adcode": 653127,
            "province": "新疆维吾尔自治区",
            "city": "喀什地区",
            "district": "麦盖提县"
        }
    },
    {
        "id": "16107851943223022902",
        "title": "公共厕所",
        "address": "新疆维吾尔自治区喀什地区喀什市世纪大道北路与民生路交叉口正南方向300米左右",
        "tel": "",
        "category": "基础设施:公共设施:公共厕所",
        "type": 0,
        "location": {
            "lat": 39.47307,
            "lng": 76.035283
        },
        "ad_info": {
            "adcode": 653101,
            "province": "新疆维吾尔自治区",
            "city": "喀什地区",
            "district": "喀什市"
        }
    },
    {
        "id": "685446254494190245",
        "title": "公共厕所",
        "address": "新疆维吾尔自治区喀什地区喀什市花园路一巷与花园路交叉口西南方向67米左右",
        "tel": "",
        "category": "基础设施:公共设施:公共厕所",
        "type": 0,
        "location": {
            "lat": 39.469403,
            "lng": 75.976104
        },
        "ad_info": {
            "adcode": 653101,
            "province": "新疆维吾尔自治区",
            "city": "喀什地区",
            "district": "喀什市"
        }
    },
    {
        "id": "9455219894696623943",
        "title": "公共厕所",
        "address": "新疆维吾尔自治区喀什地区叶城县纬一路与雪浴大道交叉口正南方向104米左右",
        "tel": "",
        "category": "基础设施:公共设施:公共厕所",
        "type": 0,
        "location": {
            "lat": 37.854646,
            "lng": 77.46381
        },
        "ad_info": {
            "adcode": 653126,
            "province": "新疆维吾尔自治区",
            "city": "喀什地区",
            "district": "叶城县"
        }
    },
    {
        "id": "11483964067333664343",
        "title": "公共厕所",
        "address": "新疆维吾尔自治区喀什地区塔什库尔干塔吉克自治县中巴友谊路与慕士塔格路交叉口正东方向312米左右",
        "tel": "",
        "category": "基础设施:公共设施:公共厕所",
        "type": 0,
        "location": {
            "lat": 37.774675,
            "lng": 75.227714
        },
        "ad_info": {
            "adcode": 653131,
            "province": "新疆维吾尔自治区",
            "city": "喀什地区",
            "district": "塔什库尔干塔吉克自治县"
        }
    },
    {
        "id": "2673370592442279589",
        "title": "公共厕所",
        "address": "新疆维吾尔自治区喀什地区叶城县团结中路与团结西路交叉口正东方向173米左右",
        "tel": "",
        "category": "基础设施:公共设施:公共厕所",
        "type": 0,
        "location": {
            "lat": 37.886232,
            "lng": 77.41762
        },
        "ad_info": {
            "adcode": 653126,
            "province": "新疆维吾尔自治区",
            "city": "喀什地区",
            "district": "叶城县"
        }
    },
    {
        "id": "4852725731879092623",
        "title": "喀什服务区第一公共厕所",
        "address": "新疆维吾尔自治区喀什地区喀什市S16麦喀高速附近",
        "tel": "",
        "category": "基础设施:公共设施:公共厕所",
        "type": 0,
        "location": {
            "lat": 39.498092,
            "lng": 76.449441
        },
        "ad_info": {
            "adcode": 653101,
            "province": "新疆维吾尔自治区",
            "city": "喀什地区",
            "district": "喀什市"
        }
    },
    {
        "id": "9827472581935451398",
        "title": "公共厕所",
        "address": "新疆维吾尔自治区喀什地区莎车县欧尔达阿勒的路与英麦拉路交叉口正东方向90米左右",
        "tel": "",
        "category": "基础设施:公共设施:公共厕所",
        "type": 0,
        "location": {
            "lat": 38.411743,
            "lng": 77.261616
        },
        "ad_info": {
            "adcode": 653125,
            "province": "新疆维吾尔自治区",
            "city": "喀什地区",
            "district": "莎车县"
        }
    },
    {
        "id": "5122385511178549821",
        "title": "公共厕所",
        "address": "新疆维吾尔自治区喀什地区叶城县夏合甫北路与核桃大道交叉口西北方向187米左右",
        "tel": "",
        "category": "基础设施:公共设施:公共厕所",
        "type": 0,
        "location": {
            "lat": 37.902226,
            "lng": 77.403683
        },
        "ad_info": {
            "adcode": 653126,
            "province": "新疆维吾尔自治区",
            "city": "喀什地区",
            "district": "叶城县"
        }
    },
    {
        "id": "1521616156119258259",
        "title": "喀什古城公共厕所",
        "address": "新疆维吾尔自治区喀什地区喀什市库木代尔瓦扎路与阿尔克欧尔达路交叉口东南方向71米左右",
        "tel": "",
        "category": "基础设施:公共设施:公共厕所",
        "type": 0,
        "location": {
            "lat": 39.468062,
            "lng": 75.987268
        },
        "ad_info": {
            "adcode": 653101,
            "province": "新疆维吾尔自治区",
            "city": "喀什地区",
            "district": "喀什市"
        }
    },
    {
        "id": "16402200131105463870",
        "title": "公共厕所",
        "address": "新疆维吾尔自治区喀什地区疏附县团结北路与站敏东路交叉口西北方向74米左右",
        "tel": "",
        "category": "基础设施:公共设施:公共厕所",
        "type": 0,
        "location": {
            "lat": 39.377518,
            "lng": 75.866206
        },
        "ad_info": {
            "adcode": 653121,
            "province": "新疆维吾尔自治区",
            "city": "喀什地区",
            "district": "疏附县"
        }
    },
    {
        "id": "14895651871866761857",
        "title": "公共厕所",
        "address": "新疆维吾尔自治区喀什地区喀什市学院路与滨河北路交叉口西北方向139米左右",
        "tel": "",
        "category": "基础设施:公共设施:公共厕所",
        "type": 0,
        "location": {
            "lat": 39.474808,
            "lng": 76.00204
        },
        "ad_info": {
            "adcode": 653101,
            "province": "新疆维吾尔自治区",
            "city": "喀什地区",
            "district": "喀什市"
        }
    },
    {
        "id": "14097955122178245645",
        "title": "公共厕所",
        "address": "新疆维吾尔自治区喀什地区喀什市人民东路192号",
        "tel": "",
        "category": "基础设施:公共设施:公共厕所",
        "type": 0,
        "location": {
            "lat": 39.466011,
            "lng": 75.993907
        },
        "ad_info": {
            "adcode": 653101,
            "province": "新疆维吾尔自治区",
            "city": "喀什地区",
            "district": "喀什市"
        }
    },
    {
        "id": "3257668618651307566",
        "title": "公共厕所",
        "address": "新疆维吾尔自治区喀什地区喀什市西北路金座轻奢酒店",
        "tel": "",
        "category": "基础设施:公共设施:公共厕所",
        "type": 0,
        "location": {
            "lat": 39.4675,
            "lng": 75.976732
        },
        "ad_info": {
            "adcode": 653101,
            "province": "新疆维吾尔自治区",
            "city": "喀什地区",
            "district": "喀什市"
        }
    },
    {
        "id": "2403624855015947341",
        "title": "公共厕所",
        "address": "新疆维吾尔自治区喀什地区叶城县团结中路与团结西路交叉口西北方向59米左右",
        "tel": "",
        "category": "基础设施:公共设施:公共厕所",
        "type": 0,
        "location": {
            "lat": 37.886789,
            "lng": 77.415073
        },
        "ad_info": {
            "adcode": 653126,
            "province": "新疆维吾尔自治区",
            "city": "喀什地区",
            "district": "叶城县"
        }
    },
    {
        "id": "16027528453226128424",
        "title": "公共厕所",
        "address": "新疆维吾尔自治区喀什地区喀什市团结路与团结路北三巷交叉口西北方向52米左右",
        "tel": "",
        "category": "基础设施:公共设施:公共厕所",
        "type": 0,
        "location": {
            "lat": 39.460911,
            "lng": 75.974437
        },
        "ad_info": {
            "adcode": 653101,
            "province": "新疆维吾尔自治区",
            "city": "喀什地区",
            "district": "喀什市"
        }
    },
    {
        "id": "16746800213223781695",
        "title": "公共厕所",
        "address": "新疆维吾尔自治区喀什地区疏勒县张骞路与疏勒大道交叉口西北方向93米左右",
        "tel": "",
        "category": "基础设施:公共设施:公共厕所",
        "type": 0,
        "location": {
            "lat": 39.383818,
            "lng": 76.070382
        },
        "ad_info": {
            "adcode": 653122,
            "province": "新疆维吾尔自治区",
            "city": "喀什地区",
            "district": "疏勒县"
        }
    },
    {
        "id": "266660176368661000",
        "title": "公共厕所",
        "address": "新疆维吾尔自治区喀什地区喀什市430县道与天山东路交叉口北80米",
        "tel": "",
        "category": "基础设施:公共设施:公共厕所",
        "type": 0,
        "location": {
            "lat": 39.495723,
            "lng": 76.041627
        },
        "ad_info": {
            "adcode": 653101,
            "province": "新疆维吾尔自治区",
            "city": "喀什地区",
            "district": "喀什市"
        }
    },
    {
        "id": "3587061058022472572",
        "title": "帕米尔旅游区游客服务中心公共厕所",
        "address": "新疆维吾尔自治区喀什地区塔什库尔干塔吉克自治县G314与中巴友谊路交叉口东南方向582米左右",
        "tel": "",
        "category": "基础设施:公共设施:公共厕所",
        "type": 0,
        "location": {
            "lat": 37.78206,
            "lng": 75.224162
        },
        "ad_info": {
            "adcode": 653131,
            "province": "新疆维吾尔自治区",
            "city": "喀什地区",
            "district": "塔什库尔干塔吉克自治县"
        }
    },
    {
        "id": "3280530456911096025",
        "title": "公共厕所",
        "address": "新疆维吾尔自治区喀什地区喀什市诺尔贝希路与艾格孜艾日克路交叉口北20米",
        "tel": "15109050321",
        "category": "基础设施:公共设施:公共厕所",
        "type": 0,
        "location": {
            "lat": 39.473263,
            "lng": 75.985857
        },
        "ad_info": {
            "adcode": 653101,
            "province": "新疆维吾尔自治区",
            "city": "喀什地区",
            "district": "喀什市"
        }
    },
    {
        "id": "2025787829211308383",
        "title": "公共厕所",
        "address": "新疆维吾尔自治区喀什地区喀什市吾斯塘博依路与巴格其阔恰巷交叉口正西方向92米",
        "tel": "",
        "category": "基础设施:公共设施:公共厕所",
        "type": 0,
        "location": {
            "lat": 39.470727,
            "lng": 75.984262
        },
        "ad_info": {
            "adcode": 653101,
            "province": "新疆维吾尔自治区",
            "city": "喀什地区",
            "district": "喀什市"
        }
    },
    {
        "id": "637508072287576351",
        "title": "公共厕所",
        "address": "新疆维吾尔自治区喀什地区喀什市中西亚市场路与吐曼路交叉口西北方向269米左右",
        "tel": "",
        "category": "基础设施:公共设施:公共厕所",
        "type": 0,
        "location": {
            "lat": 39.473453,
            "lng": 75.997604
        },
        "ad_info": {
            "adcode": 653101,
            "province": "新疆维吾尔自治区",
            "city": "喀什地区",
            "district": "喀什市"
        }
    },
    {
        "id": "4018889562936002868",
        "title": "公共厕所",
        "address": "新疆维吾尔自治区喀什地区疏勒县巴合齐路与黄河路交叉口正北方向473米左右",
        "tel": "",
        "category": "基础设施:公共设施:公共厕所",
        "type": 0,
        "location": {
            "lat": 39.401144,
            "lng": 76.044091
        },
        "ad_info": {
            "adcode": 653122,
            "province": "新疆维吾尔自治区",
            "city": "喀什地区",
            "district": "疏勒县"
        }
    },
    {
        "id": "3866688977142399854",
        "title": "公共厕所",
        "address": "新疆维吾尔自治区喀什地区巴楚县S215与X602交叉口正东方向948米左右",
        "tel": "",
        "category": "基础设施:公共设施:公共厕所",
        "type": 0,
        "location": {
            "lat": 39.166073,
            "lng": 77.634467
        },
        "ad_info": {
            "adcode": 653130,
            "province": "新疆维吾尔自治区",
            "city": "喀什地区",
            "district": "巴楚县"
        }
    },
    {
        "id": "10902195888172074512",
        "title": "公共厕所",
        "address": "新疆维吾尔自治区喀什地区岳普湖县S310与Y407交叉口西北方向396米左右",
        "tel": "",
        "category": "基础设施:公共设施:公共厕所",
        "type": 0,
        "location": {
            "lat": 39.116523,
            "lng": 76.994066
        },
        "ad_info": {
            "adcode": 653128,
            "province": "新疆维吾尔自治区",
            "city": "喀什地区",
            "district": "岳普湖县"
        }
    },
    {
        "id": "17204286905577737989",
        "title": "公共厕所",
        "address": "新疆维吾尔自治区喀什地区喀什市克孜勒都维路与玉吉米力克路交叉口正东方向222米左右",
        "tel": "",
        "category": "基础设施:公共设施:公共厕所",
        "type": 0,
        "location": {
            "lat": 39.455993,
            "lng": 75.990625
        },
        "ad_info": {
            "adcode": 653101,
            "province": "新疆维吾尔自治区",
            "city": "喀什地区",
            "district": "喀什市"
        }
    },
    {
        "id": "5897727669730858732",
        "title": "公共厕所",
        "address": "新疆维吾尔自治区喀什地区喀什市航天路与色满路交叉口正北方向58米左右",
        "tel": "",
        "category": "基础设施:公共设施:公共厕所",
        "type": 0,
        "location": {
            "lat": 39.475816,
            "lng": 75.985366
        },
        "ad_info": {
            "adcode": 653101,
            "province": "新疆维吾尔自治区",
            "city": "喀什地区",
            "district": "喀什市"
        }
    },
    {
        "id": "410674949768948703",
        "title": "公共厕所",
        "address": "新疆维吾尔自治区喀什地区疏附县人民北路与站敏东路交叉口西南方向164米左右",
        "tel": "",
        "category": "基础设施:公共设施:公共厕所",
        "type": 0,
        "location": {
            "lat": 39.377058,
            "lng": 75.863441
        },
        "ad_info": {
            "adcode": 653121,
            "province": "新疆维吾尔自治区",
            "city": "喀什地区",
            "district": "疏附县"
        }
    },
    {
        "id": "8916568624788732165",
        "title": "公共厕所",
        "address": "新疆维吾尔自治区喀什地区喀什市人民东路与人民东路南一巷交叉口正南方向356米左右",
        "tel": "",
        "category": "基础设施:公共设施:公共厕所",
        "type": 0,
        "location": {
            "lat": 39.464739,
            "lng": 76.008904
        },
        "ad_info": {
            "adcode": 653101,
            "province": "新疆维吾尔自治区",
            "city": "喀什地区",
            "district": "喀什市"
        }
    },
    {
        "id": "3439809878398326501",
        "title": "公共厕所",
        "address": "新疆维吾尔自治区喀什地区岳普湖县团结中路与团结西路交叉口正东方向224米左右",
        "tel": "",
        "category": "基础设施:公共设施:公共厕所",
        "type": 0,
        "location": {
            "lat": 39.238112,
            "lng": 76.774392
        },
        "ad_info": {
            "adcode": 653128,
            "province": "新疆维吾尔自治区",
            "city": "喀什地区",
            "district": "岳普湖县"
        }
    },
    {
        "id": "15974474933063511425",
        "title": "英吾斯塘服务区第一公共厕所",
        "address": "新疆维吾尔自治区喀什地区巴楚县与S13三莎高速交叉口东北480米",
        "tel": "",
        "category": "基础设施:公共设施:公共厕所",
        "type": 0,
        "location": {
            "lat": 39.217255,
            "lng": 77.600535
        },
        "ad_info": {
            "adcode": 653130,
            "province": "新疆维吾尔自治区",
            "city": "喀什地区",
            "district": "巴楚县"
        }
    },
    {
        "id": "6825031127524294708",
        "title": "公共厕所",
        "address": "新疆维吾尔自治区喀什地区巴楚县G314与S215交叉口东北方向1406米左右",
        "tel": "",
        "category": "基础设施:公共设施:公共厕所",
        "type": 0,
        "location": {
            "lat": 39.959587,
            "lng": 78.454924
        },
        "ad_info": {
            "adcode": 653130,
            "province": "新疆维吾尔自治区",
            "city": "喀什地区",
            "district": "巴楚县"
        }
    },
    {
        "id": "763151281808044778",
        "title": "公共厕所",
        "address": "新疆维吾尔自治区喀什地区莎车县中国邮政(阔什艾日克乡邮政所)北侧70米",
        "tel": "",
        "category": "基础设施:公共设施:公共厕所",
        "type": 0,
        "location": {
            "lat": 38.624237,
            "lng": 77.280661
        },
        "ad_info": {
            "adcode": 653125,
            "province": "新疆维吾尔自治区",
            "city": "喀什地区",
            "district": "莎车县"
        }
    },
    {
        "id": "7732430692920019669",
        "title": "公共厕所",
        "address": "新疆维吾尔自治区喀什地区叶城县加依提勒克乡希望小学西南侧130米",
        "tel": "",
        "category": "基础设施:公共设施:公共厕所",
        "type": 0,
        "location": {
            "lat": 37.974834,
            "lng": 77.468039
        },
        "ad_info": {
            "adcode": 653126,
            "province": "新疆维吾尔自治区",
            "city": "喀什地区",
            "district": "叶城县"
        }
    },
    {
        "id": "9565946409579459373",
        "title": "公共厕所",
        "address": "新疆维吾尔自治区喀什地区莎车县工业路与建设路交叉口东南方向110米左右",
        "tel": "",
        "category": "基础设施:公共设施:公共厕所",
        "type": 0,
        "location": {
            "lat": 38.406705,
            "lng": 77.234777
        },
        "ad_info": {
            "adcode": 653125,
            "province": "新疆维吾尔自治区",
            "city": "喀什地区",
            "district": "莎车县"
        }
    },
    {
        "id": "15859076855899022589",
        "title": "克孜勒服务区-公共厕所",
        "address": "新疆维吾尔自治区喀什地区英吉沙县G219与X478交叉口西南方向1644米左右",
        "tel": "",
        "category": "基础设施:公共设施:公共厕所",
        "type": 0,
        "location": {
            "lat": 38.661904,
            "lng": 76.421425
        },
        "ad_info": {
            "adcode": 653123,
            "province": "新疆维吾尔自治区",
            "city": "喀什地区",
            "district": "英吉沙县"
        }
    },
    {
        "id": "5916865722757631653",
        "title": "公共厕所",
        "address": "新疆维吾尔自治区喀什地区叶城县吐古其南路与核桃大道交叉口正东方向75米左右",
        "tel": "",
        "category": "基础设施:公共设施:公共厕所",
        "type": 0,
        "location": {
            "lat": 37.890983,
            "lng": 77.423485
        },
        "ad_info": {
            "adcode": 653126,
            "province": "新疆维吾尔自治区",
            "city": "喀什地区",
            "district": "叶城县"
        }
    },
    {
        "id": "15286530039940925004",
        "title": "公共厕所",
        "address": "新疆维吾尔自治区喀什地区莎车县G315与向阳路交叉口西北方向241米左右",
        "tel": "",
        "category": "基础设施:公共设施:公共厕所",
        "type": 0,
        "location": {
            "lat": 38.393129,
            "lng": 77.266751
        },
        "ad_info": {
            "adcode": 653125,
            "province": "新疆维吾尔自治区",
            "city": "喀什地区",
            "district": "莎车县"
        }
    },
    {
        "id": "14174664759397014061",
        "title": "岳普湖服务区公共厕所",
        "address": "新疆维吾尔自治区喀什地区岳普湖县麦喀高速",
        "tel": "",
        "category": "基础设施:公共设施:公共厕所",
        "type": 0,
        "location": {
            "lat": 39.186632,
            "lng": 76.949033
        },
        "ad_info": {
            "adcode": 653128,
            "province": "新疆维吾尔自治区",
            "city": "喀什地区",
            "district": "岳普湖县"
        }
    },
    {
        "id": "9614820468060460122",
        "title": "公共厕所",
        "address": "新疆维吾尔自治区喀什地区麦盖提县健康路与英买里西路交叉口正西方向118米左右",
        "tel": "",
        "category": "基础设施:公共设施:公共厕所",
        "type": 0,
        "location": {
            "lat": 38.905074,
            "lng": 77.644084
        },
        "ad_info": {
            "adcode": 653127,
            "province": "新疆维吾尔自治区",
            "city": "喀什地区",
            "district": "麦盖提县"
        }
    },
    {
        "id": "7777102292846498933",
        "title": "西克尔服务区第二公共厕所",
        "address": "新疆维吾尔自治区喀什地区伽师县G3012吐和高速北50米",
        "tel": "",
        "category": "基础设施:公共设施:公共厕所",
        "type": 0,
        "location": {
            "lat": 39.817073,
            "lng": 77.44964
        },
        "ad_info": {
            "adcode": 653129,
            "province": "新疆维吾尔自治区",
            "city": "喀什地区",
            "district": "伽师县"
        }
    },
    {
        "id": "7628489352201433816",
        "title": "公共厕所",
        "address": "新疆维吾尔自治区喀什地区喀什市幸福路与榆树巷交叉口正东方向287米左右",
        "tel": "",
        "category": "基础设施:公共设施:公共厕所",
        "type": 0,
        "location": {
            "lat": 39.486478,
            "lng": 76.005896
        },
        "ad_info": {
            "adcode": 653101,
            "province": "新疆维吾尔自治区",
            "city": "喀什地区",
            "district": "喀什市"
        }
    },
    {
        "id": "556356586888883898",
        "title": "艾提尕尔清真寺-公共厕所",
        "address": "新疆维吾尔自治区喀什地区喀什市解放北路172号",
        "tel": "15109050321",
        "category": "基础设施:公共设施:公共厕所",
        "type": 0,
        "location": {
            "lat": 39.472,
            "lng": 75.989171
        },
        "ad_info": {
            "adcode": 653101,
            "province": "新疆维吾尔自治区",
            "city": "喀什地区",
            "district": "喀什市"
        }
    },
    {
        "id": "72548777107788554",
        "title": "莎车服务区公共厕所",
        "address": "新疆维吾尔自治区喀什地区莎车县S13三莎高速附近",
        "tel": "",
        "category": "基础设施:公共设施:公共厕所",
        "type": 0,
        "location": {
            "lat": 38.737062,
            "lng": 77.332789
        },
        "ad_info": {
            "adcode": 653125,
            "province": "新疆维吾尔自治区",
            "city": "喀什地区",
            "district": "莎车县"
        }
    },
    {
        "id": "14959059951854722718",
        "title": "公共厕所(XJ-KS-0038)",
        "address": "新疆维吾尔自治区喀什地区喀什市欧尔达希克路",
        "tel": "",
        "category": "基础设施:公共设施:公共厕所",
        "type": 0,
        "location": {
            "lat": 39.474543,
            "lng": 75.99321
        },
        "ad_info": {
            "adcode": 653101,
            "province": "新疆维吾尔自治区",
            "city": "喀什地区",
            "district": "喀什市"
        }
    },
    {
        "id": "5901168919282636612",
        "title": "岳普湖服务区公共厕所",
        "address": "新疆维吾尔自治区喀什地区岳普湖县麦喀高速东100米",
        "tel": "",
        "category": "基础设施:公共设施:公共厕所",
        "type": 0,
        "location": {
            "lat": 39.18841,
            "lng": 76.949055
        },
        "ad_info": {
            "adcode": 653128,
            "province": "新疆维吾尔自治区",
            "city": "喀什地区",
            "district": "岳普湖县"
        }
    },
    {
        "id": "5897727669730858732",
        "title": "公共厕所",
        "address": "新疆维吾尔自治区喀什地区喀什市航天路与色满路交叉口正北方向58米左右",
        "tel": "",
        "category": "基础设施:公共设施:公共厕所",
        "type": 0,
        "location": {
            "lat": 39.475816,
            "lng": 75.985366
        },
        "ad_info": {
            "adcode": 653101,
            "province": "新疆维吾尔自治区",
            "city": "喀什地区",
            "district": "喀什市"
        }
    },
    {
        "id": "410674949768948703",
        "title": "公共厕所",
        "address": "新疆维吾尔自治区喀什地区疏附县人民北路与站敏东路交叉口西南方向164米左右",
        "tel": "",
        "category": "基础设施:公共设施:公共厕所",
        "type": 0,
        "location": {
            "lat": 39.377058,
            "lng": 75.863441
        },
        "ad_info": {
            "adcode": 653121,
            "province": "新疆维吾尔自治区",
            "city": "喀什地区",
            "district": "疏附县"
        }
    },
    {
        "id": "8916568624788732165",
        "title": "公共厕所",
        "address": "新疆维吾尔自治区喀什地区喀什市人民东路与人民东路南一巷交叉口正南方向356米左右",
        "tel": "",
        "category": "基础设施:公共设施:公共厕所",
        "type": 0,
        "location": {
            "lat": 39.464739,
            "lng": 76.008904
        },
        "ad_info": {
            "adcode": 653101,
            "province": "新疆维吾尔自治区",
            "city": "喀什地区",
            "district": "喀什市"
        }
    },
    {
        "id": "3439809878398326501",
        "title": "公共厕所",
        "address": "新疆维吾尔自治区喀什地区岳普湖县团结中路与团结西路交叉口正东方向224米左右",
        "tel": "",
        "category": "基础设施:公共设施:公共厕所",
        "type": 0,
        "location": {
            "lat": 39.238112,
            "lng": 76.774392
        },
        "ad_info": {
            "adcode": 653128,
            "province": "新疆维吾尔自治区",
            "city": "喀什地区",
            "district": "岳普湖县"
        }
    },
    {
        "id": "15974474933063511425",
        "title": "英吾斯塘服务区第一公共厕所",
        "address": "新疆维吾尔自治区喀什地区巴楚县与S13三莎高速交叉口东北480米",
        "tel": "",
        "category": "基础设施:公共设施:公共厕所",
        "type": 0,
        "location": {
            "lat": 39.217255,
            "lng": 77.600535
        },
        "ad_info": {
            "adcode": 653130,
            "province": "新疆维吾尔自治区",
            "city": "喀什地区",
            "district": "巴楚县"
        }
    },
    {
        "id": "6825031127524294708",
        "title": "公共厕所",
        "address": "新疆维吾尔自治区喀什地区巴楚县G314与S215交叉口东北方向1406米左右",
        "tel": "",
        "category": "基础设施:公共设施:公共厕所",
        "type": 0,
        "location": {
            "lat": 39.959587,
            "lng": 78.454924
        },
        "ad_info": {
            "adcode": 653130,
            "province": "新疆维吾尔自治区",
            "city": "喀什地区",
            "district": "巴楚县"
        }
    },
    {
        "id": "763151281808044778",
        "title": "公共厕所",
        "address": "新疆维吾尔自治区喀什地区莎车县中国邮政(阔什艾日克乡邮政所)北侧70米",
        "tel": "",
        "category": "基础设施:公共设施:公共厕所",
        "type": 0,
        "location": {
            "lat": 38.624237,
            "lng": 77.280661
        },
        "ad_info": {
            "adcode": 653125,
            "province": "新疆维吾尔自治区",
            "city": "喀什地区",
            "district": "莎车县"
        }
    },
    {
        "id": "7732430692920019669",
        "title": "公共厕所",
        "address": "新疆维吾尔自治区喀什地区叶城县加依提勒克乡希望小学西南侧130米",
        "tel": "",
        "category": "基础设施:公共设施:公共厕所",
        "type": 0,
        "location": {
            "lat": 37.974834,
            "lng": 77.468039
        },
        "ad_info": {
            "adcode": 653126,
            "province": "新疆维吾尔自治区",
            "city": "喀什地区",
            "district": "叶城县"
        }
    },
    {
        "id": "9565946409579459373",
        "title": "公共厕所",
        "address": "新疆维吾尔自治区喀什地区莎车县工业路与建设路交叉口东南方向110米左右",
        "tel": "",
        "category": "基础设施:公共设施:公共厕所",
        "type": 0,
        "location": {
            "lat": 38.406705,
            "lng": 77.234777
        },
        "ad_info": {
            "adcode": 653125,
            "province": "新疆维吾尔自治区",
            "city": "喀什地区",
            "district": "莎车县"
        }
    },
    {
        "id": "15859076855899022589",
        "title": "克孜勒服务区-公共厕所",
        "address": "新疆维吾尔自治区喀什地区英吉沙县G219与X478交叉口西南方向1644米左右",
        "tel": "",
        "category": "基础设施:公共设施:公共厕所",
        "type": 0,
        "location": {
            "lat": 38.661904,
            "lng": 76.421425
        },
        "ad_info": {
            "adcode": 653123,
            "province": "新疆维吾尔自治区",
            "city": "喀什地区",
            "district": "英吉沙县"
        }
    },
    {
        "id": "5916865722757631653",
        "title": "公共厕所",
        "address": "新疆维吾尔自治区喀什地区叶城县吐古其南路与核桃大道交叉口正东方向75米左右",
        "tel": "",
        "category": "基础设施:公共设施:公共厕所",
        "type": 0,
        "location": {
            "lat": 37.890983,
            "lng": 77.423485
        },
        "ad_info": {
            "adcode": 653126,
            "province": "新疆维吾尔自治区",
            "city": "喀什地区",
            "district": "叶城县"
        }
    },
    {
        "id": "15286530039940925004",
        "title": "公共厕所",
        "address": "新疆维吾尔自治区喀什地区莎车县G315与向阳路交叉口西北方向241米左右",
        "tel": "",
        "category": "基础设施:公共设施:公共厕所",
        "type": 0,
        "location": {
            "lat": 38.393129,
            "lng": 77.266751
        },
        "ad_info": {
            "adcode": 653125,
            "province": "新疆维吾尔自治区",
            "city": "喀什地区",
            "district": "莎车县"
        }
    },
    {
        "id": "14174664759397014061",
        "title": "岳普湖服务区公共厕所",
        "address": "新疆维吾尔自治区喀什地区岳普湖县麦喀高速",
        "tel": "",
        "category": "基础设施:公共设施:公共厕所",
        "type": 0,
        "location": {
            "lat": 39.186632,
            "lng": 76.949033
        },
        "ad_info": {
            "adcode": 653128,
            "province": "新疆维吾尔自治区",
            "city": "喀什地区",
            "district": "岳普湖县"
        }
    },
    {
        "id": "9614820468060460122",
        "title": "公共厕所",
        "address": "新疆维吾尔自治区喀什地区麦盖提县健康路与英买里西路交叉口正西方向118米左右",
        "tel": "",
        "category": "基础设施:公共设施:公共厕所",
        "type": 0,
        "location": {
            "lat": 38.905074,
            "lng": 77.644084
        },
        "ad_info": {
            "adcode": 653127,
            "province": "新疆维吾尔自治区",
            "city": "喀什地区",
            "district": "麦盖提县"
        }
    },
    {
        "id": "7777102292846498933",
        "title": "西克尔服务区第二公共厕所",
        "address": "新疆维吾尔自治区喀什地区伽师县G3012吐和高速北50米",
        "tel": "",
        "category": "基础设施:公共设施:公共厕所",
        "type": 0,
        "location": {
            "lat": 39.817073,
            "lng": 77.44964
        },
        "ad_info": {
            "adcode": 653129,
            "province": "新疆维吾尔自治区",
            "city": "喀什地区",
            "district": "伽师县"
        }
    },
    {
        "id": "7628489352201433816",
        "title": "公共厕所",
        "address": "新疆维吾尔自治区喀什地区喀什市幸福路与榆树巷交叉口正东方向287米左右",
        "tel": "",
        "category": "基础设施:公共设施:公共厕所",
        "type": 0,
        "location": {
            "lat": 39.486478,
            "lng": 76.005896
        },
        "ad_info": {
            "adcode": 653101,
            "province": "新疆维吾尔自治区",
            "city": "喀什地区",
            "district": "喀什市"
        }
    },
    {
        "id": "556356586888883898",
        "title": "艾提尕尔清真寺-公共厕所",
        "address": "新疆维吾尔自治区喀什地区喀什市解放北路172号",
        "tel": "15109050321",
        "category": "基础设施:公共设施:公共厕所",
        "type": 0,
        "location": {
            "lat": 39.472,
            "lng": 75.989171
        },
        "ad_info": {
            "adcode": 653101,
            "province": "新疆维吾尔自治区",
            "city": "喀什地区",
            "district": "喀什市"
        }
    },
    {
        "id": "72548777107788554",
        "title": "莎车服务区公共厕所",
        "address": "新疆维吾尔自治区喀什地区莎车县S13三莎高速附近",
        "tel": "",
        "category": "基础设施:公共设施:公共厕所",
        "type": 0,
        "location": {
            "lat": 38.737062,
            "lng": 77.332789
        },
        "ad_info": {
            "adcode": 653125,
            "province": "新疆维吾尔自治区",
            "city": "喀什地区",
            "district": "莎车县"
        }
    },
    {
        "id": "14959059951854722718",
        "title": "公共厕所(XJ-KS-0038)",
        "address": "新疆维吾尔自治区喀什地区喀什市欧尔达希克路",
        "tel": "",
        "category": "基础设施:公共设施:公共厕所",
        "type": 0,
        "location": {
            "lat": 39.474543,
            "lng": 75.99321
        },
        "ad_info": {
            "adcode": 653101,
            "province": "新疆维吾尔自治区",
            "city": "喀什地区",
            "district": "喀什市"
        }
    },
    {
        "id": "5901168919282636612",
        "title": "岳普湖服务区公共厕所",
        "address": "新疆维吾尔自治区喀什地区岳普湖县麦喀高速东100米",
        "tel": "",
        "category": "基础设施:公共设施:公共厕所",
        "type": 0,
        "location": {
            "lat": 39.18841,
            "lng": 76.949055
        },
        "ad_info": {
            "adcode": 653128,
            "province": "新疆维吾尔自治区",
            "city": "喀什地区",
            "district": "岳普湖县"
        }
    }
]