[
    {
        "id": "16223903365626517856",
        "title": "公共厕所",
        "address": "甘肃省嘉峪关市建设东路辅路与新华南路交叉口正东方向106米左右",
        "tel": "",
        "category": "基础设施:公共设施:公共厕所",
        "type": 0,
        "location": {
            "lat": 39.784679,
            "lng": 98.280509
        },
        "ad_info": {
            "adcode": 620200,
            "province": "甘肃省",
            "city": "嘉峪关市",
            "district": "嘉峪关市"
        }
    },
    {
        "id": "7311844822776891650",
        "title": "公共厕所",
        "address": "甘肃省嘉峪关市新华中路与河口西路交叉口正北方向155米左右",
        "tel": "",
        "category": "基础设施:公共设施:公共厕所",
        "type": 0,
        "location": {
            "lat": 39.790641,
            "lng": 98.276238
        },
        "ad_info": {
            "adcode": 620200,
            "province": "甘肃省",
            "city": "嘉峪关市",
            "district": "嘉峪关市"
        }
    },
    {
        "id": "16785123494526865345",
        "title": "公共厕所",
        "address": "甘肃省嘉峪关市蓝色多瑙河西南侧130米",
        "tel": "",
        "category": "基础设施:公共设施:公共厕所",
        "type": 0,
        "location": {
            "lat": 39.785387,
            "lng": 98.26237
        },
        "ad_info": {
            "adcode": 620200,
            "province": "甘肃省",
            "city": "嘉峪关市",
            "district": "嘉峪关市"
        }
    },
    {
        "id": "11221264789680142842",
        "title": "无障碍公共厕所",
        "address": "甘肃省嘉峪关市体育大道东525-6号",
        "tel": "",
        "category": "基础设施:公共设施:公共厕所",
        "type": 0,
        "location": {
            "lat": 39.777148,
            "lng": 98.289123
        },
        "ad_info": {
            "adcode": 620200,
            "province": "甘肃省",
            "city": "嘉峪关市",
            "district": "嘉峪关市"
        }
    },
    {
        "id": "3788648763823211557",
        "title": "公共厕所",
        "address": "甘肃省嘉峪关市建设西路与文化路辅路交叉口东南方向107米左右",
        "tel": "",
        "category": "基础设施:公共设施:公共厕所",
        "type": 0,
        "location": {
            "lat": 39.78095,
            "lng": 98.271136
        },
        "ad_info": {
            "adcode": 620200,
            "province": "甘肃省",
            "city": "嘉峪关市",
            "district": "嘉峪关市"
        }
    },
    {
        "id": "15879987564612639894",
        "title": "公共厕所",
        "address": "甘肃省嘉峪关市迎宾东路与钢城路交叉口东北方向286米左右",
        "tel": "",
        "category": "基础设施:公共设施:公共厕所",
        "type": 0,
        "location": {
            "lat": 39.783146,
            "lng": 98.302411
        },
        "ad_info": {
            "adcode": 620200,
            "province": "甘肃省",
            "city": "嘉峪关市",
            "district": "嘉峪关市"
        }
    },
    {
        "id": "10087890598001183145",
        "title": "公共厕所",
        "address": "甘肃省嘉峪关市明珠东路东湖生态旅游景区南门",
        "tel": "",
        "category": "基础设施:公共设施:公共厕所",
        "type": 0,
        "location": {
            "lat": 39.766144,
            "lng": 98.309999
        },
        "ad_info": {
            "adcode": 620200,
            "province": "甘肃省",
            "city": "嘉峪关市",
            "district": "嘉峪关市"
        }
    },
    {
        "id": "5717369668156362401",
        "title": "公共厕所",
        "address": "甘肃省嘉峪关市兰新西路15号西南方向140米",
        "tel": "",
        "category": "基础设施:公共设施:公共厕所",
        "type": 0,
        "location": {
            "lat": 39.79145,
            "lng": 98.26748
        },
        "ad_info": {
            "adcode": 620200,
            "province": "甘肃省",
            "city": "嘉峪关市",
            "district": "嘉峪关市"
        }
    },
    {
        "id": "2573770436523127345",
        "title": "公共厕所",
        "address": "甘肃省嘉峪关市嘉文路与西环南路交叉口正东方向160米左右",
        "tel": "",
        "category": "基础设施:公共设施:公共厕所",
        "type": 0,
        "location": {
            "lat": 39.766397,
            "lng": 98.261006
        },
        "ad_info": {
            "adcode": 620200,
            "province": "甘肃省",
            "city": "嘉峪关市",
            "district": "嘉峪关市"
        }
    },
    {
        "id": "7308104483226671463",
        "title": "公共厕所",
        "address": "甘肃省嘉峪关市新华南路与迎宾西路交叉口正南方向138米左右",
        "tel": "",
        "category": "基础设施:公共设施:公共厕所",
        "type": 0,
        "location": {
            "lat": 39.773662,
            "lng": 98.284255
        },
        "ad_info": {
            "adcode": 620200,
            "province": "甘肃省",
            "city": "嘉峪关市",
            "district": "嘉峪关市"
        }
    },
    {
        "id": "13357088389145706989",
        "title": "公共厕所",
        "address": "甘肃省嘉峪关市体育大道与和诚东路交叉口正南方向92米左右",
        "tel": "",
        "category": "基础设施:公共设施:公共厕所",
        "type": 0,
        "location": {
            "lat": 39.77531,
            "lng": 98.302227
        },
        "ad_info": {
            "adcode": 620200,
            "province": "甘肃省",
            "city": "嘉峪关市",
            "district": "嘉峪关市"
        }
    },
    {
        "id": "15165771413505927918",
        "title": "公共厕所",
        "address": "甘肃省嘉峪关市建设街社区卫生服务中心(新华南路西)",
        "tel": "",
        "category": "基础设施:公共设施:公共厕所",
        "type": 0,
        "location": {
            "lat": 39.780661,
            "lng": 98.280775
        },
        "ad_info": {
            "adcode": 620200,
            "province": "甘肃省",
            "city": "嘉峪关市",
            "district": "嘉峪关市"
        }
    },
    {
        "id": "14889030256100248272",
        "title": "公共厕所",
        "address": "甘肃省嘉峪关市文化中路与文化北路交叉口正东方向108米左右",
        "tel": "",
        "category": "基础设施:公共设施:公共厕所",
        "type": 0,
        "location": {
            "lat": 39.795882,
            "lng": 98.263267
        },
        "ad_info": {
            "adcode": 620200,
            "province": "甘肃省",
            "city": "嘉峪关市",
            "district": "嘉峪关市"
        }
    },
    {
        "id": "15388688473388364368",
        "title": "公共厕所",
        "address": "甘肃省嘉峪关市胜利中路与河口西路交叉口南200米",
        "tel": "",
        "category": "基础设施:公共设施:公共厕所",
        "type": 0,
        "location": {
            "lat": 39.785013,
            "lng": 98.273079
        },
        "ad_info": {
            "adcode": 620200,
            "province": "甘肃省",
            "city": "嘉峪关市",
            "district": "嘉峪关市"
        }
    },
    {
        "id": "6603787776164746759",
        "title": "公共厕所",
        "address": "甘肃省嘉峪关市夜光路与观礼大道交叉口东北方向489米左右",
        "tel": "",
        "category": "基础设施:公共设施:公共厕所",
        "type": 0,
        "location": {
            "lat": 39.747747,
            "lng": 98.297301
        },
        "ad_info": {
            "adcode": 620200,
            "province": "甘肃省",
            "city": "嘉峪关市",
            "district": "嘉峪关市"
        }
    },
    {
        "id": "2907826785595316418",
        "title": "公共厕所",
        "address": "甘肃省嘉峪关市方特大道与石关路交叉口正北方向580米左右",
        "tel": "",
        "category": "基础设施:公共设施:公共厕所",
        "type": 0,
        "location": {
            "lat": 39.756836,
            "lng": 98.331329
        },
        "ad_info": {
            "adcode": 620200,
            "province": "甘肃省",
            "city": "嘉峪关市",
            "district": "嘉峪关市"
        }
    },
    {
        "id": "16112933340465163562",
        "title": "公共厕所",
        "address": "甘肃省嘉峪关市体育大道辅路与玉泉南路辅路交叉口西北方向49米左右",
        "tel": "",
        "category": "基础设施:公共设施:公共厕所",
        "type": 0,
        "location": {
            "lat": 39.766808,
            "lng": 98.273932
        },
        "ad_info": {
            "adcode": 620200,
            "province": "甘肃省",
            "city": "嘉峪关市",
            "district": "嘉峪关市"
        }
    },
    {
        "id": "5158941789965962276",
        "title": "公共厕所",
        "address": "甘肃省嘉峪关市玉泉中路与镜铁西路交叉口正南方向243米左右",
        "tel": "",
        "category": "基础设施:公共设施:公共厕所",
        "type": 0,
        "location": {
            "lat": 39.785626,
            "lng": 98.262315
        },
        "ad_info": {
            "adcode": 620200,
            "province": "甘肃省",
            "city": "嘉峪关市",
            "district": "嘉峪关市"
        }
    },
    {
        "id": "16375057164115661222",
        "title": "公共厕所",
        "address": "甘肃省嘉峪关市和诚西路与文化南路交叉口正西方向218米左右",
        "tel": "",
        "category": "基础设施:公共设施:公共厕所",
        "type": 0,
        "location": {
            "lat": 39.762923,
            "lng": 98.27969
        },
        "ad_info": {
            "adcode": 620200,
            "province": "甘肃省",
            "city": "嘉峪关市",
            "district": "嘉峪关市"
        }
    },
    {
        "id": "2991314280471213580",
        "title": "公共厕所",
        "address": "甘肃省嘉峪关市花城路明珠文化生态园内(西侧)",
        "tel": "",
        "category": "基础设施:公共设施:公共厕所",
        "type": 0,
        "location": {
            "lat": 39.744937,
            "lng": 98.313376
        },
        "ad_info": {
            "adcode": 620200,
            "province": "甘肃省",
            "city": "嘉峪关市",
            "district": "嘉峪关市"
        }
    },
    {
        "id": "12227121304864071759",
        "title": "公共卫生间",
        "address": "甘肃省嘉峪关市明珠东路与静轩路交叉口西南方向69米左右",
        "tel": "",
        "category": "基础设施:公共设施:公共厕所",
        "type": 0,
        "location": {
            "lat": 39.761654,
            "lng": 98.295304
        },
        "ad_info": {
            "adcode": 620200,
            "province": "甘肃省",
            "city": "嘉峪关市",
            "district": "嘉峪关市"
        }
    },
    {
        "id": "359390285842271011",
        "title": "公共厕所",
        "address": "甘肃省嘉峪关市荣锦盛世西南侧200米",
        "tel": "",
        "category": "基础设施:公共设施:公共厕所",
        "type": 0,
        "location": {
            "lat": 39.805655,
            "lng": 98.239312
        },
        "ad_info": {
            "adcode": 620200,
            "province": "甘肃省",
            "city": "嘉峪关市",
            "district": "嘉峪关市"
        }
    },
    {
        "id": "14726611776786687443",
        "title": "公共厕所",
        "address": "甘肃省嘉峪关市嘉兴东路5号",
        "tel": "",
        "category": "基础设施:公共设施:公共厕所",
        "type": 0,
        "location": {
            "lat": 39.80913,
            "lng": 98.265835
        },
        "ad_info": {
            "adcode": 620200,
            "province": "甘肃省",
            "city": "嘉峪关市",
            "district": "嘉峪关市"
        }
    },
    {
        "id": "2931280720384754336",
        "title": "公共厕所",
        "address": "甘肃省嘉峪关市宁远路与花城路交叉口正西方向107米左右",
        "tel": "",
        "category": "基础设施:公共设施:公共厕所",
        "type": 0,
        "location": {
            "lat": 39.742707,
            "lng": 98.320844
        },
        "ad_info": {
            "adcode": 620200,
            "province": "甘肃省",
            "city": "嘉峪关市",
            "district": "嘉峪关市"
        }
    },
    {
        "id": "9755220464730737259",
        "title": "公共厕所(GS-JY-0072)",
        "address": "甘肃省嘉峪关市德轩路与静轩路交叉口正东方向557米左右",
        "tel": "",
        "category": "基础设施:公共设施:公共厕所",
        "type": 0,
        "location": {
            "lat": 39.759031,
            "lng": 98.307715
        },
        "ad_info": {
            "adcode": 620200,
            "province": "甘肃省",
            "city": "嘉峪关市",
            "district": "嘉峪关市"
        }
    },
    {
        "id": "1638043028559961879",
        "title": "公共厕所",
        "address": "甘肃省嘉峪关市方特大道与石关路交叉口正北方向305米左右",
        "tel": "",
        "category": "基础设施:公共设施:公共厕所",
        "type": 0,
        "location": {
            "lat": 39.754352,
            "lng": 98.331412
        },
        "ad_info": {
            "adcode": 620200,
            "province": "甘肃省",
            "city": "嘉峪关市",
            "district": "嘉峪关市"
        }
    },
    {
        "id": "12455119417188828553",
        "title": "公共厕所",
        "address": "甘肃省嘉峪关市兰新东路与建设东路交叉口正西方向112米左右",
        "tel": "",
        "category": "基础设施:公共设施:公共厕所",
        "type": 0,
        "location": {
            "lat": 39.789081,
            "lng": 98.289249
        },
        "ad_info": {
            "adcode": 620200,
            "province": "甘肃省",
            "city": "嘉峪关市",
            "district": "嘉峪关市"
        }
    },
    {
        "id": "10674415482548970875",
        "title": "公共厕所",
        "address": "甘肃省嘉峪关市花城路与雄关大道交叉口正东方向247米左右",
        "tel": "",
        "category": "基础设施:公共设施:公共厕所",
        "type": 0,
        "location": {
            "lat": 39.74268,
            "lng": 98.327202
        },
        "ad_info": {
            "adcode": 620200,
            "province": "甘肃省",
            "city": "嘉峪关市",
            "district": "嘉峪关市"
        }
    },
    {
        "id": "11723697827112929980",
        "title": "公共厕所",
        "address": "甘肃省嘉峪关市阳光路",
        "tel": "",
        "category": "基础设施:公共设施:公共厕所",
        "type": 0,
        "location": {
            "lat": 39.776017,
            "lng": 98.260579
        },
        "ad_info": {
            "adcode": 620200,
            "province": "甘肃省",
            "city": "嘉峪关市",
            "district": "嘉峪关市"
        }
    },
    {
        "id": "5082717344143473083",
        "title": "公共厕所",
        "address": "甘肃省嘉峪关市和诚东路43号",
        "tel": "",
        "category": "基础设施:公共设施:公共厕所",
        "type": 0,
        "location": {
            "lat": 39.766842,
            "lng": 98.290754
        },
        "ad_info": {
            "adcode": 620200,
            "province": "甘肃省",
            "city": "嘉峪关市",
            "district": "嘉峪关市"
        }
    },
    {
        "id": "12898510620053182557",
        "title": "公共厕所",
        "address": "甘肃省嘉峪关市迎宾路1号嘉峪关站",
        "tel": "",
        "category": "基础设施:公共设施:公共厕所",
        "type": 0,
        "location": {
            "lat": 39.764462,
            "lng": 98.255305
        },
        "ad_info": {
            "adcode": 620200,
            "province": "甘肃省",
            "city": "嘉峪关市",
            "district": "嘉峪关市"
        }
    },
    {
        "id": "12236544841883978354",
        "title": "公共厕所",
        "address": "甘肃省嘉峪关市胜利中路6-4号",
        "tel": "",
        "category": "基础设施:公共设施:公共厕所",
        "type": 0,
        "location": {
            "lat": 39.793395,
            "lng": 98.268618
        },
        "ad_info": {
            "adcode": 620200,
            "province": "甘肃省",
            "city": "嘉峪关市",
            "district": "嘉峪关市"
        }
    },
    {
        "id": "12983229008403765023",
        "title": "公共厕所",
        "address": "甘肃省嘉峪关市胜利北路13号",
        "tel": "",
        "category": "基础设施:公共设施:公共厕所",
        "type": 0,
        "location": {
            "lat": 39.801204,
            "lng": 98.262435
        },
        "ad_info": {
            "adcode": 620200,
            "province": "甘肃省",
            "city": "嘉峪关市",
            "district": "嘉峪关市"
        }
    },
    {
        "id": "6663845870466365750",
        "title": "公共厕所",
        "address": "甘肃省嘉峪关市双拥路与峪新路交叉口正南方向288米左右",
        "tel": "",
        "category": "基础设施:公共设施:公共厕所",
        "type": 0,
        "location": {
            "lat": 39.804627,
            "lng": 98.232538
        },
        "ad_info": {
            "adcode": 620200,
            "province": "甘肃省",
            "city": "嘉峪关市",
            "district": "嘉峪关市"
        }
    },
    {
        "id": "8531745071344262885",
        "title": "公共厕所",
        "address": "甘肃省嘉峪关市新华中路与镜铁西路交叉口正东方向196米左右",
        "tel": "",
        "category": "基础设施:公共设施:公共厕所",
        "type": 0,
        "location": {
            "lat": 39.794414,
            "lng": 98.275536
        },
        "ad_info": {
            "adcode": 620200,
            "province": "甘肃省",
            "city": "嘉峪关市",
            "district": "嘉峪关市"
        }
    },
    {
        "id": "2031781045398671367",
        "title": "公共厕所",
        "address": "甘肃省嘉峪关市五一北路与富强西路交叉口正北方向80米左右",
        "tel": "",
        "category": "基础设施:公共设施:公共厕所",
        "type": 0,
        "location": {
            "lat": 39.803318,
            "lng": 98.274433
        },
        "ad_info": {
            "adcode": 620200,
            "province": "甘肃省",
            "city": "嘉峪关市",
            "district": "嘉峪关市"
        }
    },
    {
        "id": "12370748365451256045",
        "title": "公共厕所",
        "address": "甘肃省嘉峪关市兰新西路辅路与镜铁西路交叉口正东方向52米左右",
        "tel": "",
        "category": "基础设施:公共设施:公共厕所",
        "type": 0,
        "location": {
            "lat": 39.792299,
            "lng": 98.270682
        },
        "ad_info": {
            "adcode": 620200,
            "province": "甘肃省",
            "city": "嘉峪关市",
            "district": "嘉峪关市"
        }
    },
    {
        "id": "13363874935567350049",
        "title": "公共厕所",
        "address": "甘肃省嘉峪关市宜家快捷商务宾馆东南(新华南路东)",
        "tel": "",
        "category": "基础设施:公共设施:公共厕所",
        "type": 0,
        "location": {
            "lat": 39.779013,
            "lng": 98.282952
        },
        "ad_info": {
            "adcode": 620200,
            "province": "甘肃省",
            "city": "嘉峪关市",
            "district": "嘉峪关市"
        }
    },
    {
        "id": "7776833457706137381",
        "title": "公共厕所",
        "address": "甘肃省嘉峪关市新华北路辅路与雄关西路辅路交叉口西南方向70米左右",
        "tel": "",
        "category": "基础设施:公共设施:公共厕所",
        "type": 0,
        "location": {
            "lat": 39.798671,
            "lng": 98.269626
        },
        "ad_info": {
            "adcode": 620200,
            "province": "甘肃省",
            "city": "嘉峪关市",
            "district": "嘉峪关市"
        }
    },
    {
        "id": "18331371211394705168",
        "title": "公共厕所",
        "address": "甘肃省嘉峪关市一号路与新华北路交叉口正北方向395米左右",
        "tel": "",
        "category": "基础设施:公共设施:公共厕所",
        "type": 0,
        "location": {
            "lat": 39.815813,
            "lng": 98.261127
        },
        "ad_info": {
            "adcode": 620200,
            "province": "甘肃省",
            "city": "嘉峪关市",
            "district": "嘉峪关市"
        }
    },
    {
        "id": "15828466745835635106",
        "title": "公共厕所",
        "address": "甘肃省嘉峪关市体育大道与新华南路交叉口西北方向270米左右",
        "tel": "",
        "category": "基础设施:公共设施:公共厕所",
        "type": 0,
        "location": {
            "lat": 39.773399,
            "lng": 98.287532
        },
        "ad_info": {
            "adcode": 620200,
            "province": "甘肃省",
            "city": "嘉峪关市",
            "district": "嘉峪关市"
        }
    },
    {
        "id": "15687351579025760782",
        "title": "公共厕所",
        "address": "甘肃省嘉峪关市前进北路与前进南路交叉口正北方向297米左右",
        "tel": "",
        "category": "基础设施:公共设施:公共厕所",
        "type": 0,
        "location": {
            "lat": 39.770003,
            "lng": 98.263536
        },
        "ad_info": {
            "adcode": 620200,
            "province": "甘肃省",
            "city": "嘉峪关市",
            "district": "嘉峪关市"
        }
    },
    {
        "id": "12321852652021112674",
        "title": "公共厕所",
        "address": "甘肃省嘉峪关市文化北路与长城西路交叉口正西方向618米左右",
        "tel": "",
        "category": "基础设施:公共设施:公共厕所",
        "type": 0,
        "location": {
            "lat": 39.801122,
            "lng": 98.251718
        },
        "ad_info": {
            "adcode": 620200,
            "province": "甘肃省",
            "city": "嘉峪关市",
            "district": "嘉峪关市"
        }
    },
    {
        "id": "12591800024860077279",
        "title": "公共厕所",
        "address": "甘肃省嘉峪关市新华中路辅路与雄关东路辅路交叉口正南方向140米左右",
        "tel": "",
        "category": "基础设施:公共设施:公共厕所",
        "type": 0,
        "location": {
            "lat": 39.797292,
            "lng": 98.271051
        },
        "ad_info": {
            "adcode": 620200,
            "province": "甘肃省",
            "city": "嘉峪关市",
            "district": "嘉峪关市"
        }
    },
    {
        "id": "9126908171724600408",
        "title": "公共厕所",
        "address": "甘肃省嘉峪关市G312与五一路辅路交叉口正南方向84米",
        "tel": "",
        "category": "基础设施:公共设施:公共厕所",
        "type": 0,
        "location": {
            "lat": 39.77157,
            "lng": 98.292324
        },
        "ad_info": {
            "adcode": 620200,
            "province": "甘肃省",
            "city": "嘉峪关市",
            "district": "嘉峪关市"
        }
    },
    {
        "id": "16423995138420569015",
        "title": "公共厕所",
        "address": "甘肃省嘉峪关市新华南路嘉峪关市体育中心",
        "tel": "",
        "category": "基础设施:公共设施:公共厕所",
        "type": 0,
        "location": {
            "lat": 39.770002,
            "lng": 98.289228
        },
        "ad_info": {
            "adcode": 620200,
            "province": "甘肃省",
            "city": "嘉峪关市",
            "district": "嘉峪关市"
        }
    },
    {
        "id": "15927419114701045759",
        "title": "公共厕所",
        "address": "甘肃省嘉峪关市X301与酒文路交叉口正西方向300米左右",
        "tel": "",
        "category": "基础设施:公共设施:公共厕所",
        "type": 0,
        "location": {
            "lat": 39.692551,
            "lng": 98.377841
        },
        "ad_info": {
            "adcode": 620200,
            "province": "甘肃省",
            "city": "嘉峪关市",
            "district": "嘉峪关市"
        }
    },
    {
        "id": "13163601257349010009",
        "title": "公共厕所",
        "address": "甘肃省嘉峪关市一号路与新华北路交叉口正北方向58米左右",
        "tel": "",
        "category": "基础设施:公共设施:公共厕所",
        "type": 0,
        "location": {
            "lat": 39.81298,
            "lng": 98.262915
        },
        "ad_info": {
            "adcode": 620200,
            "province": "甘肃省",
            "city": "嘉峪关市",
            "district": "嘉峪关市"
        }
    },
    {
        "id": "11596053151685069011",
        "title": "公共厕所",
        "address": "甘肃省嘉峪关市五一北路与嘉兴东路交叉口正北方向165米左右",
        "tel": "",
        "category": "基础设施:公共设施:公共厕所",
        "type": 0,
        "location": {
            "lat": 39.810965,
            "lng": 98.269827
        },
        "ad_info": {
            "adcode": 620200,
            "province": "甘肃省",
            "city": "嘉峪关市",
            "district": "嘉峪关市"
        }
    },
    {
        "id": "629575026548185411",
        "title": "公共厕所",
        "address": "甘肃省嘉峪关市兰新东路与钢城路交叉口正东方向51米左右",
        "tel": "",
        "category": "基础设施:公共设施:公共厕所",
        "type": 0,
        "location": {
            "lat": 39.787748,
            "lng": 98.300102
        },
        "ad_info": {
            "adcode": 620200,
            "province": "甘肃省",
            "city": "嘉峪关市",
            "district": "嘉峪关市"
        }
    },
    {
        "id": "14528402743369788499",
        "title": "公共厕所",
        "address": "甘肃省嘉峪关市嘉和馨苑西北侧140米",
        "tel": "",
        "category": "基础设施:公共设施:公共厕所",
        "type": 0,
        "location": {
            "lat": 39.80412,
            "lng": 98.253453
        },
        "ad_info": {
            "adcode": 620200,
            "province": "甘肃省",
            "city": "嘉峪关市",
            "district": "嘉峪关市"
        }
    },
    {
        "id": "6835552695916276373",
        "title": "公共卫生间",
        "address": "甘肃省嘉峪关市胜利南路嘉峪关市第二幼儿园",
        "tel": "",
        "category": "基础设施:公共设施:公共厕所",
        "type": 0,
        "location": {
            "lat": 39.780039,
            "lng": 98.276423
        },
        "ad_info": {
            "adcode": 620200,
            "province": "甘肃省",
            "city": "嘉峪关市",
            "district": "嘉峪关市"
        }
    },
    {
        "id": "1572132082296493379",
        "title": "公共厕所",
        "address": "甘肃省嘉峪关市新华中路五一北小区南门外",
        "tel": "",
        "category": "基础设施:公共设施:公共厕所",
        "type": 0,
        "location": {
            "lat": 39.796676,
            "lng": 98.273459
        },
        "ad_info": {
            "adcode": 620200,
            "province": "甘肃省",
            "city": "嘉峪关市",
            "district": "嘉峪关市"
        }
    },
    {
        "id": "9111477332734423170",
        "title": "公共厕所",
        "address": "甘肃省嘉峪关市方特大道与石关路交叉口正西方向114米左右",
        "tel": "",
        "category": "基础设施:公共设施:公共厕所",
        "type": 0,
        "location": {
            "lat": 39.751752,
            "lng": 98.329776
        },
        "ad_info": {
            "adcode": 620200,
            "province": "甘肃省",
            "city": "嘉峪关市",
            "district": "嘉峪关市"
        }
    },
    {
        "id": "12111949240782814729",
        "title": "公共厕所",
        "address": "甘肃省嘉峪关市体育大道辅路与玉泉南路辅路交叉口正北方向258米左右",
        "tel": "",
        "category": "基础设施:公共设施:公共厕所",
        "type": 0,
        "location": {
            "lat": 39.768714,
            "lng": 98.273841
        },
        "ad_info": {
            "adcode": 620200,
            "province": "甘肃省",
            "city": "嘉峪关市",
            "district": "嘉峪关市"
        }
    },
    {
        "id": "3459192315346832479",
        "title": "公共厕所",
        "address": "甘肃省嘉峪关市五一中路与五一北路交叉口东南方向287米左右",
        "tel": "",
        "category": "基础设施:公共设施:公共厕所",
        "type": 0,
        "location": {
            "lat": 39.797569,
            "lng": 98.277725
        },
        "ad_info": {
            "adcode": 620200,
            "province": "甘肃省",
            "city": "嘉峪关市",
            "district": "嘉峪关市"
        }
    },
    {
        "id": "10814034436797795610",
        "title": "公共厕所",
        "address": "甘肃省嘉峪关市新华中路辅路与雄关东路辅路交叉口正东方向158米左右",
        "tel": "",
        "category": "基础设施:公共设施:公共厕所",
        "type": 0,
        "location": {
            "lat": 39.798381,
            "lng": 98.273093
        },
        "ad_info": {
            "adcode": 620200,
            "province": "甘肃省",
            "city": "嘉峪关市",
            "district": "嘉峪关市"
        }
    },
    {
        "id": "1689642145048046694",
        "title": "公共厕所",
        "address": "甘肃省嘉峪关市迎宾西路辅路与阳关路辅路交叉口正东方向162米左右",
        "tel": "",
        "category": "基础设施:公共设施:公共厕所",
        "type": 0,
        "location": {
            "lat": 39.770051,
            "lng": 98.270549
        },
        "ad_info": {
            "adcode": 620200,
            "province": "甘肃省",
            "city": "嘉峪关市",
            "district": "嘉峪关市"
        }
    },
    {
        "id": "11288579523363285193",
        "title": "公共厕所",
        "address": "甘肃省嘉峪关市双拥路与峪新路交叉口西北方向61米左右",
        "tel": "",
        "category": "基础设施:公共设施:公共厕所",
        "type": 0,
        "location": {
            "lat": 39.807434,
            "lng": 98.231109
        },
        "ad_info": {
            "adcode": 620200,
            "province": "甘肃省",
            "city": "嘉峪关市",
            "district": "嘉峪关市"
        }
    },
    {
        "id": "17549568987777357800",
        "title": "公共厕所",
        "address": "甘肃省嘉峪关市体育大道与新华南路交叉口西北方向286米左右",
        "tel": "",
        "category": "基础设施:公共设施:公共厕所",
        "type": 0,
        "location": {
            "lat": 39.77332,
            "lng": 98.287011
        },
        "ad_info": {
            "adcode": 620200,
            "province": "甘肃省",
            "city": "嘉峪关市",
            "district": "嘉峪关市"
        }
    },
    {
        "id": "5678605089278365144",
        "title": "公共厕所",
        "address": "甘肃省嘉峪关市前进北路与西环南路交叉口西南方向70米左右",
        "tel": "",
        "category": "基础设施:公共设施:公共厕所",
        "type": 0,
        "location": {
            "lat": 39.774328,
            "lng": 98.253808
        },
        "ad_info": {
            "adcode": 620200,
            "province": "甘肃省",
            "city": "嘉峪关市",
            "district": "嘉峪关市"
        }
    },
    {
        "id": "1252683522675957395",
        "title": "公共厕所",
        "address": "甘肃省嘉峪关市迎宾西路与阳关路交叉口西北方向519米左右",
        "tel": "",
        "category": "基础设施:公共设施:公共厕所",
        "type": 0,
        "location": {
            "lat": 39.772755,
            "lng": 98.263355
        },
        "ad_info": {
            "adcode": 620200,
            "province": "甘肃省",
            "city": "嘉峪关市",
            "district": "嘉峪关市"
        }
    },
    {
        "id": "5419724298337877822",
        "title": "公共厕所",
        "address": "甘肃省嘉峪关市新城砖壁画博物馆东南侧110米",
        "tel": "",
        "category": "基础设施:公共设施:公共厕所",
        "type": 0,
        "location": {
            "lat": 39.84734,
            "lng": 98.432373
        },
        "ad_info": {
            "adcode": 620200,
            "province": "甘肃省",
            "city": "嘉峪关市",
            "district": "嘉峪关市"
        }
    },
    {
        "id": "6646864057595035594",
        "title": "公共厕所",
        "address": "甘肃省嘉峪关市方特大道与石关路交叉口正西方向112米左右",
        "tel": "",
        "category": "基础设施:公共设施:公共厕所",
        "type": 0,
        "location": {
            "lat": 39.752,
            "lng": 98.32989
        },
        "ad_info": {
            "adcode": 620200,
            "province": "甘肃省",
            "city": "嘉峪关市",
            "district": "嘉峪关市"
        }
    },
    {
        "id": "17277432036627850376",
        "title": "公共厕所",
        "address": "甘肃省嘉峪关市215省道与G30连霍高速出口交叉口西南50米",
        "tel": "",
        "category": "基础设施:公共设施:公共厕所",
        "type": 0,
        "location": {
            "lat": 39.797794,
            "lng": 98.118228
        },
        "ad_info": {
            "adcode": 620200,
            "province": "甘肃省",
            "city": "嘉峪关市",
            "district": "嘉峪关市"
        }
    },
    {
        "id": "12159241354794164102",
        "title": "公共厕所",
        "address": "甘肃省嘉峪关市文殊镇文殊社区卫生服务站北侧150米",
        "tel": "",
        "category": "基础设施:公共设施:公共厕所",
        "type": 0,
        "location": {
            "lat": 39.67369,
            "lng": 98.374476
        },
        "ad_info": {
            "adcode": 620200,
            "province": "甘肃省",
            "city": "嘉峪关市",
            "district": "嘉峪关市"
        }
    },
    {
        "id": "15363572489573306426",
        "title": "公共厕所",
        "address": "甘肃省嘉峪关市体育大道与新华南路交叉口东南方向139米左右",
        "tel": "",
        "category": "基础设施:公共设施:公共厕所",
        "type": 0,
        "location": {
            "lat": 39.770266,
            "lng": 98.289999
        },
        "ad_info": {
            "adcode": 620200,
            "province": "甘肃省",
            "city": "嘉峪关市",
            "district": "嘉峪关市"
        }
    },
    {
        "id": "2714945504704106636",
        "title": "公共厕所",
        "address": "甘肃省嘉峪关市312国道北150米",
        "tel": "",
        "category": "基础设施:公共设施:公共厕所",
        "type": 0,
        "location": {
            "lat": 39.817767,
            "lng": 98.074883
        },
        "ad_info": {
            "adcode": 620200,
            "province": "甘肃省",
            "city": "嘉峪关市",
            "district": "嘉峪关市"
        }
    },
    {
        "id": "7989627049879926553",
        "title": "公共厕所",
        "address": "甘肃省嘉峪关市新城镇横沟社区卫生服务站北侧80米",
        "tel": "",
        "category": "基础设施:公共设施:公共厕所",
        "type": 0,
        "location": {
            "lat": 39.874884,
            "lng": 98.365423
        },
        "ad_info": {
            "adcode": 620200,
            "province": "甘肃省",
            "city": "嘉峪关市",
            "district": "嘉峪关市"
        }
    },
    {
        "id": "16255762939550061987",
        "title": "无障碍公共厕所",
        "address": "甘肃省嘉峪关市富强西路与新华北路交叉口东北方向208米左右",
        "tel": "",
        "category": "基础设施:公共设施:公共厕所",
        "type": 0,
        "location": {
            "lat": 39.803384,
            "lng": 98.270063
        },
        "ad_info": {
            "adcode": 620200,
            "province": "甘肃省",
            "city": "嘉峪关市",
            "district": "嘉峪关市"
        }
    },
    {
        "id": "7895462364131209373",
        "title": "嘉峪关东湖生态旅游景区公共厕所",
        "address": "甘肃省嘉峪关市和城东路与五一南路交叉口东160米",
        "tel": "",
        "category": "基础设施:公共设施:公共厕所",
        "type": 0,
        "location": {
            "lat": 39.76789,
            "lng": 98.29663
        },
        "ad_info": {
            "adcode": 620200,
            "province": "甘肃省",
            "city": "嘉峪关市",
            "district": "嘉峪关市"
        }
    },
    {
        "id": "5333458000036932779",
        "title": "无障碍公共厕所",
        "address": "甘肃省嘉峪关市中核四O四医院康复医学中心东北侧100米",
        "tel": "",
        "category": "基础设施:公共设施:公共厕所",
        "type": 0,
        "location": {
            "lat": 39.758322,
            "lng": 98.268201
        },
        "ad_info": {
            "adcode": 620200,
            "province": "甘肃省",
            "city": "嘉峪关市",
            "district": "嘉峪关市"
        }
    },
    {
        "id": "15312739074586063306",
        "title": "无障碍公共厕所",
        "address": "甘肃省嘉峪关市前进北路与前进南路交叉口西北方向165米左右",
        "tel": "",
        "category": "基础设施:公共设施:公共厕所",
        "type": 0,
        "location": {
            "lat": 39.768745,
            "lng": 98.261627
        },
        "ad_info": {
            "adcode": 620200,
            "province": "甘肃省",
            "city": "嘉峪关市",
            "district": "嘉峪关市"
        }
    },
    {
        "id": "8744347519978255701",
        "title": "无障碍公共厕所",
        "address": "甘肃省嘉峪关市共和南路与迎宾西路交叉口正南方向69米左右",
        "tel": "",
        "category": "基础设施:公共设施:公共厕所",
        "type": 0,
        "location": {
            "lat": 39.768365,
            "lng": 98.26702
        },
        "ad_info": {
            "adcode": 620200,
            "province": "甘肃省",
            "city": "嘉峪关市",
            "district": "嘉峪关市"
        }
    },
    {
        "id": "5850098367004945991",
        "title": "无障碍旅游公共厕所",
        "address": "甘肃省嘉峪关市共和南路与和诚西路交叉口正南方向40米左右",
        "tel": "",
        "category": "基础设施:公共设施:公共厕所",
        "type": 0,
        "location": {
            "lat": 39.759681,
            "lng": 98.272181
        },
        "ad_info": {
            "adcode": 620200,
            "province": "甘肃省",
            "city": "嘉峪关市",
            "district": "嘉峪关市"
        }
    },
    {
        "id": "11928125146743387934",
        "title": "遗产公园一号厕所",
        "address": "甘肃省嘉峪关市双拥路与峪新路交叉口西南方向338米左右",
        "tel": "",
        "category": "基础设施:公共设施:公共厕所",
        "type": 0,
        "location": {
            "lat": 39.805069,
            "lng": 98.228823
        },
        "ad_info": {
            "adcode": 620200,
            "province": "甘肃省",
            "city": "嘉峪关市",
            "district": "嘉峪关市"
        }
    },
    {
        "id": "11845457824695833542",
        "title": "长城第一墩文物景区-公共厕所",
        "address": "甘肃省嘉峪关市关城南7公里处长城第一墩景区内",
        "tel": "",
        "category": "基础设施:公共设施:公共厕所",
        "type": 0,
        "location": {
            "lat": 39.742651,
            "lng": 98.196809
        },
        "ad_info": {
            "adcode": 620200,
            "province": "甘肃省",
            "city": "嘉峪关市",
            "district": "嘉峪关市"
        }
    },
    {
        "id": "11051507935869984809",
        "title": "公共厕所",
        "address": "甘肃省嘉峪关市大唐路与迎宾东路交叉口东南方向270米左右",
        "tel": "",
        "category": "基础设施:公共设施:公共厕所",
        "type": 0,
        "location": {
            "lat": 39.778223,
            "lng": 98.30047
        },
        "ad_info": {
            "adcode": 620200,
            "province": "甘肃省",
            "city": "嘉峪关市",
            "district": "嘉峪关市"
        }
    }
]