[
    {
        "id": "9263634634332793561",
        "title": "公共卫生间",
        "address": "吉林省四平市铁西区光明路7号天酒店(四平新华大街店)南侧约60米",
        "tel": "",
        "category": "基础设施:公共设施:公共厕所",
        "type": 0,
        "location": {
            "lat": 43.174171,
            "lng": 124.369344
        },
        "ad_info": {
            "adcode": 220302,
            "province": "吉林省",
            "city": "四平市",
            "district": "铁西区"
        }
    },
    {
        "id": "6716605650576012367",
        "title": "公共厕所",
        "address": "吉林省四平市铁西区公园北路与利群街交叉口东北方向87米左右",
        "tel": "",
        "category": "基础设施:公共设施:公共厕所",
        "type": 0,
        "location": {
            "lat": 43.179785,
            "lng": 124.349923
        },
        "ad_info": {
            "adcode": 220302,
            "province": "吉林省",
            "city": "四平市",
            "district": "铁西区"
        }
    },
    {
        "id": "2160226584006820325",
        "title": "公共厕所",
        "address": "吉林省四平市铁西区南体育街南湖小区(紫气大路)",
        "tel": "",
        "category": "基础设施:公共设施:公共厕所",
        "type": 0,
        "location": {
            "lat": 43.164968,
            "lng": 124.36386
        },
        "ad_info": {
            "adcode": 220302,
            "province": "吉林省",
            "city": "四平市",
            "district": "铁西区"
        }
    },
    {
        "id": "5554361737810031799",
        "title": "公共厕所",
        "address": "吉林省四平市铁西区滨河路与紫气大路交叉口西北方向108米左右",
        "tel": "",
        "category": "基础设施:公共设施:公共厕所",
        "type": 0,
        "location": {
            "lat": 43.170658,
            "lng": 124.347117
        },
        "ad_info": {
            "adcode": 220302,
            "province": "吉林省",
            "city": "四平市",
            "district": "铁西区"
        }
    },
    {
        "id": "6866378293555479156",
        "title": "公共厕所",
        "address": "吉林省四平市铁西区海银胡同与英雄大路辅路交叉口正北方向145米左右",
        "tel": "",
        "category": "基础设施:公共设施:公共厕所",
        "type": 0,
        "location": {
            "lat": 43.179013,
            "lng": 124.345085
        },
        "ad_info": {
            "adcode": 220302,
            "province": "吉林省",
            "city": "四平市",
            "district": "铁西区"
        }
    },
    {
        "id": "14387294268361119460",
        "title": "公共卫生间",
        "address": "吉林省四平市铁西区北地直街与爱民路交叉口正北方向96米左右",
        "tel": "",
        "category": "基础设施:公共设施:公共厕所",
        "type": 0,
        "location": {
            "lat": 43.183267,
            "lng": 124.356297
        },
        "ad_info": {
            "adcode": 220302,
            "province": "吉林省",
            "city": "四平市",
            "district": "铁西区"
        }
    },
    {
        "id": "2721272762260420572",
        "title": "公共厕所",
        "address": "吉林省四平市铁东区北一纬路与北十一经街交叉口东北方向105米左右",
        "tel": "",
        "category": "基础设施:公共设施:公共厕所",
        "type": 0,
        "location": {
            "lat": 43.167493,
            "lng": 124.402113
        },
        "ad_info": {
            "adcode": 220303,
            "province": "吉林省",
            "city": "四平市",
            "district": "铁东区"
        }
    },
    {
        "id": "6145797886289011816",
        "title": "公共厕所",
        "address": "吉林省四平市铁西区爱民路与迎春街交叉口西北方向22米左右",
        "tel": "",
        "category": "基础设施:公共设施:公共厕所",
        "type": 0,
        "location": {
            "lat": 43.18024,
            "lng": 124.364891
        },
        "ad_info": {
            "adcode": 220302,
            "province": "吉林省",
            "city": "四平市",
            "district": "铁西区"
        }
    },
    {
        "id": "7379158684552096055",
        "title": "公共卫生间",
        "address": "吉林省四平市铁西区北体育街与爱民路交叉口西南方向34米左右",
        "tel": "",
        "category": "基础设施:公共设施:公共厕所",
        "type": 0,
        "location": {
            "lat": 43.177495,
            "lng": 124.37168
        },
        "ad_info": {
            "adcode": 220302,
            "province": "吉林省",
            "city": "四平市",
            "district": "铁西区"
        }
    },
    {
        "id": "8472546361102474310",
        "title": "公共厕所",
        "address": "吉林省四平市铁东区东山一胡同与紫气大路辅路交叉口正南方向184米左右",
        "tel": "",
        "category": "基础设施:公共设施:公共厕所",
        "type": 0,
        "location": {
            "lat": 43.151771,
            "lng": 124.396635
        },
        "ad_info": {
            "adcode": 220303,
            "province": "吉林省",
            "city": "四平市",
            "district": "铁东区"
        }
    },
    {
        "id": "15483913933497199702",
        "title": "公共厕所",
        "address": "吉林省四平市双辽市东光北街与中兴路交叉口正西方向82米左右",
        "tel": "",
        "category": "基础设施:公共设施:公共厕所",
        "type": 0,
        "location": {
            "lat": 43.513554,
            "lng": 123.513917
        },
        "ad_info": {
            "adcode": 220382,
            "province": "吉林省",
            "city": "四平市",
            "district": "双辽市"
        }
    },
    {
        "id": "6234373316244209936",
        "title": "公共厕所",
        "address": "吉林省四平市梨树县奉德路(南段)与树文东街交叉口东北方向155米左右",
        "tel": "",
        "category": "基础设施:公共设施:公共厕所",
        "type": 0,
        "location": {
            "lat": 43.305423,
            "lng": 124.330086
        },
        "ad_info": {
            "adcode": 220322,
            "province": "吉林省",
            "city": "四平市",
            "district": "梨树县"
        }
    },
    {
        "id": "6219258867505642352",
        "title": "公共厕所",
        "address": "吉林省四平市铁东区南一纬路与南四经街交叉口西南方向47米左右",
        "tel": "",
        "category": "基础设施:公共设施:公共厕所",
        "type": 0,
        "location": {
            "lat": 43.166283,
            "lng": 124.386822
        },
        "ad_info": {
            "adcode": 220303,
            "province": "吉林省",
            "city": "四平市",
            "district": "铁东区"
        }
    },
    {
        "id": "6714280663685831908",
        "title": "公共厕所",
        "address": "吉林省四平市双辽市新市街658号",
        "tel": "",
        "category": "基础设施:公共设施:公共厕所",
        "type": 0,
        "location": {
            "lat": 43.51371,
            "lng": 123.506972
        },
        "ad_info": {
            "adcode": 220382,
            "province": "吉林省",
            "city": "四平市",
            "district": "双辽市"
        }
    },
    {
        "id": "7934455506793061967",
        "title": "公共厕所",
        "address": "吉林省四平市铁西区北迎宾街与滨河路交叉口西南方向34米左右",
        "tel": "",
        "category": "基础设施:公共设施:公共厕所",
        "type": 0,
        "location": {
            "lat": 43.185199,
            "lng": 124.364052
        },
        "ad_info": {
            "adcode": 220302,
            "province": "吉林省",
            "city": "四平市",
            "district": "铁西区"
        }
    },
    {
        "id": "6399136385816153956",
        "title": "公共厕所",
        "address": "吉林省四平市铁西区轱辘把路中兴大厦(英雄大路店)",
        "tel": "",
        "category": "基础设施:公共设施:公共厕所",
        "type": 0,
        "location": {
            "lat": 43.168425,
            "lng": 124.368869
        },
        "ad_info": {
            "adcode": 220302,
            "province": "吉林省",
            "city": "四平市",
            "district": "铁西区"
        }
    },
    {
        "id": "4290817953131210800",
        "title": "公共厕所",
        "address": "吉林省四平市铁西区北地直街与爱民路交叉口正西方向136米左右",
        "tel": "",
        "category": "基础设施:公共设施:公共厕所",
        "type": 0,
        "location": {
            "lat": 43.182056,
            "lng": 124.354603
        },
        "ad_info": {
            "adcode": 220302,
            "province": "吉林省",
            "city": "四平市",
            "district": "铁西区"
        }
    },
    {
        "id": "12746461632492155480",
        "title": "公共厕所",
        "address": "吉林省四平市铁西区X054与天龙路交叉口正北方向1896米左右",
        "tel": "",
        "category": "基础设施:公共设施:公共厕所",
        "type": 0,
        "location": {
            "lat": 43.282492,
            "lng": 124.487662
        },
        "ad_info": {
            "adcode": 220302,
            "province": "吉林省",
            "city": "四平市",
            "district": "铁西区"
        }
    },
    {
        "id": "6730764109249183789",
        "title": "公共厕所",
        "address": "吉林省四平市铁东区南二纬路与南十一经街交叉口正南方向214米左右",
        "tel": "",
        "category": "基础设施:公共设施:公共厕所",
        "type": 0,
        "location": {
            "lat": 43.158939,
            "lng": 124.396959
        },
        "ad_info": {
            "adcode": 220303,
            "province": "吉林省",
            "city": "四平市",
            "district": "铁东区"
        }
    },
    {
        "id": "15282432410016652815",
        "title": "公共卫生间",
        "address": "吉林省四平市铁东区团结街与新光路交叉口西南方向84米左右",
        "tel": "",
        "category": "基础设施:公共设施:公共厕所",
        "type": 0,
        "location": {
            "lat": 43.163501,
            "lng": 124.37588
        },
        "ad_info": {
            "adcode": 220303,
            "province": "吉林省",
            "city": "四平市",
            "district": "铁东区"
        }
    },
    {
        "id": "17904796675496905213",
        "title": "公共厕所",
        "address": "吉林省四平市铁东区北一纬路与北二经街交叉口东北方向24米左右",
        "tel": "",
        "category": "基础设施:公共设施:公共厕所",
        "type": 0,
        "location": {
            "lat": 43.171503,
            "lng": 124.387196
        },
        "ad_info": {
            "adcode": 220303,
            "province": "吉林省",
            "city": "四平市",
            "district": "铁东区"
        }
    },
    {
        "id": "13405440079098489546",
        "title": "公共厕所",
        "address": "吉林省四平市铁东区南二纬路与南二经街交叉口正北方向72米左右",
        "tel": "",
        "category": "基础设施:公共设施:公共厕所",
        "type": 0,
        "location": {
            "lat": 43.166157,
            "lng": 124.383338
        },
        "ad_info": {
            "adcode": 220303,
            "province": "吉林省",
            "city": "四平市",
            "district": "铁东区"
        }
    },
    {
        "id": "16302629874822971995",
        "title": "公共厕所",
        "address": "吉林省四平市双辽市中兴路与郑家屯大街交叉口正北方向49米左右",
        "tel": "",
        "category": "基础设施:公共设施:公共厕所",
        "type": 0,
        "location": {
            "lat": 43.5111,
            "lng": 123.500974
        },
        "ad_info": {
            "adcode": 220382,
            "province": "吉林省",
            "city": "四平市",
            "district": "双辽市"
        }
    },
    {
        "id": "11475904798123538768",
        "title": "公共厕所",
        "address": "吉林省四平市铁东区团结街四平市第三高中",
        "tel": "",
        "category": "基础设施:公共设施:公共厕所",
        "type": 0,
        "location": {
            "lat": 43.162193,
            "lng": 124.375337
        },
        "ad_info": {
            "adcode": 220303,
            "province": "吉林省",
            "city": "四平市",
            "district": "铁东区"
        }
    },
    {
        "id": "6298466667695258726",
        "title": "公共厕所",
        "address": "吉林省四平市铁东区团结街与新光路交叉口东北方向212米左右",
        "tel": "",
        "category": "基础设施:公共设施:公共厕所",
        "type": 0,
        "location": {
            "lat": 43.165912,
            "lng": 124.377431
        },
        "ad_info": {
            "adcode": 220303,
            "province": "吉林省",
            "city": "四平市",
            "district": "铁东区"
        }
    },
    {
        "id": "12259243053429151889",
        "title": "公共厕所",
        "address": "吉林省四平市铁东区紫气大路(四平东站)",
        "tel": "",
        "category": "基础设施:公共设施:公共厕所",
        "type": 0,
        "location": {
            "lat": 43.140006,
            "lng": 124.438929
        },
        "ad_info": {
            "adcode": 220303,
            "province": "吉林省",
            "city": "四平市",
            "district": "铁东区"
        }
    },
    {
        "id": "13847062263346401758",
        "title": "公共厕所",
        "address": "吉林省四平市铁东区北一经街与北二纬路交叉口正西方向133米左右",
        "tel": "",
        "category": "基础设施:公共设施:公共厕所",
        "type": 0,
        "location": {
            "lat": 43.174203,
            "lng": 124.385018
        },
        "ad_info": {
            "adcode": 220303,
            "province": "吉林省",
            "city": "四平市",
            "district": "铁东区"
        }
    },
    {
        "id": "4190846929743640654",
        "title": "公共厕所",
        "address": "吉林省四平市铁西区北仁兴街与大顺路交叉口东北方向54米左右",
        "tel": "",
        "category": "基础设施:公共设施:公共厕所",
        "type": 0,
        "location": {
            "lat": 43.18055,
            "lng": 124.377521
        },
        "ad_info": {
            "adcode": 220302,
            "province": "吉林省",
            "city": "四平市",
            "district": "铁西区"
        }
    },
    {
        "id": "15999203748947951960",
        "title": "公共厕所",
        "address": "吉林省四平市铁东区东山大街与长发路交叉口西南方向179米左右",
        "tel": "",
        "category": "基础设施:公共设施:公共厕所",
        "type": 0,
        "location": {
            "lat": 43.169068,
            "lng": 124.406082
        },
        "ad_info": {
            "adcode": 220303,
            "province": "吉林省",
            "city": "四平市",
            "district": "铁东区"
        }
    },
    {
        "id": "17776603909668259593",
        "title": "公共厕所",
        "address": "吉林省四平市铁西区四平航宇生态园西侧220米",
        "tel": "",
        "category": "基础设施:公共设施:公共厕所",
        "type": 0,
        "location": {
            "lat": 43.194047,
            "lng": 124.385227
        },
        "ad_info": {
            "adcode": 220302,
            "province": "吉林省",
            "city": "四平市",
            "district": "铁西区"
        }
    },
    {
        "id": "1728419256956622320",
        "title": "公共厕所",
        "address": "吉林省四平市铁东区六孔桥路与南一经街交叉口西南方向207米左右",
        "tel": "",
        "category": "基础设施:公共设施:公共厕所",
        "type": 0,
        "location": {
            "lat": 43.148301,
            "lng": 124.36993
        },
        "ad_info": {
            "adcode": 220303,
            "province": "吉林省",
            "city": "四平市",
            "district": "铁东区"
        }
    },
    {
        "id": "5117129476516532577",
        "title": "公共厕所",
        "address": "吉林省四平市梨树县东文明街与中央大路东路交叉口东北方向100米",
        "tel": "",
        "category": "基础设施:公共设施:公共厕所",
        "type": 0,
        "location": {
            "lat": 43.667368,
            "lng": 124.249943
        },
        "ad_info": {
            "adcode": 220322,
            "province": "吉林省",
            "city": "四平市",
            "district": "梨树县"
        }
    },
    {
        "id": "8095379245232487665",
        "title": "公共厕所",
        "address": "吉林省四平市铁东区南一纬路与南三经街交叉口西南方向72米左右",
        "tel": "",
        "category": "基础设施:公共设施:公共厕所",
        "type": 0,
        "location": {
            "lat": 43.166534,
            "lng": 124.385243
        },
        "ad_info": {
            "adcode": 220303,
            "province": "吉林省",
            "city": "四平市",
            "district": "铁东区"
        }
    },
    {
        "id": "1156544334360878146",
        "title": "公共厕所",
        "address": "吉林省四平市铁东区南五经街与南四纬路交叉口东北方向56米左右",
        "tel": "",
        "category": "基础设施:公共设施:公共厕所",
        "type": 0,
        "location": {
            "lat": 43.160535,
            "lng": 124.385479
        },
        "ad_info": {
            "adcode": 220303,
            "province": "吉林省",
            "city": "四平市",
            "district": "铁东区"
        }
    },
    {
        "id": "2880198568139239246",
        "title": "公共厕所",
        "address": "吉林省四平市铁西区交通街与爱民路交叉口东北方向104米左右",
        "tel": "",
        "category": "基础设施:公共设施:公共厕所",
        "type": 0,
        "location": {
            "lat": 43.182855,
            "lng": 124.358811
        },
        "ad_info": {
            "adcode": 220302,
            "province": "吉林省",
            "city": "四平市",
            "district": "铁西区"
        }
    },
    {
        "id": "6092092344687177638",
        "title": "公共厕所",
        "address": "吉林省四平市铁西区X053",
        "tel": "",
        "category": "基础设施:公共设施:公共厕所",
        "type": 0,
        "location": {
            "lat": 43.282112,
            "lng": 124.626999
        },
        "ad_info": {
            "adcode": 220302,
            "province": "吉林省",
            "city": "四平市",
            "district": "铁西区"
        }
    },
    {
        "id": "6126497395340471051",
        "title": "公共厕所",
        "address": "吉林省四平市铁西区G102与X053交叉口正南方向76米左右",
        "tel": "",
        "category": "基础设施:公共设施:公共厕所",
        "type": 0,
        "location": {
            "lat": 43.332761,
            "lng": 124.600843
        },
        "ad_info": {
            "adcode": 220302,
            "province": "吉林省",
            "city": "四平市",
            "district": "铁西区"
        }
    },
    {
        "id": "4740387829239283415",
        "title": "公共厕所",
        "address": "吉林省四平市铁西区Y012与四桑线交叉口正北方向658米左右",
        "tel": "",
        "category": "基础设施:公共设施:公共厕所",
        "type": 0,
        "location": {
            "lat": 43.236015,
            "lng": 124.38384
        },
        "ad_info": {
            "adcode": 220302,
            "province": "吉林省",
            "city": "四平市",
            "district": "铁西区"
        }
    },
    {
        "id": "6694736441647426674",
        "title": "公共厕所",
        "address": "吉林省四平市铁东区南一经街与南六纬路交叉口东北方向127米左右",
        "tel": "",
        "category": "基础设施:公共设施:公共厕所",
        "type": 0,
        "location": {
            "lat": 43.154854,
            "lng": 124.375971
        },
        "ad_info": {
            "adcode": 220303,
            "province": "吉林省",
            "city": "四平市",
            "district": "铁东区"
        }
    },
    {
        "id": "1035820128773230190",
        "title": "公共厕所",
        "address": "吉林省四平市铁西区X053与X056交叉口东北方向438米左右",
        "tel": "",
        "category": "基础设施:公共设施:公共厕所",
        "type": 0,
        "location": {
            "lat": 43.351656,
            "lng": 124.582586
        },
        "ad_info": {
            "adcode": 220302,
            "province": "吉林省",
            "city": "四平市",
            "district": "铁西区"
        }
    },
    {
        "id": "9360829219083554829",
        "title": "公共厕所",
        "address": "吉林省四平市铁东区万通鼓风机制造有限公司东北侧110米",
        "tel": "",
        "category": "基础设施:公共设施:公共厕所",
        "type": 0,
        "location": {
            "lat": 43.162364,
            "lng": 124.432073
        },
        "ad_info": {
            "adcode": 220303,
            "province": "吉林省",
            "city": "四平市",
            "district": "铁东区"
        }
    },
    {
        "id": "1231134557860309915",
        "title": "公共厕所",
        "address": "吉林省四平市铁西区英雄大路与英雄广场交叉口西北方向121米左右",
        "tel": "",
        "category": "基础设施:公共设施:公共厕所",
        "type": 0,
        "location": {
            "lat": 43.172259,
            "lng": 124.362159
        },
        "ad_info": {
            "adcode": 220302,
            "province": "吉林省",
            "city": "四平市",
            "district": "铁西区"
        }
    },
    {
        "id": "16823149538478120814",
        "title": "公共厕所",
        "address": "吉林省四平市双辽市北郊路与迎春街交叉口西北方向345米左右",
        "tel": "",
        "category": "基础设施:公共设施:公共厕所",
        "type": 0,
        "location": {
            "lat": 43.526635,
            "lng": 123.506939
        },
        "ad_info": {
            "adcode": 220382,
            "province": "吉林省",
            "city": "四平市",
            "district": "双辽市"
        }
    },
    {
        "id": "14807835964135962110",
        "title": "公共厕所",
        "address": "吉林省四平市铁东区北一经街与北二经街交叉口正北方向73米左右",
        "tel": "",
        "category": "基础设施:公共设施:公共厕所",
        "type": 0,
        "location": {
            "lat": 43.187377,
            "lng": 124.39501
        },
        "ad_info": {
            "adcode": 220303,
            "province": "吉林省",
            "city": "四平市",
            "district": "铁东区"
        }
    },
    {
        "id": "4364842520364052448",
        "title": "公共厕所",
        "address": "吉林省四平市双辽市东光街天朗明居",
        "tel": "",
        "category": "基础设施:公共设施:公共厕所",
        "type": 0,
        "location": {
            "lat": 43.506928,
            "lng": 123.515884
        },
        "ad_info": {
            "adcode": 220382,
            "province": "吉林省",
            "city": "四平市",
            "district": "双辽市"
        }
    },
    {
        "id": "9873373406099372244",
        "title": "公共厕所",
        "address": "吉林省四平市梨树县梨树镇梨树大路水利勘测设计院旁",
        "tel": "",
        "category": "基础设施:公共设施:公共厕所",
        "type": 0,
        "location": {
            "lat": 43.311111,
            "lng": 124.340063
        },
        "ad_info": {
            "adcode": 220322,
            "province": "吉林省",
            "city": "四平市",
            "district": "梨树县"
        }
    },
    {
        "id": "8499165102962494209",
        "title": "公共厕所",
        "address": "吉林省四平市双辽市105省道东100米",
        "tel": "",
        "category": "基础设施:公共设施:公共厕所",
        "type": 0,
        "location": {
            "lat": 43.743642,
            "lng": 124.057852
        },
        "ad_info": {
            "adcode": 220382,
            "province": "吉林省",
            "city": "四平市",
            "district": "双辽市"
        }
    },
    {
        "id": "17698052826492898534",
        "title": "公共厕所",
        "address": "吉林省四平市铁西区X053与沛公路交叉口正南方向159米左右",
        "tel": "",
        "category": "基础设施:公共设施:公共厕所",
        "type": 0,
        "location": {
            "lat": 43.345537,
            "lng": 124.587308
        },
        "ad_info": {
            "adcode": 220302,
            "province": "吉林省",
            "city": "四平市",
            "district": "铁西区"
        }
    },
    {
        "id": "1077143039589767497",
        "title": "公共厕所",
        "address": "吉林省四平市铁西区北滨河路与北迎宾街交叉口正东方向36米左右",
        "tel": "",
        "category": "基础设施:公共设施:公共厕所",
        "type": 0,
        "location": {
            "lat": 43.186202,
            "lng": 124.365363
        },
        "ad_info": {
            "adcode": 220302,
            "province": "吉林省",
            "city": "四平市",
            "district": "铁西区"
        }
    },
    {
        "id": "13900396223184945939",
        "title": "公共厕所",
        "address": "吉林省四平市铁东区六孔桥路与南一经街交叉口西北方向425米左右",
        "tel": "",
        "category": "基础设施:公共设施:公共厕所",
        "type": 0,
        "location": {
            "lat": 43.154046,
            "lng": 124.36855
        },
        "ad_info": {
            "adcode": 220303,
            "province": "吉林省",
            "city": "四平市",
            "district": "铁东区"
        }
    },
    {
        "id": "3369773824193094076",
        "title": "公共厕所",
        "address": "吉林省四平市铁东区桃源路四平市公安局铁东区分局北门派出所西北侧约160米",
        "tel": "",
        "category": "基础设施:公共设施:公共厕所",
        "type": 0,
        "location": {
            "lat": 43.188512,
            "lng": 124.396992
        },
        "ad_info": {
            "adcode": 220303,
            "province": "吉林省",
            "city": "四平市",
            "district": "铁东区"
        }
    },
    {
        "id": "4418188437502000149",
        "title": "公共厕所",
        "address": "吉林省四平市铁西区兴红路与虹桥街交叉口正东方向549米左右",
        "tel": "",
        "category": "基础设施:公共设施:公共厕所",
        "type": 0,
        "location": {
            "lat": 43.196632,
            "lng": 124.35537
        },
        "ad_info": {
            "adcode": 220302,
            "province": "吉林省",
            "city": "四平市",
            "district": "铁西区"
        }
    },
    {
        "id": "440418228740031961",
        "title": "公共厕所",
        "address": "吉林省四平市铁东区北一经街1876号",
        "tel": "",
        "category": "基础设施:公共设施:公共厕所",
        "type": 0,
        "location": {
            "lat": 43.185655,
            "lng": 124.394239
        },
        "ad_info": {
            "adcode": 220303,
            "province": "吉林省",
            "city": "四平市",
            "district": "铁东区"
        }
    },
    {
        "id": "73599883307896975",
        "title": "公共厕所",
        "address": "吉林省四平市铁东区G303与X054交叉口正西方向275米左右",
        "tel": "",
        "category": "基础设施:公共设施:公共厕所",
        "type": 0,
        "location": {
            "lat": 43.096218,
            "lng": 124.556411
        },
        "ad_info": {
            "adcode": 220303,
            "province": "吉林省",
            "city": "四平市",
            "district": "铁东区"
        }
    },
    {
        "id": "17144993521558337876",
        "title": "公共厕所",
        "address": "吉林省四平市双辽市东春路与新市街交叉口西南方向78米左右",
        "tel": "",
        "category": "基础设施:公共设施:公共厕所",
        "type": 0,
        "location": {
            "lat": 43.510021,
            "lng": 123.506315
        },
        "ad_info": {
            "adcode": 220382,
            "province": "吉林省",
            "city": "四平市",
            "district": "双辽市"
        }
    },
    {
        "id": "11260262603417812333",
        "title": "公共厕所",
        "address": "吉林省四平市双辽市种羊场卫生院北侧220米",
        "tel": "",
        "category": "基础设施:公共设施:公共厕所",
        "type": 0,
        "location": {
            "lat": 43.882156,
            "lng": 123.505241
        },
        "ad_info": {
            "adcode": 220382,
            "province": "吉林省",
            "city": "四平市",
            "district": "双辽市"
        }
    },
    {
        "id": "4197435226210142025",
        "title": "公共厕所",
        "address": "吉林省四平市梨树县健美东街与健美西街交叉口正南方向313米左右",
        "tel": "",
        "category": "基础设施:公共设施:公共厕所",
        "type": 0,
        "location": {
            "lat": 43.301541,
            "lng": 124.340344
        },
        "ad_info": {
            "adcode": 220322,
            "province": "吉林省",
            "city": "四平市",
            "district": "梨树县"
        }
    },
    {
        "id": "8590615571610397371",
        "title": "公共厕所",
        "address": "吉林省四平市伊通满族自治县永宁路与长营大街交叉口正西方向209米左右",
        "tel": "",
        "category": "基础设施:公共设施:公共厕所",
        "type": 0,
        "location": {
            "lat": 43.348833,
            "lng": 125.330642
        },
        "ad_info": {
            "adcode": 220323,
            "province": "吉林省",
            "city": "四平市",
            "district": "伊通满族自治县"
        }
    },
    {
        "id": "14305252856083383722",
        "title": "公共厕所",
        "address": "吉林省四平市铁西区Y073",
        "tel": "",
        "category": "基础设施:公共设施:公共厕所",
        "type": 0,
        "location": {
            "lat": 43.241348,
            "lng": 124.299065
        },
        "ad_info": {
            "adcode": 220302,
            "province": "吉林省",
            "city": "四平市",
            "district": "铁西区"
        }
    },
    {
        "id": "13258183507441184023",
        "title": "公共厕所",
        "address": "吉林省四平市铁西区G102与北一经街交叉口西南方向166米左右",
        "tel": "",
        "category": "基础设施:公共设施:公共厕所",
        "type": 0,
        "location": {
            "lat": 43.202238,
            "lng": 124.400329
        },
        "ad_info": {
            "adcode": 220302,
            "province": "吉林省",
            "city": "四平市",
            "district": "铁西区"
        }
    },
    {
        "id": "17106706373464669696",
        "title": "公共厕所",
        "address": "吉林省四平市双辽市X062与人和大路交叉口正西方向51米左右",
        "tel": "",
        "category": "基础设施:公共设施:公共厕所",
        "type": 0,
        "location": {
            "lat": 43.975256,
            "lng": 123.429265
        },
        "ad_info": {
            "adcode": 220382,
            "province": "吉林省",
            "city": "四平市",
            "district": "双辽市"
        }
    },
    {
        "id": "11137907222378385763",
        "title": "公共厕所",
        "address": "吉林省四平市双辽市G203与X062交叉口正南方向1839米左右",
        "tel": "",
        "category": "基础设施:公共设施:公共厕所",
        "type": 0,
        "location": {
            "lat": 43.938901,
            "lng": 123.860189
        },
        "ad_info": {
            "adcode": 220382,
            "province": "吉林省",
            "city": "四平市",
            "district": "双辽市"
        }
    },
    {
        "id": "10195837254382652775",
        "title": "公共厕所",
        "address": "吉林省四平市铁东区Y008与环城公路交叉口正北方向443米左右",
        "tel": "",
        "category": "基础设施:公共设施:公共厕所",
        "type": 0,
        "location": {
            "lat": 43.178238,
            "lng": 124.462947
        },
        "ad_info": {
            "adcode": 220303,
            "province": "吉林省",
            "city": "四平市",
            "district": "铁东区"
        }
    },
    {
        "id": "16027008423852375437",
        "title": "公共厕所",
        "address": "吉林省四平市铁东区团结街与新光路交叉口正北方向78米左右",
        "tel": "",
        "category": "基础设施:公共设施:公共厕所",
        "type": 0,
        "location": {
            "lat": 43.164843,
            "lng": 124.376609
        },
        "ad_info": {
            "adcode": 220303,
            "province": "吉林省",
            "city": "四平市",
            "district": "铁东区"
        }
    },
    {
        "id": "5834556490120061528",
        "title": "公共厕所",
        "address": "吉林省四平市铁西区二道沟村附近",
        "tel": "",
        "category": "基础设施:公共设施:公共厕所",
        "type": 0,
        "location": {
            "lat": 43.326093,
            "lng": 124.73429
        },
        "ad_info": {
            "adcode": 220302,
            "province": "吉林省",
            "city": "四平市",
            "district": "铁西区"
        }
    },
    {
        "id": "15552548916924124447",
        "title": "公共厕所",
        "address": "吉林省四平市铁西区京抚线君汇集团德利加油站(009乡道)",
        "tel": "",
        "category": "基础设施:公共设施:公共厕所",
        "type": 0,
        "location": {
            "lat": 43.21657,
            "lng": 124.436174
        },
        "ad_info": {
            "adcode": 220302,
            "province": "吉林省",
            "city": "四平市",
            "district": "铁西区"
        }
    },
    {
        "id": "13183333878476115373",
        "title": "公共厕所",
        "address": "吉林省四平市梨树县X053与经开大路交叉口正东方向1641米左右",
        "tel": "",
        "category": "基础设施:公共设施:公共厕所",
        "type": 0,
        "location": {
            "lat": 43.322095,
            "lng": 124.38351
        },
        "ad_info": {
            "adcode": 220322,
            "province": "吉林省",
            "city": "四平市",
            "district": "梨树县"
        }
    },
    {
        "id": "12113899087014107212",
        "title": "公共厕所",
        "address": "吉林省四平市双辽市人和大路与通裕街交叉口东南方向110米左右",
        "tel": "",
        "category": "基础设施:公共设施:公共厕所",
        "type": 0,
        "location": {
            "lat": 43.967543,
            "lng": 123.415836
        },
        "ad_info": {
            "adcode": 220382,
            "province": "吉林省",
            "city": "四平市",
            "district": "双辽市"
        }
    },
    {
        "id": "197006488131978010",
        "title": "公共厕所",
        "address": "吉林省四平市伊通满族自治县097乡道基督教福音堂附近",
        "tel": "",
        "category": "基础设施:公共设施:公共厕所",
        "type": 0,
        "location": {
            "lat": 43.304732,
            "lng": 125.178476
        },
        "ad_info": {
            "adcode": 220323,
            "province": "吉林省",
            "city": "四平市",
            "district": "伊通满族自治县"
        }
    },
    {
        "id": "11746831706908996517",
        "title": "公共厕所",
        "address": "吉林省四平市梨树县农机街与韩州大路北段交叉口西80米",
        "tel": "",
        "category": "基础设施:公共设施:公共厕所",
        "type": 0,
        "location": {
            "lat": 43.31686,
            "lng": 124.338555
        },
        "ad_info": {
            "adcode": 220322,
            "province": "吉林省",
            "city": "四平市",
            "district": "梨树县"
        }
    },
    {
        "id": "610216468678120861",
        "title": "公共厕所",
        "address": "吉林省四平市双辽市207省道附近",
        "tel": "",
        "category": "基础设施:公共设施:公共厕所",
        "type": 0,
        "location": {
            "lat": 43.892895,
            "lng": 123.502727
        },
        "ad_info": {
            "adcode": 220382,
            "province": "吉林省",
            "city": "四平市",
            "district": "双辽市"
        }
    },
    {
        "id": "6670694130662643939",
        "title": "公共厕所",
        "address": "吉林省四平市伊通满族自治县伊通大街与库仑大路交叉口正东方向378米左右",
        "tel": "",
        "category": "基础设施:公共设施:公共厕所",
        "type": 0,
        "location": {
            "lat": 43.335524,
            "lng": 125.310736
        },
        "ad_info": {
            "adcode": 220323,
            "province": "吉林省",
            "city": "四平市",
            "district": "伊通满族自治县"
        }
    },
    {
        "id": "4572638450745349836",
        "title": "公共厕所",
        "address": "吉林省四平市铁东区新光路与民主街交叉口正东方向32米左右",
        "tel": "",
        "category": "基础设施:公共设施:公共厕所",
        "type": 0,
        "location": {
            "lat": 43.164642,
            "lng": 124.375599
        },
        "ad_info": {
            "adcode": 220303,
            "province": "吉林省",
            "city": "四平市",
            "district": "铁东区"
        }
    },
    {
        "id": "14027719871632741248",
        "title": "公共厕所",
        "address": "吉林省四平市铁东区石岭镇中学东南侧210米",
        "tel": "",
        "category": "基础设施:公共设施:公共厕所",
        "type": 0,
        "location": {
            "lat": 43.096836,
            "lng": 124.704284
        },
        "ad_info": {
            "adcode": 220303,
            "province": "吉林省",
            "city": "四平市",
            "district": "铁东区"
        }
    },
    {
        "id": "8465848677488505546",
        "title": "公共厕所",
        "address": "吉林省四平市铁东区自由街与解放路交叉口东南方向31米左右",
        "tel": "",
        "category": "基础设施:公共设施:公共厕所",
        "type": 0,
        "location": {
            "lat": 43.173815,
            "lng": 124.381465
        },
        "ad_info": {
            "adcode": 220303,
            "province": "吉林省",
            "city": "四平市",
            "district": "铁东区"
        }
    },
    {
        "id": "11287347419097296788",
        "title": "公共厕所",
        "address": "吉林省四平市双辽市G203与X062交叉口西南方向41米左右",
        "tel": "",
        "category": "基础设施:公共设施:公共厕所",
        "type": 0,
        "location": {
            "lat": 43.954903,
            "lng": 123.864473
        },
        "ad_info": {
            "adcode": 220382,
            "province": "吉林省",
            "city": "四平市",
            "district": "双辽市"
        }
    },
    {
        "id": "15595443208717041906",
        "title": "公共厕所",
        "address": "吉林省四平市铁东区平东大街与重工路交叉口正东方向78米左右",
        "tel": "",
        "category": "基础设施:公共设施:公共厕所",
        "type": 0,
        "location": {
            "lat": 43.13866,
            "lng": 124.385278
        },
        "ad_info": {
            "adcode": 220303,
            "province": "吉林省",
            "city": "四平市",
            "district": "铁东区"
        }
    },
    {
        "id": "2143331892738099560",
        "title": "公共厕所",
        "address": "吉林省四平市铁东区303国道北50米",
        "tel": "",
        "category": "基础设施:公共设施:公共厕所",
        "type": 0,
        "location": {
            "lat": 43.097877,
            "lng": 124.528927
        },
        "ad_info": {
            "adcode": 220303,
            "province": "吉林省",
            "city": "四平市",
            "district": "铁东区"
        }
    },
    {
        "id": "7974956657267138603",
        "title": "公共厕所",
        "address": "吉林省四平市铁东区北一经街与北滨河路交叉口正东方向824米左右",
        "tel": "",
        "category": "基础设施:公共设施:公共厕所",
        "type": 0,
        "location": {
            "lat": 43.18511,
            "lng": 124.405041
        },
        "ad_info": {
            "adcode": 220303,
            "province": "吉林省",
            "city": "四平市",
            "district": "铁东区"
        }
    },
    {
        "id": "16770820801195787721",
        "title": "公共厕所",
        "address": "吉林省四平市铁东区北一经街与北河东路交叉口东南方向54米左右",
        "tel": "",
        "category": "基础设施:公共设施:公共厕所",
        "type": 0,
        "location": {
            "lat": 43.181724,
            "lng": 124.391964
        },
        "ad_info": {
            "adcode": 220303,
            "province": "吉林省",
            "city": "四平市",
            "district": "铁东区"
        }
    },
    {
        "id": "4432805000920477351",
        "title": "公共厕所",
        "address": "吉林省四平市梨树县奉公路与西买卖大街交叉口东南方向22米左右",
        "tel": "",
        "category": "基础设施:公共设施:公共厕所",
        "type": 0,
        "location": {
            "lat": 43.31001,
            "lng": 124.32273
        },
        "ad_info": {
            "adcode": 220322,
            "province": "吉林省",
            "city": "四平市",
            "district": "梨树县"
        }
    },
    {
        "id": "15415053363705636016",
        "title": "公共厕所",
        "address": "吉林省四平市双辽市北富路与郑园北街交叉口正南方向162米左右",
        "tel": "",
        "category": "基础设施:公共设施:公共厕所",
        "type": 0,
        "location": {
            "lat": 43.519849,
            "lng": 123.486456
        },
        "ad_info": {
            "adcode": 220382,
            "province": "吉林省",
            "city": "四平市",
            "district": "双辽市"
        }
    },
    {
        "id": "4925392249932966095",
        "title": "公主岭市法治文化广场-公共厕所",
        "address": "G102与光明路交叉口正东方向572米左右",
        "tel": "",
        "category": "基础设施:公共设施:公共厕所",
        "type": 0,
        "location": {
            "lat": 43.486483,
            "lng": 124.831923
        },
        "ad_info": {
            "adcode": 220381,
            "province": "吉林省",
            "city": "四平市",
            "district": ""
        }
    },
    {
        "id": "5874680437938728451",
        "title": "公共卫生间",
        "address": "吉林省四平市伊通满族自治县伊通大街2132号",
        "tel": "",
        "category": "基础设施:公共设施:公共厕所",
        "type": 0,
        "location": {
            "lat": 43.3404,
            "lng": 125.304536
        },
        "ad_info": {
            "adcode": 220323,
            "province": "吉林省",
            "city": "四平市",
            "district": "伊通满族自治县"
        }
    },
    {
        "id": "13732422362276800440",
        "title": "公共厕所",
        "address": "吉林省四平市双辽市东升街与南运路交叉口正北方向144米左右",
        "tel": "",
        "category": "基础设施:公共设施:公共厕所",
        "type": 0,
        "location": {
            "lat": 43.510362,
            "lng": 123.517539
        },
        "ad_info": {
            "adcode": 220382,
            "province": "吉林省",
            "city": "四平市",
            "district": "双辽市"
        }
    },
    {
        "id": "3241027033018511055",
        "title": "公共厕所",
        "address": "吉林省四平市双辽市辽东街道辽河路博岚源加油中心",
        "tel": "",
        "category": "基础设施:公共设施:公共厕所",
        "type": 0,
        "location": {
            "lat": 43.529049,
            "lng": 123.536254
        },
        "ad_info": {
            "adcode": 220382,
            "province": "吉林省",
            "city": "四平市",
            "district": "双辽市"
        }
    },
    {
        "id": "12838975050052277258",
        "title": "公共厕所",
        "address": "吉林省四平市双辽市东春路与南贸路交叉口正东方向56米左右",
        "tel": "",
        "category": "基础设施:公共设施:公共厕所",
        "type": 0,
        "location": {
            "lat": 43.508778,
            "lng": 123.516669
        },
        "ad_info": {
            "adcode": 220382,
            "province": "吉林省",
            "city": "四平市",
            "district": "双辽市"
        }
    },
    {
        "id": "2588471150230790607",
        "title": "公共厕所",
        "address": "吉林省四平市双辽市C195与S102交叉口西南方向1425米左右",
        "tel": "",
        "category": "基础设施:公共设施:公共厕所",
        "type": 0,
        "location": {
            "lat": 43.576552,
            "lng": 123.60854
        },
        "ad_info": {
            "adcode": 220382,
            "province": "吉林省",
            "city": "四平市",
            "district": "双辽市"
        }
    },
    {
        "id": "12240097402377530832",
        "title": "公共厕所",
        "address": "吉林省四平市双辽市种羊场(四平辽河农垦管理区)附近",
        "tel": "",
        "category": "基础设施:公共设施:公共厕所",
        "type": 0,
        "location": {
            "lat": 43.890685,
            "lng": 123.502699
        },
        "ad_info": {
            "adcode": 220382,
            "province": "吉林省",
            "city": "四平市",
            "district": "双辽市"
        }
    },
    {
        "id": "17022725884308457498",
        "title": "公共厕所",
        "address": "吉林省四平市梨树县康达农业开发有限责任公司附近",
        "tel": "",
        "category": "基础设施:公共设施:公共厕所",
        "type": 0,
        "location": {
            "lat": 43.315638,
            "lng": 124.250286
        },
        "ad_info": {
            "adcode": 220322,
            "province": "吉林省",
            "city": "四平市",
            "district": "梨树县"
        }
    },
    {
        "id": "534099087816589158",
        "title": "公共厕所",
        "address": "吉林省四平市铁东区南一纬路与南五经街交叉口正北方向101米左右",
        "tel": "",
        "category": "基础设施:公共设施:公共厕所",
        "type": 0,
        "location": {
            "lat": 43.166957,
            "lng": 124.389116
        },
        "ad_info": {
            "adcode": 220303,
            "province": "吉林省",
            "city": "四平市",
            "district": "铁东区"
        }
    },
    {
        "id": "11635782478906185406",
        "title": "公共厕所",
        "address": "吉林省四平市铁东区中央东路与北四经街交叉口东北方向48米左右",
        "tel": "",
        "category": "基础设施:公共设施:公共厕所",
        "type": 0,
        "location": {
            "lat": 43.168992,
            "lng": 124.389047
        },
        "ad_info": {
            "adcode": 220303,
            "province": "吉林省",
            "city": "四平市",
            "district": "铁东区"
        }
    },
    {
        "id": "15183690203854821237",
        "title": "公共厕所",
        "address": "吉林省四平市铁东区南八经街兴旺小区",
        "tel": "",
        "category": "基础设施:公共设施:公共厕所",
        "type": 0,
        "location": {
            "lat": 43.161957,
            "lng": 124.391699
        },
        "ad_info": {
            "adcode": 220303,
            "province": "吉林省",
            "city": "四平市",
            "district": "铁东区"
        }
    },
    {
        "id": "7561835078256988215",
        "title": "公共厕所",
        "address": "吉林省四平市铁东区民主街与民主路交叉口西南方向53米左右",
        "tel": "",
        "category": "基础设施:公共设施:公共厕所",
        "type": 0,
        "location": {
            "lat": 43.160585,
            "lng": 124.37272
        },
        "ad_info": {
            "adcode": 220303,
            "province": "吉林省",
            "city": "四平市",
            "district": "铁东区"
        }
    },
    {
        "id": "13487045093124566961",
        "title": "公共厕所",
        "address": "吉林省四平市铁西区卫校街与实验路交叉口东北方向187米左右",
        "tel": "",
        "category": "基础设施:公共设施:公共厕所",
        "type": 0,
        "location": {
            "lat": 43.171961,
            "lng": 124.35441
        },
        "ad_info": {
            "adcode": 220302,
            "province": "吉林省",
            "city": "四平市",
            "district": "铁西区"
        }
    },
    {
        "id": "12770525680827253644",
        "title": "公共厕所",
        "address": "吉林省四平市铁东区南三纬路与南八经街交叉口正东方向31米左右",
        "tel": "",
        "category": "基础设施:公共设施:公共厕所",
        "type": 0,
        "location": {
            "lat": 43.160784,
            "lng": 124.390977
        },
        "ad_info": {
            "adcode": 220303,
            "province": "吉林省",
            "city": "四平市",
            "district": "铁东区"
        }
    },
    {
        "id": "13290600219672447850",
        "title": "公共厕所",
        "address": "吉林省四平市铁东区北二纬路与联合化路交叉口正北方向75米左右",
        "tel": "",
        "category": "基础设施:公共设施:公共厕所",
        "type": 0,
        "location": {
            "lat": 43.171582,
            "lng": 124.395971
        },
        "ad_info": {
            "adcode": 220303,
            "province": "吉林省",
            "city": "四平市",
            "district": "铁东区"
        }
    },
    {
        "id": "4914289435194471081",
        "title": "公共厕所",
        "address": "吉林省四平市铁东区北二纬路与北八经街交叉口正东方向82米左右",
        "tel": "",
        "category": "基础设施:公共设施:公共厕所",
        "type": 0,
        "location": {
            "lat": 43.17039,
            "lng": 124.3979
        },
        "ad_info": {
            "adcode": 220303,
            "province": "吉林省",
            "city": "四平市",
            "district": "铁东区"
        }
    },
    {
        "id": "16795687489591950818",
        "title": "公共厕所",
        "address": "吉林省四平市铁东区植物园街与烟厂路交叉口西北方向243米左右",
        "tel": "",
        "category": "基础设施:公共设施:公共厕所",
        "type": 0,
        "location": {
            "lat": 43.144908,
            "lng": 124.399334
        },
        "ad_info": {
            "adcode": 220303,
            "province": "吉林省",
            "city": "四平市",
            "district": "铁东区"
        }
    },
    {
        "id": "16784536747545163598",
        "title": "公共厕所",
        "address": "吉林省四平市铁东区幸福街与解放胡同交叉口正南方向73米左右",
        "tel": "",
        "category": "基础设施:公共设施:公共厕所",
        "type": 0,
        "location": {
            "lat": 43.171545,
            "lng": 124.381247
        },
        "ad_info": {
            "adcode": 220303,
            "province": "吉林省",
            "city": "四平市",
            "district": "铁东区"
        }
    },
    {
        "id": "2532704285065323403",
        "title": "公共厕所",
        "address": "吉林省四平市铁东区北一经街与联合化路交叉口正北方向94米左右",
        "tel": "",
        "category": "基础设施:公共设施:公共厕所",
        "type": 0,
        "location": {
            "lat": 43.178819,
            "lng": 124.389476
        },
        "ad_info": {
            "adcode": 220303,
            "province": "吉林省",
            "city": "四平市",
            "district": "铁东区"
        }
    },
    {
        "id": "10020821878889062589",
        "title": "公共厕所",
        "address": "吉林省四平市铁东区工人路与幸福街交叉口正北方向131米左右",
        "tel": "",
        "category": "基础设施:公共设施:公共厕所",
        "type": 0,
        "location": {
            "lat": 43.175779,
            "lng": 124.383535
        },
        "ad_info": {
            "adcode": 220303,
            "province": "吉林省",
            "city": "四平市",
            "district": "铁东区"
        }
    },
    {
        "id": "18319142095783998951",
        "title": "公共厕所",
        "address": "吉林省四平市铁西区北邮电街华城明珠",
        "tel": "",
        "category": "基础设施:公共设施:公共厕所",
        "type": 0,
        "location": {
            "lat": 43.178054,
            "lng": 124.374032
        },
        "ad_info": {
            "adcode": 220302,
            "province": "吉林省",
            "city": "四平市",
            "district": "铁西区"
        }
    },
    {
        "id": "4997919885295325952",
        "title": "公共厕所",
        "address": "吉林省四平市铁西区公园北路与南西桥街交叉口东北方向144米左右",
        "tel": "",
        "category": "基础设施:公共设施:公共厕所",
        "type": 0,
        "location": {
            "lat": 43.180729,
            "lng": 124.348824
        },
        "ad_info": {
            "adcode": 220302,
            "province": "吉林省",
            "city": "四平市",
            "district": "铁西区"
        }
    },
    {
        "id": "9840788469799298183",
        "title": "公共厕所",
        "address": "吉林省四平市铁西区公园北路与滨河路交叉口正南方向25米左右",
        "tel": "",
        "category": "基础设施:公共设施:公共厕所",
        "type": 0,
        "location": {
            "lat": 43.180912,
            "lng": 124.344095
        },
        "ad_info": {
            "adcode": 220302,
            "province": "吉林省",
            "city": "四平市",
            "district": "铁西区"
        }
    },
    {
        "id": "7648007801409944701",
        "title": "公共厕所",
        "address": "吉林省四平市铁西区中央西路吉林省脑科医院",
        "tel": "",
        "category": "基础设施:公共设施:公共厕所",
        "type": 0,
        "location": {
            "lat": 43.177513,
            "lng": 124.362238
        },
        "ad_info": {
            "adcode": 220302,
            "province": "吉林省",
            "city": "四平市",
            "district": "铁西区"
        }
    },
    {
        "id": "10893383058902255885",
        "title": "公共厕所",
        "address": "吉林省四平市铁西区公园北路与南迎宾街交叉口东北方向58米左右",
        "tel": "",
        "category": "基础设施:公共设施:公共厕所",
        "type": 0,
        "location": {
            "lat": 43.176154,
            "lng": 124.359018
        },
        "ad_info": {
            "adcode": 220302,
            "province": "吉林省",
            "city": "四平市",
            "district": "铁西区"
        }
    },
    {
        "id": "5460461039657094302",
        "title": "公共厕所",
        "address": "吉林省四平市伊通满族自治县振康街与永平路交叉口正南方向375米左右",
        "tel": "",
        "category": "基础设施:公共设施:公共厕所",
        "type": 0,
        "location": {
            "lat": 43.336875,
            "lng": 125.310718
        },
        "ad_info": {
            "adcode": 220323,
            "province": "吉林省",
            "city": "四平市",
            "district": "伊通满族自治县"
        }
    },
    {
        "id": "15648086669682774611",
        "title": "公共厕所",
        "address": "吉林省四平市双辽市勇士街与辽河路交叉口正西方向238米左右",
        "tel": "",
        "category": "基础设施:公共设施:公共厕所",
        "type": 0,
        "location": {
            "lat": 43.517202,
            "lng": 123.475915
        },
        "ad_info": {
            "adcode": 220382,
            "province": "吉林省",
            "city": "四平市",
            "district": "双辽市"
        }
    },
    {
        "id": "991971337384643425",
        "title": "公共厕所",
        "address": "吉林省四平市梨树县康乐路与辽河大街交叉口东北方向46米左右",
        "tel": "",
        "category": "基础设施:公共设施:公共厕所",
        "type": 0,
        "location": {
            "lat": 43.667821,
            "lng": 124.244266
        },
        "ad_info": {
            "adcode": 220322,
            "province": "吉林省",
            "city": "四平市",
            "district": "梨树县"
        }
    },
    {
        "id": "9872757607992827197",
        "title": "公共厕所",
        "address": "吉林省四平市梨树县健美西街与韩州大路南段交叉口西100米",
        "tel": "",
        "category": "基础设施:公共设施:公共厕所",
        "type": 0,
        "location": {
            "lat": 43.304412,
            "lng": 124.339029
        },
        "ad_info": {
            "adcode": 220322,
            "province": "吉林省",
            "city": "四平市",
            "district": "梨树县"
        }
    },
    {
        "id": "11073981398147907064",
        "title": "公共厕所",
        "address": "吉林省四平市梨树县西买卖大街与西环北路交叉口正北方向255米左右",
        "tel": "",
        "category": "基础设施:公共设施:公共厕所",
        "type": 0,
        "location": {
            "lat": 43.312328,
            "lng": 124.320856
        },
        "ad_info": {
            "adcode": 220322,
            "province": "吉林省",
            "city": "四平市",
            "district": "梨树县"
        }
    },
    {
        "id": "8136492965295180490",
        "title": "水冲公共厕所",
        "address": "吉林省四平市铁东区南一经街与南三纬路交叉口正北方向136米左右",
        "tel": "",
        "category": "基础设施:公共设施:公共厕所",
        "type": 0,
        "location": {
            "lat": 43.165297,
            "lng": 124.380332
        },
        "ad_info": {
            "adcode": 220303,
            "province": "吉林省",
            "city": "四平市",
            "district": "铁东区"
        }
    },
    {
        "id": "1024221951699068430",
        "title": "双辽服务区公共厕所",
        "address": "吉林省四平市双辽市G45大广高速东100米",
        "tel": "",
        "category": "基础设施:公共设施:公共厕所",
        "type": 0,
        "location": {
            "lat": 43.730204,
            "lng": 123.7281
        },
        "ad_info": {
            "adcode": 220382,
            "province": "吉林省",
            "city": "四平市",
            "district": "双辽市"
        }
    },
    {
        "id": "11557836741028070205",
        "title": "四平服务区公共厕所",
        "address": "吉林省四平市铁东区G1京哈高速附近",
        "tel": "",
        "category": "基础设施:公共设施:公共厕所",
        "type": 0,
        "location": {
            "lat": 43.175608,
            "lng": 124.489317
        },
        "ad_info": {
            "adcode": 220303,
            "province": "吉林省",
            "city": "四平市",
            "district": "铁东区"
        }
    },
    {
        "id": "1172085723052217354",
        "title": "四平服务区公共厕所",
        "address": "吉林省四平市铁东区G1京哈高速附近",
        "tel": "",
        "category": "基础设施:公共设施:公共厕所",
        "type": 0,
        "location": {
            "lat": 43.173825,
            "lng": 124.491227
        },
        "ad_info": {
            "adcode": 220303,
            "province": "吉林省",
            "city": "四平市",
            "district": "铁东区"
        }
    },
    {
        "id": "16637353494146294377",
        "title": "无障碍公共厕所",
        "address": "吉林省四平市铁东区东山大街与北二纬路交叉口正东方向235米左右",
        "tel": "",
        "category": "基础设施:公共设施:公共厕所",
        "type": 0,
        "location": {
            "lat": 43.167656,
            "lng": 124.409553
        },
        "ad_info": {
            "adcode": 220303,
            "province": "吉林省",
            "city": "四平市",
            "district": "铁东区"
        }
    },
    {
        "id": "11264198698234438786",
        "title": "双辽服务区第二公共厕所",
        "address": "吉林省四平市双辽市G45大广高速附近",
        "tel": "",
        "category": "基础设施:公共设施:公共厕所",
        "type": 0,
        "location": {
            "lat": 43.730621,
            "lng": 123.725867
        },
        "ad_info": {
            "adcode": 220382,
            "province": "吉林省",
            "city": "四平市",
            "district": "双辽市"
        }
    },
    {
        "id": "13524489720487229734",
        "title": "靠山屯服务区公共厕所",
        "address": "吉林省四平市铁西区靠山屯停车区东50米",
        "tel": "",
        "category": "基础设施:公共设施:公共厕所",
        "type": 0,
        "location": {
            "lat": 43.269365,
            "lng": 124.574051
        },
        "ad_info": {
            "adcode": 220302,
            "province": "吉林省",
            "city": "四平市",
            "district": "铁西区"
        }
    },
    {
        "id": "4636647156812205416",
        "title": "毛家店服务区第一公共厕所",
        "address": "吉林省四平市铁东区京哈高速毛家店服务区",
        "tel": "",
        "category": "基础设施:公共设施:公共厕所",
        "type": 0,
        "location": {
            "lat": 43.091064,
            "lng": 124.401672
        },
        "ad_info": {
            "adcode": 220303,
            "province": "吉林省",
            "city": "四平市",
            "district": "铁东区"
        }
    },
    {
        "id": "3580788690696428218",
        "title": "公共厕所",
        "address": "吉林省四平市伊通满族自治县永平路36号",
        "tel": "",
        "category": "基础设施:公共设施:公共厕所",
        "type": 0,
        "location": {
            "lat": 43.34016,
            "lng": 125.310747
        },
        "ad_info": {
            "adcode": 220323,
            "province": "吉林省",
            "city": "四平市",
            "district": "伊通满族自治县"
        }
    },
    {
        "id": "10861627035109605225",
        "title": "女洗手间(国商百货)",
        "address": "吉林省四平市铁西区公园北路与南仁兴街交叉口西北100米国商百货F2层",
        "tel": "",
        "category": "基础设施:公共设施:公共厕所",
        "type": 0,
        "location": {
            "lat": 43.172027,
            "lng": 124.370921
        },
        "ad_info": {
            "adcode": 220302,
            "province": "吉林省",
            "city": "四平市",
            "district": "铁西区"
        }
    },
    {
        "id": "7566355610195725533",
        "title": "公共厕所",
        "address": "吉林省四平市双辽市S102与Y112交叉口正南方向65米左右",
        "tel": "",
        "category": "基础设施:公共设施:公共厕所",
        "type": 0,
        "location": {
            "lat": 43.685882,
            "lng": 123.896576
        },
        "ad_info": {
            "adcode": 220382,
            "province": "吉林省",
            "city": "四平市",
            "district": "双辽市"
        }
    },
    {
        "id": "1052586184862419344",
        "title": "公共厕所",
        "address": "吉林省四平市双辽市丽霞食品商店北侧70米",
        "tel": "",
        "category": "基础设施:公共设施:公共厕所",
        "type": 0,
        "location": {
            "lat": 43.500824,
            "lng": 123.498984
        },
        "ad_info": {
            "adcode": 220382,
            "province": "吉林省",
            "city": "四平市",
            "district": "双辽市"
        }
    },
    {
        "id": "3330047212961178854",
        "title": "公共厕所",
        "address": "吉林省四平市铁西区富才路与站前街交叉口东北方向67米左右",
        "tel": "",
        "category": "基础设施:公共设施:公共厕所",
        "type": 0,
        "location": {
            "lat": 43.164919,
            "lng": 124.369857
        },
        "ad_info": {
            "adcode": 220302,
            "province": "吉林省",
            "city": "四平市",
            "district": "铁西区"
        }
    },
    {
        "id": "14224195077238371017",
        "title": "公共厕所",
        "address": "吉林省四平市铁西区乐群路与南仁兴街交叉口正东方向26米左右",
        "tel": "",
        "category": "基础设施:公共设施:公共厕所",
        "type": 0,
        "location": {
            "lat": 43.166477,
            "lng": 124.368263
        },
        "ad_info": {
            "adcode": 220302,
            "province": "吉林省",
            "city": "四平市",
            "district": "铁西区"
        }
    },
    {
        "id": "18311158650260173373",
        "title": "靠山屯服务区公共厕所",
        "address": "吉林省四平市铁西区靠山屯停车区西50米",
        "tel": "",
        "category": "基础设施:公共设施:公共厕所",
        "type": 0,
        "location": {
            "lat": 43.27125,
            "lng": 124.571362
        },
        "ad_info": {
            "adcode": 220302,
            "province": "吉林省",
            "city": "四平市",
            "district": "铁西区"
        }
    },
    {
        "id": "9628430532630796211",
        "title": "公共厕所",
        "address": "吉林省四平市双辽市119乡道北50米",
        "tel": "",
        "category": "基础设施:公共设施:公共厕所",
        "type": 0,
        "location": {
            "lat": 43.870662,
            "lng": 123.512857
        },
        "ad_info": {
            "adcode": 220382,
            "province": "吉林省",
            "city": "四平市",
            "district": "双辽市"
        }
    },
    {
        "id": "5974223522818679400",
        "title": "公共厕所",
        "address": "吉林省四平市双辽市辽河路与郑家屯大街交叉口东南方向55米左右",
        "tel": "",
        "category": "基础设施:公共设施:公共厕所",
        "type": 0,
        "location": {
            "lat": 43.51799,
            "lng": 123.50083
        },
        "ad_info": {
            "adcode": 220382,
            "province": "吉林省",
            "city": "四平市",
            "district": "双辽市"
        }
    },
    {
        "id": "10876494534192960490",
        "title": "公共厕所",
        "address": "吉林省四平市双辽市南贸路与迎春街交叉口西南方向44米左右",
        "tel": "",
        "category": "基础设施:公共设施:公共厕所",
        "type": 0,
        "location": {
            "lat": 43.50792,
            "lng": 123.511797
        },
        "ad_info": {
            "adcode": 220382,
            "province": "吉林省",
            "city": "四平市",
            "district": "双辽市"
        }
    },
    {
        "id": "10204763291142168173",
        "title": "公共厕所",
        "address": "吉林省四平市铁西区利民街与北利民街交叉口东南方向118米左右",
        "tel": "",
        "category": "基础设施:公共设施:公共厕所",
        "type": 0,
        "location": {
            "lat": 43.182661,
            "lng": 124.352703
        },
        "ad_info": {
            "adcode": 220302,
            "province": "吉林省",
            "city": "四平市",
            "district": "铁西区"
        }
    },
    {
        "id": "12089573172829814950",
        "title": "公共厕所",
        "address": "吉林省四平市伊通满族自治县寿山湖生态山庄东侧80米",
        "tel": "",
        "category": "基础设施:公共设施:公共厕所",
        "type": 0,
        "location": {
            "lat": 43.171193,
            "lng": 125.512975
        },
        "ad_info": {
            "adcode": 220323,
            "province": "吉林省",
            "city": "四平市",
            "district": "伊通满族自治县"
        }
    },
    {
        "id": "15352133468604686564",
        "title": "公共厕所",
        "address": "吉林省四平市铁东区北滨河路与幸福街交叉口东南方向17米左右",
        "tel": "",
        "category": "基础设施:公共设施:公共厕所",
        "type": 0,
        "location": {
            "lat": 43.18516,
            "lng": 124.389089
        },
        "ad_info": {
            "adcode": 220303,
            "province": "吉林省",
            "city": "四平市",
            "district": "铁东区"
        }
    },
    {
        "id": "13569212737829907841",
        "title": "水冲公共厕所",
        "address": "吉林省四平市铁东区南一经街与南三纬路交叉口西北方向114米左右",
        "tel": "",
        "category": "基础设施:公共设施:公共厕所",
        "type": 0,
        "location": {
            "lat": 43.165001,
            "lng": 124.37979
        },
        "ad_info": {
            "adcode": 220303,
            "province": "吉林省",
            "city": "四平市",
            "district": "铁东区"
        }
    },
    {
        "id": "10138067060503459665",
        "title": "公共厕所",
        "address": "吉林省四平市铁西区G102与天龙路交叉口西南方向303米左右",
        "tel": "",
        "category": "基础设施:公共设施:公共厕所",
        "type": 0,
        "location": {
            "lat": 43.269619,
            "lng": 124.507519
        },
        "ad_info": {
            "adcode": 220302,
            "province": "吉林省",
            "city": "四平市",
            "district": "铁西区"
        }
    },
    {
        "id": "2888494075067684310",
        "title": "公共厕所",
        "address": "吉林省四平市铁西区北新华大街与滨河路交叉口东北方向216米左右",
        "tel": "",
        "category": "基础设施:公共设施:公共厕所",
        "type": 0,
        "location": {
            "lat": 43.188463,
            "lng": 124.379229
        },
        "ad_info": {
            "adcode": 220302,
            "province": "吉林省",
            "city": "四平市",
            "district": "铁西区"
        }
    },
    {
        "id": "7263134930429357102",
        "title": "公共厕所",
        "address": "吉林省四平市铁东区001乡道东50米",
        "tel": "",
        "category": "基础设施:公共设施:公共厕所",
        "type": 0,
        "location": {
            "lat": 43.093805,
            "lng": 124.401925
        },
        "ad_info": {
            "adcode": 220303,
            "province": "吉林省",
            "city": "四平市",
            "district": "铁东区"
        }
    },
    {
        "id": "14820446413402854791",
        "title": "公共厕所",
        "address": "吉林省四平市铁东区平东大街与重工路交叉口正西方向141米左右",
        "tel": "",
        "category": "基础设施:公共设施:公共厕所",
        "type": 0,
        "location": {
            "lat": 43.138427,
            "lng": 124.382724
        },
        "ad_info": {
            "adcode": 220303,
            "province": "吉林省",
            "city": "四平市",
            "district": "铁东区"
        }
    },
    {
        "id": "18237383751414709476",
        "title": "公共厕所",
        "address": "吉林省四平市铁东区东山大街与长发路交叉口正西方向163米左右",
        "tel": "",
        "category": "基础设施:公共设施:公共厕所",
        "type": 0,
        "location": {
            "lat": 43.169318,
            "lng": 124.406173
        },
        "ad_info": {
            "adcode": 220303,
            "province": "吉林省",
            "city": "四平市",
            "district": "铁东区"
        }
    },
    {
        "id": "12285862064751945815",
        "title": "公共厕所",
        "address": "吉林省四平市铁东区东山大街与南二纬路交叉口正北方向152米左右",
        "tel": "",
        "category": "基础设施:公共设施:公共厕所",
        "type": 0,
        "location": {
            "lat": 43.160889,
            "lng": 124.401063
        },
        "ad_info": {
            "adcode": 220303,
            "province": "吉林省",
            "city": "四平市",
            "district": "铁东区"
        }
    },
    {
        "id": "351709597011154624",
        "title": "公共厕所",
        "address": "吉林省四平市铁西区老干部局综合楼东侧130米",
        "tel": "",
        "category": "基础设施:公共设施:公共厕所",
        "type": 0,
        "location": {
            "lat": 43.157181,
            "lng": 124.358105
        },
        "ad_info": {
            "adcode": 220302,
            "province": "吉林省",
            "city": "四平市",
            "district": "铁西区"
        }
    },
    {
        "id": "13283410057359661511",
        "title": "公共厕所",
        "address": "吉林省四平市铁西区河南路与海丰大街交叉口西南方向66米左右",
        "tel": "",
        "category": "基础设施:公共设施:公共厕所",
        "type": 0,
        "location": {
            "lat": 43.160231,
            "lng": 124.357537
        },
        "ad_info": {
            "adcode": 220302,
            "province": "吉林省",
            "city": "四平市",
            "district": "铁西区"
        }
    },
    {
        "id": "18333950932534147876",
        "title": "公共厕所",
        "address": "吉林省四平市梨树县农机街(西段)与农机街交叉口正南方向83米左右",
        "tel": "",
        "category": "基础设施:公共设施:公共厕所",
        "type": 0,
        "location": {
            "lat": 43.316197,
            "lng": 124.336978
        },
        "ad_info": {
            "adcode": 220322,
            "province": "吉林省",
            "city": "四平市",
            "district": "梨树县"
        }
    },
    {
        "id": "8015138059644109796",
        "title": "公共厕所",
        "address": "吉林省四平市伊通满族自治县正阳胡同与蓝齐儿路交叉口西北方向112米左右",
        "tel": "",
        "category": "基础设施:公共设施:公共厕所",
        "type": 0,
        "location": {
            "lat": 43.348319,
            "lng": 125.29764
        },
        "ad_info": {
            "adcode": 220323,
            "province": "吉林省",
            "city": "四平市",
            "district": "伊通满族自治县"
        }
    },
    {
        "id": "2639294850116264494",
        "title": "公共厕所",
        "address": "吉林省四平市铁西区公园北路百货大楼商业综合体2楼",
        "tel": "",
        "category": "基础设施:公共设施:公共厕所",
        "type": 0,
        "location": {
            "lat": 43.171861,
            "lng": 124.369504
        },
        "ad_info": {
            "adcode": 220302,
            "province": "吉林省",
            "city": "四平市",
            "district": "铁西区"
        }
    },
    {
        "id": "16726468780250530131",
        "title": "公共厕所",
        "address": "吉林省四平市铁西区北地直街与爱民路交叉口正北方向167米左右",
        "tel": "",
        "category": "基础设施:公共设施:公共厕所",
        "type": 0,
        "location": {
            "lat": 43.183915,
            "lng": 124.356278
        },
        "ad_info": {
            "adcode": 220302,
            "province": "吉林省",
            "city": "四平市",
            "district": "铁西区"
        }
    },
    {
        "id": "2639535607725500399",
        "title": "公共厕所",
        "address": "吉林省四平市铁东区东丰路与南一经街交叉口西北方向509米左右",
        "tel": "",
        "category": "基础设施:公共设施:公共厕所",
        "type": 0,
        "location": {
            "lat": 43.144112,
            "lng": 124.361592
        },
        "ad_info": {
            "adcode": 220303,
            "province": "吉林省",
            "city": "四平市",
            "district": "铁东区"
        }
    },
    {
        "id": "834700844025274601",
        "title": "梨树服务区公共厕所",
        "address": "吉林省四平市铁西区G1112集双高速与梨树服务区交叉口东南500米",
        "tel": "",
        "category": "基础设施:公共设施:公共厕所",
        "type": 0,
        "location": {
            "lat": 43.258662,
            "lng": 124.422564
        },
        "ad_info": {
            "adcode": 220302,
            "province": "吉林省",
            "city": "四平市",
            "district": "铁西区"
        }
    },
    {
        "id": "2727843973120434201",
        "title": "公共厕所",
        "address": "吉林省四平市铁东区和平街与建华路交叉口西南方向214米左右",
        "tel": "",
        "category": "基础设施:公共设施:公共厕所",
        "type": 0,
        "location": {
            "lat": 43.1656,
            "lng": 124.37863
        },
        "ad_info": {
            "adcode": 220303,
            "province": "吉林省",
            "city": "四平市",
            "district": "铁东区"
        }
    },
    {
        "id": "11622437954408325144",
        "title": "公共厕所",
        "address": "吉林省四平市铁东区东盛路与烟厂路交叉口正北方向60米左右",
        "tel": "",
        "category": "基础设施:公共设施:公共厕所",
        "type": 0,
        "location": {
            "lat": 43.135548,
            "lng": 124.410067
        },
        "ad_info": {
            "adcode": 220303,
            "province": "吉林省",
            "city": "四平市",
            "district": "铁东区"
        }
    },
    {
        "id": "12557600427094203739",
        "title": "公共厕所",
        "address": "吉林省四平市铁西区兴红路与北迎宾街交叉口正西方向367米左右",
        "tel": "",
        "category": "基础设施:公共设施:公共厕所",
        "type": 0,
        "location": {
            "lat": 43.194554,
            "lng": 124.36414
        },
        "ad_info": {
            "adcode": 220302,
            "province": "吉林省",
            "city": "四平市",
            "district": "铁西区"
        }
    },
    {
        "id": "7998079286242809220",
        "title": "公共厕所",
        "address": "吉林省四平市铁东区北一经街与北滨河路交叉口正南方向76米左右",
        "tel": "",
        "category": "基础设施:公共设施:公共厕所",
        "type": 0,
        "location": {
            "lat": 43.187189,
            "lng": 124.395634
        },
        "ad_info": {
            "adcode": 220303,
            "province": "吉林省",
            "city": "四平市",
            "district": "铁东区"
        }
    },
    {
        "id": "3529328321784834261",
        "title": "公共厕所",
        "address": "吉林省四平市铁西区师院北路与日新路交叉口正西方向181米左右",
        "tel": "",
        "category": "基础设施:公共设施:公共厕所",
        "type": 0,
        "location": {
            "lat": 43.15914,
            "lng": 124.35024
        },
        "ad_info": {
            "adcode": 220302,
            "province": "吉林省",
            "city": "四平市",
            "district": "铁西区"
        }
    },
    {
        "id": "14298728105011607980",
        "title": "刘家馆子服务区公共厕所",
        "address": "吉林省四平市梨树县中国石油吉高能源刘家馆子服务区加油站西侧130米",
        "tel": "",
        "category": "基础设施:公共设施:公共厕所",
        "type": 0,
        "location": {
            "lat": 43.493474,
            "lng": 123.913671
        },
        "ad_info": {
            "adcode": 220322,
            "province": "吉林省",
            "city": "四平市",
            "district": "梨树县"
        }
    },
    {
        "id": "5051013078925732841",
        "title": "双山服务区公共厕所",
        "address": "吉林省四平市双辽市G25长深高速附近",
        "tel": "",
        "category": "基础设施:公共设施:公共厕所",
        "type": 0,
        "location": {
            "lat": 43.689912,
            "lng": 123.760823
        },
        "ad_info": {
            "adcode": 220382,
            "province": "吉林省",
            "city": "四平市",
            "district": "双辽市"
        }
    },
    {
        "id": "5162275978404431240",
        "title": "公共厕所",
        "address": "吉林省四平市双辽市S102与Y110交叉口正东方向172米左右",
        "tel": "",
        "category": "基础设施:公共设施:公共厕所",
        "type": 0,
        "location": {
            "lat": 43.687028,
            "lng": 123.908792
        },
        "ad_info": {
            "adcode": 220382,
            "province": "吉林省",
            "city": "四平市",
            "district": "双辽市"
        }
    },
    {
        "id": "4414346409525025326",
        "title": "公共厕所",
        "address": "吉林省四平市铁西区师大路与果园街交叉口正东方向63米左右",
        "tel": "",
        "category": "基础设施:公共设施:公共厕所",
        "type": 0,
        "location": {
            "lat": 43.152515,
            "lng": 124.350821
        },
        "ad_info": {
            "adcode": 220302,
            "province": "吉林省",
            "city": "四平市",
            "district": "铁西区"
        }
    },
    {
        "id": "14738126989188257718",
        "title": "公共厕所",
        "address": "吉林省四平市双辽市南广路与新市街交叉口正西方向176米左右",
        "tel": "",
        "category": "基础设施:公共设施:公共厕所",
        "type": 0,
        "location": {
            "lat": 43.503728,
            "lng": 123.505614
        },
        "ad_info": {
            "adcode": 220382,
            "province": "吉林省",
            "city": "四平市",
            "district": "双辽市"
        }
    },
    {
        "id": "6651626644209658066",
        "title": "公共厕所",
        "address": "吉林省四平市伊通满族自治县人民大路与宝捷商业街交叉口正西方向219米左右",
        "tel": "",
        "category": "基础设施:公共设施:公共厕所",
        "type": 0,
        "location": {
            "lat": 43.341627,
            "lng": 125.291862
        },
        "ad_info": {
            "adcode": 220323,
            "province": "吉林省",
            "city": "四平市",
            "district": "伊通满族自治县"
        }
    },
    {
        "id": "779780519103911762",
        "title": "公共厕所",
        "address": "吉林省四平市铁西区北迎宾街与滨河路交叉口西南方向57米左右",
        "tel": "",
        "category": "基础设施:公共设施:公共厕所",
        "type": 0,
        "location": {
            "lat": 43.185011,
            "lng": 124.363877
        },
        "ad_info": {
            "adcode": 220302,
            "province": "吉林省",
            "city": "四平市",
            "district": "铁西区"
        }
    },
    {
        "id": "6882399941551541486",
        "title": "公共厕所",
        "address": "吉林省四平市铁西区华鼎佳园西北侧140米",
        "tel": "",
        "category": "基础设施:公共设施:公共厕所",
        "type": 0,
        "location": {
            "lat": 43.192451,
            "lng": 124.363037
        },
        "ad_info": {
            "adcode": 220302,
            "province": "吉林省",
            "city": "四平市",
            "district": "铁西区"
        }
    },
    {
        "id": "14296282828086281424",
        "title": "公共厕所",
        "address": "吉林省四平市铁西区北滨河路与北迎宾街交叉口西北方向393米左右",
        "tel": "",
        "category": "基础设施:公共设施:公共厕所",
        "type": 0,
        "location": {
            "lat": 43.188084,
            "lng": 124.360908
        },
        "ad_info": {
            "adcode": 220302,
            "province": "吉林省",
            "city": "四平市",
            "district": "铁西区"
        }
    },
    {
        "id": "7034601713080251025",
        "title": "公共厕所",
        "address": "吉林省四平市梨树县农机街(西段)与农机街交叉口正南方向49米左右",
        "tel": "",
        "category": "基础设施:公共设施:公共厕所",
        "type": 0,
        "location": {
            "lat": 43.316441,
            "lng": 124.336843
        },
        "ad_info": {
            "adcode": 220322,
            "province": "吉林省",
            "city": "四平市",
            "district": "梨树县"
        }
    },
    {
        "id": "4899226064552102041",
        "title": "公共厕所",
        "address": "吉林省四平市伊通满族自治县G229与G504交叉口正东方向61米左右",
        "tel": "",
        "category": "基础设施:公共设施:公共厕所",
        "type": 0,
        "location": {
            "lat": 43.33762,
            "lng": 125.27152
        },
        "ad_info": {
            "adcode": 220323,
            "province": "吉林省",
            "city": "四平市",
            "district": "伊通满族自治县"
        }
    },
    {
        "id": "13347436861301241691",
        "title": "公共厕所",
        "address": "吉林省四平市铁西区天桥街与爱民路交叉口东南方向72米左右",
        "tel": "",
        "category": "基础设施:公共设施:公共厕所",
        "type": 0,
        "location": {
            "lat": 43.175858,
            "lng": 124.37673
        },
        "ad_info": {
            "adcode": 220302,
            "province": "吉林省",
            "city": "四平市",
            "district": "铁西区"
        }
    },
    {
        "id": "1223813446342183770",
        "title": "公共厕所",
        "address": "吉林省四平市铁东区平东村农村养老服务大院西侧",
        "tel": "",
        "category": "基础设施:公共设施:公共厕所",
        "type": 0,
        "location": {
            "lat": 43.132246,
            "lng": 124.400959
        },
        "ad_info": {
            "adcode": 220303,
            "province": "吉林省",
            "city": "四平市",
            "district": "铁东区"
        }
    },
    {
        "id": "8632321477709796863",
        "title": "公共厕所",
        "address": "吉林省四平市铁东区团结街与新光路交叉口正北方向133米左右",
        "tel": "",
        "category": "基础设施:公共设施:公共厕所",
        "type": 0,
        "location": {
            "lat": 43.165261,
            "lng": 124.377041
        },
        "ad_info": {
            "adcode": 220303,
            "province": "吉林省",
            "city": "四平市",
            "district": "铁东区"
        }
    },
    {
        "id": "438786148523545533",
        "title": "公共厕所",
        "address": "吉林省四平市双辽市南广路与桂兰路交叉口西南方向30米左右",
        "tel": "",
        "category": "基础设施:公共设施:公共厕所",
        "type": 0,
        "location": {
            "lat": 43.50323,
            "lng": 123.500143
        },
        "ad_info": {
            "adcode": 220382,
            "province": "吉林省",
            "city": "四平市",
            "district": "双辽市"
        }
    },
    {
        "id": "15980556628571556798",
        "title": "公共厕所",
        "address": "吉林省四平市铁东区平东大街与烟厂路交叉口西北方向71米左右",
        "tel": "",
        "category": "基础设施:公共设施:公共厕所",
        "type": 0,
        "location": {
            "lat": 43.154983,
            "lng": 124.387606
        },
        "ad_info": {
            "adcode": 220303,
            "province": "吉林省",
            "city": "四平市",
            "district": "铁东区"
        }
    },
    {
        "id": "18264579211960246449",
        "title": "公共厕所",
        "address": "吉林省四平市铁东区沥山公路与环城公路交叉口正北方向57米左右",
        "tel": "",
        "category": "基础设施:公共设施:公共厕所",
        "type": 0,
        "location": {
            "lat": 43.119894,
            "lng": 124.419081
        },
        "ad_info": {
            "adcode": 220303,
            "province": "吉林省",
            "city": "四平市",
            "district": "铁东区"
        }
    },
    {
        "id": "17733825924928227521",
        "title": "公共厕所",
        "address": "吉林省四平市梨树县顺达街228号",
        "tel": "",
        "category": "基础设施:公共设施:公共厕所",
        "type": 0,
        "location": {
            "lat": 43.301629,
            "lng": 124.329784
        },
        "ad_info": {
            "adcode": 220322,
            "province": "吉林省",
            "city": "四平市",
            "district": "梨树县"
        }
    },
    {
        "id": "15936114251408062039",
        "title": "公共厕所",
        "address": "吉林省四平市伊通满族自治县公园街与蓝齐儿路交叉口正东方向225米左右",
        "tel": "",
        "category": "基础设施:公共设施:公共厕所",
        "type": 0,
        "location": {
            "lat": 43.349248,
            "lng": 125.309475
        },
        "ad_info": {
            "adcode": 220323,
            "province": "吉林省",
            "city": "四平市",
            "district": "伊通满族自治县"
        }
    },
    {
        "id": "4840458049475921205",
        "title": "公共厕所",
        "address": "吉林省四平市梨树县韩州公园西南角",
        "tel": "",
        "category": "基础设施:公共设施:公共厕所",
        "type": 0,
        "location": {
            "lat": 43.301743,
            "lng": 124.348835
        },
        "ad_info": {
            "adcode": 220322,
            "province": "吉林省",
            "city": "四平市",
            "district": "梨树县"
        }
    },
    {
        "id": "18014023044131677953",
        "title": "石岭服务区公共厕所",
        "address": "吉林省四平市铁东区集双高速",
        "tel": "",
        "category": "基础设施:公共设施:公共厕所",
        "type": 0,
        "location": {
            "lat": 43.129842,
            "lng": 124.685069
        },
        "ad_info": {
            "adcode": 220303,
            "province": "吉林省",
            "city": "四平市",
            "district": "铁东区"
        }
    },
    {
        "id": "17343255052994457189",
        "title": "公共厕所",
        "address": "吉林省四平市铁东区大鹰广场与开发区大路交叉口东南方向59米左右",
        "tel": "",
        "category": "基础设施:公共设施:公共厕所",
        "type": 0,
        "location": {
            "lat": 43.162779,
            "lng": 124.40527
        },
        "ad_info": {
            "adcode": 220303,
            "province": "吉林省",
            "city": "四平市",
            "district": "铁东区"
        }
    },
    {
        "id": "643786416855963711",
        "title": "公共厕所",
        "address": "吉林省四平市铁西区北仁兴街与北站路交叉口东北方向52米左右",
        "tel": "",
        "category": "基础设施:公共设施:公共厕所",
        "type": 0,
        "location": {
            "lat": 43.181481,
            "lng": 124.377961
        },
        "ad_info": {
            "adcode": 220302,
            "province": "吉林省",
            "city": "四平市",
            "district": "铁西区"
        }
    },
    {
        "id": "5188095448240220280",
        "title": "公共厕所",
        "address": "吉林省四平市梨树县奉义路与市场西胡同交叉口正东方向10米左右",
        "tel": "",
        "category": "基础设施:公共设施:公共厕所",
        "type": 0,
        "location": {
            "lat": 43.310347,
            "lng": 124.335775
        },
        "ad_info": {
            "adcode": 220322,
            "province": "吉林省",
            "city": "四平市",
            "district": "梨树县"
        }
    },
    {
        "id": "17041131206923253629",
        "title": "公共厕所",
        "address": "吉林省四平市铁东区东郊街与开发区大路交叉口东南方向595米左右",
        "tel": "",
        "category": "基础设施:公共设施:公共厕所",
        "type": 0,
        "location": {
            "lat": 43.1599,
            "lng": 124.414676
        },
        "ad_info": {
            "adcode": 220303,
            "province": "吉林省",
            "city": "四平市",
            "district": "铁东区"
        }
    },
    {
        "id": "8349073000024879122",
        "title": "公共厕所",
        "address": "吉林省四平市双辽市白市街727号",
        "tel": "",
        "category": "基础设施:公共设施:公共厕所",
        "type": 0,
        "location": {
            "lat": 43.517764,
            "lng": 123.500659
        },
        "ad_info": {
            "adcode": 220382,
            "province": "吉林省",
            "city": "四平市",
            "district": "双辽市"
        }
    },
    {
        "id": "15639185427502690080",
        "title": "公共厕所",
        "address": "吉林省四平市铁东区北一经街与陵园路交叉口正东方向222米左右",
        "tel": "",
        "category": "基础设施:公共设施:公共厕所",
        "type": 0,
        "location": {
            "lat": 43.196479,
            "lng": 124.400556
        },
        "ad_info": {
            "adcode": 220303,
            "province": "吉林省",
            "city": "四平市",
            "district": "铁东区"
        }
    },
    {
        "id": "4216045812062933972",
        "title": "公共厕所",
        "address": "吉林省四平市铁东区向荣路与平东中街交叉口正西方向239米左右",
        "tel": "",
        "category": "基础设施:公共设施:公共厕所",
        "type": 0,
        "location": {
            "lat": 43.14911,
            "lng": 124.38897
        },
        "ad_info": {
            "adcode": 220303,
            "province": "吉林省",
            "city": "四平市",
            "district": "铁东区"
        }
    },
    {
        "id": "9758827481444007925",
        "title": "公共卫生间",
        "address": "吉林省四平市铁东区南一纬路与南四经街交叉口正西方向17米左右",
        "tel": "",
        "category": "基础设施:公共设施:公共厕所",
        "type": 0,
        "location": {
            "lat": 43.166533,
            "lng": 124.38706
        },
        "ad_info": {
            "adcode": 220303,
            "province": "吉林省",
            "city": "四平市",
            "district": "铁东区"
        }
    },
    {
        "id": "1756321398890403070",
        "title": "公共厕所",
        "address": "吉林省四平市铁西区步行街与站前街交叉口正南方向55米左右",
        "tel": "",
        "category": "基础设施:公共设施:公共厕所",
        "type": 0,
        "location": {
            "lat": 43.168996,
            "lng": 124.37276
        },
        "ad_info": {
            "adcode": 220302,
            "province": "吉林省",
            "city": "四平市",
            "district": "铁西区"
        }
    },
    {
        "id": "6239130755596099717",
        "title": "公共厕所",
        "address": "吉林省四平市梨树县X056与Y054交叉口东北方向228米左右",
        "tel": "",
        "category": "基础设施:公共设施:公共厕所",
        "type": 0,
        "location": {
            "lat": 43.471247,
            "lng": 124.516408
        },
        "ad_info": {
            "adcode": 220322,
            "province": "吉林省",
            "city": "四平市",
            "district": "梨树县"
        }
    },
    {
        "id": "606928949537276696",
        "title": "公共厕所",
        "address": "吉林省四平市双辽市东华街与东春路交叉口正北方向50米左右",
        "tel": "",
        "category": "基础设施:公共设施:公共厕所",
        "type": 0,
        "location": {
            "lat": 43.507822,
            "lng": 123.519812
        },
        "ad_info": {
            "adcode": 220382,
            "province": "吉林省",
            "city": "四平市",
            "district": "双辽市"
        }
    },
    {
        "id": "14337150505525428440",
        "title": "公共厕所",
        "address": "吉林省四平市铁西区英雄大路与西郊广场交叉口西南方向169米左右",
        "tel": "",
        "category": "基础设施:公共设施:公共厕所",
        "type": 0,
        "location": {
            "lat": 43.178898,
            "lng": 124.337941
        },
        "ad_info": {
            "adcode": 220302,
            "province": "吉林省",
            "city": "四平市",
            "district": "铁西区"
        }
    },
    {
        "id": "4581420465776463590",
        "title": "公共厕所",
        "address": "吉林省四平市铁东区X061与二龙山水库专线交叉口西南方向514米左右",
        "tel": "",
        "category": "基础设施:公共设施:公共厕所",
        "type": 0,
        "location": {
            "lat": 43.193327,
            "lng": 124.795372
        },
        "ad_info": {
            "adcode": 220303,
            "province": "吉林省",
            "city": "四平市",
            "district": "铁东区"
        }
    },
    {
        "id": "842178085385066190",
        "title": "公共厕所",
        "address": "吉林省四平市铁东区平东中街与烟厂路交叉口正南方向53米左右",
        "tel": "",
        "category": "基础设施:公共设施:公共厕所",
        "type": 0,
        "location": {
            "lat": 43.151231,
            "lng": 124.391859
        },
        "ad_info": {
            "adcode": 220303,
            "province": "吉林省",
            "city": "四平市",
            "district": "铁东区"
        }
    },
    {
        "id": "16395069333900972363",
        "title": "公共厕所",
        "address": "吉林省四平市梨树县奉德路59号",
        "tel": "",
        "category": "基础设施:公共设施:公共厕所",
        "type": 0,
        "location": {
            "lat": 43.306226,
            "lng": 124.328852
        },
        "ad_info": {
            "adcode": 220322,
            "province": "吉林省",
            "city": "四平市",
            "district": "梨树县"
        }
    },
    {
        "id": "1832034558900443304",
        "title": "公共厕所",
        "address": "吉林省四平市铁西区东丰路与果园街交叉口正北方向146米左右",
        "tel": "",
        "category": "基础设施:公共设施:公共厕所",
        "type": 0,
        "location": {
            "lat": 43.149862,
            "lng": 124.340889
        },
        "ad_info": {
            "adcode": 220302,
            "province": "吉林省",
            "city": "四平市",
            "district": "铁西区"
        }
    },
    {
        "id": "4288631852417568778",
        "title": "公共厕所",
        "address": "吉林省四平市铁东区东关路与勤俭街交叉口东南方向165米左右",
        "tel": "",
        "category": "基础设施:公共设施:公共厕所",
        "type": 0,
        "location": {
            "lat": 43.170588,
            "lng": 124.401698
        },
        "ad_info": {
            "adcode": 220303,
            "province": "吉林省",
            "city": "四平市",
            "district": "铁东区"
        }
    },
    {
        "id": "1666648015979616658",
        "title": "公共厕所",
        "address": "吉林省四平市铁东区东山大街与南四纬路交叉口东南方向340米左右",
        "tel": "",
        "category": "基础设施:公共设施:公共厕所",
        "type": 0,
        "location": {
            "lat": 43.154343,
            "lng": 124.402511
        },
        "ad_info": {
            "adcode": 220303,
            "province": "吉林省",
            "city": "四平市",
            "district": "铁东区"
        }
    },
    {
        "id": "10324612337525287601",
        "title": "公共厕所",
        "address": "吉林省四平市梨树县光华路与奉化东大街交叉口正东方向173米左右",
        "tel": "",
        "category": "基础设施:公共设施:公共厕所",
        "type": 0,
        "location": {
            "lat": 43.308776,
            "lng": 124.372283
        },
        "ad_info": {
            "adcode": 220322,
            "province": "吉林省",
            "city": "四平市",
            "district": "梨树县"
        }
    },
    {
        "id": "13696406821265068807",
        "title": "帅府广场公共厕所",
        "address": "吉林省四平市双辽市新市街与辽河路交叉口正北方向111米左右",
        "tel": "",
        "category": "基础设施:公共设施:公共厕所",
        "type": 0,
        "location": {
            "lat": 43.519906,
            "lng": 123.504216
        },
        "ad_info": {
            "adcode": 220382,
            "province": "吉林省",
            "city": "四平市",
            "district": "双辽市"
        }
    },
    {
        "id": "1171104529701965316",
        "title": "公共厕所",
        "address": "吉林省四平市铁东区四平东站南",
        "tel": "",
        "category": "基础设施:公共设施:公共厕所",
        "type": 0,
        "location": {
            "lat": 43.138852,
            "lng": 124.437124
        },
        "ad_info": {
            "adcode": 220303,
            "province": "吉林省",
            "city": "四平市",
            "district": "铁东区"
        }
    },
    {
        "id": "12287591278752086305",
        "title": "公共厕所",
        "address": "吉林省四平市伊通满族自治县中华路与肃慎街交叉口正南方向91米左右",
        "tel": "",
        "category": "基础设施:公共设施:公共厕所",
        "type": 0,
        "location": {
            "lat": 43.343977,
            "lng": 125.306737
        },
        "ad_info": {
            "adcode": 220323,
            "province": "吉林省",
            "city": "四平市",
            "district": "伊通满族自治县"
        }
    },
    {
        "id": "4422857448643094855",
        "title": "公共厕所",
        "address": "吉林省四平市铁西区北滨河路与北新华大街交叉口正东方向50米左右",
        "tel": "",
        "category": "基础设施:公共设施:公共厕所",
        "type": 0,
        "location": {
            "lat": 43.184053,
            "lng": 124.375219
        },
        "ad_info": {
            "adcode": 220302,
            "province": "吉林省",
            "city": "四平市",
            "district": "铁西区"
        }
    },
    {
        "id": "1183126851209548612",
        "title": "公共厕所",
        "address": "吉林省四平市梨树县Y054与Y074交叉口西南方向318米左右",
        "tel": "",
        "category": "基础设施:公共设施:公共厕所",
        "type": 0,
        "location": {
            "lat": 43.434749,
            "lng": 124.484063
        },
        "ad_info": {
            "adcode": 220322,
            "province": "吉林省",
            "city": "四平市",
            "district": "梨树县"
        }
    },
    {
        "id": "5519906949726584008",
        "title": "公共厕所",
        "address": "吉林省四平市铁西区河南路与海丰大街交叉口东北方向27米左右",
        "tel": "",
        "category": "基础设施:公共设施:公共厕所",
        "type": 0,
        "location": {
            "lat": 43.160913,
            "lng": 124.358186
        },
        "ad_info": {
            "adcode": 220302,
            "province": "吉林省",
            "city": "四平市",
            "district": "铁西区"
        }
    },
    {
        "id": "16733812721175132305",
        "title": "公共厕所",
        "address": "吉林省四平市铁东区南七经街与南四纬路交叉口正北方向72米左右",
        "tel": "",
        "category": "基础设施:公共设施:公共厕所",
        "type": 0,
        "location": {
            "lat": 43.159914,
            "lng": 124.387983
        },
        "ad_info": {
            "adcode": 220303,
            "province": "吉林省",
            "city": "四平市",
            "district": "铁东区"
        }
    },
    {
        "id": "4216045812062933972",
        "title": "公共厕所",
        "address": "吉林省四平市铁东区向荣路与平东中街交叉口正西方向239米左右",
        "tel": "",
        "category": "基础设施:公共设施:公共厕所",
        "type": 0,
        "location": {
            "lat": 43.14911,
            "lng": 124.38897
        },
        "ad_info": {
            "adcode": 220303,
            "province": "吉林省",
            "city": "四平市",
            "district": "铁东区"
        }
    },
    {
        "id": "9758827481444007925",
        "title": "公共卫生间",
        "address": "吉林省四平市铁东区南一纬路与南四经街交叉口正西方向17米左右",
        "tel": "",
        "category": "基础设施:公共设施:公共厕所",
        "type": 0,
        "location": {
            "lat": 43.166533,
            "lng": 124.38706
        },
        "ad_info": {
            "adcode": 220303,
            "province": "吉林省",
            "city": "四平市",
            "district": "铁东区"
        }
    },
    {
        "id": "1756321398890403070",
        "title": "公共厕所",
        "address": "吉林省四平市铁西区步行街与站前街交叉口正南方向55米左右",
        "tel": "",
        "category": "基础设施:公共设施:公共厕所",
        "type": 0,
        "location": {
            "lat": 43.168996,
            "lng": 124.37276
        },
        "ad_info": {
            "adcode": 220302,
            "province": "吉林省",
            "city": "四平市",
            "district": "铁西区"
        }
    },
    {
        "id": "6239130755596099717",
        "title": "公共厕所",
        "address": "吉林省四平市梨树县X056与Y054交叉口东北方向228米左右",
        "tel": "",
        "category": "基础设施:公共设施:公共厕所",
        "type": 0,
        "location": {
            "lat": 43.471247,
            "lng": 124.516408
        },
        "ad_info": {
            "adcode": 220322,
            "province": "吉林省",
            "city": "四平市",
            "district": "梨树县"
        }
    },
    {
        "id": "606928949537276696",
        "title": "公共厕所",
        "address": "吉林省四平市双辽市东华街与东春路交叉口正北方向50米左右",
        "tel": "",
        "category": "基础设施:公共设施:公共厕所",
        "type": 0,
        "location": {
            "lat": 43.507822,
            "lng": 123.519812
        },
        "ad_info": {
            "adcode": 220382,
            "province": "吉林省",
            "city": "四平市",
            "district": "双辽市"
        }
    },
    {
        "id": "14337150505525428440",
        "title": "公共厕所",
        "address": "吉林省四平市铁西区英雄大路与西郊广场交叉口西南方向169米左右",
        "tel": "",
        "category": "基础设施:公共设施:公共厕所",
        "type": 0,
        "location": {
            "lat": 43.178898,
            "lng": 124.337941
        },
        "ad_info": {
            "adcode": 220302,
            "province": "吉林省",
            "city": "四平市",
            "district": "铁西区"
        }
    },
    {
        "id": "4581420465776463590",
        "title": "公共厕所",
        "address": "吉林省四平市铁东区X061与二龙山水库专线交叉口西南方向514米左右",
        "tel": "",
        "category": "基础设施:公共设施:公共厕所",
        "type": 0,
        "location": {
            "lat": 43.193327,
            "lng": 124.795372
        },
        "ad_info": {
            "adcode": 220303,
            "province": "吉林省",
            "city": "四平市",
            "district": "铁东区"
        }
    },
    {
        "id": "842178085385066190",
        "title": "公共厕所",
        "address": "吉林省四平市铁东区平东中街与烟厂路交叉口正南方向53米左右",
        "tel": "",
        "category": "基础设施:公共设施:公共厕所",
        "type": 0,
        "location": {
            "lat": 43.151231,
            "lng": 124.391859
        },
        "ad_info": {
            "adcode": 220303,
            "province": "吉林省",
            "city": "四平市",
            "district": "铁东区"
        }
    },
    {
        "id": "16395069333900972363",
        "title": "公共厕所",
        "address": "吉林省四平市梨树县奉德路59号",
        "tel": "",
        "category": "基础设施:公共设施:公共厕所",
        "type": 0,
        "location": {
            "lat": 43.306226,
            "lng": 124.328852
        },
        "ad_info": {
            "adcode": 220322,
            "province": "吉林省",
            "city": "四平市",
            "district": "梨树县"
        }
    },
    {
        "id": "1832034558900443304",
        "title": "公共厕所",
        "address": "吉林省四平市铁西区东丰路与果园街交叉口正北方向146米左右",
        "tel": "",
        "category": "基础设施:公共设施:公共厕所",
        "type": 0,
        "location": {
            "lat": 43.149862,
            "lng": 124.340889
        },
        "ad_info": {
            "adcode": 220302,
            "province": "吉林省",
            "city": "四平市",
            "district": "铁西区"
        }
    },
    {
        "id": "4288631852417568778",
        "title": "公共厕所",
        "address": "吉林省四平市铁东区东关路与勤俭街交叉口东南方向165米左右",
        "tel": "",
        "category": "基础设施:公共设施:公共厕所",
        "type": 0,
        "location": {
            "lat": 43.170588,
            "lng": 124.401698
        },
        "ad_info": {
            "adcode": 220303,
            "province": "吉林省",
            "city": "四平市",
            "district": "铁东区"
        }
    },
    {
        "id": "1666648015979616658",
        "title": "公共厕所",
        "address": "吉林省四平市铁东区东山大街与南四纬路交叉口东南方向340米左右",
        "tel": "",
        "category": "基础设施:公共设施:公共厕所",
        "type": 0,
        "location": {
            "lat": 43.154343,
            "lng": 124.402511
        },
        "ad_info": {
            "adcode": 220303,
            "province": "吉林省",
            "city": "四平市",
            "district": "铁东区"
        }
    },
    {
        "id": "10324612337525287601",
        "title": "公共厕所",
        "address": "吉林省四平市梨树县光华路与奉化东大街交叉口正东方向173米左右",
        "tel": "",
        "category": "基础设施:公共设施:公共厕所",
        "type": 0,
        "location": {
            "lat": 43.308776,
            "lng": 124.372283
        },
        "ad_info": {
            "adcode": 220322,
            "province": "吉林省",
            "city": "四平市",
            "district": "梨树县"
        }
    },
    {
        "id": "13696406821265068807",
        "title": "帅府广场公共厕所",
        "address": "吉林省四平市双辽市新市街与辽河路交叉口正北方向111米左右",
        "tel": "",
        "category": "基础设施:公共设施:公共厕所",
        "type": 0,
        "location": {
            "lat": 43.519906,
            "lng": 123.504216
        },
        "ad_info": {
            "adcode": 220382,
            "province": "吉林省",
            "city": "四平市",
            "district": "双辽市"
        }
    },
    {
        "id": "1171104529701965316",
        "title": "公共厕所",
        "address": "吉林省四平市铁东区四平东站南",
        "tel": "",
        "category": "基础设施:公共设施:公共厕所",
        "type": 0,
        "location": {
            "lat": 43.138852,
            "lng": 124.437124
        },
        "ad_info": {
            "adcode": 220303,
            "province": "吉林省",
            "city": "四平市",
            "district": "铁东区"
        }
    },
    {
        "id": "12287591278752086305",
        "title": "公共厕所",
        "address": "吉林省四平市伊通满族自治县中华路与肃慎街交叉口正南方向91米左右",
        "tel": "",
        "category": "基础设施:公共设施:公共厕所",
        "type": 0,
        "location": {
            "lat": 43.343977,
            "lng": 125.306737
        },
        "ad_info": {
            "adcode": 220323,
            "province": "吉林省",
            "city": "四平市",
            "district": "伊通满族自治县"
        }
    },
    {
        "id": "4422857448643094855",
        "title": "公共厕所",
        "address": "吉林省四平市铁西区北滨河路与北新华大街交叉口正东方向50米左右",
        "tel": "",
        "category": "基础设施:公共设施:公共厕所",
        "type": 0,
        "location": {
            "lat": 43.184053,
            "lng": 124.375219
        },
        "ad_info": {
            "adcode": 220302,
            "province": "吉林省",
            "city": "四平市",
            "district": "铁西区"
        }
    },
    {
        "id": "1183126851209548612",
        "title": "公共厕所",
        "address": "吉林省四平市梨树县Y054与Y074交叉口西南方向318米左右",
        "tel": "",
        "category": "基础设施:公共设施:公共厕所",
        "type": 0,
        "location": {
            "lat": 43.434749,
            "lng": 124.484063
        },
        "ad_info": {
            "adcode": 220322,
            "province": "吉林省",
            "city": "四平市",
            "district": "梨树县"
        }
    },
    {
        "id": "5519906949726584008",
        "title": "公共厕所",
        "address": "吉林省四平市铁西区河南路与海丰大街交叉口东北方向27米左右",
        "tel": "",
        "category": "基础设施:公共设施:公共厕所",
        "type": 0,
        "location": {
            "lat": 43.160913,
            "lng": 124.358186
        },
        "ad_info": {
            "adcode": 220302,
            "province": "吉林省",
            "city": "四平市",
            "district": "铁西区"
        }
    },
    {
        "id": "16733812721175132305",
        "title": "公共厕所",
        "address": "吉林省四平市铁东区南七经街与南四纬路交叉口正北方向72米左右",
        "tel": "",
        "category": "基础设施:公共设施:公共厕所",
        "type": 0,
        "location": {
            "lat": 43.159914,
            "lng": 124.387983
        },
        "ad_info": {
            "adcode": 220303,
            "province": "吉林省",
            "city": "四平市",
            "district": "铁东区"
        }
    },
    {
        "id": "4216045812062933972",
        "title": "公共厕所",
        "address": "吉林省四平市铁东区向荣路与平东中街交叉口正西方向239米左右",
        "tel": "",
        "category": "基础设施:公共设施:公共厕所",
        "type": 0,
        "location": {
            "lat": 43.14911,
            "lng": 124.38897
        },
        "ad_info": {
            "adcode": 220303,
            "province": "吉林省",
            "city": "四平市",
            "district": "铁东区"
        }
    },
    {
        "id": "9758827481444007925",
        "title": "公共卫生间",
        "address": "吉林省四平市铁东区南一纬路与南四经街交叉口正西方向17米左右",
        "tel": "",
        "category": "基础设施:公共设施:公共厕所",
        "type": 0,
        "location": {
            "lat": 43.166533,
            "lng": 124.38706
        },
        "ad_info": {
            "adcode": 220303,
            "province": "吉林省",
            "city": "四平市",
            "district": "铁东区"
        }
    },
    {
        "id": "1756321398890403070",
        "title": "公共厕所",
        "address": "吉林省四平市铁西区步行街与站前街交叉口正南方向55米左右",
        "tel": "",
        "category": "基础设施:公共设施:公共厕所",
        "type": 0,
        "location": {
            "lat": 43.168996,
            "lng": 124.37276
        },
        "ad_info": {
            "adcode": 220302,
            "province": "吉林省",
            "city": "四平市",
            "district": "铁西区"
        }
    },
    {
        "id": "6239130755596099717",
        "title": "公共厕所",
        "address": "吉林省四平市梨树县X056与Y054交叉口东北方向228米左右",
        "tel": "",
        "category": "基础设施:公共设施:公共厕所",
        "type": 0,
        "location": {
            "lat": 43.471247,
            "lng": 124.516408
        },
        "ad_info": {
            "adcode": 220322,
            "province": "吉林省",
            "city": "四平市",
            "district": "梨树县"
        }
    },
    {
        "id": "606928949537276696",
        "title": "公共厕所",
        "address": "吉林省四平市双辽市东华街与东春路交叉口正北方向50米左右",
        "tel": "",
        "category": "基础设施:公共设施:公共厕所",
        "type": 0,
        "location": {
            "lat": 43.507822,
            "lng": 123.519812
        },
        "ad_info": {
            "adcode": 220382,
            "province": "吉林省",
            "city": "四平市",
            "district": "双辽市"
        }
    },
    {
        "id": "14337150505525428440",
        "title": "公共厕所",
        "address": "吉林省四平市铁西区英雄大路与西郊广场交叉口西南方向169米左右",
        "tel": "",
        "category": "基础设施:公共设施:公共厕所",
        "type": 0,
        "location": {
            "lat": 43.178898,
            "lng": 124.337941
        },
        "ad_info": {
            "adcode": 220302,
            "province": "吉林省",
            "city": "四平市",
            "district": "铁西区"
        }
    },
    {
        "id": "4581420465776463590",
        "title": "公共厕所",
        "address": "吉林省四平市铁东区X061与二龙山水库专线交叉口西南方向514米左右",
        "tel": "",
        "category": "基础设施:公共设施:公共厕所",
        "type": 0,
        "location": {
            "lat": 43.193327,
            "lng": 124.795372
        },
        "ad_info": {
            "adcode": 220303,
            "province": "吉林省",
            "city": "四平市",
            "district": "铁东区"
        }
    },
    {
        "id": "842178085385066190",
        "title": "公共厕所",
        "address": "吉林省四平市铁东区平东中街与烟厂路交叉口正南方向53米左右",
        "tel": "",
        "category": "基础设施:公共设施:公共厕所",
        "type": 0,
        "location": {
            "lat": 43.151231,
            "lng": 124.391859
        },
        "ad_info": {
            "adcode": 220303,
            "province": "吉林省",
            "city": "四平市",
            "district": "铁东区"
        }
    },
    {
        "id": "16395069333900972363",
        "title": "公共厕所",
        "address": "吉林省四平市梨树县奉德路59号",
        "tel": "",
        "category": "基础设施:公共设施:公共厕所",
        "type": 0,
        "location": {
            "lat": 43.306226,
            "lng": 124.328852
        },
        "ad_info": {
            "adcode": 220322,
            "province": "吉林省",
            "city": "四平市",
            "district": "梨树县"
        }
    },
    {
        "id": "1832034558900443304",
        "title": "公共厕所",
        "address": "吉林省四平市铁西区东丰路与果园街交叉口正北方向146米左右",
        "tel": "",
        "category": "基础设施:公共设施:公共厕所",
        "type": 0,
        "location": {
            "lat": 43.149862,
            "lng": 124.340889
        },
        "ad_info": {
            "adcode": 220302,
            "province": "吉林省",
            "city": "四平市",
            "district": "铁西区"
        }
    },
    {
        "id": "4288631852417568778",
        "title": "公共厕所",
        "address": "吉林省四平市铁东区东关路与勤俭街交叉口东南方向165米左右",
        "tel": "",
        "category": "基础设施:公共设施:公共厕所",
        "type": 0,
        "location": {
            "lat": 43.170588,
            "lng": 124.401698
        },
        "ad_info": {
            "adcode": 220303,
            "province": "吉林省",
            "city": "四平市",
            "district": "铁东区"
        }
    },
    {
        "id": "1666648015979616658",
        "title": "公共厕所",
        "address": "吉林省四平市铁东区东山大街与南四纬路交叉口东南方向340米左右",
        "tel": "",
        "category": "基础设施:公共设施:公共厕所",
        "type": 0,
        "location": {
            "lat": 43.154343,
            "lng": 124.402511
        },
        "ad_info": {
            "adcode": 220303,
            "province": "吉林省",
            "city": "四平市",
            "district": "铁东区"
        }
    },
    {
        "id": "10324612337525287601",
        "title": "公共厕所",
        "address": "吉林省四平市梨树县光华路与奉化东大街交叉口正东方向173米左右",
        "tel": "",
        "category": "基础设施:公共设施:公共厕所",
        "type": 0,
        "location": {
            "lat": 43.308776,
            "lng": 124.372283
        },
        "ad_info": {
            "adcode": 220322,
            "province": "吉林省",
            "city": "四平市",
            "district": "梨树县"
        }
    },
    {
        "id": "13696406821265068807",
        "title": "帅府广场公共厕所",
        "address": "吉林省四平市双辽市新市街与辽河路交叉口正北方向111米左右",
        "tel": "",
        "category": "基础设施:公共设施:公共厕所",
        "type": 0,
        "location": {
            "lat": 43.519906,
            "lng": 123.504216
        },
        "ad_info": {
            "adcode": 220382,
            "province": "吉林省",
            "city": "四平市",
            "district": "双辽市"
        }
    },
    {
        "id": "1171104529701965316",
        "title": "公共厕所",
        "address": "吉林省四平市铁东区四平东站南",
        "tel": "",
        "category": "基础设施:公共设施:公共厕所",
        "type": 0,
        "location": {
            "lat": 43.138852,
            "lng": 124.437124
        },
        "ad_info": {
            "adcode": 220303,
            "province": "吉林省",
            "city": "四平市",
            "district": "铁东区"
        }
    },
    {
        "id": "12287591278752086305",
        "title": "公共厕所",
        "address": "吉林省四平市伊通满族自治县中华路与肃慎街交叉口正南方向91米左右",
        "tel": "",
        "category": "基础设施:公共设施:公共厕所",
        "type": 0,
        "location": {
            "lat": 43.343977,
            "lng": 125.306737
        },
        "ad_info": {
            "adcode": 220323,
            "province": "吉林省",
            "city": "四平市",
            "district": "伊通满族自治县"
        }
    },
    {
        "id": "4422857448643094855",
        "title": "公共厕所",
        "address": "吉林省四平市铁西区北滨河路与北新华大街交叉口正东方向50米左右",
        "tel": "",
        "category": "基础设施:公共设施:公共厕所",
        "type": 0,
        "location": {
            "lat": 43.184053,
            "lng": 124.375219
        },
        "ad_info": {
            "adcode": 220302,
            "province": "吉林省",
            "city": "四平市",
            "district": "铁西区"
        }
    },
    {
        "id": "1183126851209548612",
        "title": "公共厕所",
        "address": "吉林省四平市梨树县Y054与Y074交叉口西南方向318米左右",
        "tel": "",
        "category": "基础设施:公共设施:公共厕所",
        "type": 0,
        "location": {
            "lat": 43.434749,
            "lng": 124.484063
        },
        "ad_info": {
            "adcode": 220322,
            "province": "吉林省",
            "city": "四平市",
            "district": "梨树县"
        }
    },
    {
        "id": "5519906949726584008",
        "title": "公共厕所",
        "address": "吉林省四平市铁西区河南路与海丰大街交叉口东北方向27米左右",
        "tel": "",
        "category": "基础设施:公共设施:公共厕所",
        "type": 0,
        "location": {
            "lat": 43.160913,
            "lng": 124.358186
        },
        "ad_info": {
            "adcode": 220302,
            "province": "吉林省",
            "city": "四平市",
            "district": "铁西区"
        }
    },
    {
        "id": "16733812721175132305",
        "title": "公共厕所",
        "address": "吉林省四平市铁东区南七经街与南四纬路交叉口正北方向72米左右",
        "tel": "",
        "category": "基础设施:公共设施:公共厕所",
        "type": 0,
        "location": {
            "lat": 43.159914,
            "lng": 124.387983
        },
        "ad_info": {
            "adcode": 220303,
            "province": "吉林省",
            "city": "四平市",
            "district": "铁东区"
        }
    },
    {
        "id": "4216045812062933972",
        "title": "公共厕所",
        "address": "吉林省四平市铁东区向荣路与平东中街交叉口正西方向239米左右",
        "tel": "",
        "category": "基础设施:公共设施:公共厕所",
        "type": 0,
        "location": {
            "lat": 43.14911,
            "lng": 124.38897
        },
        "ad_info": {
            "adcode": 220303,
            "province": "吉林省",
            "city": "四平市",
            "district": "铁东区"
        }
    },
    {
        "id": "9758827481444007925",
        "title": "公共卫生间",
        "address": "吉林省四平市铁东区南一纬路与南四经街交叉口正西方向17米左右",
        "tel": "",
        "category": "基础设施:公共设施:公共厕所",
        "type": 0,
        "location": {
            "lat": 43.166533,
            "lng": 124.38706
        },
        "ad_info": {
            "adcode": 220303,
            "province": "吉林省",
            "city": "四平市",
            "district": "铁东区"
        }
    },
    {
        "id": "1756321398890403070",
        "title": "公共厕所",
        "address": "吉林省四平市铁西区步行街与站前街交叉口正南方向55米左右",
        "tel": "",
        "category": "基础设施:公共设施:公共厕所",
        "type": 0,
        "location": {
            "lat": 43.168996,
            "lng": 124.37276
        },
        "ad_info": {
            "adcode": 220302,
            "province": "吉林省",
            "city": "四平市",
            "district": "铁西区"
        }
    },
    {
        "id": "6239130755596099717",
        "title": "公共厕所",
        "address": "吉林省四平市梨树县X056与Y054交叉口东北方向228米左右",
        "tel": "",
        "category": "基础设施:公共设施:公共厕所",
        "type": 0,
        "location": {
            "lat": 43.471247,
            "lng": 124.516408
        },
        "ad_info": {
            "adcode": 220322,
            "province": "吉林省",
            "city": "四平市",
            "district": "梨树县"
        }
    },
    {
        "id": "606928949537276696",
        "title": "公共厕所",
        "address": "吉林省四平市双辽市东华街与东春路交叉口正北方向50米左右",
        "tel": "",
        "category": "基础设施:公共设施:公共厕所",
        "type": 0,
        "location": {
            "lat": 43.507822,
            "lng": 123.519812
        },
        "ad_info": {
            "adcode": 220382,
            "province": "吉林省",
            "city": "四平市",
            "district": "双辽市"
        }
    },
    {
        "id": "14337150505525428440",
        "title": "公共厕所",
        "address": "吉林省四平市铁西区英雄大路与西郊广场交叉口西南方向169米左右",
        "tel": "",
        "category": "基础设施:公共设施:公共厕所",
        "type": 0,
        "location": {
            "lat": 43.178898,
            "lng": 124.337941
        },
        "ad_info": {
            "adcode": 220302,
            "province": "吉林省",
            "city": "四平市",
            "district": "铁西区"
        }
    },
    {
        "id": "4581420465776463590",
        "title": "公共厕所",
        "address": "吉林省四平市铁东区X061与二龙山水库专线交叉口西南方向514米左右",
        "tel": "",
        "category": "基础设施:公共设施:公共厕所",
        "type": 0,
        "location": {
            "lat": 43.193327,
            "lng": 124.795372
        },
        "ad_info": {
            "adcode": 220303,
            "province": "吉林省",
            "city": "四平市",
            "district": "铁东区"
        }
    },
    {
        "id": "842178085385066190",
        "title": "公共厕所",
        "address": "吉林省四平市铁东区平东中街与烟厂路交叉口正南方向53米左右",
        "tel": "",
        "category": "基础设施:公共设施:公共厕所",
        "type": 0,
        "location": {
            "lat": 43.151231,
            "lng": 124.391859
        },
        "ad_info": {
            "adcode": 220303,
            "province": "吉林省",
            "city": "四平市",
            "district": "铁东区"
        }
    },
    {
        "id": "16395069333900972363",
        "title": "公共厕所",
        "address": "吉林省四平市梨树县奉德路59号",
        "tel": "",
        "category": "基础设施:公共设施:公共厕所",
        "type": 0,
        "location": {
            "lat": 43.306226,
            "lng": 124.328852
        },
        "ad_info": {
            "adcode": 220322,
            "province": "吉林省",
            "city": "四平市",
            "district": "梨树县"
        }
    },
    {
        "id": "1832034558900443304",
        "title": "公共厕所",
        "address": "吉林省四平市铁西区东丰路与果园街交叉口正北方向146米左右",
        "tel": "",
        "category": "基础设施:公共设施:公共厕所",
        "type": 0,
        "location": {
            "lat": 43.149862,
            "lng": 124.340889
        },
        "ad_info": {
            "adcode": 220302,
            "province": "吉林省",
            "city": "四平市",
            "district": "铁西区"
        }
    },
    {
        "id": "4288631852417568778",
        "title": "公共厕所",
        "address": "吉林省四平市铁东区东关路与勤俭街交叉口东南方向165米左右",
        "tel": "",
        "category": "基础设施:公共设施:公共厕所",
        "type": 0,
        "location": {
            "lat": 43.170588,
            "lng": 124.401698
        },
        "ad_info": {
            "adcode": 220303,
            "province": "吉林省",
            "city": "四平市",
            "district": "铁东区"
        }
    },
    {
        "id": "1666648015979616658",
        "title": "公共厕所",
        "address": "吉林省四平市铁东区东山大街与南四纬路交叉口东南方向340米左右",
        "tel": "",
        "category": "基础设施:公共设施:公共厕所",
        "type": 0,
        "location": {
            "lat": 43.154343,
            "lng": 124.402511
        },
        "ad_info": {
            "adcode": 220303,
            "province": "吉林省",
            "city": "四平市",
            "district": "铁东区"
        }
    },
    {
        "id": "10324612337525287601",
        "title": "公共厕所",
        "address": "吉林省四平市梨树县光华路与奉化东大街交叉口正东方向173米左右",
        "tel": "",
        "category": "基础设施:公共设施:公共厕所",
        "type": 0,
        "location": {
            "lat": 43.308776,
            "lng": 124.372283
        },
        "ad_info": {
            "adcode": 220322,
            "province": "吉林省",
            "city": "四平市",
            "district": "梨树县"
        }
    },
    {
        "id": "13696406821265068807",
        "title": "帅府广场公共厕所",
        "address": "吉林省四平市双辽市新市街与辽河路交叉口正北方向111米左右",
        "tel": "",
        "category": "基础设施:公共设施:公共厕所",
        "type": 0,
        "location": {
            "lat": 43.519906,
            "lng": 123.504216
        },
        "ad_info": {
            "adcode": 220382,
            "province": "吉林省",
            "city": "四平市",
            "district": "双辽市"
        }
    },
    {
        "id": "1171104529701965316",
        "title": "公共厕所",
        "address": "吉林省四平市铁东区四平东站南",
        "tel": "",
        "category": "基础设施:公共设施:公共厕所",
        "type": 0,
        "location": {
            "lat": 43.138852,
            "lng": 124.437124
        },
        "ad_info": {
            "adcode": 220303,
            "province": "吉林省",
            "city": "四平市",
            "district": "铁东区"
        }
    },
    {
        "id": "12287591278752086305",
        "title": "公共厕所",
        "address": "吉林省四平市伊通满族自治县中华路与肃慎街交叉口正南方向91米左右",
        "tel": "",
        "category": "基础设施:公共设施:公共厕所",
        "type": 0,
        "location": {
            "lat": 43.343977,
            "lng": 125.306737
        },
        "ad_info": {
            "adcode": 220323,
            "province": "吉林省",
            "city": "四平市",
            "district": "伊通满族自治县"
        }
    },
    {
        "id": "4422857448643094855",
        "title": "公共厕所",
        "address": "吉林省四平市铁西区北滨河路与北新华大街交叉口正东方向50米左右",
        "tel": "",
        "category": "基础设施:公共设施:公共厕所",
        "type": 0,
        "location": {
            "lat": 43.184053,
            "lng": 124.375219
        },
        "ad_info": {
            "adcode": 220302,
            "province": "吉林省",
            "city": "四平市",
            "district": "铁西区"
        }
    },
    {
        "id": "1183126851209548612",
        "title": "公共厕所",
        "address": "吉林省四平市梨树县Y054与Y074交叉口西南方向318米左右",
        "tel": "",
        "category": "基础设施:公共设施:公共厕所",
        "type": 0,
        "location": {
            "lat": 43.434749,
            "lng": 124.484063
        },
        "ad_info": {
            "adcode": 220322,
            "province": "吉林省",
            "city": "四平市",
            "district": "梨树县"
        }
    },
    {
        "id": "5519906949726584008",
        "title": "公共厕所",
        "address": "吉林省四平市铁西区河南路与海丰大街交叉口东北方向27米左右",
        "tel": "",
        "category": "基础设施:公共设施:公共厕所",
        "type": 0,
        "location": {
            "lat": 43.160913,
            "lng": 124.358186
        },
        "ad_info": {
            "adcode": 220302,
            "province": "吉林省",
            "city": "四平市",
            "district": "铁西区"
        }
    },
    {
        "id": "16733812721175132305",
        "title": "公共厕所",
        "address": "吉林省四平市铁东区南七经街与南四纬路交叉口正北方向72米左右",
        "tel": "",
        "category": "基础设施:公共设施:公共厕所",
        "type": 0,
        "location": {
            "lat": 43.159914,
            "lng": 124.387983
        },
        "ad_info": {
            "adcode": 220303,
            "province": "吉林省",
            "city": "四平市",
            "district": "铁东区"
        }
    }
]