[
    {
        "id": "8374175762137912203",
        "title": "公共厕所",
        "address": "宁夏回族自治区固原市原州区富民路34号",
        "tel": "",
        "category": "基础设施:公共设施:公共厕所",
        "type": 0,
        "location": {
            "lat": 35.994001,
            "lng": 106.252655
        },
        "ad_info": {
            "adcode": 640402,
            "province": "宁夏回族自治区",
            "city": "固原市",
            "district": "原州区"
        }
    },
    {
        "id": "13220153023938058123",
        "title": "公共厕所",
        "address": "宁夏回族自治区固原市原州区北京路与学院路交叉口正北方向597米左右",
        "tel": "",
        "category": "基础设施:公共设施:公共厕所",
        "type": 0,
        "location": {
            "lat": 36.023752,
            "lng": 106.243776
        },
        "ad_info": {
            "adcode": 640402,
            "province": "宁夏回族自治区",
            "city": "固原市",
            "district": "原州区"
        }
    },
    {
        "id": "8623512162731218973",
        "title": "公共厕所",
        "address": "宁夏回族自治区固原市原州区北京路与雁岭北路交叉口正东方向49米左右",
        "tel": "",
        "category": "基础设施:公共设施:公共厕所",
        "type": 0,
        "location": {
            "lat": 36.037393,
            "lng": 106.267318
        },
        "ad_info": {
            "adcode": 640402,
            "province": "宁夏回族自治区",
            "city": "固原市",
            "district": "原州区"
        }
    },
    {
        "id": "12016781297255996272",
        "title": "公共厕所",
        "address": "宁夏回族自治区固原市原州区六盘山路(东)与和平街交叉口西北300米",
        "tel": "",
        "category": "基础设施:公共设施:公共厕所",
        "type": 0,
        "location": {
            "lat": 36.023933,
            "lng": 106.283182
        },
        "ad_info": {
            "adcode": 640402,
            "province": "宁夏回族自治区",
            "city": "固原市",
            "district": "原州区"
        }
    },
    {
        "id": "7183902825156803733",
        "title": "公共厕所",
        "address": "宁夏回族自治区固原市西吉县什字街与吉强中路交叉口正北方向132米左右",
        "tel": "",
        "category": "基础设施:公共设施:公共厕所",
        "type": 0,
        "location": {
            "lat": 35.967384,
            "lng": 105.730896
        },
        "ad_info": {
            "adcode": 640422,
            "province": "宁夏回族自治区",
            "city": "固原市",
            "district": "西吉县"
        }
    },
    {
        "id": "17459410587886102927",
        "title": "公共厕所",
        "address": "宁夏回族自治区固原市原州区东关南街与南城路交叉口正南方向310米左右",
        "tel": "",
        "category": "基础设施:公共设施:公共厕所",
        "type": 0,
        "location": {
            "lat": 35.994528,
            "lng": 106.289062
        },
        "ad_info": {
            "adcode": 640402,
            "province": "宁夏回族自治区",
            "city": "固原市",
            "district": "原州区"
        }
    },
    {
        "id": "9023147989789414703",
        "title": "公共厕所",
        "address": "宁夏回族自治区固原市西吉县固将路",
        "tel": "",
        "category": "基础设施:公共设施:公共厕所",
        "type": 0,
        "location": {
            "lat": 35.818827,
            "lng": 105.841848
        },
        "ad_info": {
            "adcode": 640422,
            "province": "宁夏回族自治区",
            "city": "固原市",
            "district": "西吉县"
        }
    },
    {
        "id": "13596054786391041756",
        "title": "公共厕所",
        "address": "宁夏回族自治区固原市原州区文化东路与清河北路交叉口正西方向96米左右",
        "tel": "",
        "category": "基础设施:公共设施:公共厕所",
        "type": 0,
        "location": {
            "lat": 36.005678,
            "lng": 106.299061
        },
        "ad_info": {
            "adcode": 640402,
            "province": "宁夏回族自治区",
            "city": "固原市",
            "district": "原州区"
        }
    },
    {
        "id": "17692504746600384190",
        "title": "公共厕所",
        "address": "宁夏回族自治区固原市原州区上海路与长丰路交叉口正西方向95米左右",
        "tel": "",
        "category": "基础设施:公共设施:公共厕所",
        "type": 0,
        "location": {
            "lat": 36.002572,
            "lng": 106.264939
        },
        "ad_info": {
            "adcode": 640402,
            "province": "宁夏回族自治区",
            "city": "固原市",
            "district": "原州区"
        }
    },
    {
        "id": "6251411012544547404",
        "title": "公共厕所",
        "address": "宁夏回族自治区固原市西吉县G309与丁香路交叉口正北方向157米左右",
        "tel": "",
        "category": "基础设施:公共设施:公共厕所",
        "type": 0,
        "location": {
            "lat": 35.965714,
            "lng": 105.753851
        },
        "ad_info": {
            "adcode": 640422,
            "province": "宁夏回族自治区",
            "city": "固原市",
            "district": "西吉县"
        }
    },
    {
        "id": "9424224538574678663",
        "title": "公共厕所",
        "address": "宁夏回族自治区固原市西吉县公园西街与吉强中路交叉口正东方向200米左右",
        "tel": "",
        "category": "基础设施:公共设施:公共厕所",
        "type": 0,
        "location": {
            "lat": 35.96564,
            "lng": 105.736004
        },
        "ad_info": {
            "adcode": 640422,
            "province": "宁夏回族自治区",
            "city": "固原市",
            "district": "西吉县"
        }
    },
    {
        "id": "15271145241034480966",
        "title": "公共厕所",
        "address": "宁夏回族自治区固原市原州区惠民路与银平路交叉口正东方向16米左右",
        "tel": "",
        "category": "基础设施:公共设施:公共厕所",
        "type": 0,
        "location": {
            "lat": 36.03432,
            "lng": 106.255221
        },
        "ad_info": {
            "adcode": 640402,
            "province": "宁夏回族自治区",
            "city": "固原市",
            "district": "原州区"
        }
    },
    {
        "id": "14030365388496928081",
        "title": "公共厕所",
        "address": "宁夏回族自治区固原市原州区中山北街与开成路交叉口西南方向25米左右",
        "tel": "",
        "category": "基础设施:公共设施:公共厕所",
        "type": 0,
        "location": {
            "lat": 36.015474,
            "lng": 106.289426
        },
        "ad_info": {
            "adcode": 640402,
            "province": "宁夏回族自治区",
            "city": "固原市",
            "district": "原州区"
        }
    },
    {
        "id": "10621807836911886459",
        "title": "公共厕所",
        "address": "宁夏回族自治区固原市原州区东关北街与东关南街交叉口正北方向124米左右",
        "tel": "",
        "category": "基础设施:公共设施:公共厕所",
        "type": 0,
        "location": {
            "lat": 36.007832,
            "lng": 106.294745
        },
        "ad_info": {
            "adcode": 640402,
            "province": "宁夏回族自治区",
            "city": "固原市",
            "district": "原州区"
        }
    },
    {
        "id": "15953627962450679632",
        "title": "公共厕所",
        "address": "宁夏回族自治区固原市原州区中山南街与小南寺巷交叉口正南方向98米左右",
        "tel": "",
        "category": "基础设施:公共设施:公共厕所",
        "type": 0,
        "location": {
            "lat": 36.001139,
            "lng": 106.28587
        },
        "ad_info": {
            "adcode": 640402,
            "province": "宁夏回族自治区",
            "city": "固原市",
            "district": "原州区"
        }
    },
    {
        "id": "898340048511805568",
        "title": "公共厕所",
        "address": "宁夏回族自治区固原市西吉县吉强东路与滨河路交叉口正北方向218米左右",
        "tel": "",
        "category": "基础设施:公共设施:公共厕所",
        "type": 0,
        "location": {
            "lat": 35.966694,
            "lng": 105.773614
        },
        "ad_info": {
            "adcode": 640422,
            "province": "宁夏回族自治区",
            "city": "固原市",
            "district": "西吉县"
        }
    },
    {
        "id": "7503742272385857131",
        "title": "公共厕所",
        "address": "宁夏回族自治区固原市隆德县G312与解放街交叉口正西方向140米左右",
        "tel": "",
        "category": "基础设施:公共设施:公共厕所",
        "type": 0,
        "location": {
            "lat": 35.621673,
            "lng": 106.119786
        },
        "ad_info": {
            "adcode": 640423,
            "province": "宁夏回族自治区",
            "city": "固原市",
            "district": "隆德县"
        }
    },
    {
        "id": "4670849314749412476",
        "title": "公共厕所",
        "address": "宁夏回族自治区固原市隆德县宁安路与解放街交叉口正北方向52米左右",
        "tel": "",
        "category": "基础设施:公共设施:公共厕所",
        "type": 0,
        "location": {
            "lat": 35.613023,
            "lng": 106.124916
        },
        "ad_info": {
            "adcode": 640423,
            "province": "宁夏回族自治区",
            "city": "固原市",
            "district": "隆德县"
        }
    },
    {
        "id": "31404657988843500",
        "title": "公共厕所",
        "address": "宁夏回族自治区固原市泾源县",
        "tel": "",
        "category": "基础设施:公共设施:公共厕所",
        "type": 0,
        "location": {
            "lat": 35.770549,
            "lng": 106.234548
        },
        "ad_info": {
            "adcode": 640424,
            "province": "宁夏回族自治区",
            "city": "固原市",
            "district": "泾源县"
        }
    },
    {
        "id": "472642926713028668",
        "title": "公共厕所",
        "address": "宁夏回族自治区固原市原州区民族街与高平路交叉口正南方向470米左右",
        "tel": "",
        "category": "基础设施:公共设施:公共厕所",
        "type": 0,
        "location": {
            "lat": 35.986972,
            "lng": 106.26035
        },
        "ad_info": {
            "adcode": 640402,
            "province": "宁夏回族自治区",
            "city": "固原市",
            "district": "原州区"
        }
    },
    {
        "id": "13252977878523541312",
        "title": "公共厕所",
        "address": "宁夏回族自治区固原市原州区恒祥二手车交易市场西南侧150米",
        "tel": "",
        "category": "基础设施:公共设施:公共厕所",
        "type": 0,
        "location": {
            "lat": 36.014533,
            "lng": 106.233
        },
        "ad_info": {
            "adcode": 640402,
            "province": "宁夏回族自治区",
            "city": "固原市",
            "district": "原州区"
        }
    },
    {
        "id": "900504272216930335",
        "title": "公共厕所",
        "address": "宁夏回族自治区固原市原州区上海路与西关南街交叉口正北方向90米左右",
        "tel": "",
        "category": "基础设施:公共设施:公共厕所",
        "type": 0,
        "location": {
            "lat": 35.99528,
            "lng": 106.274197
        },
        "ad_info": {
            "adcode": 640402,
            "province": "宁夏回族自治区",
            "city": "固原市",
            "district": "原州区"
        }
    },
    {
        "id": "6955084615838820039",
        "title": "公共厕所",
        "address": "宁夏回族自治区固原市原州区政府巷与文化西路交叉口东北方向46米左右",
        "tel": "",
        "category": "基础设施:公共设施:公共厕所",
        "type": 0,
        "location": {
            "lat": 36.00872,
            "lng": 106.283817
        },
        "ad_info": {
            "adcode": 640402,
            "province": "宁夏回族自治区",
            "city": "固原市",
            "district": "原州区"
        }
    },
    {
        "id": "8844825033342886886",
        "title": "公共厕所",
        "address": "宁夏回族自治区固原市原州区文化西路与西关北街交叉口东南方向131米左右",
        "tel": "",
        "category": "基础设施:公共设施:公共厕所",
        "type": 0,
        "location": {
            "lat": 36.008411,
            "lng": 106.280703
        },
        "ad_info": {
            "adcode": 640402,
            "province": "宁夏回族自治区",
            "city": "固原市",
            "district": "原州区"
        }
    },
    {
        "id": "17567058600857882227",
        "title": "公共厕所",
        "address": "宁夏回族自治区固原市原州区政府西路与西关南街交叉口正东方向86米左右",
        "tel": "",
        "category": "基础设施:公共设施:公共厕所",
        "type": 0,
        "location": {
            "lat": 36.005102,
            "lng": 106.279117
        },
        "ad_info": {
            "adcode": 640402,
            "province": "宁夏回族自治区",
            "city": "固原市",
            "district": "原州区"
        }
    },
    {
        "id": "7285670894521919303",
        "title": "公共厕所",
        "address": "宁夏回族自治区固原市原州区安康路东海太阳城",
        "tel": "",
        "category": "基础设施:公共设施:公共厕所",
        "type": 0,
        "location": {
            "lat": 36.014862,
            "lng": 106.268545
        },
        "ad_info": {
            "adcode": 640402,
            "province": "宁夏回族自治区",
            "city": "固原市",
            "district": "原州区"
        }
    },
    {
        "id": "18296518393003787377",
        "title": "公共厕所",
        "address": "宁夏回族自治区固原市原州区六盘山路(东)与和平街交叉口西北40米",
        "tel": "",
        "category": "基础设施:公共设施:公共厕所",
        "type": 0,
        "location": {
            "lat": 36.022749,
            "lng": 106.28565
        },
        "ad_info": {
            "adcode": 640402,
            "province": "宁夏回族自治区",
            "city": "固原市",
            "district": "原州区"
        }
    },
    {
        "id": "11312886278768003877",
        "title": "公共厕所",
        "address": "宁夏回族自治区固原市彭阳县东山街与义丰路交叉口正北方向103米左右",
        "tel": "",
        "category": "基础设施:公共设施:公共厕所",
        "type": 0,
        "location": {
            "lat": 35.848061,
            "lng": 106.648976
        },
        "ad_info": {
            "adcode": 640425,
            "province": "宁夏回族自治区",
            "city": "固原市",
            "district": "彭阳县"
        }
    },
    {
        "id": "16025456553582858256",
        "title": "公共厕所",
        "address": "宁夏回族自治区固原市西吉县S312与西静线交叉口东北方向980米左右",
        "tel": "",
        "category": "基础设施:公共设施:公共厕所",
        "type": 0,
        "location": {
            "lat": 35.844272,
            "lng": 105.66408
        },
        "ad_info": {
            "adcode": 640422,
            "province": "宁夏回族自治区",
            "city": "固原市",
            "district": "西吉县"
        }
    },
    {
        "id": "15438680670301509523",
        "title": "公共厕所",
        "address": "宁夏回族自治区固原市西吉县利民巷与吉强中路交叉口西南方向87米左右",
        "tel": "",
        "category": "基础设施:公共设施:公共厕所",
        "type": 0,
        "location": {
            "lat": 35.966793,
            "lng": 105.723983
        },
        "ad_info": {
            "adcode": 640422,
            "province": "宁夏回族自治区",
            "city": "固原市",
            "district": "西吉县"
        }
    },
    {
        "id": "13598669763814395163",
        "title": "公共厕所",
        "address": "宁夏回族自治区固原市原州区政府巷261号新华百货通信广场(固原店)F3",
        "tel": "",
        "category": "基础设施:公共设施:公共厕所",
        "type": 0,
        "location": {
            "lat": 36.00779,
            "lng": 106.284569
        },
        "ad_info": {
            "adcode": 640402,
            "province": "宁夏回族自治区",
            "city": "固原市",
            "district": "原州区"
        }
    },
    {
        "id": "13115464704467973463",
        "title": "公共厕所",
        "address": "宁夏回族自治区固原市西吉县吉强西路与苏堡路交叉口西北方向52米左右",
        "tel": "",
        "category": "基础设施:公共设施:公共厕所",
        "type": 0,
        "location": {
            "lat": 35.970722,
            "lng": 105.71477
        },
        "ad_info": {
            "adcode": 640422,
            "province": "宁夏回族自治区",
            "city": "固原市",
            "district": "西吉县"
        }
    },
    {
        "id": "5759318627951384754",
        "title": "公共厕所",
        "address": "宁夏回族自治区固原市西吉县公园西街与政府街交叉口西北方向119米左右",
        "tel": "",
        "category": "基础设施:公共设施:公共厕所",
        "type": 0,
        "location": {
            "lat": 35.964427,
            "lng": 105.732441
        },
        "ad_info": {
            "adcode": 640422,
            "province": "宁夏回族自治区",
            "city": "固原市",
            "district": "西吉县"
        }
    },
    {
        "id": "11283686010365915385",
        "title": "公共厕所",
        "address": "宁夏回族自治区固原市西吉县公园西街与滨河路交叉口正西方向35米左右",
        "tel": "",
        "category": "基础设施:公共设施:公共厕所",
        "type": 0,
        "location": {
            "lat": 35.96022,
            "lng": 105.732462
        },
        "ad_info": {
            "adcode": 640422,
            "province": "宁夏回族自治区",
            "city": "固原市",
            "district": "西吉县"
        }
    },
    {
        "id": "17781373171514699103",
        "title": "公共厕所",
        "address": "宁夏回族自治区固原市泾源县中国石化六盘山加油站西北侧140米",
        "tel": "",
        "category": "基础设施:公共设施:公共厕所",
        "type": 0,
        "location": {
            "lat": 35.66065,
            "lng": 106.298796
        },
        "ad_info": {
            "adcode": 640424,
            "province": "宁夏回族自治区",
            "city": "固原市",
            "district": "泾源县"
        }
    },
    {
        "id": "4363140514548236909",
        "title": "公共卫生间",
        "address": "宁夏回族自治区固原市原州区利民路与和平街交叉口东北方向34米左右",
        "tel": "",
        "category": "基础设施:公共设施:公共厕所",
        "type": 0,
        "location": {
            "lat": 36.019218,
            "lng": 106.285695
        },
        "ad_info": {
            "adcode": 640402,
            "province": "宁夏回族自治区",
            "city": "固原市",
            "district": "原州区"
        }
    },
    {
        "id": "5017657518027784735",
        "title": "公共厕所",
        "address": "宁夏回族自治区固原市原州区民族街与高平路交叉口正南方向449米左右",
        "tel": "",
        "category": "基础设施:公共设施:公共厕所",
        "type": 0,
        "location": {
            "lat": 35.987253,
            "lng": 106.261888
        },
        "ad_info": {
            "adcode": 640402,
            "province": "宁夏回族自治区",
            "city": "固原市",
            "district": "原州区"
        }
    },
    {
        "id": "5845531898242120196",
        "title": "公共厕所",
        "address": "宁夏回族自治区固原市西吉县东坪巷与南台桥交叉口正西方向93米左右",
        "tel": "",
        "category": "基础设施:公共设施:公共厕所",
        "type": 0,
        "location": {
            "lat": 35.962417,
            "lng": 105.764099
        },
        "ad_info": {
            "adcode": 640422,
            "province": "宁夏回族自治区",
            "city": "固原市",
            "district": "西吉县"
        }
    },
    {
        "id": "1599653626490417568",
        "title": "公共厕所",
        "address": "宁夏回族自治区固原市原州区大原街与安定路交叉口正北方向125米左右",
        "tel": "",
        "category": "基础设施:公共设施:公共厕所",
        "type": 0,
        "location": {
            "lat": 35.996258,
            "lng": 106.222486
        },
        "ad_info": {
            "adcode": 640402,
            "province": "宁夏回族自治区",
            "city": "固原市",
            "district": "原州区"
        }
    },
    {
        "id": "151215789713170520",
        "title": "公共厕所",
        "address": "宁夏回族自治区固原市原州区东海街与文化西路交叉口正南方向47米左右",
        "tel": "",
        "category": "基础设施:公共设施:公共厕所",
        "type": 0,
        "location": {
            "lat": 36.009585,
            "lng": 106.272107
        },
        "ad_info": {
            "adcode": 640402,
            "province": "宁夏回族自治区",
            "city": "固原市",
            "district": "原州区"
        }
    },
    {
        "id": "137869708784131064",
        "title": "公共厕所",
        "address": "宁夏回族自治区固原市原州区东海街泰合嘉园",
        "tel": "",
        "category": "基础设施:公共设施:公共厕所",
        "type": 0,
        "location": {
            "lat": 36.008697,
            "lng": 106.271175
        },
        "ad_info": {
            "adcode": 640402,
            "province": "宁夏回族自治区",
            "city": "固原市",
            "district": "原州区"
        }
    },
    {
        "id": "3466792205655437223",
        "title": "公共厕所",
        "address": "宁夏回族自治区固原市原州区北京路与和谐路交叉口东北方向70米左右",
        "tel": "",
        "category": "基础设施:公共设施:公共厕所",
        "type": 0,
        "location": {
            "lat": 36.035489,
            "lng": 106.262136
        },
        "ad_info": {
            "adcode": 640402,
            "province": "宁夏回族自治区",
            "city": "固原市",
            "district": "原州区"
        }
    },
    {
        "id": "5361798627869006223",
        "title": "公共厕所",
        "address": "宁夏回族自治区固原市原州区东红路与中山北街交叉口西北方向94米左右",
        "tel": "",
        "category": "基础设施:公共设施:公共厕所",
        "type": 0,
        "location": {
            "lat": 36.031405,
            "lng": 106.290741
        },
        "ad_info": {
            "adcode": 640402,
            "province": "宁夏回族自治区",
            "city": "固原市",
            "district": "原州区"
        }
    },
    {
        "id": "6159177206901305347",
        "title": "公共厕所",
        "address": "宁夏回族自治区固原市隆德县东环路与人民路交叉口正南方向107米左右",
        "tel": "",
        "category": "基础设施:公共设施:公共厕所",
        "type": 0,
        "location": {
            "lat": 35.618407,
            "lng": 106.13495
        },
        "ad_info": {
            "adcode": 640423,
            "province": "宁夏回族自治区",
            "city": "固原市",
            "district": "隆德县"
        }
    },
    {
        "id": "13771521016912329596",
        "title": "公共厕所",
        "address": "宁夏回族自治区固原市泾源县G312与X415交叉口正西方向443米左右",
        "tel": "",
        "category": "基础设施:公共设施:公共厕所",
        "type": 0,
        "location": {
            "lat": 35.677786,
            "lng": 106.230442
        },
        "ad_info": {
            "adcode": 640424,
            "province": "宁夏回族自治区",
            "city": "固原市",
            "district": "泾源县"
        }
    },
    {
        "id": "11541457589488332462",
        "title": "公共厕所",
        "address": "宁夏回族自治区固原市原州区东关北街与六盘山东路交叉口正西方向215米左右",
        "tel": "",
        "category": "基础设施:公共设施:公共厕所",
        "type": 0,
        "location": {
            "lat": 36.021107,
            "lng": 106.295231
        },
        "ad_info": {
            "adcode": 640402,
            "province": "宁夏回族自治区",
            "city": "固原市",
            "district": "原州区"
        }
    },
    {
        "id": "9985984578558196932",
        "title": "公共厕所",
        "address": "宁夏回族自治区固原市西吉县一小巷与吉强中路交叉口西北方向30米左右",
        "tel": "",
        "category": "基础设施:公共设施:公共厕所",
        "type": 0,
        "location": {
            "lat": 35.966374,
            "lng": 105.739347
        },
        "ad_info": {
            "adcode": 640422,
            "province": "宁夏回族自治区",
            "city": "固原市",
            "district": "西吉县"
        }
    },
    {
        "id": "12715164587579661297",
        "title": "公共厕所",
        "address": "宁夏回族自治区固原市原州区安康路与银平路交叉口正东方向31米左右",
        "tel": "",
        "category": "基础设施:公共设施:公共厕所",
        "type": 0,
        "location": {
            "lat": 36.030337,
            "lng": 106.247736
        },
        "ad_info": {
            "adcode": 640402,
            "province": "宁夏回族自治区",
            "city": "固原市",
            "district": "原州区"
        }
    },
    {
        "id": "5673866203476789703",
        "title": "公共厕所",
        "address": "宁夏回族自治区固原市原州区政府巷261号新华百货通信广场(固原店)F5",
        "tel": "",
        "category": "基础设施:公共设施:公共厕所",
        "type": 0,
        "location": {
            "lat": 36.006981,
            "lng": 106.283795
        },
        "ad_info": {
            "adcode": 640402,
            "province": "宁夏回族自治区",
            "city": "固原市",
            "district": "原州区"
        }
    },
    {
        "id": "10956173805567213192",
        "title": "公共厕所",
        "address": "宁夏回族自治区固原市西吉县沐家营路与育才巷交叉口正南方向134米左右",
        "tel": "",
        "category": "基础设施:公共设施:公共厕所",
        "type": 0,
        "location": {
            "lat": 35.971516,
            "lng": 105.718177
        },
        "ad_info": {
            "adcode": 640422,
            "province": "宁夏回族自治区",
            "city": "固原市",
            "district": "西吉县"
        }
    },
    {
        "id": "15418413552833294827",
        "title": "公共厕所",
        "address": "宁夏回族自治区固原市西吉县苏堡路与西静线交叉口正西方向172米左右",
        "tel": "",
        "category": "基础设施:公共设施:公共厕所",
        "type": 0,
        "location": {
            "lat": 35.965691,
            "lng": 105.71139
        },
        "ad_info": {
            "adcode": 640422,
            "province": "宁夏回族自治区",
            "city": "固原市",
            "district": "西吉县"
        }
    },
    {
        "id": "3699393979021241791",
        "title": "公共厕所",
        "address": "宁夏回族自治区固原市原州区东关南街与政府东路交叉口正北方向36米左右",
        "tel": "",
        "category": "基础设施:公共设施:公共厕所",
        "type": 0,
        "location": {
            "lat": 36.002592,
            "lng": 106.292798
        },
        "ad_info": {
            "adcode": 640402,
            "province": "宁夏回族自治区",
            "city": "固原市",
            "district": "原州区"
        }
    },
    {
        "id": "5413876884842567337",
        "title": "公共厕所",
        "address": "宁夏回族自治区固原市隆德县人民路与隆德县商业步行街交叉口西南40米",
        "tel": "",
        "category": "基础设施:公共设施:公共厕所",
        "type": 0,
        "location": {
            "lat": 35.618322,
            "lng": 106.128667
        },
        "ad_info": {
            "adcode": 640423,
            "province": "宁夏回族自治区",
            "city": "固原市",
            "district": "隆德县"
        }
    },
    {
        "id": "16501467360084642116",
        "title": "公共厕所",
        "address": "宁夏回族自治区固原市原州区清河北路745号",
        "tel": "",
        "category": "基础设施:公共设施:公共厕所",
        "type": 0,
        "location": {
            "lat": 36.020729,
            "lng": 106.303355
        },
        "ad_info": {
            "adcode": 640402,
            "province": "宁夏回族自治区",
            "city": "固原市",
            "district": "原州区"
        }
    },
    {
        "id": "12266165894770642507",
        "title": "公共厕所",
        "address": "宁夏回族自治区固原市原州区中山南街与南城路交叉口正南方向73米左右",
        "tel": "",
        "category": "基础设施:公共设施:公共厕所",
        "type": 0,
        "location": {
            "lat": 35.998518,
            "lng": 106.285072
        },
        "ad_info": {
            "adcode": 640402,
            "province": "宁夏回族自治区",
            "city": "固原市",
            "district": "原州区"
        }
    },
    {
        "id": "10773901944663226138",
        "title": "公共厕所",
        "address": "宁夏回族自治区固原市西吉县吉强中路与吉强西路交叉口正南方向26米左右",
        "tel": "",
        "category": "基础设施:公共设施:公共厕所",
        "type": 0,
        "location": {
            "lat": 35.968735,
            "lng": 105.720612
        },
        "ad_info": {
            "adcode": 640422,
            "province": "宁夏回族自治区",
            "city": "固原市",
            "district": "西吉县"
        }
    },
    {
        "id": "18439386932098351933",
        "title": "公共厕所",
        "address": "宁夏回族自治区固原市原州区六盘山西路与泰合路交叉口东北方向130米左右",
        "tel": "",
        "category": "基础设施:公共设施:公共厕所",
        "type": 0,
        "location": {
            "lat": 36.008615,
            "lng": 106.264683
        },
        "ad_info": {
            "adcode": 640402,
            "province": "宁夏回族自治区",
            "city": "固原市",
            "district": "原州区"
        }
    },
    {
        "id": "2437332601584405935",
        "title": "公共厕所",
        "address": "宁夏回族自治区固原市原州区六盘山西路与文化西路交叉口正西方向103米左右",
        "tel": "",
        "category": "基础设施:公共设施:公共厕所",
        "type": 0,
        "location": {
            "lat": 36.011111,
            "lng": 106.265139
        },
        "ad_info": {
            "adcode": 640402,
            "province": "宁夏回族自治区",
            "city": "固原市",
            "district": "原州区"
        }
    },
    {
        "id": "7557022032184228338",
        "title": "公共厕所",
        "address": "宁夏回族自治区固原市原州区中心巷与中心路交叉口西北方向63米左右",
        "tel": "",
        "category": "基础设施:公共设施:公共厕所",
        "type": 0,
        "location": {
            "lat": 36.0056,
            "lng": 106.28991
        },
        "ad_info": {
            "adcode": 640402,
            "province": "宁夏回族自治区",
            "city": "固原市",
            "district": "原州区"
        }
    },
    {
        "id": "4562231499951435394",
        "title": "公共厕所",
        "address": "宁夏回族自治区固原市原州区中山南街与南城路交叉口正南方向366米左右",
        "tel": "",
        "category": "基础设施:公共设施:公共厕所",
        "type": 0,
        "location": {
            "lat": 35.996008,
            "lng": 106.283802
        },
        "ad_info": {
            "adcode": 640402,
            "province": "宁夏回族自治区",
            "city": "固原市",
            "district": "原州区"
        }
    },
    {
        "id": "8114125955777423637",
        "title": "公共厕所",
        "address": "宁夏回族自治区固原市彭阳县兴彭大街与安定路交叉口正西方向162米左右",
        "tel": "",
        "category": "基础设施:公共设施:公共厕所",
        "type": 0,
        "location": {
            "lat": 35.849624,
            "lng": 106.62364
        },
        "ad_info": {
            "adcode": 640425,
            "province": "宁夏回族自治区",
            "city": "固原市",
            "district": "彭阳县"
        }
    },
    {
        "id": "865161496689534457",
        "title": "公共厕所",
        "address": "宁夏回族自治区固原市彭阳县东关路与义丰路交叉口正北方向151米左右",
        "tel": "",
        "category": "基础设施:公共设施:公共厕所",
        "type": 0,
        "location": {
            "lat": 35.850508,
            "lng": 106.64744
        },
        "ad_info": {
            "adcode": 640425,
            "province": "宁夏回族自治区",
            "city": "固原市",
            "district": "彭阳县"
        }
    },
    {
        "id": "17455427071104656248",
        "title": "公共厕所",
        "address": "宁夏回族自治区固原市西吉县龙王坝窑洞宾馆房",
        "tel": "",
        "category": "基础设施:公共设施:公共厕所",
        "type": 0,
        "location": {
            "lat": 35.958393,
            "lng": 105.617049
        },
        "ad_info": {
            "adcode": 640422,
            "province": "宁夏回族自治区",
            "city": "固原市",
            "district": "西吉县"
        }
    },
    {
        "id": "4075816986844785426",
        "title": "公共厕所",
        "address": "宁夏回族自治区固原市西吉县体育场东巷与滨河路交叉口正北方向71米左右",
        "tel": "",
        "category": "基础设施:公共设施:公共厕所",
        "type": 0,
        "location": {
            "lat": 35.962979,
            "lng": 105.725513
        },
        "ad_info": {
            "adcode": 640422,
            "province": "宁夏回族自治区",
            "city": "固原市",
            "district": "西吉县"
        }
    },
    {
        "id": "11208060166121007579",
        "title": "公共厕所",
        "address": "宁夏回族自治区固原市原州区北京路与安康路交叉口东南方向193米左右",
        "tel": "",
        "category": "基础设施:公共设施:公共厕所",
        "type": 0,
        "location": {
            "lat": 36.027342,
            "lng": 106.251063
        },
        "ad_info": {
            "adcode": 640402,
            "province": "宁夏回族自治区",
            "city": "固原市",
            "district": "原州区"
        }
    },
    {
        "id": "1101807076727789519",
        "title": "公共厕所",
        "address": "宁夏回族自治区固原市原州区宁源路与清河南街交叉口正北方向50米左右",
        "tel": "",
        "category": "基础设施:公共设施:公共厕所",
        "type": 0,
        "location": {
            "lat": 35.974656,
            "lng": 106.286966
        },
        "ad_info": {
            "adcode": 640402,
            "province": "宁夏回族自治区",
            "city": "固原市",
            "district": "原州区"
        }
    },
    {
        "id": "11236069885323328526",
        "title": "公共厕所",
        "address": "宁夏回族自治区固原市原州区上海路与清河南街交叉口东南方向76米左右",
        "tel": "",
        "category": "基础设施:公共设施:公共厕所",
        "type": 0,
        "location": {
            "lat": 35.984151,
            "lng": 106.290105
        },
        "ad_info": {
            "adcode": 640402,
            "province": "宁夏回族自治区",
            "city": "固原市",
            "district": "原州区"
        }
    },
    {
        "id": "11868710992475954103",
        "title": "公共厕所",
        "address": "宁夏回族自治区固原市原州区东关北街与东红路交叉口东北方向41米左右",
        "tel": "",
        "category": "基础设施:公共设施:公共厕所",
        "type": 0,
        "location": {
            "lat": 36.030433,
            "lng": 106.296619
        },
        "ad_info": {
            "adcode": 640402,
            "province": "宁夏回族自治区",
            "city": "固原市",
            "district": "原州区"
        }
    },
    {
        "id": "10489689679131388651",
        "title": "公共厕所",
        "address": "宁夏回族自治区固原市西吉县吉强东路与沙沟路交叉口正南方向32米左右",
        "tel": "",
        "category": "基础设施:公共设施:公共厕所",
        "type": 0,
        "location": {
            "lat": 35.967176,
            "lng": 105.755591
        },
        "ad_info": {
            "adcode": 640422,
            "province": "宁夏回族自治区",
            "city": "固原市",
            "district": "西吉县"
        }
    },
    {
        "id": "16039564163286687413",
        "title": "公共厕所",
        "address": "宁夏回族自治区固原市原州区东关南街与政府东路交叉口东北方向42米左右",
        "tel": "",
        "category": "基础设施:公共设施:公共厕所",
        "type": 0,
        "location": {
            "lat": 36.002517,
            "lng": 106.293204
        },
        "ad_info": {
            "adcode": 640402,
            "province": "宁夏回族自治区",
            "city": "固原市",
            "district": "原州区"
        }
    },
    {
        "id": "2675649713455725821",
        "title": "公共厕所",
        "address": "宁夏回族自治区固原市原州区六盘山路(东)与清河北路交叉口西280米",
        "tel": "",
        "category": "基础设施:公共设施:公共厕所",
        "type": 0,
        "location": {
            "lat": 36.019715,
            "lng": 106.301354
        },
        "ad_info": {
            "adcode": 640402,
            "province": "宁夏回族自治区",
            "city": "固原市",
            "district": "原州区"
        }
    },
    {
        "id": "8094004393216046190",
        "title": "公共厕所",
        "address": "宁夏回族自治区固原市泾源县G312与G344交叉口正西方向225米左右",
        "tel": "",
        "category": "基础设施:公共设施:公共厕所",
        "type": 0,
        "location": {
            "lat": 35.660588,
            "lng": 106.29589
        },
        "ad_info": {
            "adcode": 640424,
            "province": "宁夏回族自治区",
            "city": "固原市",
            "district": "泾源县"
        }
    },
    {
        "id": "13019629404153109620",
        "title": "公共厕所",
        "address": "宁夏回族自治区固原市隆德县G312",
        "tel": "",
        "category": "基础设施:公共设施:公共厕所",
        "type": 0,
        "location": {
            "lat": 35.56108,
            "lng": 105.862449
        },
        "ad_info": {
            "adcode": 640423,
            "province": "宁夏回族自治区",
            "city": "固原市",
            "district": "隆德县"
        }
    },
    {
        "id": "1935338622070765212",
        "title": "公共厕所",
        "address": "宁夏回族自治区固原市泾源县泾河源镇游客服务中心孵化园",
        "tel": "",
        "category": "基础设施:公共设施:公共厕所",
        "type": 0,
        "location": {
            "lat": 35.416304,
            "lng": 106.401838
        },
        "ad_info": {
            "adcode": 640424,
            "province": "宁夏回族自治区",
            "city": "固原市",
            "district": "泾源县"
        }
    },
    {
        "id": "15938807756275880058",
        "title": "公共厕所",
        "address": "宁夏回族自治区固原市西吉县二幼桥与富民街交叉口东南方向34米左右",
        "tel": "",
        "category": "基础设施:公共设施:公共厕所",
        "type": 0,
        "location": {
            "lat": 35.963318,
            "lng": 105.721074
        },
        "ad_info": {
            "adcode": 640422,
            "province": "宁夏回族自治区",
            "city": "固原市",
            "district": "西吉县"
        }
    },
    {
        "id": "5886454113694193129",
        "title": "公共厕所",
        "address": "宁夏回族自治区固原市原州区大原街与高平路交叉口西北方向96米左右",
        "tel": "",
        "category": "基础设施:公共设施:公共厕所",
        "type": 0,
        "location": {
            "lat": 35.991776,
            "lng": 106.221979
        },
        "ad_info": {
            "adcode": 640402,
            "province": "宁夏回族自治区",
            "city": "固原市",
            "district": "原州区"
        }
    },
    {
        "id": "4524661290462849043",
        "title": "公共厕所",
        "address": "宁夏回族自治区固原市原州区东关北街与东关西巷交叉口西北方向211米左右",
        "tel": "",
        "category": "基础设施:公共设施:公共厕所",
        "type": 0,
        "location": {
            "lat": 36.011331,
            "lng": 106.292812
        },
        "ad_info": {
            "adcode": 640402,
            "province": "宁夏回族自治区",
            "city": "固原市",
            "district": "原州区"
        }
    },
    {
        "id": "18415227742493266940",
        "title": "公共厕所",
        "address": "宁夏回族自治区固原市原州区彭黑公路",
        "tel": "",
        "category": "基础设施:公共设施:公共厕所",
        "type": 0,
        "location": {
            "lat": 36.049578,
            "lng": 106.176047
        },
        "ad_info": {
            "adcode": 640402,
            "province": "宁夏回族自治区",
            "city": "固原市",
            "district": "原州区"
        }
    },
    {
        "id": "4037288941302102540",
        "title": "公共厕所",
        "address": "宁夏回族自治区固原市彭阳县G327与彭镇公路交叉口正西方向1462米左右",
        "tel": "",
        "category": "基础设施:公共设施:公共厕所",
        "type": 0,
        "location": {
            "lat": 35.798021,
            "lng": 106.851874
        },
        "ad_info": {
            "adcode": 640425,
            "province": "宁夏回族自治区",
            "city": "固原市",
            "district": "彭阳县"
        }
    },
    {
        "id": "8394968718141906205",
        "title": "公共厕所",
        "address": "宁夏回族自治区固原市彭阳县利民街与长安路交叉口东南方向16米左右",
        "tel": "",
        "category": "基础设施:公共设施:公共厕所",
        "type": 0,
        "location": {
            "lat": 35.850587,
            "lng": 106.630024
        },
        "ad_info": {
            "adcode": 640425,
            "province": "宁夏回族自治区",
            "city": "固原市",
            "district": "彭阳县"
        }
    },
    {
        "id": "17678439535363589681",
        "title": "公共厕所",
        "address": "宁夏回族自治区固原市彭阳县南关街与栖凤街交叉口正南方向37米左右",
        "tel": "",
        "category": "基础设施:公共设施:公共厕所",
        "type": 0,
        "location": {
            "lat": 35.835433,
            "lng": 106.651994
        },
        "ad_info": {
            "adcode": 640425,
            "province": "宁夏回族自治区",
            "city": "固原市",
            "district": "彭阳县"
        }
    },
    {
        "id": "12354047006824242238",
        "title": "公共卫生间",
        "address": "宁夏回族自治区固原市彭阳县广安路与育红街交叉口东南方向27米左右",
        "tel": "",
        "category": "基础设施:公共设施:公共厕所",
        "type": 0,
        "location": {
            "lat": 35.850227,
            "lng": 106.637661
        },
        "ad_info": {
            "adcode": 640425,
            "province": "宁夏回族自治区",
            "city": "固原市",
            "district": "彭阳县"
        }
    },
    {
        "id": "16276483909424249945",
        "title": "公共厕所",
        "address": "宁夏回族自治区固原市彭阳县德阳路与栖凤街交叉口西南方向29米左右",
        "tel": "",
        "category": "基础设施:公共设施:公共厕所",
        "type": 0,
        "location": {
            "lat": 35.847896,
            "lng": 106.641972
        },
        "ad_info": {
            "adcode": 640425,
            "province": "宁夏回族自治区",
            "city": "固原市",
            "district": "彭阳县"
        }
    },
    {
        "id": "14467316195518408150",
        "title": "公共厕所",
        "address": "宁夏回族自治区固原市彭阳县安定路与茹河街交叉口正西方向232米左右",
        "tel": "",
        "category": "基础设施:公共设施:公共厕所",
        "type": 0,
        "location": {
            "lat": 35.854347,
            "lng": 106.622409
        },
        "ad_info": {
            "adcode": 640425,
            "province": "宁夏回族自治区",
            "city": "固原市",
            "district": "彭阳县"
        }
    },
    {
        "id": "2587777868600010445",
        "title": "公共厕所",
        "address": "宁夏回族自治区固原市原州区上海路与北京路交叉口正南方向124米左右",
        "tel": "",
        "category": "基础设施:公共设施:公共厕所",
        "type": 0,
        "location": {
            "lat": 36.011664,
            "lng": 106.238979
        },
        "ad_info": {
            "adcode": 640402,
            "province": "宁夏回族自治区",
            "city": "固原市",
            "district": "原州区"
        }
    },
    {
        "id": "12127777374238344415",
        "title": "公共厕所",
        "address": "宁夏回族自治区固原市彭阳县中国人民银行彭阳县支行南",
        "tel": "",
        "category": "基础设施:公共设施:公共厕所",
        "type": 0,
        "location": {
            "lat": 35.848337,
            "lng": 106.637933
        },
        "ad_info": {
            "adcode": 640425,
            "province": "宁夏回族自治区",
            "city": "固原市",
            "district": "彭阳县"
        }
    },
    {
        "id": "12583822353490250994",
        "title": "公共厕所",
        "address": "宁夏回族自治区固原市彭阳县东岳街与栖凤街交叉口东北方向46米左右",
        "tel": "",
        "category": "基础设施:公共设施:公共厕所",
        "type": 0,
        "location": {
            "lat": 35.843973,
            "lng": 106.648822
        },
        "ad_info": {
            "adcode": 640425,
            "province": "宁夏回族自治区",
            "city": "固原市",
            "district": "彭阳县"
        }
    },
    {
        "id": "15979968348883511135",
        "title": "公共厕所",
        "address": "宁夏回族自治区固原市彭阳县三泰街与南关街交叉口正北方向44米左右",
        "tel": "",
        "category": "基础设施:公共设施:公共厕所",
        "type": 0,
        "location": {
            "lat": 35.841169,
            "lng": 106.655597
        },
        "ad_info": {
            "adcode": 640425,
            "province": "宁夏回族自治区",
            "city": "固原市",
            "district": "彭阳县"
        }
    },
    {
        "id": "11441863790752653131",
        "title": "公共厕所",
        "address": "宁夏回族自治区固原市彭阳县Y102与刘红公路交叉口东南方向156米左右",
        "tel": "",
        "category": "基础设施:公共设施:公共厕所",
        "type": 0,
        "location": {
            "lat": 35.785062,
            "lng": 106.559841
        },
        "ad_info": {
            "adcode": 640425,
            "province": "宁夏回族自治区",
            "city": "固原市",
            "district": "彭阳县"
        }
    },
    {
        "id": "1806323686133048218",
        "title": "公共厕所",
        "address": "宁夏回族自治区固原市彭阳县城阳乡杨坪村茹河瀑布风景区停车场",
        "tel": "",
        "category": "基础设施:公共设施:公共厕所",
        "type": 0,
        "location": {
            "lat": 35.791176,
            "lng": 106.878864
        },
        "ad_info": {
            "adcode": 640425,
            "province": "宁夏回族自治区",
            "city": "固原市",
            "district": "彭阳县"
        }
    },
    {
        "id": "13723101793023562258",
        "title": "公共厕所(新华百货固原店)",
        "address": "宁夏回族自治区固原市原州区政府巷261号新华百货通信广场(固原店)F4",
        "tel": "",
        "category": "基础设施:公共设施:公共厕所",
        "type": 0,
        "location": {
            "lat": 36.00779,
            "lng": 106.284566
        },
        "ad_info": {
            "adcode": 640402,
            "province": "宁夏回族自治区",
            "city": "固原市",
            "district": "原州区"
        }
    },
    {
        "id": "17374885180388929061",
        "title": "公共厕所(新华百货固原店)",
        "address": "宁夏回族自治区固原市原州区政府巷261号新华百货通信广场(固原店)F2",
        "tel": "",
        "category": "基础设施:公共设施:公共厕所",
        "type": 0,
        "location": {
            "lat": 36.007797,
            "lng": 106.284576
        },
        "ad_info": {
            "adcode": 640402,
            "province": "宁夏回族自治区",
            "city": "固原市",
            "district": "原州区"
        }
    },
    {
        "id": "17112176497046503792",
        "title": "公共厕所(新华百货固原店)",
        "address": "宁夏回族自治区固原市原州区政府巷261号新华百货通信广场(固原店)F6",
        "tel": "",
        "category": "基础设施:公共设施:公共厕所",
        "type": 0,
        "location": {
            "lat": 36.00779,
            "lng": 106.284569
        },
        "ad_info": {
            "adcode": 640402,
            "province": "宁夏回族自治区",
            "city": "固原市",
            "district": "原州区"
        }
    },
    {
        "id": "15289756083948963308",
        "title": "公共厕所",
        "address": "宁夏回族自治区固原市彭阳县罗洼汇源加油站东北侧210米",
        "tel": "",
        "category": "基础设施:公共设施:公共厕所",
        "type": 0,
        "location": {
            "lat": 36.258283,
            "lng": 106.594752
        },
        "ad_info": {
            "adcode": 640425,
            "province": "宁夏回族自治区",
            "city": "固原市",
            "district": "彭阳县"
        }
    },
    {
        "id": "11012667458354982262",
        "title": "公共厕所",
        "address": "宁夏回族自治区固原市彭阳县G327与茹河街交叉口正西方向212米左右",
        "tel": "",
        "category": "基础设施:公共设施:公共厕所",
        "type": 0,
        "location": {
            "lat": 35.844326,
            "lng": 106.654798
        },
        "ad_info": {
            "adcode": 640425,
            "province": "宁夏回族自治区",
            "city": "固原市",
            "district": "彭阳县"
        }
    },
    {
        "id": "17399384092907320123",
        "title": "公共厕所",
        "address": "宁夏回族自治区固原市原州区中山南街与中心路交叉口正东方向55米左右",
        "tel": "",
        "category": "基础设施:公共设施:公共厕所",
        "type": 0,
        "location": {
            "lat": 36.006039,
            "lng": 106.287582
        },
        "ad_info": {
            "adcode": 640402,
            "province": "宁夏回族自治区",
            "city": "固原市",
            "district": "原州区"
        }
    },
    {
        "id": "15832817265196350410",
        "title": "公共厕所",
        "address": "宁夏回族自治区固原市隆德县解放街与长乐路交叉口正南方向83米左右",
        "tel": "",
        "category": "基础设施:公共设施:公共厕所",
        "type": 0,
        "location": {
            "lat": 35.618661,
            "lng": 106.121767
        },
        "ad_info": {
            "adcode": 640423,
            "province": "宁夏回族自治区",
            "city": "固原市",
            "district": "隆德县"
        }
    },
    {
        "id": "7169737976916354861",
        "title": "古雁公园公共厕所",
        "address": "宁夏回族自治区固原市原州区上海路与建业街交叉口西北方向249米左右",
        "tel": "",
        "category": "基础设施:公共设施:公共厕所",
        "type": 0,
        "location": {
            "lat": 36.00963,
            "lng": 106.250451
        },
        "ad_info": {
            "adcode": 640402,
            "province": "宁夏回族自治区",
            "city": "固原市",
            "district": "原州区"
        }
    },
    {
        "id": "17183969346427588542",
        "title": "旅游厕所",
        "address": "宁夏回族自治区固原市隆德县",
        "tel": "",
        "category": "基础设施:公共设施:公共厕所",
        "type": 0,
        "location": {
            "lat": 35.549991,
            "lng": 105.973423
        },
        "ad_info": {
            "adcode": 640423,
            "province": "宁夏回族自治区",
            "city": "固原市",
            "district": "隆德县"
        }
    },
    {
        "id": "1101016550693544390",
        "title": "西湖公园公共厕所",
        "address": "宁夏回族自治区固原市原州区南关西路与西关南街交叉口正东方向229米左右",
        "tel": "",
        "category": "基础设施:公共设施:公共厕所",
        "type": 0,
        "location": {
            "lat": 36.001482,
            "lng": 106.279636
        },
        "ad_info": {
            "adcode": 640402,
            "province": "宁夏回族自治区",
            "city": "固原市",
            "district": "原州区"
        }
    },
    {
        "id": "11008721267563762257",
        "title": "固原博物馆公共厕所",
        "address": "宁夏回族自治区固原市原州区西城路133号",
        "tel": "",
        "category": "基础设施:公共设施:公共厕所",
        "type": 0,
        "location": {
            "lat": 36.005051,
            "lng": 106.275696
        },
        "ad_info": {
            "adcode": 640402,
            "province": "宁夏回族自治区",
            "city": "固原市",
            "district": "原州区"
        }
    },
    {
        "id": "2158414354241038081",
        "title": "人民广场公共厕所",
        "address": "宁夏回族自治区固原市泾源县广场路与龙潭街交叉口正西方向35米左右",
        "tel": "",
        "category": "基础设施:公共设施:公共厕所",
        "type": 0,
        "location": {
            "lat": 35.490684,
            "lng": 106.341148
        },
        "ad_info": {
            "adcode": 640424,
            "province": "宁夏回族自治区",
            "city": "固原市",
            "district": "泾源县"
        }
    },
    {
        "id": "2053261188233561972",
        "title": "将台堡红军会师纪念馆停车场-公共厕所",
        "address": "宁夏回族自治区固原市西吉县堡镇固将路将台堡红军会师纪念馆停车场",
        "tel": "",
        "category": "基础设施:公共设施:公共厕所",
        "type": 0,
        "location": {
            "lat": 35.819136,
            "lng": 105.841923
        },
        "ad_info": {
            "adcode": 640422,
            "province": "宁夏回族自治区",
            "city": "固原市",
            "district": "西吉县"
        }
    },
    {
        "id": "12810606351205423688",
        "title": "旅游厕所",
        "address": "宁夏回族自治区固原市泾源县",
        "tel": "",
        "category": "基础设施:公共设施:公共厕所",
        "type": 0,
        "location": {
            "lat": 35.765213,
            "lng": 106.233307
        },
        "ad_info": {
            "adcode": 640424,
            "province": "宁夏回族自治区",
            "city": "固原市",
            "district": "泾源县"
        }
    },
    {
        "id": "1642288935299370857",
        "title": "无障碍公共厕所",
        "address": "宁夏回族自治区固原市原州区北京路与和谐路交叉口东南方向185米左右",
        "tel": "",
        "category": "基础设施:公共设施:公共厕所",
        "type": 0,
        "location": {
            "lat": 36.033501,
            "lng": 106.26275
        },
        "ad_info": {
            "adcode": 640402,
            "province": "宁夏回族自治区",
            "city": "固原市",
            "district": "原州区"
        }
    },
    {
        "id": "4284580757526548887",
        "title": "泾河源服务区公共厕所",
        "address": "宁夏回族自治区固原市泾源县泾河源服务区东侧",
        "tel": "",
        "category": "基础设施:公共设施:公共厕所",
        "type": 0,
        "location": {
            "lat": 35.414863,
            "lng": 106.412041
        },
        "ad_info": {
            "adcode": 640424,
            "province": "宁夏回族自治区",
            "city": "固原市",
            "district": "泾源县"
        }
    },
    {
        "id": "10300940936841547121",
        "title": "神林服务区公共厕所",
        "address": "宁夏回族自治区固原市隆德县神林服务区南30米",
        "tel": "",
        "category": "基础设施:公共设施:公共厕所",
        "type": 0,
        "location": {
            "lat": 35.590548,
            "lng": 105.925979
        },
        "ad_info": {
            "adcode": 640423,
            "province": "宁夏回族自治区",
            "city": "固原市",
            "district": "隆德县"
        }
    },
    {
        "id": "5674617801252483429",
        "title": "火石寨景区南门公共厕所",
        "address": "宁夏回族自治区固原市西吉县水云公路火石寨(西南角)",
        "tel": "",
        "category": "基础设施:公共设施:公共厕所",
        "type": 0,
        "location": {
            "lat": 36.081495,
            "lng": 105.74771
        },
        "ad_info": {
            "adcode": 640422,
            "province": "宁夏回族自治区",
            "city": "固原市",
            "district": "西吉县"
        }
    },
    {
        "id": "14010231827857132421",
        "title": "固原服务区公共厕所",
        "address": "宁夏回族自治区固原市原州区福银高速固原服务区",
        "tel": "",
        "category": "基础设施:公共设施:公共厕所",
        "type": 0,
        "location": {
            "lat": 36.079101,
            "lng": 106.199613
        },
        "ad_info": {
            "adcode": 640402,
            "province": "宁夏回族自治区",
            "city": "固原市",
            "district": "原州区"
        }
    },
    {
        "id": "11814142847023446043",
        "title": "固原服务区第二公共厕所",
        "address": "宁夏回族自治区固原市原州区固会高速与西会高速交叉口正北方向1943米左右",
        "tel": "",
        "category": "基础设施:公共设施:公共厕所",
        "type": 0,
        "location": {
            "lat": 36.078337,
            "lng": 106.197549
        },
        "ad_info": {
            "adcode": 640402,
            "province": "宁夏回族自治区",
            "city": "固原市",
            "district": "原州区"
        }
    },
    {
        "id": "11160351962593819003",
        "title": "泾源服务区公共厕所",
        "address": "宁夏回族自治区固原市泾源县青兰高速泾源服务区",
        "tel": "",
        "category": "基础设施:公共设施:公共厕所",
        "type": 0,
        "location": {
            "lat": 35.597936,
            "lng": 106.412693
        },
        "ad_info": {
            "adcode": 640424,
            "province": "宁夏回族自治区",
            "city": "固原市",
            "district": "泾源县"
        }
    },
    {
        "id": "9712967117262747880",
        "title": "固原服务区公共厕所",
        "address": "宁夏回族自治区固原市原州区固会高速与福银高速交叉口正北方向1749米左右",
        "tel": "",
        "category": "基础设施:公共设施:公共厕所",
        "type": 0,
        "location": {
            "lat": 36.080298,
            "lng": 106.197473
        },
        "ad_info": {
            "adcode": 640402,
            "province": "宁夏回族自治区",
            "city": "固原市",
            "district": "原州区"
        }
    },
    {
        "id": "7236461408364927821",
        "title": "泾源服务区公共厕所",
        "address": "宁夏回族自治区固原市泾源县青兰高速泾源服务区",
        "tel": "",
        "category": "基础设施:公共设施:公共厕所",
        "type": 0,
        "location": {
            "lat": 35.59638,
            "lng": 106.412726
        },
        "ad_info": {
            "adcode": 640424,
            "province": "宁夏回族自治区",
            "city": "固原市",
            "district": "泾源县"
        }
    },
    {
        "id": "15754664863855574794",
        "title": "固原服务区第二公共厕所",
        "address": "宁夏回族自治区固原市原州区福银高速固原服务区内附近",
        "tel": "",
        "category": "基础设施:公共设施:公共厕所",
        "type": 0,
        "location": {
            "lat": 36.081231,
            "lng": 106.199473
        },
        "ad_info": {
            "adcode": 640402,
            "province": "宁夏回族自治区",
            "city": "固原市",
            "district": "原州区"
        }
    },
    {
        "id": "16748290671478244204",
        "title": "女洗手间(新华百货)",
        "address": "宁夏回族自治区固原市原州区政府巷261号新华百货通信广场(固原店)F6",
        "tel": "",
        "category": "基础设施:公共设施:女洗手间",
        "type": 0,
        "location": {
            "lat": 36.006983,
            "lng": 106.28378
        },
        "ad_info": {
            "adcode": 640402,
            "province": "宁夏回族自治区",
            "city": "固原市",
            "district": "原州区"
        }
    },
    {
        "id": "3851402361999037530",
        "title": "男洗手间",
        "address": "宁夏回族自治区固原市原州区政府巷261号新华百货通信广场(固原店)F6",
        "tel": "",
        "category": "基础设施:公共设施:男洗手间",
        "type": 0,
        "location": {
            "lat": 36.00698,
            "lng": 106.283817
        },
        "ad_info": {
            "adcode": 640402,
            "province": "宁夏回族自治区",
            "city": "固原市",
            "district": "原州区"
        }
    },
    {
        "id": "15078541908956860766",
        "title": "无障碍-洗手间",
        "address": "宁夏回族自治区固原市原州区政府巷261号新华百货通信广场(固原店)F6",
        "tel": "",
        "category": "基础设施:公共设施:无障碍洗手间",
        "type": 0,
        "location": {
            "lat": 36.007027,
            "lng": 106.283777
        },
        "ad_info": {
            "adcode": 640402,
            "province": "宁夏回族自治区",
            "city": "固原市",
            "district": "原州区"
        }
    },
    {
        "id": "16198701234680300242",
        "title": "神林服务区公共厕所",
        "address": "宁夏回族自治区固原市隆德县神林服务区北30米",
        "tel": "",
        "category": "基础设施:公共设施:公共厕所",
        "type": 0,
        "location": {
            "lat": 35.588474,
            "lng": 105.925789
        },
        "ad_info": {
            "adcode": 640423,
            "province": "宁夏回族自治区",
            "city": "固原市",
            "district": "隆德县"
        }
    },
    {
        "id": "15823021320543200389",
        "title": "公共厕所",
        "address": "宁夏回族自治区固原市原州区开成路与西城街交叉口西南方向52米左右",
        "tel": "",
        "category": "基础设施:公共设施:公共厕所",
        "type": 0,
        "location": {
            "lat": 36.016067,
            "lng": 106.279985
        },
        "ad_info": {
            "adcode": 640402,
            "province": "宁夏回族自治区",
            "city": "固原市",
            "district": "原州区"
        }
    },
    {
        "id": "6661152500830592602",
        "title": "公共厕所",
        "address": "宁夏回族自治区固原市原州区",
        "tel": "",
        "category": "基础设施:公共设施:公共厕所",
        "type": 0,
        "location": {
            "lat": 35.955858,
            "lng": 106.22599
        },
        "ad_info": {
            "adcode": 640402,
            "province": "宁夏回族自治区",
            "city": "固原市",
            "district": "原州区"
        }
    },
    {
        "id": "1549866048628027192",
        "title": "公共厕所",
        "address": "宁夏回族自治区固原市隆德县温堡乡新庄村盘龙山庄",
        "tel": "",
        "category": "基础设施:公共设施:公共厕所",
        "type": 0,
        "location": {
            "lat": 35.490429,
            "lng": 106.094793
        },
        "ad_info": {
            "adcode": 640423,
            "province": "宁夏回族自治区",
            "city": "固原市",
            "district": "隆德县"
        }
    },
    {
        "id": "475770121913068243",
        "title": "公共厕所",
        "address": "宁夏回族自治区固原市隆德县G312与解放街交叉口正东方向168米左右",
        "tel": "",
        "category": "基础设施:公共设施:公共厕所",
        "type": 0,
        "location": {
            "lat": 35.621517,
            "lng": 106.123107
        },
        "ad_info": {
            "adcode": 640423,
            "province": "宁夏回族自治区",
            "city": "固原市",
            "district": "隆德县"
        }
    },
    {
        "id": "6608987338673415690",
        "title": "公共厕所",
        "address": "宁夏回族自治区固原市西吉县202省道西50米",
        "tel": "",
        "category": "基础设施:公共设施:公共厕所",
        "type": 0,
        "location": {
            "lat": 36.211944,
            "lng": 105.94906
        },
        "ad_info": {
            "adcode": 640422,
            "province": "宁夏回族自治区",
            "city": "固原市",
            "district": "西吉县"
        }
    },
    {
        "id": "7758623896702959061",
        "title": "公共厕所",
        "address": "宁夏回族自治区固原市泾源县滨河路与西峡路交叉口正东方向165米左右",
        "tel": "",
        "category": "基础设施:公共设施:公共厕所",
        "type": 0,
        "location": {
            "lat": 35.492776,
            "lng": 106.324544
        },
        "ad_info": {
            "adcode": 640424,
            "province": "宁夏回族自治区",
            "city": "固原市",
            "district": "泾源县"
        }
    },
    {
        "id": "13990885017169262631",
        "title": "公共厕所",
        "address": "宁夏回族自治区固原市西吉县平安巷与迎宾大道交叉口正东方向91米左右",
        "tel": "",
        "category": "基础设施:公共设施:公共厕所",
        "type": 0,
        "location": {
            "lat": 35.968345,
            "lng": 105.779836
        },
        "ad_info": {
            "adcode": 640422,
            "province": "宁夏回族自治区",
            "city": "固原市",
            "district": "西吉县"
        }
    },
    {
        "id": "5139235920026704365",
        "title": "公共厕所",
        "address": "宁夏回族自治区固原市西吉县富民街与幸福路交叉口正北方向101米左右",
        "tel": "",
        "category": "基础设施:公共设施:公共厕所",
        "type": 0,
        "location": {
            "lat": 35.966835,
            "lng": 105.721296
        },
        "ad_info": {
            "adcode": 640422,
            "province": "宁夏回族自治区",
            "city": "固原市",
            "district": "西吉县"
        }
    },
    {
        "id": "8161327281099470518",
        "title": "火石寨景区-公共厕所",
        "address": "宁夏回族自治区固原市西吉县水云公路与潘西公路交叉口正东方向90米左右",
        "tel": "",
        "category": "基础设施:公共设施:公共厕所",
        "type": 0,
        "location": {
            "lat": 36.124467,
            "lng": 105.77596
        },
        "ad_info": {
            "adcode": 640422,
            "province": "宁夏回族自治区",
            "city": "固原市",
            "district": "西吉县"
        }
    },
    {
        "id": "5454604979394379686",
        "title": "公共厕所",
        "address": "宁夏回族自治区固原市彭阳县S202与王洼专线交叉口东南方向76米左右",
        "tel": "",
        "category": "基础设施:公共设施:公共厕所",
        "type": 0,
        "location": {
            "lat": 36.153237,
            "lng": 106.621818
        },
        "ad_info": {
            "adcode": 640425,
            "province": "宁夏回族自治区",
            "city": "固原市",
            "district": "彭阳县"
        }
    },
    {
        "id": "15611879841826500702",
        "title": "公共厕所",
        "address": "宁夏回族自治区固原市原州区东关北街401号",
        "tel": "",
        "category": "基础设施:公共设施:公共厕所",
        "type": 0,
        "location": {
            "lat": 36.013953,
            "lng": 106.295536
        },
        "ad_info": {
            "adcode": 640402,
            "province": "宁夏回族自治区",
            "city": "固原市",
            "district": "原州区"
        }
    },
    {
        "id": "8062642883676361640",
        "title": "公共厕所",
        "address": "宁夏回族自治区固原市原州区东关南街与南城路交叉口东北方向80米左右",
        "tel": "",
        "category": "基础设施:公共设施:公共厕所",
        "type": 0,
        "location": {
            "lat": 35.997754,
            "lng": 106.29069
        },
        "ad_info": {
            "adcode": 640402,
            "province": "宁夏回族自治区",
            "city": "固原市",
            "district": "原州区"
        }
    },
    {
        "id": "1732253901331651732",
        "title": "公共厕所",
        "address": "宁夏回族自治区固原市原州区昆仑好客便利店北侧",
        "tel": "",
        "category": "基础设施:公共设施:公共厕所",
        "type": 0,
        "location": {
            "lat": 36.166466,
            "lng": 106.16608
        },
        "ad_info": {
            "adcode": 640402,
            "province": "宁夏回族自治区",
            "city": "固原市",
            "district": "原州区"
        }
    },
    {
        "id": "10248235001885771901",
        "title": "公共厕所",
        "address": "宁夏回族自治区固原市原州区六盘山路(东)与东关北街交叉口西60米",
        "tel": "",
        "category": "基础设施:公共设施:公共厕所",
        "type": 0,
        "location": {
            "lat": 36.02185,
            "lng": 106.296837
        },
        "ad_info": {
            "adcode": 640402,
            "province": "宁夏回族自治区",
            "city": "固原市",
            "district": "原州区"
        }
    },
    {
        "id": "10999018130334123388",
        "title": "公共厕所",
        "address": "宁夏回族自治区固原市原州区中山南街与兴城路交叉口东北方向146米左右",
        "tel": "",
        "category": "基础设施:公共设施:公共厕所",
        "type": 0,
        "location": {
            "lat": 35.993179,
            "lng": 106.271533
        },
        "ad_info": {
            "adcode": 640402,
            "province": "宁夏回族自治区",
            "city": "固原市",
            "district": "原州区"
        }
    },
    {
        "id": "13706644529338758812",
        "title": "公共厕所",
        "address": "宁夏回族自治区固原市泾源县老龙潭景区龙文化宫停车场",
        "tel": "",
        "category": "基础设施:公共设施:公共厕所",
        "type": 0,
        "location": {
            "lat": 35.395859,
            "lng": 106.345633
        },
        "ad_info": {
            "adcode": 640424,
            "province": "宁夏回族自治区",
            "city": "固原市",
            "district": "泾源县"
        }
    },
    {
        "id": "10497064256752666202",
        "title": "公共厕所",
        "address": "宁夏回族自治区固原市彭阳县S202与张街交叉口西南方向913米左右",
        "tel": "",
        "category": "基础设施:公共设施:公共厕所",
        "type": 0,
        "location": {
            "lat": 36.013011,
            "lng": 106.684934
        },
        "ad_info": {
            "adcode": 640425,
            "province": "宁夏回族自治区",
            "city": "固原市",
            "district": "彭阳县"
        }
    },
    {
        "id": "8332802013701211034",
        "title": "泾源服务区第二公共厕所",
        "address": "宁夏回族自治区固原市泾源县G22青兰高速附近",
        "tel": "",
        "category": "基础设施:公共设施:公共厕所",
        "type": 0,
        "location": {
            "lat": 35.596312,
            "lng": 106.414207
        },
        "ad_info": {
            "adcode": 640424,
            "province": "宁夏回族自治区",
            "city": "固原市",
            "district": "泾源县"
        }
    },
    {
        "id": "3507617414881370672",
        "title": "公共厕所",
        "address": "宁夏回族自治区固原市彭阳县义丰路与327国道交叉口东南180米",
        "tel": "",
        "category": "基础设施:公共设施:公共厕所",
        "type": 0,
        "location": {
            "lat": 35.832684,
            "lng": 106.661245
        },
        "ad_info": {
            "adcode": 640425,
            "province": "宁夏回族自治区",
            "city": "固原市",
            "district": "彭阳县"
        }
    },
    {
        "id": "6992073974743981198",
        "title": "公共厕所",
        "address": "宁夏回族自治区固原市彭阳县茹河街北50米",
        "tel": "",
        "category": "基础设施:公共设施:公共厕所",
        "type": 0,
        "location": {
            "lat": 35.85325,
            "lng": 106.627031
        },
        "ad_info": {
            "adcode": 640425,
            "province": "宁夏回族自治区",
            "city": "固原市",
            "district": "彭阳县"
        }
    },
    {
        "id": "6944693722935798959",
        "title": "公共厕所",
        "address": "宁夏回族自治区固原市彭阳县茹河街与萧关路交叉口正东方向201米左右",
        "tel": "",
        "category": "基础设施:公共设施:公共厕所",
        "type": 0,
        "location": {
            "lat": 35.855229,
            "lng": 106.618108
        },
        "ad_info": {
            "adcode": 640425,
            "province": "宁夏回族自治区",
            "city": "固原市",
            "district": "彭阳县"
        }
    },
    {
        "id": "13262509397711335957",
        "title": "公共厕所",
        "address": "宁夏回族自治区固原市原州区北京路与安康路交叉口东南方向173米左右",
        "tel": "",
        "category": "基础设施:公共设施:公共厕所",
        "type": 0,
        "location": {
            "lat": 36.027587,
            "lng": 106.251071
        },
        "ad_info": {
            "adcode": 640402,
            "province": "宁夏回族自治区",
            "city": "固原市",
            "district": "原州区"
        }
    },
    {
        "id": "9529322157280739250",
        "title": "公共厕所",
        "address": "宁夏回族自治区固原市原州区六盘山西路与泰合路交叉口正北方向253米左右",
        "tel": "",
        "category": "基础设施:公共设施:公共厕所",
        "type": 0,
        "location": {
            "lat": 36.010104,
            "lng": 106.262395
        },
        "ad_info": {
            "adcode": 640402,
            "province": "宁夏回族自治区",
            "city": "固原市",
            "district": "原州区"
        }
    },
    {
        "id": "9264484009207706027",
        "title": "旅游厕所",
        "address": "宁夏回族自治区固原市原州区刘姥姥农庄东南侧150米",
        "tel": "",
        "category": "基础设施:公共设施:公共厕所",
        "type": 0,
        "location": {
            "lat": 36.295913,
            "lng": 106.12093
        },
        "ad_info": {
            "adcode": 640402,
            "province": "宁夏回族自治区",
            "city": "固原市",
            "district": "原州区"
        }
    },
    {
        "id": "13083504555620106480",
        "title": "公共厕所",
        "address": "宁夏回族自治区固原市原州区上海路与九龙路交叉口正北方向141米左右",
        "tel": "",
        "category": "基础设施:公共设施:公共厕所",
        "type": 0,
        "location": {
            "lat": 36.0023,
            "lng": 106.26814
        },
        "ad_info": {
            "adcode": 640402,
            "province": "宁夏回族自治区",
            "city": "固原市",
            "district": "原州区"
        }
    },
    {
        "id": "13726613572634885320",
        "title": "公共厕所",
        "address": "宁夏回族自治区固原市原州区中心路与政府巷交叉口正西方向98米左右",
        "tel": "",
        "category": "基础设施:公共设施:公共厕所",
        "type": 0,
        "location": {
            "lat": 36.00639,
            "lng": 106.282139
        },
        "ad_info": {
            "adcode": 640402,
            "province": "宁夏回族自治区",
            "city": "固原市",
            "district": "原州区"
        }
    },
    {
        "id": "6021983976713422127",
        "title": "西吉服务区公共厕所",
        "address": "宁夏回族自治区固原市西吉县S60西会高速与西吉服务区交叉口西南500米",
        "tel": "",
        "category": "基础设施:公共设施:公共厕所",
        "type": 0,
        "location": {
            "lat": 35.947723,
            "lng": 105.658902
        },
        "ad_info": {
            "adcode": 640422,
            "province": "宁夏回族自治区",
            "city": "固原市",
            "district": "西吉县"
        }
    }
]