[
    {
        "id": "6006701420022711867",
        "title": "公共厕所",
        "address": "新疆维吾尔自治区图木舒克市中兴东街与人民北路交叉口东北方向45米左右",
        "tel": "",
        "category": "基础设施:公共设施:公共厕所",
        "type": 0,
        "location": {
            "lat": 39.86654,
            "lng": 79.08146
        },
        "ad_info": {
            "adcode": 659003,
            "province": "新疆维吾尔自治区",
            "city": "",
            "district": "图木舒克市"
        }
    },
    {
        "id": "1732067856538836111",
        "title": "公共厕所",
        "address": "新疆维吾尔自治区图木舒克市昆仑东街与胡杨北路交叉口西北方向28米左右",
        "tel": "",
        "category": "基础设施:公共设施:公共厕所",
        "type": 0,
        "location": {
            "lat": 39.869679,
            "lng": 79.07627
        },
        "ad_info": {
            "adcode": 659003,
            "province": "新疆维吾尔自治区",
            "city": "",
            "district": "图木舒克市"
        }
    },
    {
        "id": "2694287668550873706",
        "title": "公共厕所",
        "address": "新疆维吾尔自治区图木舒克市和平街与胡杨北路交叉口东北方向62米左右",
        "tel": "",
        "category": "基础设施:公共设施:公共厕所",
        "type": 0,
        "location": {
            "lat": 39.864953,
            "lng": 79.077442
        },
        "ad_info": {
            "adcode": 659003,
            "province": "新疆维吾尔自治区",
            "city": "",
            "district": "图木舒克市"
        }
    },
    {
        "id": "7181879028999487913",
        "title": "公共厕所",
        "address": "新疆维吾尔自治区图木舒克市唐王建材城对面",
        "tel": "",
        "category": "基础设施:公共设施:公共厕所",
        "type": 0,
        "location": {
            "lat": 39.872644,
            "lng": 79.067856
        },
        "ad_info": {
            "adcode": 659003,
            "province": "新疆维吾尔自治区",
            "city": "",
            "district": "图木舒克市"
        }
    },
    {
        "id": "10108653737428184776",
        "title": "公共厕所",
        "address": "新疆维吾尔自治区图木舒克市",
        "tel": "",
        "category": "基础设施:公共设施:公共厕所",
        "type": 0,
        "location": {
            "lat": 39.755029,
            "lng": 78.986797
        },
        "ad_info": {
            "adcode": 659003,
            "province": "新疆维吾尔自治区",
            "city": "",
            "district": "图木舒克市"
        }
    },
    {
        "id": "6858516301597845118",
        "title": "公共厕所",
        "address": "新疆维吾尔自治区图木舒克市幸福西路与规划路交叉口东北方向45米左右",
        "tel": "",
        "category": "基础设施:公共设施:公共厕所",
        "type": 0,
        "location": {
            "lat": 39.945753,
            "lng": 79.241873
        },
        "ad_info": {
            "adcode": 659003,
            "province": "新疆维吾尔自治区",
            "city": "",
            "district": "图木舒克市"
        }
    },
    {
        "id": "6855324885537267498",
        "title": "公共厕所",
        "address": "新疆维吾尔自治区图木舒克市团结路与幸福大街交叉口正西方向150米左右",
        "tel": "",
        "category": "基础设施:公共设施:公共厕所",
        "type": 0,
        "location": {
            "lat": 39.698993,
            "lng": 78.917009
        },
        "ad_info": {
            "adcode": 659003,
            "province": "新疆维吾尔自治区",
            "city": "",
            "district": "图木舒克市"
        }
    },
    {
        "id": "9775190260688304650",
        "title": "公共厕所",
        "address": "新疆维吾尔自治区图木舒克市宝山路与规划路交叉口东南方向153米左右",
        "tel": "",
        "category": "基础设施:公共设施:公共厕所",
        "type": 0,
        "location": {
            "lat": 39.894045,
            "lng": 78.990141
        },
        "ad_info": {
            "adcode": 659003,
            "province": "新疆维吾尔自治区",
            "city": "",
            "district": "图木舒克市"
        }
    },
    {
        "id": "16725669499456367490",
        "title": "公共厕所",
        "address": "新疆维吾尔自治区图木舒克市丰收路与团结路交叉口西南方向105米左右",
        "tel": "",
        "category": "基础设施:公共设施:公共厕所",
        "type": 0,
        "location": {
            "lat": 40.030821,
            "lng": 79.422492
        },
        "ad_info": {
            "adcode": 659003,
            "province": "新疆维吾尔自治区",
            "city": "",
            "district": "图木舒克市"
        }
    },
    {
        "id": "1713694939190344144",
        "title": "公共厕所",
        "address": "新疆维吾尔自治区图木舒克市友谊路与解放路交叉口正西方向221米左右",
        "tel": "",
        "category": "基础设施:公共设施:公共厕所",
        "type": 0,
        "location": {
            "lat": 39.943794,
            "lng": 79.238016
        },
        "ad_info": {
            "adcode": 659003,
            "province": "新疆维吾尔自治区",
            "city": "",
            "district": "图木舒克市"
        }
    }
]