[
    {
        "id": "6217929887038979960",
        "title": "公共厕所",
        "address": "新疆维吾尔自治区塔城地区沙湾市教育路与星光街交叉口东北方向35米左右",
        "tel": "",
        "category": "基础设施:公共设施:公共厕所",
        "type": 0,
        "location": {
            "lat": 44.32719,
            "lng": 85.625202
        },
        "ad_info": {
            "adcode": 654203,
            "province": "新疆维吾尔自治区",
            "city": "塔城地区",
            "district": "沙湾市"
        }
    },
    {
        "id": "3411588666649450723",
        "title": "公共厕所(一三三团十八连)",
        "address": "新疆维吾尔自治区塔城地区沙湾市Y054与红西段交叉口东南方向61米左右",
        "tel": "",
        "category": "基础设施:公共设施:公共厕所",
        "type": 0,
        "location": {
            "lat": 44.692643,
            "lng": 85.074231
        },
        "ad_info": {
            "adcode": 654203,
            "province": "新疆维吾尔自治区",
            "city": "塔城地区",
            "district": "沙湾市"
        }
    },
    {
        "id": "4568996011547307321",
        "title": "公共厕所(三十一连)",
        "address": "新疆维吾尔自治区塔城地区沙湾市Y005与元双段交叉口西北方向31米左右",
        "tel": "",
        "category": "基础设施:公共设施:公共厕所",
        "type": 0,
        "location": {
            "lat": 44.257157,
            "lng": 85.44906
        },
        "ad_info": {
            "adcode": 654203,
            "province": "新疆维吾尔自治区",
            "city": "塔城地区",
            "district": "沙湾市"
        }
    },
    {
        "id": "13651615285885987704",
        "title": "公共厕所(133团17连南区)",
        "address": "新疆维吾尔自治区塔城地区沙湾市曹纪兰商店东南侧200米",
        "tel": "",
        "category": "基础设施:公共设施:公共厕所",
        "type": 0,
        "location": {
            "lat": 44.774269,
            "lng": 85.210135
        },
        "ad_info": {
            "adcode": 654203,
            "province": "新疆维吾尔自治区",
            "city": "塔城地区",
            "district": "沙湾市"
        }
    },
    {
        "id": "1216993942476195063",
        "title": "公共厕所",
        "address": "新疆维吾尔自治区塔城地区额敏县文化路58号",
        "tel": "",
        "category": "基础设施:公共设施:公共厕所",
        "type": 0,
        "location": {
            "lat": 46.539252,
            "lng": 83.649029
        },
        "ad_info": {
            "adcode": 654221,
            "province": "新疆维吾尔自治区",
            "city": "塔城地区",
            "district": "额敏县"
        }
    },
    {
        "id": "11009709779118716375",
        "title": "公共厕所",
        "address": "新疆维吾尔自治区塔城地区裕民县219国道",
        "tel": "",
        "category": "基础设施:公共设施:公共厕所",
        "type": 0,
        "location": {
            "lat": 45.972262,
            "lng": 82.687825
        },
        "ad_info": {
            "adcode": 654225,
            "province": "新疆维吾尔自治区",
            "city": "塔城地区",
            "district": "裕民县"
        }
    },
    {
        "id": "10195236252155005156",
        "title": "公共厕所",
        "address": "新疆维吾尔自治区塔城地区沙湾市向阳路与幸福路交叉口正东方向12米左右",
        "tel": "",
        "category": "基础设施:公共设施:公共厕所",
        "type": 0,
        "location": {
            "lat": 44.429624,
            "lng": 85.395025
        },
        "ad_info": {
            "adcode": 654203,
            "province": "新疆维吾尔自治区",
            "city": "塔城地区",
            "district": "沙湾市"
        }
    },
    {
        "id": "533306929663875095",
        "title": "公共厕所(一四三团)",
        "address": "新疆维吾尔自治区塔城地区沙湾市G312与花东段交叉口正南方向43米左右",
        "tel": "",
        "category": "基础设施:公共设施:公共厕所",
        "type": 0,
        "location": {
            "lat": 44.283522,
            "lng": 85.858769
        },
        "ad_info": {
            "adcode": 654203,
            "province": "新疆维吾尔自治区",
            "city": "塔城地区",
            "district": "沙湾市"
        }
    },
    {
        "id": "16493732548597431176",
        "title": "公共厕所(一四二团)",
        "address": "新疆维吾尔自治区塔城地区沙湾市新安路与新梧段交叉口东南方向147米左右",
        "tel": "",
        "category": "基础设施:公共设施:公共厕所",
        "type": 0,
        "location": {
            "lat": 44.42812,
            "lng": 85.409908
        },
        "ad_info": {
            "adcode": 654203,
            "province": "新疆维吾尔自治区",
            "city": "塔城地区",
            "district": "沙湾市"
        }
    },
    {
        "id": "7451028228286938030",
        "title": "公共厕所(133团17连北区)",
        "address": "新疆维吾尔自治区塔城地区沙湾市S205与沙钟线交叉口东北方向404米左右",
        "tel": "",
        "category": "基础设施:公共设施:公共厕所",
        "type": 0,
        "location": {
            "lat": 44.776055,
            "lng": 85.20558
        },
        "ad_info": {
            "adcode": 654203,
            "province": "新疆维吾尔自治区",
            "city": "塔城地区",
            "district": "沙湾市"
        }
    },
    {
        "id": "9185753516138764893",
        "title": "公共厕所",
        "address": "新疆维吾尔自治区塔城地区额敏县文化路58号",
        "tel": "",
        "category": "基础设施:公共设施:公共厕所",
        "type": 0,
        "location": {
            "lat": 46.533995,
            "lng": 83.648307
        },
        "ad_info": {
            "adcode": 654221,
            "province": "新疆维吾尔自治区",
            "city": "塔城地区",
            "district": "额敏县"
        }
    },
    {
        "id": "2578883930309615749",
        "title": "公共厕所",
        "address": "新疆维吾尔自治区塔城地区额敏县公园路与飞鹅路交叉口正南方向173米左右",
        "tel": "",
        "category": "基础设施:公共设施:公共厕所",
        "type": 0,
        "location": {
            "lat": 46.705086,
            "lng": 84.054452
        },
        "ad_info": {
            "adcode": 654221,
            "province": "新疆维吾尔自治区",
            "city": "塔城地区",
            "district": "额敏县"
        }
    },
    {
        "id": "14432939843334201530",
        "title": "公共厕所",
        "address": "新疆维吾尔自治区塔城地区额敏县上乌段与岔吉段交叉口西北方向1692米左右",
        "tel": "",
        "category": "基础设施:公共设施:公共厕所",
        "type": 0,
        "location": {
            "lat": 46.558685,
            "lng": 83.812578
        },
        "ad_info": {
            "adcode": 654221,
            "province": "新疆维吾尔自治区",
            "city": "塔城地区",
            "district": "额敏县"
        }
    },
    {
        "id": "8057134687287979498",
        "title": "公共厕所",
        "address": "新疆维吾尔自治区塔城地区裕民县锦裕五味里",
        "tel": "",
        "category": "基础设施:公共设施:公共厕所",
        "type": 0,
        "location": {
            "lat": 46.214805,
            "lng": 82.979282
        },
        "ad_info": {
            "adcode": 654225,
            "province": "新疆维吾尔自治区",
            "city": "塔城地区",
            "district": "裕民县"
        }
    },
    {
        "id": "1126858407289769661",
        "title": "公共厕所",
        "address": "新疆维吾尔自治区塔城地区沙湾市S312与振一段交叉口正西方向267米左右",
        "tel": "",
        "category": "基础设施:公共设施:公共厕所",
        "type": 0,
        "location": {
            "lat": 44.657006,
            "lng": 85.547341
        },
        "ad_info": {
            "adcode": 654203,
            "province": "新疆维吾尔自治区",
            "city": "塔城地区",
            "district": "沙湾市"
        }
    },
    {
        "id": "732791019474935548",
        "title": "公共厕所",
        "address": "新疆维吾尔自治区塔城地区沙湾市中环路与钟兴路交叉口正西方向254米左右",
        "tel": "",
        "category": "基础设施:公共设施:公共厕所",
        "type": 0,
        "location": {
            "lat": 44.485946,
            "lng": 85.675829
        },
        "ad_info": {
            "adcode": 654203,
            "province": "新疆维吾尔自治区",
            "city": "塔城地区",
            "district": "沙湾市"
        }
    },
    {
        "id": "12806024660697990225",
        "title": "公共厕所",
        "address": "新疆维吾尔自治区塔城地区沙湾市S205与S618交叉口西北方向329米左右",
        "tel": "",
        "category": "基础设施:公共设施:公共厕所",
        "type": 0,
        "location": {
            "lat": 44.70859,
            "lng": 85.249339
        },
        "ad_info": {
            "adcode": 654203,
            "province": "新疆维吾尔自治区",
            "city": "塔城地区",
            "district": "沙湾市"
        }
    },
    {
        "id": "2413311806359872220",
        "title": "公共厕所",
        "address": "新疆维吾尔自治区塔城地区沙湾市三新段与新巴段交叉口正东方向524米左右",
        "tel": "",
        "category": "基础设施:公共设施:公共厕所",
        "type": 0,
        "location": {
            "lat": 44.699772,
            "lng": 85.313543
        },
        "ad_info": {
            "adcode": 654203,
            "province": "新疆维吾尔自治区",
            "city": "塔城地区",
            "district": "沙湾市"
        }
    },
    {
        "id": "3005149996847759971",
        "title": "公共厕所",
        "address": "新疆维吾尔自治区塔城地区塔城市城东南街与闻琴路交叉口东南方向20米左右",
        "tel": "",
        "category": "基础设施:公共设施:公共厕所",
        "type": 0,
        "location": {
            "lat": 46.738419,
            "lng": 83.004577
        },
        "ad_info": {
            "adcode": 654201,
            "province": "新疆维吾尔自治区",
            "city": "塔城地区",
            "district": "塔城市"
        }
    },
    {
        "id": "13070741998087115903",
        "title": "公共厕所",
        "address": "新疆维吾尔自治区塔城地区额敏县巴依木扎景区十里花海景点",
        "tel": "",
        "category": "基础设施:公共设施:公共厕所",
        "type": 0,
        "location": {
            "lat": 46.951332,
            "lng": 84.518285
        },
        "ad_info": {
            "adcode": 654221,
            "province": "新疆维吾尔自治区",
            "city": "塔城地区",
            "district": "额敏县"
        }
    },
    {
        "id": "9132892981243331259",
        "title": "公共厕所(一三四团)",
        "address": "新疆维吾尔自治区塔城地区沙湾市幸福路与西一路交叉口正北方向124米左右",
        "tel": "",
        "category": "基础设施:公共设施:公共厕所",
        "type": 0,
        "location": {
            "lat": 44.689784,
            "lng": 85.470237
        },
        "ad_info": {
            "adcode": 654203,
            "province": "新疆维吾尔自治区",
            "city": "塔城地区",
            "district": "沙湾市"
        }
    },
    {
        "id": "11495236181597202078",
        "title": "公共厕所(和谐公园)",
        "address": "新疆维吾尔自治区塔城地区沙湾市南湖路与团结路交叉口西南方向20米左右",
        "tel": "",
        "category": "基础设施:公共设施:公共厕所",
        "type": 0,
        "location": {
            "lat": 44.664943,
            "lng": 85.271156
        },
        "ad_info": {
            "adcode": 654203,
            "province": "新疆维吾尔自治区",
            "city": "塔城地区",
            "district": "沙湾市"
        }
    },
    {
        "id": "8922137108152022789",
        "title": "公共厕所",
        "address": "新疆维吾尔自治区塔城地区乌苏市黄河路348号",
        "tel": "",
        "category": "基础设施:公共设施:公共厕所",
        "type": 0,
        "location": {
            "lat": 44.418397,
            "lng": 84.723588
        },
        "ad_info": {
            "adcode": 654202,
            "province": "新疆维吾尔自治区",
            "city": "塔城地区",
            "district": "乌苏市"
        }
    },
    {
        "id": "4778140956922910177",
        "title": "公共厕所",
        "address": "新疆维吾尔自治区塔城地区沙湾市世纪大道南路与塔城东路交叉口东北方向145米左右",
        "tel": "",
        "category": "基础设施:公共设施:公共厕所",
        "type": 0,
        "location": {
            "lat": 44.325785,
            "lng": 85.618987
        },
        "ad_info": {
            "adcode": 654203,
            "province": "新疆维吾尔自治区",
            "city": "塔城地区",
            "district": "沙湾市"
        }
    },
    {
        "id": "9818610946480243219",
        "title": "公共厕所",
        "address": "新疆维吾尔自治区塔城地区沙湾市沙一段与沙门子互通交叉口正北方向807米左右",
        "tel": "",
        "category": "基础设施:公共设施:公共厕所",
        "type": 0,
        "location": {
            "lat": 44.927678,
            "lng": 85.307001
        },
        "ad_info": {
            "adcode": 654203,
            "province": "新疆维吾尔自治区",
            "city": "塔城地区",
            "district": "沙湾市"
        }
    },
    {
        "id": "9423511141962787806",
        "title": "公共厕所(133团7连)",
        "address": "新疆维吾尔自治区塔城地区沙湾市S312与特七段交叉口正南方向1022米左右",
        "tel": "",
        "category": "基础设施:公共设施:公共厕所",
        "type": 0,
        "location": {
            "lat": 44.652545,
            "lng": 85.320023
        },
        "ad_info": {
            "adcode": 654203,
            "province": "新疆维吾尔自治区",
            "city": "塔城地区",
            "district": "沙湾市"
        }
    },
    {
        "id": "3785506660972057629",
        "title": "公共厕所",
        "address": "新疆维吾尔自治区塔城地区额敏县一六五团4连特色风寨",
        "tel": "",
        "category": "基础设施:公共设施:公共厕所",
        "type": 0,
        "location": {
            "lat": 46.948022,
            "lng": 84.592062
        },
        "ad_info": {
            "adcode": 654221,
            "province": "新疆维吾尔自治区",
            "city": "塔城地区",
            "district": "额敏县"
        }
    },
    {
        "id": "12238476180419644357",
        "title": "公共厕所",
        "address": "新疆维吾尔自治区塔城地区托里县喀普其克北路与喀普其克南路交叉口正南方向37米左右",
        "tel": "",
        "category": "基础设施:公共设施:公共厕所",
        "type": 0,
        "location": {
            "lat": 45.938524,
            "lng": 83.603622
        },
        "ad_info": {
            "adcode": 654224,
            "province": "新疆维吾尔自治区",
            "city": "塔城地区",
            "district": "托里县"
        }
    },
    {
        "id": "1445976916149126068",
        "title": "公共厕所(一三四团)",
        "address": "新疆维吾尔自治区塔城地区沙湾市下庆段与南一路交叉口正西方向100米左右",
        "tel": "",
        "category": "基础设施:公共设施:公共厕所",
        "type": 0,
        "location": {
            "lat": 44.685338,
            "lng": 85.468177
        },
        "ad_info": {
            "adcode": 654203,
            "province": "新疆维吾尔自治区",
            "city": "塔城地区",
            "district": "沙湾市"
        }
    },
    {
        "id": "10936964370127606166",
        "title": "公共厕所",
        "address": "新疆维吾尔自治区塔城地区额敏县公园路与玉巴段交叉口西北方向453米左右",
        "tel": "",
        "category": "基础设施:公共设施:公共厕所",
        "type": 0,
        "location": {
            "lat": 46.70192,
            "lng": 84.056257
        },
        "ad_info": {
            "adcode": 654221,
            "province": "新疆维吾尔自治区",
            "city": "塔城地区",
            "district": "额敏县"
        }
    },
    {
        "id": "3941449649867653208",
        "title": "公共厕所",
        "address": "新疆维吾尔自治区塔城地区裕民县江格斯乡均朱热克村马兰巷",
        "tel": "",
        "category": "基础设施:公共设施:公共厕所",
        "type": 0,
        "location": {
            "lat": 46.013861,
            "lng": 82.7312
        },
        "ad_info": {
            "adcode": 654225,
            "province": "新疆维吾尔自治区",
            "city": "塔城地区",
            "district": "裕民县"
        }
    },
    {
        "id": "5993008734398212410",
        "title": "公共厕所",
        "address": "新疆维吾尔自治区塔城地区沙湾市三新段与新巴段交叉口正西方向33米左右",
        "tel": "",
        "category": "基础设施:公共设施:公共厕所",
        "type": 0,
        "location": {
            "lat": 44.698906,
            "lng": 85.306611
        },
        "ad_info": {
            "adcode": 654203,
            "province": "新疆维吾尔自治区",
            "city": "塔城地区",
            "district": "沙湾市"
        }
    },
    {
        "id": "18300506369476011867",
        "title": "公共厕所(133团桃花镇)",
        "address": "新疆维吾尔自治区塔城地区沙湾市健康路与长江路交叉口东南方向17米左右",
        "tel": "",
        "category": "基础设施:公共设施:公共厕所",
        "type": 0,
        "location": {
            "lat": 44.669351,
            "lng": 85.273928
        },
        "ad_info": {
            "adcode": 654203,
            "province": "新疆维吾尔自治区",
            "city": "塔城地区",
            "district": "沙湾市"
        }
    },
    {
        "id": "2001814017792404154",
        "title": "公共厕所",
        "address": "新疆维吾尔自治区塔城地区乌苏市独库公路雪冠天山景区",
        "tel": "",
        "category": "基础设施:公共设施:公共厕所",
        "type": 0,
        "location": {
            "lat": 43.735573,
            "lng": 84.413577
        },
        "ad_info": {
            "adcode": 654202,
            "province": "新疆维吾尔自治区",
            "city": "塔城地区",
            "district": "乌苏市"
        }
    },
    {
        "id": "11598401939194954974",
        "title": "公共厕所(东野公园)",
        "address": "新疆维吾尔自治区塔城地区沙湾市世纪大道与西一路交叉口正南方向458米左右",
        "tel": "",
        "category": "基础设施:公共设施:公共厕所",
        "type": 0,
        "location": {
            "lat": 44.653529,
            "lng": 85.534891
        },
        "ad_info": {
            "adcode": 654203,
            "province": "新疆维吾尔自治区",
            "city": "塔城地区",
            "district": "沙湾市"
        }
    },
    {
        "id": "785901641083454457",
        "title": "公共厕所(133团桃花镇)",
        "address": "新疆维吾尔自治区塔城地区沙湾市南湖路与国光路交叉口正西方向145米左右",
        "tel": "",
        "category": "基础设施:公共设施:公共厕所",
        "type": 0,
        "location": {
            "lat": 44.665551,
            "lng": 85.274974
        },
        "ad_info": {
            "adcode": 654203,
            "province": "新疆维吾尔自治区",
            "city": "塔城地区",
            "district": "沙湾市"
        }
    },
    {
        "id": "5132891491758081813",
        "title": "丨44团团部公共厕所",
        "address": "新疆维吾尔自治区塔城地区沙湾市中环路与钟兴路交叉口东北方向258米左右",
        "tel": "13279937658",
        "category": "基础设施:公共设施:公共厕所",
        "type": 0,
        "location": {
            "lat": 44.488845,
            "lng": 85.680319
        },
        "ad_info": {
            "adcode": 654203,
            "province": "新疆维吾尔自治区",
            "city": "塔城地区",
            "district": "沙湾市"
        }
    },
    {
        "id": "7594034255045918806",
        "title": "公共厕所",
        "address": "新疆维吾尔自治区塔城地区额敏县迎宾北路135-136号",
        "tel": "",
        "category": "基础设施:公共设施:公共厕所",
        "type": 0,
        "location": {
            "lat": 46.526788,
            "lng": 83.630042
        },
        "ad_info": {
            "adcode": 654221,
            "province": "新疆维吾尔自治区",
            "city": "塔城地区",
            "district": "额敏县"
        }
    },
    {
        "id": "5264553078377988829",
        "title": "公共厕所",
        "address": "新疆维吾尔自治区塔城地区托里县喀拉盖巴斯陶南路与喀普其克南路交叉口东南方向128米左右",
        "tel": "",
        "category": "基础设施:公共设施:公共厕所",
        "type": 0,
        "location": {
            "lat": 45.917406,
            "lng": 83.603803
        },
        "ad_info": {
            "adcode": 654224,
            "province": "新疆维吾尔自治区",
            "city": "塔城地区",
            "district": "托里县"
        }
    },
    {
        "id": "7377351492708407824",
        "title": "公共厕所",
        "address": "新疆维吾尔自治区塔城地区塔城市广场街与泰和巷交叉口西北方向65米左右",
        "tel": "",
        "category": "基础设施:公共设施:公共厕所",
        "type": 0,
        "location": {
            "lat": 46.741532,
            "lng": 82.98106
        },
        "ad_info": {
            "adcode": 654201,
            "province": "新疆维吾尔自治区",
            "city": "塔城地区",
            "district": "塔城市"
        }
    },
    {
        "id": "12706716777284816563",
        "title": "公共厕所(一三四团知青广场)",
        "address": "新疆维吾尔自治区塔城地区沙湾市东一路与北京路交叉口正南方向118米左右",
        "tel": "",
        "category": "基础设施:公共设施:公共厕所",
        "type": 0,
        "location": {
            "lat": 44.690958,
            "lng": 85.474214
        },
        "ad_info": {
            "adcode": 654203,
            "province": "新疆维吾尔自治区",
            "city": "塔城地区",
            "district": "沙湾市"
        }
    },
    {
        "id": "13157397103169348263",
        "title": "公共厕所",
        "address": "新疆维吾尔自治区塔城地区额敏县光明街与朝阳路交叉口东南方向9米左右",
        "tel": "",
        "category": "基础设施:公共设施:公共厕所",
        "type": 0,
        "location": {
            "lat": 46.517856,
            "lng": 83.475488
        },
        "ad_info": {
            "adcode": 654221,
            "province": "新疆维吾尔自治区",
            "city": "塔城地区",
            "district": "额敏县"
        }
    },
    {
        "id": "16468947593114925087",
        "title": "公共厕所",
        "address": "新疆维吾尔自治区塔城地区沙湾市人民路与凯旋路交叉口正南方向144米左右",
        "tel": "",
        "category": "基础设施:公共设施:公共厕所",
        "type": 0,
        "location": {
            "lat": 44.319141,
            "lng": 85.635451
        },
        "ad_info": {
            "adcode": 654203,
            "province": "新疆维吾尔自治区",
            "city": "塔城地区",
            "district": "沙湾市"
        }
    },
    {
        "id": "8501879791686305721",
        "title": "公共厕所",
        "address": "新疆维吾尔自治区塔城地区和布克赛尔蒙古自治县第十师184团军垦艺术体验基地",
        "tel": "",
        "category": "基础设施:公共设施:公共厕所",
        "type": 0,
        "location": {
            "lat": 46.324028,
            "lng": 86.335414
        },
        "ad_info": {
            "adcode": 654226,
            "province": "新疆维吾尔自治区",
            "city": "塔城地区",
            "district": "和布克赛尔蒙古自治县"
        }
    },
    {
        "id": "13889773233259215387",
        "title": "公共厕所",
        "address": "新疆维吾尔自治区塔城地区额敏县友好路与迎宾北路交叉口正北方向96米左右",
        "tel": "",
        "category": "基础设施:公共设施:公共厕所",
        "type": 0,
        "location": {
            "lat": 46.526456,
            "lng": 83.632104
        },
        "ad_info": {
            "adcode": 654221,
            "province": "新疆维吾尔自治区",
            "city": "塔城地区",
            "district": "额敏县"
        }
    },
    {
        "id": "1408612313901942437",
        "title": "公共厕所",
        "address": "新疆维吾尔自治区塔城地区额敏县军垦街与建设路交叉口正东方向1301米左右",
        "tel": "",
        "category": "基础设施:公共设施:公共厕所",
        "type": 0,
        "location": {
            "lat": 46.521156,
            "lng": 83.49978
        },
        "ad_info": {
            "adcode": 654221,
            "province": "新疆维吾尔自治区",
            "city": "塔城地区",
            "district": "额敏县"
        }
    },
    {
        "id": "14882665249093164101",
        "title": "公共厕所",
        "address": "新疆维吾尔自治区塔城地区托里县幸福北路与幸福路交叉口西北方向111米左右",
        "tel": "",
        "category": "基础设施:公共设施:公共厕所",
        "type": 0,
        "location": {
            "lat": 45.939334,
            "lng": 83.608855
        },
        "ad_info": {
            "adcode": 654224,
            "province": "新疆维吾尔自治区",
            "city": "塔城地区",
            "district": "托里县"
        }
    },
    {
        "id": "10884846277162650983",
        "title": "公共厕所",
        "address": "新疆维吾尔自治区塔城地区沙湾市G576与泉正段交叉口西南方向926米左右",
        "tel": "",
        "category": "基础设施:公共设施:公共厕所",
        "type": 0,
        "location": {
            "lat": 44.503888,
            "lng": 85.987079
        },
        "ad_info": {
            "adcode": 654203,
            "province": "新疆维吾尔自治区",
            "city": "塔城地区",
            "district": "沙湾市"
        }
    },
    {
        "id": "5919080902980258210",
        "title": "公共厕所",
        "address": "新疆维吾尔自治区塔城地区沙湾市S224与世纪大道交叉口正南方向533米左右",
        "tel": "",
        "category": "基础设施:公共设施:公共厕所",
        "type": 0,
        "location": {
            "lat": 44.354814,
            "lng": 85.368136
        },
        "ad_info": {
            "adcode": 654203,
            "province": "新疆维吾尔自治区",
            "city": "塔城地区",
            "district": "沙湾市"
        }
    },
    {
        "id": "10394665907215284983",
        "title": "公共厕所",
        "address": "新疆维吾尔自治区塔城地区沙湾市塔城东路与教育路交叉口东北方向156米左右",
        "tel": "",
        "category": "基础设施:公共设施:公共厕所",
        "type": 0,
        "location": {
            "lat": 44.324046,
            "lng": 85.622522
        },
        "ad_info": {
            "adcode": 654203,
            "province": "新疆维吾尔自治区",
            "city": "塔城地区",
            "district": "沙湾市"
        }
    },
    {
        "id": "10157957355925667886",
        "title": "公共厕所",
        "address": "新疆维吾尔自治区塔城地区沙湾市S223与商贸路交叉口正北方向341米左右",
        "tel": "",
        "category": "基础设施:公共设施:公共厕所",
        "type": 0,
        "location": {
            "lat": 44.07024,
            "lng": 85.7974
        },
        "ad_info": {
            "adcode": 654203,
            "province": "新疆维吾尔自治区",
            "city": "塔城地区",
            "district": "沙湾市"
        }
    },
    {
        "id": "4280288003175316299",
        "title": "公共厕所",
        "address": "新疆维吾尔自治区塔城地区塔城市千泉湖公园内",
        "tel": "",
        "category": "基础设施:公共设施:公共厕所",
        "type": 0,
        "location": {
            "lat": 46.724379,
            "lng": 82.986974
        },
        "ad_info": {
            "adcode": 654201,
            "province": "新疆维吾尔自治区",
            "city": "塔城地区",
            "district": "塔城市"
        }
    },
    {
        "id": "365089693832874866",
        "title": "公共厕所",
        "address": "新疆维吾尔自治区塔城地区和布克赛尔蒙古自治县和硕巷与迭伦北街交叉口正北方向67米左右",
        "tel": "",
        "category": "基础设施:公共设施:公共厕所",
        "type": 0,
        "location": {
            "lat": 46.524189,
            "lng": 86.008826
        },
        "ad_info": {
            "adcode": 654226,
            "province": "新疆维吾尔自治区",
            "city": "塔城地区",
            "district": "和布克赛尔蒙古自治县"
        }
    },
    {
        "id": "17085641865685624641",
        "title": "公共厕所",
        "address": "新疆维吾尔自治区塔城地区沙湾市G312与园三段交叉口东北方向1470米左右",
        "tel": "",
        "category": "基础设施:公共设施:公共厕所",
        "type": 0,
        "location": {
            "lat": 44.347137,
            "lng": 85.448585
        },
        "ad_info": {
            "adcode": 654203,
            "province": "新疆维吾尔自治区",
            "city": "塔城地区",
            "district": "沙湾市"
        }
    },
    {
        "id": "16157436890920170722",
        "title": "公共厕所",
        "address": "新疆维吾尔自治区塔城地区裕民县S222与塔裕路交叉口东南方向68米左右",
        "tel": "",
        "category": "基础设施:公共设施:公共厕所",
        "type": 0,
        "location": {
            "lat": 46.2157,
            "lng": 82.982822
        },
        "ad_info": {
            "adcode": 654225,
            "province": "新疆维吾尔自治区",
            "city": "塔城地区",
            "district": "裕民县"
        }
    },
    {
        "id": "10252751164911917568",
        "title": "公共厕所",
        "address": "新疆维吾尔自治区塔城地区乌苏市当代妇科医院东侧60米",
        "tel": "",
        "category": "基础设施:公共设施:公共厕所",
        "type": 0,
        "location": {
            "lat": 44.42875,
            "lng": 84.67906
        },
        "ad_info": {
            "adcode": 654202,
            "province": "新疆维吾尔自治区",
            "city": "塔城地区",
            "district": "乌苏市"
        }
    },
    {
        "id": "10030996374610943963",
        "title": "公共厕所",
        "address": "新疆维吾尔自治区塔城地区沙湾市天富CNG加气站东北侧60米",
        "tel": "",
        "category": "基础设施:公共设施:公共厕所",
        "type": 0,
        "location": {
            "lat": 44.660988,
            "lng": 85.258334
        },
        "ad_info": {
            "adcode": 654203,
            "province": "新疆维吾尔自治区",
            "city": "塔城地区",
            "district": "沙湾市"
        }
    },
    {
        "id": "16528036662900333842",
        "title": "公共厕所",
        "address": "新疆维吾尔自治区塔城地区塔城市幸福路与阿克乔克中街交叉口正南方向30米左右",
        "tel": "",
        "category": "基础设施:公共设施:公共厕所",
        "type": 0,
        "location": {
            "lat": 46.726723,
            "lng": 82.896546
        },
        "ad_info": {
            "adcode": 654201,
            "province": "新疆维吾尔自治区",
            "city": "塔城地区",
            "district": "塔城市"
        }
    },
    {
        "id": "3113291506347757643",
        "title": "公共厕所",
        "address": "新疆维吾尔自治区塔城地区额敏县S318金戈壁沙棘生态观光园",
        "tel": "",
        "category": "基础设施:公共设施:公共厕所",
        "type": 0,
        "location": {
            "lat": 46.321689,
            "lng": 84.680049
        },
        "ad_info": {
            "adcode": 654221,
            "province": "新疆维吾尔自治区",
            "city": "塔城地区",
            "district": "额敏县"
        }
    },
    {
        "id": "17757815556076231184",
        "title": "公共厕所",
        "address": "新疆维吾尔自治区塔城地区和布克赛尔蒙古自治县敖包特东街与敖包特西街交叉口西北方向27米左右",
        "tel": "",
        "category": "基础设施:公共设施:公共厕所",
        "type": 0,
        "location": {
            "lat": 46.793723,
            "lng": 85.723415
        },
        "ad_info": {
            "adcode": 654226,
            "province": "新疆维吾尔自治区",
            "city": "塔城地区",
            "district": "和布克赛尔蒙古自治县"
        }
    },
    {
        "id": "1510026483194394990",
        "title": "公共厕所",
        "address": "新疆维吾尔自治区塔城地区沙湾市S312与清华路交叉口正东方向53米左右",
        "tel": "",
        "category": "基础设施:公共设施:公共厕所",
        "type": 0,
        "location": {
            "lat": 44.656293,
            "lng": 85.170571
        },
        "ad_info": {
            "adcode": 654203,
            "province": "新疆维吾尔自治区",
            "city": "塔城地区",
            "district": "沙湾市"
        }
    },
    {
        "id": "10127601430438681481",
        "title": "公共厕所",
        "address": "新疆维吾尔自治区塔城地区沙湾市201省道东100米",
        "tel": "",
        "category": "基础设施:公共设施:公共厕所",
        "type": 0,
        "location": {
            "lat": 44.741323,
            "lng": 85.672907
        },
        "ad_info": {
            "adcode": 654203,
            "province": "新疆维吾尔自治区",
            "city": "塔城地区",
            "district": "沙湾市"
        }
    },
    {
        "id": "12105683633925197305",
        "title": "公共厕所(江格尔文化园自驾车营地旅游厕所)",
        "address": "新疆维吾尔自治区塔城地区和布克赛尔蒙古自治县哈尔尕图北路与哈尔尕图路交叉口正东方向413米左右",
        "tel": "",
        "category": "基础设施:公共设施:公共厕所",
        "type": 0,
        "location": {
            "lat": 46.804851,
            "lng": 85.743403
        },
        "ad_info": {
            "adcode": 654226,
            "province": "新疆维吾尔自治区",
            "city": "塔城地区",
            "district": "和布克赛尔蒙古自治县"
        }
    },
    {
        "id": "8526163786475625770",
        "title": "公共厕所",
        "address": "新疆维吾尔自治区塔城地区沙湾市X821与安居路交叉口正东方向37米左右",
        "tel": "",
        "category": "基础设施:公共设施:公共厕所",
        "type": 0,
        "location": {
            "lat": 44.642681,
            "lng": 85.785828
        },
        "ad_info": {
            "adcode": 654203,
            "province": "新疆维吾尔自治区",
            "city": "塔城地区",
            "district": "沙湾市"
        }
    },
    {
        "id": "6200150734537718111",
        "title": "公共厕所",
        "address": "新疆维吾尔自治区塔城地区额敏县G219",
        "tel": "",
        "category": "基础设施:公共设施:公共厕所",
        "type": 0,
        "location": {
            "lat": 46.958497,
            "lng": 84.637943
        },
        "ad_info": {
            "adcode": 654221,
            "province": "新疆维吾尔自治区",
            "city": "塔城地区",
            "district": "额敏县"
        }
    },
    {
        "id": "4328363645347772074",
        "title": "公共厕所",
        "address": "新疆维吾尔自治区塔城地区裕民县塔英段与英布段交叉口东南方向44米左右",
        "tel": "",
        "category": "基础设施:公共设施:公共厕所",
        "type": 0,
        "location": {
            "lat": 45.943589,
            "lng": 82.557088
        },
        "ad_info": {
            "adcode": 654225,
            "province": "新疆维吾尔自治区",
            "city": "塔城地区",
            "district": "裕民县"
        }
    },
    {
        "id": "8600178990428036740",
        "title": "公共卫生间",
        "address": "新疆维吾尔自治区塔城地区裕民县红旗路",
        "tel": "",
        "category": "基础设施:公共设施:公共厕所",
        "type": 0,
        "location": {
            "lat": 46.387388,
            "lng": 82.902575
        },
        "ad_info": {
            "adcode": 654225,
            "province": "新疆维吾尔自治区",
            "city": "塔城地区",
            "district": "裕民县"
        }
    },
    {
        "id": "8909135601824027698",
        "title": "公共厕所",
        "address": "新疆维吾尔自治区塔城地区和布克赛尔蒙古自治县呼苏木图路",
        "tel": "",
        "category": "基础设施:公共设施:公共厕所",
        "type": 0,
        "location": {
            "lat": 46.781807,
            "lng": 85.792872
        },
        "ad_info": {
            "adcode": 654226,
            "province": "新疆维吾尔自治区",
            "city": "塔城地区",
            "district": "和布克赛尔蒙古自治县"
        }
    },
    {
        "id": "11627783572504253186",
        "title": "公共厕所",
        "address": "新疆维吾尔自治区塔城地区额敏县富强路与朝阳街交叉口东北方向90米左右",
        "tel": "",
        "category": "基础设施:公共设施:公共厕所",
        "type": 0,
        "location": {
            "lat": 46.51566,
            "lng": 83.607938
        },
        "ad_info": {
            "adcode": 654221,
            "province": "新疆维吾尔自治区",
            "city": "塔城地区",
            "district": "额敏县"
        }
    },
    {
        "id": "3621210468184600264",
        "title": "公共厕所",
        "address": "新疆维吾尔自治区塔城地区和布克赛尔蒙古自治县S318与布斯屯格路交叉口东南方向42米左右",
        "tel": "",
        "category": "基础设施:公共设施:公共厕所",
        "type": 0,
        "location": {
            "lat": 46.864483,
            "lng": 86.270257
        },
        "ad_info": {
            "adcode": 654226,
            "province": "新疆维吾尔自治区",
            "city": "塔城地区",
            "district": "和布克赛尔蒙古自治县"
        }
    },
    {
        "id": "1685345563924301542",
        "title": "公共厕所",
        "address": "新疆维吾尔自治区塔城地区托里县221省道南50米",
        "tel": "",
        "category": "基础设施:公共设施:公共厕所",
        "type": 0,
        "location": {
            "lat": 45.551879,
            "lng": 83.772149
        },
        "ad_info": {
            "adcode": 654224,
            "province": "新疆维吾尔自治区",
            "city": "塔城地区",
            "district": "托里县"
        }
    },
    {
        "id": "4786724643386141404",
        "title": "公共厕所",
        "address": "新疆维吾尔自治区塔城地区额敏县滨河路与迎宾路交叉口西南方向68米左右",
        "tel": "",
        "category": "基础设施:公共设施:公共厕所",
        "type": 0,
        "location": {
            "lat": 46.522583,
            "lng": 83.633499
        },
        "ad_info": {
            "adcode": 654221,
            "province": "新疆维吾尔自治区",
            "city": "塔城地区",
            "district": "额敏县"
        }
    },
    {
        "id": "6175712149552446359",
        "title": "公共厕所",
        "address": "新疆维吾尔自治区塔城地区乌苏市塔里木河西路与安居巷交叉口正东方向162米左右",
        "tel": "",
        "category": "基础设施:公共设施:公共厕所",
        "type": 0,
        "location": {
            "lat": 44.432691,
            "lng": 84.682819
        },
        "ad_info": {
            "adcode": 654202,
            "province": "新疆维吾尔自治区",
            "city": "塔城地区",
            "district": "乌苏市"
        }
    },
    {
        "id": "12159146913572995869",
        "title": "公共厕所",
        "address": "新疆维吾尔自治区塔城地区和布克赛尔蒙古自治县G217与乌图布拉格北路交叉口东北方向57米左右",
        "tel": "",
        "category": "基础设施:公共设施:公共厕所",
        "type": 0,
        "location": {
            "lat": 46.905117,
            "lng": 86.395938
        },
        "ad_info": {
            "adcode": 654226,
            "province": "新疆维吾尔自治区",
            "city": "塔城地区",
            "district": "和布克赛尔蒙古自治县"
        }
    },
    {
        "id": "8103338993278865508",
        "title": "公共厕所",
        "address": "新疆维吾尔自治区塔城地区塔城市军民共建文明路与杜别克街交叉口西南方向35米左右",
        "tel": "",
        "category": "基础设施:公共设施:公共厕所",
        "type": 0,
        "location": {
            "lat": 46.747704,
            "lng": 82.974685
        },
        "ad_info": {
            "adcode": 654201,
            "province": "新疆维吾尔自治区",
            "city": "塔城地区",
            "district": "塔城市"
        }
    },
    {
        "id": "1255633658607739291",
        "title": "公共厕所",
        "address": "新疆维吾尔自治区塔城地区乌苏市北京北路与黄河路交叉口东南方向24米左右",
        "tel": "",
        "category": "基础设施:公共设施:公共厕所",
        "type": 0,
        "location": {
            "lat": 44.418034,
            "lng": 84.689767
        },
        "ad_info": {
            "adcode": 654202,
            "province": "新疆维吾尔自治区",
            "city": "塔城地区",
            "district": "乌苏市"
        }
    },
    {
        "id": "11817834382056201817",
        "title": "公共厕所",
        "address": "新疆维吾尔自治区塔城地区塔城市人民街与塔城街交叉口东南方向75米左右",
        "tel": "",
        "category": "基础设施:公共设施:公共厕所",
        "type": 0,
        "location": {
            "lat": 46.750522,
            "lng": 82.986458
        },
        "ad_info": {
            "adcode": 654201,
            "province": "新疆维吾尔自治区",
            "city": "塔城地区",
            "district": "塔城市"
        }
    },
    {
        "id": "17485885664206262366",
        "title": "公共厕所",
        "address": "新疆维吾尔自治区塔城地区乌苏市G30高速K3918公里南侧",
        "tel": "",
        "category": "基础设施:公共设施:公共厕所",
        "type": 0,
        "location": {
            "lat": 44.446354,
            "lng": 83.933372
        },
        "ad_info": {
            "adcode": 654202,
            "province": "新疆维吾尔自治区",
            "city": "塔城地区",
            "district": "乌苏市"
        }
    },
    {
        "id": "6362411359303851164",
        "title": "公共厕所",
        "address": "新疆维吾尔自治区塔城地区裕民县旺旺商店东北侧",
        "tel": "",
        "category": "基础设施:公共设施:公共厕所",
        "type": 0,
        "location": {
            "lat": 45.983637,
            "lng": 82.640533
        },
        "ad_info": {
            "adcode": 654225,
            "province": "新疆维吾尔自治区",
            "city": "塔城地区",
            "district": "裕民县"
        }
    },
    {
        "id": "16022091626040466043",
        "title": "公共厕所",
        "address": "新疆维吾尔自治区塔城地区乌苏市光明南路与创业路交叉口正南方向98米左右",
        "tel": "",
        "category": "基础设施:公共设施:公共厕所",
        "type": 0,
        "location": {
            "lat": 44.775996,
            "lng": 84.515037
        },
        "ad_info": {
            "adcode": 654202,
            "province": "新疆维吾尔自治区",
            "city": "塔城地区",
            "district": "乌苏市"
        }
    },
    {
        "id": "6359622613134346440",
        "title": "公共厕所",
        "address": "新疆维吾尔自治区塔城地区塔城市林园巷与花园街交叉口正东方向239米左右",
        "tel": "",
        "category": "基础设施:公共设施:公共厕所",
        "type": 0,
        "location": {
            "lat": 46.744848,
            "lng": 82.975598
        },
        "ad_info": {
            "adcode": 654201,
            "province": "新疆维吾尔自治区",
            "city": "塔城地区",
            "district": "塔城市"
        }
    },
    {
        "id": "2993813785570189134",
        "title": "公共厕所",
        "address": "新疆维吾尔自治区塔城地区塔城市拜格托别街丁香花园",
        "tel": "",
        "category": "基础设施:公共设施:公共厕所",
        "type": 0,
        "location": {
            "lat": 46.754677,
            "lng": 82.967697
        },
        "ad_info": {
            "adcode": 654201,
            "province": "新疆维吾尔自治区",
            "city": "塔城地区",
            "district": "塔城市"
        }
    },
    {
        "id": "13720761295692837725",
        "title": "公共厕所",
        "address": "新疆维吾尔自治区塔城地区塔城市塔尔巴哈台南路塔城体育馆",
        "tel": "",
        "category": "基础设施:公共设施:公共厕所",
        "type": 0,
        "location": {
            "lat": 46.733972,
            "lng": 82.986821
        },
        "ad_info": {
            "adcode": 654201,
            "province": "新疆维吾尔自治区",
            "city": "塔城地区",
            "district": "塔城市"
        }
    },
    {
        "id": "15369712085950187105",
        "title": "公共厕所",
        "address": "新疆维吾尔自治区塔城地区塔城市光明路与广场街交叉口东北方向130米左右",
        "tel": "",
        "category": "基础设施:公共设施:公共厕所",
        "type": 0,
        "location": {
            "lat": 46.744473,
            "lng": 82.982657
        },
        "ad_info": {
            "adcode": 654201,
            "province": "新疆维吾尔自治区",
            "city": "塔城地区",
            "district": "塔城市"
        }
    },
    {
        "id": "229010484501379703",
        "title": "公共厕所",
        "address": "新疆维吾尔自治区塔城地区沙湾市塔城东路沙湾县人民医院",
        "tel": "",
        "category": "基础设施:公共设施:公共厕所",
        "type": 0,
        "location": {
            "lat": 44.324285,
            "lng": 85.619412
        },
        "ad_info": {
            "adcode": 654203,
            "province": "新疆维吾尔自治区",
            "city": "塔城地区",
            "district": "沙湾市"
        }
    },
    {
        "id": "10193461639616593280",
        "title": "公共厕所",
        "address": "新疆维吾尔自治区塔城地区塔城市和谐小区东侧90米",
        "tel": "",
        "category": "基础设施:公共设施:公共厕所",
        "type": 0,
        "location": {
            "lat": 46.841018,
            "lng": 82.950529
        },
        "ad_info": {
            "adcode": 654201,
            "province": "新疆维吾尔自治区",
            "city": "塔城地区",
            "district": "塔城市"
        }
    },
    {
        "id": "7181962323409398670",
        "title": "公共厕所",
        "address": "新疆维吾尔自治区塔城地区塔城市新华路与饮马巷交叉口正南方向47米左右",
        "tel": "",
        "category": "基础设施:公共设施:公共厕所",
        "type": 0,
        "location": {
            "lat": 46.745065,
            "lng": 82.989166
        },
        "ad_info": {
            "adcode": 654201,
            "province": "新疆维吾尔自治区",
            "city": "塔城地区",
            "district": "塔城市"
        }
    },
    {
        "id": "7945083371319020835",
        "title": "公共厕所",
        "address": "新疆维吾尔自治区塔城地区塔城市光明路与广场街交叉口正东方向70米左右",
        "tel": "",
        "category": "基础设施:公共设施:公共厕所",
        "type": 0,
        "location": {
            "lat": 46.743177,
            "lng": 82.982841
        },
        "ad_info": {
            "adcode": 654201,
            "province": "新疆维吾尔自治区",
            "city": "塔城地区",
            "district": "塔城市"
        }
    },
    {
        "id": "12992021885633920133",
        "title": "公共厕所",
        "address": "新疆维吾尔自治区塔城地区塔城市伊宁路与建新街交叉口正南方向161米左右",
        "tel": "",
        "category": "基础设施:公共设施:公共厕所",
        "type": 0,
        "location": {
            "lat": 46.742063,
            "lng": 82.998347
        },
        "ad_info": {
            "adcode": 654201,
            "province": "新疆维吾尔自治区",
            "city": "塔城地区",
            "district": "塔城市"
        }
    },
    {
        "id": "6895177124724842703",
        "title": "公共厕所",
        "address": "新疆维吾尔自治区塔城地区塔城市前进街与新华路交叉口正北方向134米左右",
        "tel": "",
        "category": "基础设施:公共设施:公共厕所",
        "type": 0,
        "location": {
            "lat": 46.746857,
            "lng": 82.98952
        },
        "ad_info": {
            "adcode": 654201,
            "province": "新疆维吾尔自治区",
            "city": "塔城地区",
            "district": "塔城市"
        }
    },
    {
        "id": "12912596323939804938",
        "title": "公共厕所",
        "address": "新疆维吾尔自治区塔城地区塔城市新华路与饮马巷交叉口西北方向84米左右",
        "tel": "",
        "category": "基础设施:公共设施:公共厕所",
        "type": 0,
        "location": {
            "lat": 46.74596,
            "lng": 82.988173
        },
        "ad_info": {
            "adcode": 654201,
            "province": "新疆维吾尔自治区",
            "city": "塔城地区",
            "district": "塔城市"
        }
    },
    {
        "id": "12088279676803915109",
        "title": "公共厕所",
        "address": "新疆维吾尔自治区塔城地区塔城市新华路与柴草巷交叉口正北方向104米左右",
        "tel": "",
        "category": "基础设施:公共设施:公共厕所",
        "type": 0,
        "location": {
            "lat": 46.746297,
            "lng": 82.98458
        },
        "ad_info": {
            "adcode": 654201,
            "province": "新疆维吾尔自治区",
            "city": "塔城地区",
            "district": "塔城市"
        }
    },
    {
        "id": "4819851657037670771",
        "title": "公共厕所",
        "address": "新疆维吾尔自治区塔城地区和布克赛尔蒙古自治县敖包特东街17号",
        "tel": "",
        "category": "基础设施:公共设施:公共厕所",
        "type": 0,
        "location": {
            "lat": 46.795323,
            "lng": 85.728194
        },
        "ad_info": {
            "adcode": 654226,
            "province": "新疆维吾尔自治区",
            "city": "塔城地区",
            "district": "和布克赛尔蒙古自治县"
        }
    },
    {
        "id": "18159888529584086215",
        "title": "公共厕所",
        "address": "新疆维吾尔自治区塔城地区塔城市岔塔段北150米",
        "tel": "",
        "category": "基础设施:公共设施:公共厕所",
        "type": 0,
        "location": {
            "lat": 46.670854,
            "lng": 83.342028
        },
        "ad_info": {
            "adcode": 654201,
            "province": "新疆维吾尔自治区",
            "city": "塔城地区",
            "district": "塔城市"
        }
    },
    {
        "id": "11296620967433598270",
        "title": "公共厕所",
        "address": "新疆维吾尔自治区塔城地区塔城市建新南街与建新街交叉口西北方向62米左右",
        "tel": "",
        "category": "基础设施:公共设施:公共厕所",
        "type": 0,
        "location": {
            "lat": 46.739467,
            "lng": 82.996616
        },
        "ad_info": {
            "adcode": 654201,
            "province": "新疆维吾尔自治区",
            "city": "塔城地区",
            "district": "塔城市"
        }
    },
    {
        "id": "5429467439929054188",
        "title": "公共厕所",
        "address": "新疆维吾尔自治区塔城地区塔城市文化南路与泰和巷交叉口正北方向62米左右",
        "tel": "",
        "category": "基础设施:公共设施:公共厕所",
        "type": 0,
        "location": {
            "lat": 46.742038,
            "lng": 82.977547
        },
        "ad_info": {
            "adcode": 654201,
            "province": "新疆维吾尔自治区",
            "city": "塔城地区",
            "district": "塔城市"
        }
    },
    {
        "id": "2320921224013051143",
        "title": "上杰勒阿尕村旅游厕所",
        "address": "新疆维吾尔自治区塔城地区额敏县X808与则勒路交叉口西南方向1110米左右",
        "tel": "",
        "category": "基础设施:公共设施:公共厕所",
        "type": 0,
        "location": {
            "lat": 46.622917,
            "lng": 83.965059
        },
        "ad_info": {
            "adcode": 654221,
            "province": "新疆维吾尔自治区",
            "city": "塔城地区",
            "district": "额敏县"
        }
    },
    {
        "id": "8659920894291176652",
        "title": "一三三团三连公共厕所",
        "address": "新疆维吾尔自治区塔城地区沙湾市小三段与沙钟线交叉口正东方向1880米左右",
        "tel": "",
        "category": "基础设施:公共设施:公共厕所",
        "type": 0,
        "location": {
            "lat": 44.70274,
            "lng": 85.194628
        },
        "ad_info": {
            "adcode": 654203,
            "province": "新疆维吾尔自治区",
            "city": "塔城地区",
            "district": "沙湾市"
        }
    },
    {
        "id": "10755777748422401103",
        "title": "新地西村公厕",
        "address": "新疆维吾尔自治区塔城地区裕民县X831",
        "tel": "",
        "category": "基础设施:公共设施:公共厕所",
        "type": 0,
        "location": {
            "lat": 46.234142,
            "lng": 83.063048
        },
        "ad_info": {
            "adcode": 654225,
            "province": "新疆维吾尔自治区",
            "city": "塔城地区",
            "district": "裕民县"
        }
    },
    {
        "id": "711744568676191762",
        "title": "铁厂沟服务区公共厕所",
        "address": "新疆维吾尔自治区塔城地区托里县中国石油铁厂沟服务区加油站西侧210米",
        "tel": "",
        "category": "基础设施:公共设施:公共厕所",
        "type": 0,
        "location": {
            "lat": 46.152776,
            "lng": 84.400737
        },
        "ad_info": {
            "adcode": 654224,
            "province": "新疆维吾尔自治区",
            "city": "塔城地区",
            "district": "托里县"
        }
    },
    {
        "id": "3057206900183404073",
        "title": "公共厕所",
        "address": "新疆维吾尔自治区塔城地区额敏县光明路与友谊西街交叉口东北方向13米左右",
        "tel": "",
        "category": "基础设施:公共设施:公共厕所",
        "type": 0,
        "location": {
            "lat": 46.51818,
            "lng": 83.611103
        },
        "ad_info": {
            "adcode": 654221,
            "province": "新疆维吾尔自治区",
            "city": "塔城地区",
            "district": "额敏县"
        }
    },
    {
        "id": "7437605662396371728",
        "title": "大自然滑雪场-公共厕所",
        "address": "新疆维吾尔自治区塔城地区沙湾市S223与卡清段交叉口西南方向1436米左右",
        "tel": "",
        "category": "基础设施:公共设施:公共厕所",
        "type": 0,
        "location": {
            "lat": 44.22591,
            "lng": 85.797776
        },
        "ad_info": {
            "adcode": 654203,
            "province": "新疆维吾尔自治区",
            "city": "塔城地区",
            "district": "沙湾市"
        }
    },
    {
        "id": "11761106261946132124",
        "title": "朱家庄服务区公共厕所",
        "address": "新疆维吾尔自治区塔城地区沙湾市与S20五克高速交叉口西北420米",
        "tel": "",
        "category": "基础设施:公共设施:公共厕所",
        "type": 0,
        "location": {
            "lat": 44.59727,
            "lng": 86.010193
        },
        "ad_info": {
            "adcode": 654203,
            "province": "新疆维吾尔自治区",
            "city": "塔城地区",
            "district": "沙湾市"
        }
    },
    {
        "id": "6776313937058736952",
        "title": "一三三团28连公共厕所",
        "address": "新疆维吾尔自治区塔城地区沙湾市Y053与小北段交叉口正北方向152米左右",
        "tel": "",
        "category": "基础设施:公共设施:公共厕所",
        "type": 0,
        "location": {
            "lat": 44.80001,
            "lng": 85.07406
        },
        "ad_info": {
            "adcode": 654203,
            "province": "新疆维吾尔自治区",
            "city": "塔城地区",
            "district": "沙湾市"
        }
    },
    {
        "id": "2834515810439563097",
        "title": "铁厂沟服务区公共厕所",
        "address": "新疆维吾尔自治区塔城地区托里县G3015奎塔高速与铁厂沟服务区交叉口东北180米",
        "tel": "",
        "category": "基础设施:公共设施:公共厕所",
        "type": 0,
        "location": {
            "lat": 46.155684,
            "lng": 84.398799
        },
        "ad_info": {
            "adcode": 654224,
            "province": "新疆维吾尔自治区",
            "city": "塔城地区",
            "district": "托里县"
        }
    },
    {
        "id": "8757367511680791945",
        "title": "朱家庄服务区公共厕所",
        "address": "新疆维吾尔自治区塔城地区沙湾市S20五克高速与朱家庄服务区交叉口东南280米",
        "tel": "",
        "category": "基础设施:公共设施:公共厕所",
        "type": 0,
        "location": {
            "lat": 44.597671,
            "lng": 86.005771
        },
        "ad_info": {
            "adcode": 654203,
            "province": "新疆维吾尔自治区",
            "city": "塔城地区",
            "district": "沙湾市"
        }
    },
    {
        "id": "10922942959024179764",
        "title": "红星服务区公共厕所",
        "address": "新疆维吾尔自治区塔城地区乌苏市G312与托岔段交叉口正东方向294米左右",
        "tel": "",
        "category": "基础设施:公共设施:公共厕所",
        "type": 0,
        "location": {
            "lat": 44.371703,
            "lng": 84.343161
        },
        "ad_info": {
            "adcode": 654202,
            "province": "新疆维吾尔自治区",
            "city": "塔城地区",
            "district": "乌苏市"
        }
    },
    {
        "id": "9345335272397982183",
        "title": "乌图布拉克服务区公共厕所",
        "address": "新疆维吾尔自治区塔城地区和布克赛尔蒙古自治县乌图布拉克服务区与G3014奎阿高速交叉口东400米",
        "tel": "",
        "category": "基础设施:公共设施:公共厕所",
        "type": 0,
        "location": {
            "lat": 46.910918,
            "lng": 86.479759
        },
        "ad_info": {
            "adcode": 654226,
            "province": "新疆维吾尔自治区",
            "city": "塔城地区",
            "district": "和布克赛尔蒙古自治县"
        }
    },
    {
        "id": "12935903907049718050",
        "title": "121团服务区公共厕所",
        "address": "新疆维吾尔自治区塔城地区沙湾市S20五克高速与121团服务区交叉口西北400米",
        "tel": "",
        "category": "基础设施:公共设施:公共厕所",
        "type": 0,
        "location": {
            "lat": 44.889697,
            "lng": 85.347383
        },
        "ad_info": {
            "adcode": 654203,
            "province": "新疆维吾尔自治区",
            "city": "塔城地区",
            "district": "沙湾市"
        }
    },
    {
        "id": "2254185701529267484",
        "title": "额敏服务区公共厕所",
        "address": "新疆维吾尔自治区塔城地区额敏县奎塔高速额敏服务区",
        "tel": "",
        "category": "基础设施:公共设施:公共厕所",
        "type": 0,
        "location": {
            "lat": 46.368197,
            "lng": 83.684203
        },
        "ad_info": {
            "adcode": 654221,
            "province": "新疆维吾尔自治区",
            "city": "塔城地区",
            "district": "额敏县"
        }
    },
    {
        "id": "12063891161803629921",
        "title": "玛依塔斯停车区公共厕所",
        "address": "新疆维吾尔自治区塔城地区额敏县G3015奎塔高速与玛依塔斯停车区交叉口西480米",
        "tel": "",
        "category": "基础设施:公共设施:公共厕所",
        "type": 0,
        "location": {
            "lat": 46.235265,
            "lng": 84.021808
        },
        "ad_info": {
            "adcode": 654221,
            "province": "新疆维吾尔自治区",
            "city": "塔城地区",
            "district": "额敏县"
        }
    },
    {
        "id": "12691618867671779490",
        "title": "额敏服务区公共厕所",
        "address": "新疆维吾尔自治区塔城地区额敏县G3015奎塔高速与额敏服务区交叉口西北660米",
        "tel": "",
        "category": "基础设施:公共设施:公共厕所",
        "type": 0,
        "location": {
            "lat": 46.367109,
            "lng": 83.681375
        },
        "ad_info": {
            "adcode": 654221,
            "province": "新疆维吾尔自治区",
            "city": "塔城地区",
            "district": "额敏县"
        }
    },
    {
        "id": "1487797043376929476",
        "title": "西湖旅游风景区公共厕所",
        "address": "新疆维吾尔自治区塔城地区沙湾市G576与Y550交叉口东北方向1451米左右",
        "tel": "",
        "category": "基础设施:公共设施:公共厕所",
        "type": 0,
        "location": {
            "lat": 44.44803,
            "lng": 85.986985
        },
        "ad_info": {
            "adcode": 654203,
            "province": "新疆维吾尔自治区",
            "city": "塔城地区",
            "district": "沙湾市"
        }
    },
    {
        "id": "14442743537472021322",
        "title": "路油石化服务区公共厕所",
        "address": "新疆维吾尔自治区塔城地区乌苏市连霍高速附近",
        "tel": "",
        "category": "基础设施:公共设施:公共厕所",
        "type": 0,
        "location": {
            "lat": 44.448965,
            "lng": 83.93334
        },
        "ad_info": {
            "adcode": 654202,
            "province": "新疆维吾尔自治区",
            "city": "塔城地区",
            "district": "乌苏市"
        }
    },
    {
        "id": "7398380219451994449",
        "title": "和什托洛盖服务区公共厕所",
        "address": "新疆维吾尔自治区塔城地区和布克赛尔蒙古自治县奎阿高速和什托洛盖服务区",
        "tel": "",
        "category": "基础设施:公共设施:公共厕所",
        "type": 0,
        "location": {
            "lat": 46.452017,
            "lng": 86.030055
        },
        "ad_info": {
            "adcode": 654226,
            "province": "新疆维吾尔自治区",
            "city": "塔城地区",
            "district": "和布克赛尔蒙古自治县"
        }
    },
    {
        "id": "13279643839639602488",
        "title": "中国石化服务区公共厕所",
        "address": "新疆维吾尔自治区塔城地区乌苏市G30连霍高速附近",
        "tel": "",
        "category": "基础设施:公共设施:公共厕所",
        "type": 0,
        "location": {
            "lat": 44.446664,
            "lng": 83.931733
        },
        "ad_info": {
            "adcode": 654202,
            "province": "新疆维吾尔自治区",
            "city": "塔城地区",
            "district": "乌苏市"
        }
    },
    {
        "id": "1044872816239447775",
        "title": "酒花村旅游厕所",
        "address": "新疆维吾尔自治区塔城地区额敏县加尔布拉克路与花园路交叉口正南方向127米左右",
        "tel": "",
        "category": "基础设施:公共设施:公共厕所",
        "type": 0,
        "location": {
            "lat": 46.595139,
            "lng": 83.695848
        },
        "ad_info": {
            "adcode": 654221,
            "province": "新疆维吾尔自治区",
            "city": "塔城地区",
            "district": "额敏县"
        }
    },
    {
        "id": "15727355551249896939",
        "title": "公共厕所(133团红光镇原机关大楼)",
        "address": "新疆维吾尔自治区塔城地区沙湾市开拓路与青苗路交叉口东南方向176米左右",
        "tel": "",
        "category": "基础设施:公共设施:公共厕所",
        "type": 0,
        "location": {
            "lat": 44.68876,
            "lng": 85.167036
        },
        "ad_info": {
            "adcode": 654203,
            "province": "新疆维吾尔自治区",
            "city": "塔城地区",
            "district": "沙湾市"
        }
    },
    {
        "id": "11258574402395105583",
        "title": "公共厕所(一三三团二十五连)",
        "address": "新疆维吾尔自治区塔城地区沙湾市一三三团二十五连十十段北侧",
        "tel": "",
        "category": "基础设施:公共设施:公共厕所",
        "type": 0,
        "location": {
            "lat": 44.769911,
            "lng": 85.173421
        },
        "ad_info": {
            "adcode": 654203,
            "province": "新疆维吾尔自治区",
            "city": "塔城地区",
            "district": "沙湾市"
        }
    },
    {
        "id": "8892754413958537912",
        "title": "公共厕所(XJ-TC-0107)",
        "address": "新疆维吾尔自治区塔城地区塔城市口岸六街与横一路交叉口正北方向106米左右",
        "tel": "",
        "category": "基础设施:公共设施:公共厕所",
        "type": 0,
        "location": {
            "lat": 46.676047,
            "lng": 82.803979
        },
        "ad_info": {
            "adcode": 654201,
            "province": "新疆维吾尔自治区",
            "city": "塔城地区",
            "district": "塔城市"
        }
    },
    {
        "id": "14556066240695696322",
        "title": "乌图布拉克服务区公共厕所",
        "address": "新疆维吾尔自治区塔城地区和布克赛尔蒙古自治县G3014奎阿高速与乌图布拉克服务区交叉口西420米",
        "tel": "",
        "category": "基础设施:公共设施:公共厕所",
        "type": 0,
        "location": {
            "lat": 46.913365,
            "lng": 86.477725
        },
        "ad_info": {
            "adcode": 654226,
            "province": "新疆维吾尔自治区",
            "city": "塔城地区",
            "district": "和布克赛尔蒙古自治县"
        }
    },
    {
        "id": "18313192237556466774",
        "title": "公共厕所",
        "address": "新疆维吾尔自治区塔城地区裕民县阿克铁克切村融情广场西侧80米",
        "tel": "",
        "category": "基础设施:公共设施:公共厕所",
        "type": 0,
        "location": {
            "lat": 46.168859,
            "lng": 82.881186
        },
        "ad_info": {
            "adcode": 654225,
            "province": "新疆维吾尔自治区",
            "city": "塔城地区",
            "district": "裕民县"
        }
    },
    {
        "id": "16887172165430193215",
        "title": "公共厕所",
        "address": "新疆维吾尔自治区塔城地区沙湾市S224与北白段交叉口正西方向60米左右",
        "tel": "",
        "category": "基础设施:公共设施:公共厕所",
        "type": 0,
        "location": {
            "lat": 44.598963,
            "lng": 85.380054
        },
        "ad_info": {
            "adcode": 654203,
            "province": "新疆维吾尔自治区",
            "city": "塔城地区",
            "district": "沙湾市"
        }
    },
    {
        "id": "4602787809895712786",
        "title": "公共厕所",
        "address": "新疆维吾尔自治区塔城地区裕民县巴尔鲁克西路与龙珍南路交叉口正西方向60米左右",
        "tel": "",
        "category": "基础设施:公共设施:公共厕所",
        "type": 0,
        "location": {
            "lat": 46.202227,
            "lng": 82.977692
        },
        "ad_info": {
            "adcode": 654225,
            "province": "新疆维吾尔自治区",
            "city": "塔城地区",
            "district": "裕民县"
        }
    },
    {
        "id": "9390318584919501388",
        "title": "公共厕所",
        "address": "新疆维吾尔自治区塔城地区额敏县建安南街与建安南路交叉口正东方向398米左右",
        "tel": "",
        "category": "基础设施:公共设施:公共厕所",
        "type": 0,
        "location": {
            "lat": 46.514828,
            "lng": 83.626385
        },
        "ad_info": {
            "adcode": 654221,
            "province": "新疆维吾尔自治区",
            "city": "塔城地区",
            "district": "额敏县"
        }
    },
    {
        "id": "13898484229378580522",
        "title": "红星服务区公共厕所",
        "address": "新疆维吾尔自治区塔城地区乌苏市G30连霍高速与红星服务区交叉口西340米",
        "tel": "",
        "category": "基础设施:公共设施:公共厕所",
        "type": 0,
        "location": {
            "lat": 44.36965,
            "lng": 84.343496
        },
        "ad_info": {
            "adcode": 654202,
            "province": "新疆维吾尔自治区",
            "city": "塔城地区",
            "district": "乌苏市"
        }
    },
    {
        "id": "12382584173081364300",
        "title": "公共厕所",
        "address": "新疆维吾尔自治区塔城地区沙湾市S205与S224交叉口东南方向95米左右",
        "tel": "",
        "category": "基础设施:公共设施:公共厕所",
        "type": 0,
        "location": {
            "lat": 44.42755,
            "lng": 85.380061
        },
        "ad_info": {
            "adcode": 654203,
            "province": "新疆维吾尔自治区",
            "city": "塔城地区",
            "district": "沙湾市"
        }
    },
    {
        "id": "2717796430848209143",
        "title": "公共厕所",
        "address": "新疆维吾尔自治区塔城地区额敏县文化街与曙光路交叉口西南方向150米左右",
        "tel": "",
        "category": "基础设施:公共设施:公共厕所",
        "type": 0,
        "location": {
            "lat": 46.516965,
            "lng": 83.47872
        },
        "ad_info": {
            "adcode": 654221,
            "province": "新疆维吾尔自治区",
            "city": "塔城地区",
            "district": "额敏县"
        }
    },
    {
        "id": "6238964354575747688",
        "title": "公共厕所",
        "address": "新疆维吾尔自治区塔城地区沙湾市教育路与金沙湾商业街交叉口西北方向121米左右",
        "tel": "",
        "category": "基础设施:公共设施:公共厕所",
        "type": 0,
        "location": {
            "lat": 44.32695,
            "lng": 85.622975
        },
        "ad_info": {
            "adcode": 654203,
            "province": "新疆维吾尔自治区",
            "city": "塔城地区",
            "district": "沙湾市"
        }
    },
    {
        "id": "10011414998848221155",
        "title": "公共厕所",
        "address": "新疆维吾尔自治区塔城地区塔城市伊宁路与边城街交叉口西南方向44米左右",
        "tel": "",
        "category": "基础设施:公共设施:公共厕所",
        "type": 0,
        "location": {
            "lat": 46.744183,
            "lng": 82.993818
        },
        "ad_info": {
            "adcode": 654201,
            "province": "新疆维吾尔自治区",
            "city": "塔城地区",
            "district": "塔城市"
        }
    },
    {
        "id": "4410473023882600921",
        "title": "红星服务区公共厕所",
        "address": "新疆维吾尔自治区塔城地区乌苏市G312与托岔段交叉口东南方向509米左右",
        "tel": "",
        "category": "基础设施:公共设施:公共厕所",
        "type": 0,
        "location": {
            "lat": 44.368888,
            "lng": 84.343437
        },
        "ad_info": {
            "adcode": 654202,
            "province": "新疆维吾尔自治区",
            "city": "塔城地区",
            "district": "乌苏市"
        }
    },
    {
        "id": "13030050811074005990",
        "title": "公共厕所",
        "address": "新疆维吾尔自治区塔城地区沙湾市乌鲁木齐西路与宝山路交叉口西北方向183米左右",
        "tel": "",
        "category": "基础设施:公共设施:公共厕所",
        "type": 0,
        "location": {
            "lat": 44.327319,
            "lng": 85.5944
        },
        "ad_info": {
            "adcode": 654203,
            "province": "新疆维吾尔自治区",
            "city": "塔城地区",
            "district": "沙湾市"
        }
    },
    {
        "id": "17450742810541043911",
        "title": "公共厕所",
        "address": "新疆维吾尔自治区塔城地区乌苏市北区三巷与新民巷交叉口正东方向115米左右",
        "tel": "",
        "category": "基础设施:公共设施:公共厕所",
        "type": 0,
        "location": {
            "lat": 44.44663,
            "lng": 84.719857
        },
        "ad_info": {
            "adcode": 654202,
            "province": "新疆维吾尔自治区",
            "city": "塔城地区",
            "district": "乌苏市"
        }
    },
    {
        "id": "14426652894579732068",
        "title": "公共厕所",
        "address": "新疆维吾尔自治区塔城地区沙湾市G576与泉正段交叉口正北方向474米左右",
        "tel": "",
        "category": "基础设施:公共设施:公共厕所",
        "type": 0,
        "location": {
            "lat": 44.511637,
            "lng": 85.997201
        },
        "ad_info": {
            "adcode": 654203,
            "province": "新疆维吾尔自治区",
            "city": "塔城地区",
            "district": "沙湾市"
        }
    },
    {
        "id": "4282116357434084157",
        "title": "公共厕所",
        "address": "新疆维吾尔自治区塔城地区乌苏市乌鲁木齐北路与和平路交叉口正东方向117米左右",
        "tel": "",
        "category": "基础设施:公共设施:公共厕所",
        "type": 0,
        "location": {
            "lat": 44.435845,
            "lng": 84.679622
        },
        "ad_info": {
            "adcode": 654202,
            "province": "新疆维吾尔自治区",
            "city": "塔城地区",
            "district": "乌苏市"
        }
    },
    {
        "id": "4025767841572074429",
        "title": "公共厕所",
        "address": "新疆维吾尔自治区塔城地区乌苏市伊犁路与塔里木河西路交叉口正南方向63米左右",
        "tel": "",
        "category": "基础设施:公共设施:公共厕所",
        "type": 0,
        "location": {
            "lat": 44.426619,
            "lng": 84.661392
        },
        "ad_info": {
            "adcode": 654202,
            "province": "新疆维吾尔自治区",
            "city": "塔城地区",
            "district": "乌苏市"
        }
    },
    {
        "id": "6378932978072363459",
        "title": "公共厕所",
        "address": "新疆维吾尔自治区塔城地区沙湾市人民路与滨河西路交叉口正西方向51米左右",
        "tel": "",
        "category": "基础设施:公共设施:公共厕所",
        "type": 0,
        "location": {
            "lat": 44.323224,
            "lng": 85.629903
        },
        "ad_info": {
            "adcode": 654203,
            "province": "新疆维吾尔自治区",
            "city": "塔城地区",
            "district": "沙湾市"
        }
    },
    {
        "id": "2823852616989622487",
        "title": "公共厕所",
        "address": "新疆维吾尔自治区塔城地区沙湾市东环路与人民路交叉口正南方向127米左右",
        "tel": "",
        "category": "基础设施:公共设施:公共厕所",
        "type": 0,
        "location": {
            "lat": 44.817874,
            "lng": 85.591632
        },
        "ad_info": {
            "adcode": 654203,
            "province": "新疆维吾尔自治区",
            "city": "塔城地区",
            "district": "沙湾市"
        }
    },
    {
        "id": "8605961643860954012",
        "title": "公共厕所",
        "address": "新疆维吾尔自治区塔城地区沙湾市市沙湾温泉旅游区度假酒店",
        "tel": "",
        "category": "基础设施:公共设施:公共厕所",
        "type": 0,
        "location": {
            "lat": 43.890357,
            "lng": 85.397535
        },
        "ad_info": {
            "adcode": 654203,
            "province": "新疆维吾尔自治区",
            "city": "塔城地区",
            "district": "沙湾市"
        }
    },
    {
        "id": "5948255194899350140",
        "title": "公共厕所",
        "address": "新疆维吾尔自治区塔城地区沙湾市人民路与凯旋路交叉口西北方向125米左右",
        "tel": "",
        "category": "基础设施:公共设施:公共厕所",
        "type": 0,
        "location": {
            "lat": 44.321332,
            "lng": 85.634532
        },
        "ad_info": {
            "adcode": 654203,
            "province": "新疆维吾尔自治区",
            "city": "塔城地区",
            "district": "沙湾市"
        }
    },
    {
        "id": "2147651511753414895",
        "title": "公共厕所",
        "address": "新疆维吾尔自治区塔城地区额敏县无底湖西北侧530米",
        "tel": "",
        "category": "基础设施:公共设施:公共厕所",
        "type": 0,
        "location": {
            "lat": 46.958343,
            "lng": 84.637537
        },
        "ad_info": {
            "adcode": 654221,
            "province": "新疆维吾尔自治区",
            "city": "塔城地区",
            "district": "额敏县"
        }
    },
    {
        "id": "14193971641723347355",
        "title": "公共厕所",
        "address": "新疆维吾尔自治区塔城地区沙湾市S219与光明路交叉口正南方向89米左右",
        "tel": "",
        "category": "基础设施:公共设施:公共厕所",
        "type": 0,
        "location": {
            "lat": 44.481242,
            "lng": 85.6829
        },
        "ad_info": {
            "adcode": 654203,
            "province": "新疆维吾尔自治区",
            "city": "塔城地区",
            "district": "沙湾市"
        }
    },
    {
        "id": "7712340675787976609",
        "title": "公共厕所",
        "address": "新疆维吾尔自治区塔城地区乌苏市G312与金沙江东路交叉口西北方向703米左右",
        "tel": "",
        "category": "基础设施:公共设施:公共厕所",
        "type": 0,
        "location": {
            "lat": 44.396479,
            "lng": 84.772117
        },
        "ad_info": {
            "adcode": 654202,
            "province": "新疆维吾尔自治区",
            "city": "塔城地区",
            "district": "乌苏市"
        }
    },
    {
        "id": "15504982048525148444",
        "title": "公共厕所",
        "address": "新疆维吾尔自治区塔城地区塔城市文化南路与闻琴路交叉口西南方向150米左右",
        "tel": "",
        "category": "基础设施:公共设施:公共厕所",
        "type": 0,
        "location": {
            "lat": 46.738254,
            "lng": 82.975036
        },
        "ad_info": {
            "adcode": 654201,
            "province": "新疆维吾尔自治区",
            "city": "塔城地区",
            "district": "塔城市"
        }
    },
    {
        "id": "5517428809035061425",
        "title": "公共厕所",
        "address": "新疆维吾尔自治区塔城地区乌苏市团结路与岔哈段交叉口正东方向165米左右",
        "tel": "",
        "category": "基础设施:公共设施:公共厕所",
        "type": 0,
        "location": {
            "lat": 44.457999,
            "lng": 84.531803
        },
        "ad_info": {
            "adcode": 654202,
            "province": "新疆维吾尔自治区",
            "city": "塔城地区",
            "district": "乌苏市"
        }
    },
    {
        "id": "11265115199858160964",
        "title": "公共厕所",
        "address": "新疆维吾尔自治区塔城地区托里县喀拉盖巴斯陶南路与霍赫逊东路交叉口正北方向252米左右",
        "tel": "",
        "category": "基础设施:公共设施:公共厕所",
        "type": 0,
        "location": {
            "lat": 45.935604,
            "lng": 83.607085
        },
        "ad_info": {
            "adcode": 654224,
            "province": "新疆维吾尔自治区",
            "city": "塔城地区",
            "district": "托里县"
        }
    },
    {
        "id": "2118223995882450695",
        "title": "公共厕所",
        "address": "新疆维吾尔自治区塔城地区托里县幸福北路与幸福路交叉口正北方向111米左右",
        "tel": "",
        "category": "基础设施:公共设施:公共厕所",
        "type": 0,
        "location": {
            "lat": 45.939448,
            "lng": 83.609522
        },
        "ad_info": {
            "adcode": 654224,
            "province": "新疆维吾尔自治区",
            "city": "塔城地区",
            "district": "托里县"
        }
    },
    {
        "id": "13853747473579662130",
        "title": "公共厕所",
        "address": "新疆维吾尔自治区塔城地区塔城市塔城体育中心-赛马场东南侧70米",
        "tel": "",
        "category": "基础设施:公共设施:公共厕所",
        "type": 0,
        "location": {
            "lat": 46.759283,
            "lng": 83.051417
        },
        "ad_info": {
            "adcode": 654201,
            "province": "新疆维吾尔自治区",
            "city": "塔城地区",
            "district": "塔城市"
        }
    },
    {
        "id": "913156689071147752",
        "title": "公共厕所",
        "address": "新疆维吾尔自治区塔城地区乌苏市光明西路与北环西路交叉口东北方向50米左右",
        "tel": "",
        "category": "基础设施:公共设施:公共厕所",
        "type": 0,
        "location": {
            "lat": 44.979393,
            "lng": 84.494837
        },
        "ad_info": {
            "adcode": 654202,
            "province": "新疆维吾尔自治区",
            "city": "塔城地区",
            "district": "乌苏市"
        }
    },
    {
        "id": "15370738276116773553",
        "title": "公共厕所",
        "address": "新疆维吾尔自治区塔城地区塔城市伊宁路25号",
        "tel": "",
        "category": "基础设施:公共设施:公共厕所",
        "type": 0,
        "location": {
            "lat": 46.743733,
            "lng": 83.002439
        },
        "ad_info": {
            "adcode": 654201,
            "province": "新疆维吾尔自治区",
            "city": "塔城地区",
            "district": "塔城市"
        }
    },
    {
        "id": "14965411009585428015",
        "title": "服务区公共厕所",
        "address": "新疆维吾尔自治区塔城地区沙湾市201省道东100米",
        "tel": "",
        "category": "基础设施:公共设施:公共厕所",
        "type": 0,
        "location": {
            "lat": 44.697839,
            "lng": 85.777619
        },
        "ad_info": {
            "adcode": 654203,
            "province": "新疆维吾尔自治区",
            "city": "塔城地区",
            "district": "沙湾市"
        }
    },
    {
        "id": "16133241344651068790",
        "title": "玛依塔斯停车区公共厕所",
        "address": "新疆维吾尔自治区塔城地区额敏县G3015奎塔高速与玛依塔斯停车区交叉口西500米",
        "tel": "",
        "category": "基础设施:公共设施:公共厕所",
        "type": 0,
        "location": {
            "lat": 46.233973,
            "lng": 84.02112
        },
        "ad_info": {
            "adcode": 654221,
            "province": "新疆维吾尔自治区",
            "city": "塔城地区",
            "district": "额敏县"
        }
    },
    {
        "id": "703278505200444925",
        "title": "公共厕所",
        "address": "新疆维吾尔自治区塔城地区塔城市新华路与柴草巷交叉口东南方向116米左右",
        "tel": "",
        "category": "基础设施:公共设施:公共厕所",
        "type": 0,
        "location": {
            "lat": 46.74469,
            "lng": 82.985409
        },
        "ad_info": {
            "adcode": 654201,
            "province": "新疆维吾尔自治区",
            "city": "塔城地区",
            "district": "塔城市"
        }
    }
]