[
    {
        "id": "4933357335493941491",
        "title": "公共厕所",
        "address": "黑龙江省大庆市让胡路区兴中路与银浪大街交叉口正东方向49米左右",
        "tel": "",
        "category": "基础设施:公共设施:公共厕所",
        "type": 0,
        "location": {
            "lat": 46.531063,
            "lng": 124.875789
        },
        "ad_info": {
            "adcode": 230604,
            "province": "黑龙江省",
            "city": "大庆市",
            "district": "让胡路区"
        }
    },
    {
        "id": "18260423111814793316",
        "title": "公共厕所",
        "address": "黑龙江省大庆市大同区同发路与同春街交叉口正东方向114米左右",
        "tel": "",
        "category": "基础设施:公共设施:公共厕所",
        "type": 0,
        "location": {
            "lat": 46.038468,
            "lng": 124.820176
        },
        "ad_info": {
            "adcode": 230606,
            "province": "黑龙江省",
            "city": "大庆市",
            "district": "大同区"
        }
    },
    {
        "id": "15349598184648174791",
        "title": "公共厕所",
        "address": "黑龙江省大庆市让胡路区西宾西路与西宾路交叉口正北方向91米左右",
        "tel": "",
        "category": "基础设施:公共设施:公共厕所",
        "type": 0,
        "location": {
            "lat": 46.637456,
            "lng": 124.869467
        },
        "ad_info": {
            "adcode": 230604,
            "province": "黑龙江省",
            "city": "大庆市",
            "district": "让胡路区"
        }
    },
    {
        "id": "2393428537611538916",
        "title": "公共厕所",
        "address": "黑龙江省大庆市龙凤区凤瑞街与龙兴路交叉口正南方向212米左右",
        "tel": "",
        "category": "基础设施:公共设施:公共厕所",
        "type": 0,
        "location": {
            "lat": 46.563327,
            "lng": 125.141579
        },
        "ad_info": {
            "adcode": 230603,
            "province": "黑龙江省",
            "city": "大庆市",
            "district": "龙凤区"
        }
    },
    {
        "id": "4103920331684998842",
        "title": "公共厕所",
        "address": "黑龙江省大庆市龙凤区万宝街与东风路交叉口正南方向145米左右",
        "tel": "",
        "category": "基础设施:公共设施:公共厕所",
        "type": 0,
        "location": {
            "lat": 46.577417,
            "lng": 125.117648
        },
        "ad_info": {
            "adcode": 230603,
            "province": "黑龙江省",
            "city": "大庆市",
            "district": "龙凤区"
        }
    },
    {
        "id": "11607724662866144662",
        "title": "公共厕所",
        "address": "黑龙江省大庆市龙凤区新风路与行知街交叉口西北方向242米左右",
        "tel": "",
        "category": "基础设施:公共设施:公共厕所",
        "type": 0,
        "location": {
            "lat": 46.583968,
            "lng": 125.1564
        },
        "ad_info": {
            "adcode": 230603,
            "province": "黑龙江省",
            "city": "大庆市",
            "district": "龙凤区"
        }
    },
    {
        "id": "11833553282544078611",
        "title": "公共厕所",
        "address": "黑龙江省大庆市让胡路区振兴街与西宾路交叉口西北方向43米左右",
        "tel": "",
        "category": "基础设施:公共设施:公共厕所",
        "type": 0,
        "location": {
            "lat": 46.637376,
            "lng": 124.896744
        },
        "ad_info": {
            "adcode": 230604,
            "province": "黑龙江省",
            "city": "大庆市",
            "district": "让胡路区"
        }
    },
    {
        "id": "2749776581790602229",
        "title": "公共厕所",
        "address": "黑龙江省大庆市肇源县农林路与建设路交叉口正北方向68米左右",
        "tel": "",
        "category": "基础设施:公共设施:公共厕所",
        "type": 0,
        "location": {
            "lat": 45.516878,
            "lng": 125.084327
        },
        "ad_info": {
            "adcode": 230622,
            "province": "黑龙江省",
            "city": "大庆市",
            "district": "肇源县"
        }
    },
    {
        "id": "10841768970534228374",
        "title": "公共厕所",
        "address": "黑龙江省大庆市龙凤区龙一路与龙建街交叉口东北方向17米左右",
        "tel": "",
        "category": "基础设施:公共设施:公共厕所",
        "type": 0,
        "location": {
            "lat": 46.528152,
            "lng": 125.126396
        },
        "ad_info": {
            "adcode": 230603,
            "province": "黑龙江省",
            "city": "大庆市",
            "district": "龙凤区"
        }
    },
    {
        "id": "15099902731463895637",
        "title": "公共厕所",
        "address": "黑龙江省大庆市龙凤区天贺街与纬二路交叉口东北方向198米左右",
        "tel": "",
        "category": "基础设施:公共设施:公共厕所",
        "type": 0,
        "location": {
            "lat": 46.578593,
            "lng": 125.135836
        },
        "ad_info": {
            "adcode": 230603,
            "province": "黑龙江省",
            "city": "大庆市",
            "district": "龙凤区"
        }
    },
    {
        "id": "12211563392667802797",
        "title": "公共厕所",
        "address": "黑龙江省大庆市萨尔图区经三街34号",
        "tel": "",
        "category": "基础设施:公共设施:公共厕所",
        "type": 0,
        "location": {
            "lat": 46.599849,
            "lng": 125.105522
        },
        "ad_info": {
            "adcode": 230602,
            "province": "黑龙江省",
            "city": "大庆市",
            "district": "萨尔图区"
        }
    },
    {
        "id": "9807599878730191313",
        "title": "公共厕所",
        "address": "黑龙江省大庆市龙凤区兴化大街与化友路交叉口西南方向148米左右",
        "tel": "",
        "category": "基础设施:公共设施:公共厕所",
        "type": 0,
        "location": {
            "lat": 46.448754,
            "lng": 125.194118
        },
        "ad_info": {
            "adcode": 230603,
            "province": "黑龙江省",
            "city": "大庆市",
            "district": "龙凤区"
        }
    },
    {
        "id": "1550848199371651990",
        "title": "公共厕所",
        "address": "黑龙江省大庆市林甸县北三道街与同心街交叉口正西方向93米左右",
        "tel": "",
        "category": "基础设施:公共设施:公共厕所",
        "type": 0,
        "location": {
            "lat": 47.190191,
            "lng": 124.8797
        },
        "ad_info": {
            "adcode": 230623,
            "province": "黑龙江省",
            "city": "大庆市",
            "district": "林甸县"
        }
    },
    {
        "id": "5015259665386049585",
        "title": "公共厕所",
        "address": "黑龙江省大庆市林甸县G301与S214交叉口正西方向176米左右",
        "tel": "",
        "category": "基础设施:公共设施:公共厕所",
        "type": 0,
        "location": {
            "lat": 47.185245,
            "lng": 124.85613
        },
        "ad_info": {
            "adcode": 230623,
            "province": "黑龙江省",
            "city": "大庆市",
            "district": "林甸县"
        }
    },
    {
        "id": "17362908367592682721",
        "title": "公共厕所",
        "address": "黑龙江省大庆市让胡路区中央大街与西清路交叉口正东方向83米左右",
        "tel": "",
        "category": "基础设施:公共设施:公共厕所",
        "type": 0,
        "location": {
            "lat": 46.658146,
            "lng": 124.872272
        },
        "ad_info": {
            "adcode": 230604,
            "province": "黑龙江省",
            "city": "大庆市",
            "district": "让胡路区"
        }
    },
    {
        "id": "6755473495098326191",
        "title": "公共厕所",
        "address": "黑龙江省大庆市大同区同南路与同深街交叉口正北方向124米左右",
        "tel": "",
        "category": "基础设施:公共设施:公共厕所",
        "type": 0,
        "location": {
            "lat": 46.032269,
            "lng": 124.823716
        },
        "ad_info": {
            "adcode": 230606,
            "province": "黑龙江省",
            "city": "大庆市",
            "district": "大同区"
        }
    },
    {
        "id": "12336584848019079490",
        "title": "公共厕所",
        "address": "黑龙江省大庆市让胡路区胜利路铁人广场(西北角)",
        "tel": "",
        "category": "基础设施:公共设施:公共厕所",
        "type": 0,
        "location": {
            "lat": 46.615191,
            "lng": 124.882815
        },
        "ad_info": {
            "adcode": 230604,
            "province": "黑龙江省",
            "city": "大庆市",
            "district": "让胡路区"
        }
    },
    {
        "id": "6144068243495256287",
        "title": "公共厕所",
        "address": "黑龙江省大庆市肇州县十厂路与南环东路交叉口正西方向140米左右",
        "tel": "",
        "category": "基础设施:公共设施:公共厕所",
        "type": 0,
        "location": {
            "lat": 45.699971,
            "lng": 125.279793
        },
        "ad_info": {
            "adcode": 230621,
            "province": "黑龙江省",
            "city": "大庆市",
            "district": "肇州县"
        }
    },
    {
        "id": "8499474708669054288",
        "title": "公共厕所",
        "address": "黑龙江省大庆市萨尔图区中七路与友谊大街交叉口西北方向172米左右",
        "tel": "",
        "category": "基础设施:公共设施:公共厕所",
        "type": 0,
        "location": {
            "lat": 46.610443,
            "lng": 124.999437
        },
        "ad_info": {
            "adcode": 230602,
            "province": "黑龙江省",
            "city": "大庆市",
            "district": "萨尔图区"
        }
    },
    {
        "id": "4325635741862596698",
        "title": "公共厕所",
        "address": "黑龙江省大庆市龙凤区凤阳路与龙桥街交叉口正东方向59米左右",
        "tel": "",
        "category": "基础设施:公共设施:公共厕所",
        "type": 0,
        "location": {
            "lat": 46.536126,
            "lng": 125.108973
        },
        "ad_info": {
            "adcode": 230603,
            "province": "黑龙江省",
            "city": "大庆市",
            "district": "龙凤区"
        }
    },
    {
        "id": "8749538327636234417",
        "title": "公共厕所",
        "address": "黑龙江省大庆市龙凤区化工路与化建街交叉口正西方向245米左右",
        "tel": "",
        "category": "基础设施:公共设施:公共厕所",
        "type": 0,
        "location": {
            "lat": 46.472005,
            "lng": 125.207326
        },
        "ad_info": {
            "adcode": 230603,
            "province": "黑龙江省",
            "city": "大庆市",
            "district": "龙凤区"
        }
    },
    {
        "id": "5552726372935473879",
        "title": "公共厕所",
        "address": "黑龙江省大庆市肇州县同昌路与明沈公路交叉口东北方向384米左右",
        "tel": "",
        "category": "基础设施:公共设施:公共厕所",
        "type": 0,
        "location": {
            "lat": 45.997338,
            "lng": 125.3203
        },
        "ad_info": {
            "adcode": 230621,
            "province": "黑龙江省",
            "city": "大庆市",
            "district": "肇州县"
        }
    },
    {
        "id": "10419925504102664148",
        "title": "公共厕所",
        "address": "黑龙江省大庆市肇州县油田南路与清华街交叉口正西方向121米左右",
        "tel": "",
        "category": "基础设施:公共设施:公共厕所",
        "type": 0,
        "location": {
            "lat": 45.703746,
            "lng": 125.272091
        },
        "ad_info": {
            "adcode": 230621,
            "province": "黑龙江省",
            "city": "大庆市",
            "district": "肇州县"
        }
    },
    {
        "id": "12025945163120556815",
        "title": "公共厕所",
        "address": "黑龙江省大庆市龙凤区兴化南街与化祥路交叉口正南方向495米左右",
        "tel": "",
        "category": "基础设施:公共设施:公共厕所",
        "type": 0,
        "location": {
            "lat": 46.441045,
            "lng": 125.19774
        },
        "ad_info": {
            "adcode": 230603,
            "province": "黑龙江省",
            "city": "大庆市",
            "district": "龙凤区"
        }
    },
    {
        "id": "17761229644193192735",
        "title": "公共厕所",
        "address": "黑龙江省大庆市龙凤区兴庆路新兴社区卫生服务站西北",
        "tel": "",
        "category": "基础设施:公共设施:公共厕所",
        "type": 0,
        "location": {
            "lat": 46.435464,
            "lng": 125.201337
        },
        "ad_info": {
            "adcode": 230603,
            "province": "黑龙江省",
            "city": "大庆市",
            "district": "龙凤区"
        }
    },
    {
        "id": "6942900763448042540",
        "title": "公共厕所",
        "address": "黑龙江省大庆市肇州县北环东路与油建北路交叉口正南方向165米左右",
        "tel": "",
        "category": "基础设施:公共设施:公共厕所",
        "type": 0,
        "location": {
            "lat": 45.715677,
            "lng": 125.27441
        },
        "ad_info": {
            "adcode": 230621,
            "province": "黑龙江省",
            "city": "大庆市",
            "district": "肇州县"
        }
    },
    {
        "id": "9115221122433326323",
        "title": "公共厕所",
        "address": "黑龙江省大庆市龙凤区化安路与卧兴路交叉口正南方向87米左右",
        "tel": "",
        "category": "基础设施:公共设施:公共厕所",
        "type": 0,
        "location": {
            "lat": 46.482245,
            "lng": 125.211784
        },
        "ad_info": {
            "adcode": 230603,
            "province": "黑龙江省",
            "city": "大庆市",
            "district": "龙凤区"
        }
    },
    {
        "id": "498428628303424288",
        "title": "公共厕所",
        "address": "黑龙江省大庆市龙凤区卧兴路与G10绥满高速入口交叉口西南120米",
        "tel": "",
        "category": "基础设施:公共设施:公共厕所",
        "type": 0,
        "location": {
            "lat": 46.505767,
            "lng": 125.243338
        },
        "ad_info": {
            "adcode": 230603,
            "province": "黑龙江省",
            "city": "大庆市",
            "district": "龙凤区"
        }
    },
    {
        "id": "11553789740323382766",
        "title": "公共厕所",
        "address": "黑龙江省大庆市大同区新开路与长胜街交叉口正北方向122米左右",
        "tel": "",
        "category": "基础设施:公共设施:公共厕所",
        "type": 0,
        "location": {
            "lat": 46.30558,
            "lng": 124.719476
        },
        "ad_info": {
            "adcode": 230606,
            "province": "黑龙江省",
            "city": "大庆市",
            "district": "大同区"
        }
    },
    {
        "id": "7491859649787975672",
        "title": "公共厕所",
        "address": "黑龙江省大庆市肇源县南环大街与肇兴路交叉口正北方向135米左右",
        "tel": "",
        "category": "基础设施:公共设施:公共厕所",
        "type": 0,
        "location": {
            "lat": 45.51454,
            "lng": 125.077418
        },
        "ad_info": {
            "adcode": 230622,
            "province": "黑龙江省",
            "city": "大庆市",
            "district": "肇源县"
        }
    },
    {
        "id": "14757752787084736593",
        "title": "公共厕所",
        "address": "黑龙江省大庆市红岗区萨大中路与解放三街交叉口东南方向67米左右",
        "tel": "",
        "category": "基础设施:公共设施:公共厕所",
        "type": 0,
        "location": {
            "lat": 46.556488,
            "lng": 124.982208
        },
        "ad_info": {
            "adcode": 230605,
            "province": "黑龙江省",
            "city": "大庆市",
            "district": "红岗区"
        }
    },
    {
        "id": "4084435651165692308",
        "title": "公共厕所",
        "address": "黑龙江省大庆市龙凤区龙凤镇向阳村卫生所西南侧240米",
        "tel": "",
        "category": "基础设施:公共设施:公共厕所",
        "type": 0,
        "location": {
            "lat": 46.526668,
            "lng": 125.02918
        },
        "ad_info": {
            "adcode": 230603,
            "province": "黑龙江省",
            "city": "大庆市",
            "district": "龙凤区"
        }
    },
    {
        "id": "92326535117613129",
        "title": "公共厕所",
        "address": "黑龙江省大庆市肇州县南环西路与尚学路交叉口正北方向136米左右",
        "tel": "",
        "category": "基础设施:公共设施:公共厕所",
        "type": 0,
        "location": {
            "lat": 45.699303,
            "lng": 125.262355
        },
        "ad_info": {
            "adcode": 230621,
            "province": "黑龙江省",
            "city": "大庆市",
            "district": "肇州县"
        }
    },
    {
        "id": "8555104973901056990",
        "title": "公共厕所",
        "address": "黑龙江省大庆市红岗区红岗北四街与红岗南一街交叉口正南方向261米左右",
        "tel": "",
        "category": "基础设施:公共设施:公共厕所",
        "type": 0,
        "location": {
            "lat": 46.398088,
            "lng": 124.892328
        },
        "ad_info": {
            "adcode": 230605,
            "province": "黑龙江省",
            "city": "大庆市",
            "district": "红岗区"
        }
    },
    {
        "id": "16725111961872228301",
        "title": "公共厕所",
        "address": "黑龙江省大庆市龙凤区卧兴路与卧里屯环岛交叉口东北方向94米左右",
        "tel": "",
        "category": "基础设施:公共设施:公共厕所",
        "type": 0,
        "location": {
            "lat": 46.468861,
            "lng": 125.196313
        },
        "ad_info": {
            "adcode": 230603,
            "province": "黑龙江省",
            "city": "大庆市",
            "district": "龙凤区"
        }
    },
    {
        "id": "3043868143657051264",
        "title": "公共厕所",
        "address": "黑龙江省大庆市龙凤区化建街与卧里屯大街交叉口正东方向245米左右",
        "tel": "",
        "category": "基础设施:公共设施:公共厕所",
        "type": 0,
        "location": {
            "lat": 46.468996,
            "lng": 125.219151
        },
        "ad_info": {
            "adcode": 230603,
            "province": "黑龙江省",
            "city": "大庆市",
            "district": "龙凤区"
        }
    },
    {
        "id": "14511725846542895901",
        "title": "公共厕所",
        "address": "黑龙江省大庆市龙凤区龙桥街与凤阳路辅路交叉口东北40米",
        "tel": "",
        "category": "基础设施:公共设施:公共厕所",
        "type": 0,
        "location": {
            "lat": 46.536405,
            "lng": 125.108382
        },
        "ad_info": {
            "adcode": 230603,
            "province": "黑龙江省",
            "city": "大庆市",
            "district": "龙凤区"
        }
    },
    {
        "id": "2447639785130509740",
        "title": "公共厕所",
        "address": "黑龙江省大庆市萨尔图区中十一路与萨尔图大街交叉口正东方向34米左右",
        "tel": "",
        "category": "基础设施:公共设施:公共厕所",
        "type": 0,
        "location": {
            "lat": 46.593504,
            "lng": 125.010433
        },
        "ad_info": {
            "adcode": 230602,
            "province": "黑龙江省",
            "city": "大庆市",
            "district": "萨尔图区"
        }
    },
    {
        "id": "9785317529677104627",
        "title": "公共厕所",
        "address": "黑龙江省大庆市肇州县南环东路与油建南路交叉口正北方向75米左右",
        "tel": "",
        "category": "基础设施:公共设施:公共厕所",
        "type": 0,
        "location": {
            "lat": 45.700312,
            "lng": 125.277951
        },
        "ad_info": {
            "adcode": 230621,
            "province": "黑龙江省",
            "city": "大庆市",
            "district": "肇州县"
        }
    },
    {
        "id": "990784600198995655",
        "title": "公共厕所",
        "address": "黑龙江省大庆市龙凤区813乡道附近",
        "tel": "",
        "category": "基础设施:公共设施:公共厕所",
        "type": 0,
        "location": {
            "lat": 46.678309,
            "lng": 125.250391
        },
        "ad_info": {
            "adcode": 230603,
            "province": "黑龙江省",
            "city": "大庆市",
            "district": "龙凤区"
        }
    },
    {
        "id": "8424562174924652583",
        "title": "公共厕所",
        "address": "黑龙江省大庆市大同区同北路与同春街交叉口东北方向28米左右",
        "tel": "",
        "category": "基础设施:公共设施:公共厕所",
        "type": 0,
        "location": {
            "lat": 46.035818,
            "lng": 124.819537
        },
        "ad_info": {
            "adcode": 230606,
            "province": "黑龙江省",
            "city": "大庆市",
            "district": "大同区"
        }
    },
    {
        "id": "3112550308643548694",
        "title": "公共厕所",
        "address": "黑龙江省大庆市肇州县北环西路与西环北路交叉口东北方向121米左右",
        "tel": "",
        "category": "基础设施:公共设施:公共厕所",
        "type": 0,
        "location": {
            "lat": 45.716029,
            "lng": 125.260412
        },
        "ad_info": {
            "adcode": 230621,
            "province": "黑龙江省",
            "city": "大庆市",
            "district": "肇州县"
        }
    },
    {
        "id": "18370739106301434003",
        "title": "公共厕所",
        "address": "黑龙江省大庆市大同区同民街与同源路交叉口正东方向53米左右",
        "tel": "",
        "category": "基础设施:公共设施:公共厕所",
        "type": 0,
        "location": {
            "lat": 46.026676,
            "lng": 124.811814
        },
        "ad_info": {
            "adcode": 230606,
            "province": "黑龙江省",
            "city": "大庆市",
            "district": "大同区"
        }
    },
    {
        "id": "1497458517188310286",
        "title": "公共厕所",
        "address": "黑龙江省大庆市林甸县S309与黎明桥交叉口西北方向1245米左右",
        "tel": "",
        "category": "基础设施:公共设施:公共厕所",
        "type": 0,
        "location": {
            "lat": 47.1323,
            "lng": 125.020769
        },
        "ad_info": {
            "adcode": 230623,
            "province": "黑龙江省",
            "city": "大庆市",
            "district": "林甸县"
        }
    },
    {
        "id": "7515577145596706975",
        "title": "公共厕所",
        "address": "黑龙江省大庆市肇州县之平街与油建南路交叉口西南方向19米左右",
        "tel": "",
        "category": "基础设施:公共设施:公共厕所",
        "type": 0,
        "location": {
            "lat": 45.705864,
            "lng": 125.276366
        },
        "ad_info": {
            "adcode": 230621,
            "province": "黑龙江省",
            "city": "大庆市",
            "district": "肇州县"
        }
    },
    {
        "id": "10122806167685370470",
        "title": "公共卫生间",
        "address": "黑龙江省大庆市肇源县四方山大街与新风路交叉口西北方向104米左右",
        "tel": "",
        "category": "基础设施:公共设施:公共厕所",
        "type": 0,
        "location": {
            "lat": 45.522783,
            "lng": 125.080762
        },
        "ad_info": {
            "adcode": 230622,
            "province": "黑龙江省",
            "city": "大庆市",
            "district": "肇源县"
        }
    },
    {
        "id": "995937020033256810",
        "title": "公共厕所",
        "address": "黑龙江省大庆市肇源县S104与S213交叉口西北方向1080米左右",
        "tel": "",
        "category": "基础设施:公共设施:公共厕所",
        "type": 0,
        "location": {
            "lat": 45.570682,
            "lng": 124.626248
        },
        "ad_info": {
            "adcode": 230622,
            "province": "黑龙江省",
            "city": "大庆市",
            "district": "肇源县"
        }
    },
    {
        "id": "11305501096490633412",
        "title": "公共厕所",
        "address": "黑龙江省大庆市红岗区张铁匠二街与杏一路交叉口西南方向623米左右",
        "tel": "",
        "category": "基础设施:公共设施:公共厕所",
        "type": 0,
        "location": {
            "lat": 46.439858,
            "lng": 124.85359
        },
        "ad_info": {
            "adcode": 230605,
            "province": "黑龙江省",
            "city": "大庆市",
            "district": "红岗区"
        }
    },
    {
        "id": "1294101179523985109",
        "title": "公共厕所",
        "address": "黑龙江省大庆市红岗区八百垧中路与八百垧南路交叉口西北方向180米左右",
        "tel": "",
        "category": "基础设施:公共设施:公共厕所",
        "type": 0,
        "location": {
            "lat": 46.451237,
            "lng": 124.843169
        },
        "ad_info": {
            "adcode": 230605,
            "province": "黑龙江省",
            "city": "大庆市",
            "district": "红岗区"
        }
    },
    {
        "id": "11037240444568853849",
        "title": "公共厕所",
        "address": "黑龙江省大庆市大同区同南路与同纪街交叉口正东方向110米左右",
        "tel": "",
        "category": "基础设施:公共设施:公共厕所",
        "type": 0,
        "location": {
            "lat": 46.032745,
            "lng": 124.838469
        },
        "ad_info": {
            "adcode": 230606,
            "province": "黑龙江省",
            "city": "大庆市",
            "district": "大同区"
        }
    },
    {
        "id": "6549957028838309108",
        "title": "公共厕所",
        "address": "黑龙江省大庆市肇州县东环南路与兴工路交叉口正东方向191米左右",
        "tel": "",
        "category": "基础设施:公共设施:公共厕所",
        "type": 0,
        "location": {
            "lat": 45.70058,
            "lng": 125.289209
        },
        "ad_info": {
            "adcode": 230621,
            "province": "黑龙江省",
            "city": "大庆市",
            "district": "肇州县"
        }
    },
    {
        "id": "12884978970295696816",
        "title": "公共厕所",
        "address": "黑龙江省大庆市肇源县东环大街与南三路交叉口正南方向44米左右",
        "tel": "",
        "category": "基础设施:公共设施:公共厕所",
        "type": 0,
        "location": {
            "lat": 45.512267,
            "lng": 125.089739
        },
        "ad_info": {
            "adcode": 230622,
            "province": "黑龙江省",
            "city": "大庆市",
            "district": "肇源县"
        }
    },
    {
        "id": "13295310028268421207",
        "title": "公共厕所",
        "address": "黑龙江省大庆市肇州县井业路与德明街交叉口正东方向140米左右",
        "tel": "",
        "category": "基础设施:公共设施:公共厕所",
        "type": 0,
        "location": {
            "lat": 45.711097,
            "lng": 125.28109
        },
        "ad_info": {
            "adcode": 230621,
            "province": "黑龙江省",
            "city": "大庆市",
            "district": "肇州县"
        }
    },
    {
        "id": "3216391089892355390",
        "title": "公共厕所",
        "address": "黑龙江省大庆市林甸县林建路与G10绥满高速交叉口北50米",
        "tel": "",
        "category": "基础设施:公共设施:公共厕所",
        "type": 0,
        "location": {
            "lat": 47.197101,
            "lng": 124.822895
        },
        "ad_info": {
            "adcode": 230623,
            "province": "黑龙江省",
            "city": "大庆市",
            "district": "林甸县"
        }
    },
    {
        "id": "7786380312773154299",
        "title": "公共厕所",
        "address": "黑龙江省大庆市林甸县S309与林四路交叉口东北方向652米左右",
        "tel": "",
        "category": "基础设施:公共设施:公共厕所",
        "type": 0,
        "location": {
            "lat": 47.207853,
            "lng": 124.880744
        },
        "ad_info": {
            "adcode": 230623,
            "province": "黑龙江省",
            "city": "大庆市",
            "district": "林甸县"
        }
    },
    {
        "id": "16129086532590192650",
        "title": "公共厕所",
        "address": "黑龙江省大庆市肇源县G232与古龙桥交叉口西北方向356米左右",
        "tel": "",
        "category": "基础设施:公共设施:公共厕所",
        "type": 0,
        "location": {
            "lat": 45.855577,
            "lng": 124.209508
        },
        "ad_info": {
            "adcode": 230622,
            "province": "黑龙江省",
            "city": "大庆市",
            "district": "肇源县"
        }
    },
    {
        "id": "3845182970584917106",
        "title": "公共厕所",
        "address": "黑龙江省大庆市肇源县南三路与南环大街交叉口东南方向26米左右",
        "tel": "",
        "category": "基础设施:公共设施:公共厕所",
        "type": 0,
        "location": {
            "lat": 45.512583,
            "lng": 125.08744
        },
        "ad_info": {
            "adcode": 230622,
            "province": "黑龙江省",
            "city": "大庆市",
            "district": "肇源县"
        }
    },
    {
        "id": "11368568306421324323",
        "title": "公共厕所",
        "address": "黑龙江省大庆市肇源县望海路与源民路交叉口正北方向75米左右",
        "tel": "",
        "category": "基础设施:公共设施:公共厕所",
        "type": 0,
        "location": {
            "lat": 45.537027,
            "lng": 125.076069
        },
        "ad_info": {
            "adcode": 230622,
            "province": "黑龙江省",
            "city": "大庆市",
            "district": "肇源县"
        }
    },
    {
        "id": "9442006996922089984",
        "title": "公共厕所",
        "address": "黑龙江省大庆市肇州县东环南路与祝三街交叉口正北方向80米左右",
        "tel": "",
        "category": "基础设施:公共设施:公共厕所",
        "type": 0,
        "location": {
            "lat": 45.705957,
            "lng": 125.285842
        },
        "ad_info": {
            "adcode": 230621,
            "province": "黑龙江省",
            "city": "大庆市",
            "district": "肇州县"
        }
    },
    {
        "id": "11885041781404507994",
        "title": "公共厕所",
        "address": "黑龙江省大庆市肇州县之平街与十厂路交叉口西北方向138米左右",
        "tel": "",
        "category": "基础设施:公共设施:公共厕所",
        "type": 0,
        "location": {
            "lat": 45.707276,
            "lng": 125.278943
        },
        "ad_info": {
            "adcode": 230621,
            "province": "黑龙江省",
            "city": "大庆市",
            "district": "肇州县"
        }
    },
    {
        "id": "10898132643763238535",
        "title": "公共厕所",
        "address": "黑龙江省大庆市萨尔图区政顺街与萨宁路交叉口东北方向94米左右",
        "tel": "",
        "category": "基础设施:公共设施:公共厕所",
        "type": 0,
        "location": {
            "lat": 46.620105,
            "lng": 125.123765
        },
        "ad_info": {
            "adcode": 230602,
            "province": "黑龙江省",
            "city": "大庆市",
            "district": "萨尔图区"
        }
    },
    {
        "id": "14099099909482280160",
        "title": "公共厕所",
        "address": "黑龙江省大庆市让胡路区广厦街与长青路交叉口正北方向80米左右",
        "tel": "",
        "category": "基础设施:公共设施:公共厕所",
        "type": 0,
        "location": {
            "lat": 46.631655,
            "lng": 124.865045
        },
        "ad_info": {
            "adcode": 230604,
            "province": "黑龙江省",
            "city": "大庆市",
            "district": "让胡路区"
        }
    },
    {
        "id": "147018856141244919",
        "title": "公共厕所",
        "address": "黑龙江省大庆市萨尔图区经六街与义耕时代广场步行街交叉口东40米",
        "tel": "",
        "category": "基础设施:公共设施:公共厕所",
        "type": 0,
        "location": {
            "lat": 46.596227,
            "lng": 125.117207
        },
        "ad_info": {
            "adcode": 230602,
            "province": "黑龙江省",
            "city": "大庆市",
            "district": "萨尔图区"
        }
    },
    {
        "id": "4582843365561212201",
        "title": "公共厕所",
        "address": "黑龙江省大庆市萨尔图区机场路与G45大广高速入口交叉口西北100米",
        "tel": "",
        "category": "基础设施:公共设施:公共厕所",
        "type": 0,
        "location": {
            "lat": 46.605576,
            "lng": 125.087562
        },
        "ad_info": {
            "adcode": 230602,
            "province": "黑龙江省",
            "city": "大庆市",
            "district": "萨尔图区"
        }
    },
    {
        "id": "10882999651377682546",
        "title": "公共厕所",
        "address": "黑龙江省大庆市萨尔图区七十五巷与南一路交叉口正北方向603米左右",
        "tel": "",
        "category": "基础设施:公共设施:公共厕所",
        "type": 0,
        "location": {
            "lat": 46.575786,
            "lng": 125.015418
        },
        "ad_info": {
            "adcode": 230602,
            "province": "黑龙江省",
            "city": "大庆市",
            "district": "萨尔图区"
        }
    },
    {
        "id": "17786744535069256029",
        "title": "公共厕所",
        "address": "黑龙江省大庆市萨尔图区纬九路新源小区(F组团南区)",
        "tel": "",
        "category": "基础设施:公共设施:公共厕所",
        "type": 0,
        "location": {
            "lat": 46.602344,
            "lng": 125.116516
        },
        "ad_info": {
            "adcode": 230602,
            "province": "黑龙江省",
            "city": "大庆市",
            "district": "萨尔图区"
        }
    },
    {
        "id": "4981530059491330498",
        "title": "公共厕所",
        "address": "黑龙江省大庆市萨尔图区勤奋东路与勤奋路交叉口西北方向241米左右",
        "tel": "",
        "category": "基础设施:公共设施:公共厕所",
        "type": 0,
        "location": {
            "lat": 46.576726,
            "lng": 125.046114
        },
        "ad_info": {
            "adcode": 230602,
            "province": "黑龙江省",
            "city": "大庆市",
            "district": "萨尔图区"
        }
    },
    {
        "id": "1664306985113724413",
        "title": "公共厕所",
        "address": "黑龙江省大庆市让胡路区朝霞街铁人广场内(东侧)",
        "tel": "",
        "category": "基础设施:公共设施:公共厕所",
        "type": 0,
        "location": {
            "lat": 46.614063,
            "lng": 124.887103
        },
        "ad_info": {
            "adcode": 230604,
            "province": "黑龙江省",
            "city": "大庆市",
            "district": "让胡路区"
        }
    },
    {
        "id": "12914313208554407570",
        "title": "黎明湖公共厕所",
        "address": "黑龙江省大庆市龙凤区学伟大街与纬七路交叉口正东方向136米左右",
        "tel": "",
        "category": "基础设施:公共设施:公共厕所",
        "type": 0,
        "location": {
            "lat": 46.598822,
            "lng": 125.129866
        },
        "ad_info": {
            "adcode": 230603,
            "province": "黑龙江省",
            "city": "大庆市",
            "district": "龙凤区"
        }
    },
    {
        "id": "7913790293588618585",
        "title": "公共厕所",
        "address": "黑龙江省大庆市杜尔伯特蒙古族自治县图布沁街与阿尔善路交叉口东北方向111米左右",
        "tel": "",
        "category": "基础设施:公共设施:公共厕所",
        "type": 0,
        "location": {
            "lat": 46.852758,
            "lng": 124.433093
        },
        "ad_info": {
            "adcode": 230624,
            "province": "黑龙江省",
            "city": "大庆市",
            "district": "杜尔伯特蒙古族自治县"
        }
    },
    {
        "id": "301614307317904943",
        "title": "公共卫生间",
        "address": "黑龙江省大庆市萨尔图区东风路与经三街交叉口正南方向312米左右",
        "tel": "",
        "category": "基础设施:公共设施:公共厕所",
        "type": 0,
        "location": {
            "lat": 46.588884,
            "lng": 125.094645
        },
        "ad_info": {
            "adcode": 230602,
            "province": "黑龙江省",
            "city": "大庆市",
            "district": "萨尔图区"
        }
    },
    {
        "id": "5666739295726787862",
        "title": "公共厕所",
        "address": "黑龙江省大庆市肇源县富民西巷与政府大街交叉口西南方向31米左右",
        "tel": "",
        "category": "基础设施:公共设施:公共厕所",
        "type": 0,
        "location": {
            "lat": 45.714273,
            "lng": 124.393329
        },
        "ad_info": {
            "adcode": 230622,
            "province": "黑龙江省",
            "city": "大庆市",
            "district": "肇源县"
        }
    },
    {
        "id": "3680379189992299535",
        "title": "公共厕所",
        "address": "黑龙江省大庆市肇源县建设路与西环大街交叉口西南方向65米左右",
        "tel": "",
        "category": "基础设施:公共设施:公共厕所",
        "type": 0,
        "location": {
            "lat": 45.516257,
            "lng": 125.072887
        },
        "ad_info": {
            "adcode": 230622,
            "province": "黑龙江省",
            "city": "大庆市",
            "district": "肇源县"
        }
    },
    {
        "id": "8878694289369057561",
        "title": "公共厕所",
        "address": "黑龙江省大庆市杜尔伯特蒙古族自治县满达路与马拉图雅街交叉口正东方向67米左右",
        "tel": "",
        "category": "基础设施:公共设施:公共厕所",
        "type": 0,
        "location": {
            "lat": 46.871432,
            "lng": 124.44269
        },
        "ad_info": {
            "adcode": 230624,
            "province": "黑龙江省",
            "city": "大庆市",
            "district": "杜尔伯特蒙古族自治县"
        }
    },
    {
        "id": "13506120324744629622",
        "title": "公共厕所",
        "address": "黑龙江省大庆市肇源县东环大街与向阳路交叉口正南方向121米左右",
        "tel": "",
        "category": "基础设施:公共设施:公共厕所",
        "type": 0,
        "location": {
            "lat": 45.519335,
            "lng": 125.090361
        },
        "ad_info": {
            "adcode": 230622,
            "province": "黑龙江省",
            "city": "大庆市",
            "district": "肇源县"
        }
    },
    {
        "id": "7697012470669050507",
        "title": "公共厕所",
        "address": "黑龙江省大庆市让胡路区超凡门窗制造有限公司东侧240米",
        "tel": "",
        "category": "基础设施:公共设施:公共厕所",
        "type": 0,
        "location": {
            "lat": 46.599387,
            "lng": 124.841639
        },
        "ad_info": {
            "adcode": 230604,
            "province": "黑龙江省",
            "city": "大庆市",
            "district": "让胡路区"
        }
    },
    {
        "id": "11041767048105424800",
        "title": "公共厕所",
        "address": "黑龙江省大庆市萨尔图区中七路与会战西街交叉口西北方向151米左右",
        "tel": "",
        "category": "基础设施:公共设施:公共厕所",
        "type": 0,
        "location": {
            "lat": 46.606827,
            "lng": 125.013695
        },
        "ad_info": {
            "adcode": 230602,
            "province": "黑龙江省",
            "city": "大庆市",
            "district": "萨尔图区"
        }
    },
    {
        "id": "5560505961579243449",
        "title": "公共厕所",
        "address": "黑龙江省大庆市肇州县大庆路与庆丰街交叉口正南方向91米左右",
        "tel": "",
        "category": "基础设施:公共设施:公共厕所",
        "type": 0,
        "location": {
            "lat": 45.710509,
            "lng": 125.264981
        },
        "ad_info": {
            "adcode": 230621,
            "province": "黑龙江省",
            "city": "大庆市",
            "district": "肇州县"
        }
    },
    {
        "id": "9297483506293047287",
        "title": "公共厕所",
        "address": "黑龙江省大庆市肇源县东山大街与郭尔罗斯大街交叉口东南方向30米左右",
        "tel": "",
        "category": "基础设施:公共设施:公共厕所",
        "type": 0,
        "location": {
            "lat": 45.529993,
            "lng": 125.096618
        },
        "ad_info": {
            "adcode": 230622,
            "province": "黑龙江省",
            "city": "大庆市",
            "district": "肇源县"
        }
    },
    {
        "id": "6032664970362566029",
        "title": "公共厕所",
        "address": "黑龙江省大庆市肇州县东环南路与奋斗街交叉口正南方向99米左右",
        "tel": "",
        "category": "基础设施:公共设施:公共厕所",
        "type": 0,
        "location": {
            "lat": 45.702782,
            "lng": 125.286081
        },
        "ad_info": {
            "adcode": 230621,
            "province": "黑龙江省",
            "city": "大庆市",
            "district": "肇州县"
        }
    },
    {
        "id": "4982944838506727986",
        "title": "公共厕所",
        "address": "黑龙江省大庆市肇源县东山大街与为民路交叉口正西方向117米左右",
        "tel": "",
        "category": "基础设施:公共设施:公共厕所",
        "type": 0,
        "location": {
            "lat": 45.525298,
            "lng": 125.094403
        },
        "ad_info": {
            "adcode": 230622,
            "province": "黑龙江省",
            "city": "大庆市",
            "district": "肇源县"
        }
    },
    {
        "id": "5850339726182246231",
        "title": "公共厕所",
        "address": "黑龙江省大庆市肇州县华海路与庆丰街交叉口正南方向52米左右",
        "tel": "",
        "category": "基础设施:公共设施:公共厕所",
        "type": 0,
        "location": {
            "lat": 45.711229,
            "lng": 125.268593
        },
        "ad_info": {
            "adcode": 230621,
            "province": "黑龙江省",
            "city": "大庆市",
            "district": "肇州县"
        }
    },
    {
        "id": "14608839324658974279",
        "title": "公共卫生间",
        "address": "黑龙江省大庆市大同区同发路与同政街交叉口西北方向24米左右",
        "tel": "",
        "category": "基础设施:公共设施:公共厕所",
        "type": 0,
        "location": {
            "lat": 46.039201,
            "lng": 124.825481
        },
        "ad_info": {
            "adcode": 230606,
            "province": "黑龙江省",
            "city": "大庆市",
            "district": "大同区"
        }
    },
    {
        "id": "17868503028638920565",
        "title": "公共厕所",
        "address": "黑龙江省大庆市红岗区杏西四街与萨大中路交叉口东南方向78米左右",
        "tel": "",
        "category": "基础设施:公共设施:公共厕所",
        "type": 0,
        "location": {
            "lat": 46.321685,
            "lng": 124.902341
        },
        "ad_info": {
            "adcode": 230605,
            "province": "黑龙江省",
            "city": "大庆市",
            "district": "红岗区"
        }
    },
    {
        "id": "764623613244809979",
        "title": "公共厕所",
        "address": "黑龙江省大庆市杜尔伯特蒙古族自治县西环路与诺恩木伦街交叉口东南方向69米左右",
        "tel": "",
        "category": "基础设施:公共设施:公共厕所",
        "type": 0,
        "location": {
            "lat": 46.852652,
            "lng": 124.441803
        },
        "ad_info": {
            "adcode": 230624,
            "province": "黑龙江省",
            "city": "大庆市",
            "district": "杜尔伯特蒙古族自治县"
        }
    },
    {
        "id": "7069905328610044077",
        "title": "公共厕所",
        "address": "黑龙江省大庆市肇州县井业路与德明街交叉口正南方向107米左右",
        "tel": "",
        "category": "基础设施:公共设施:公共厕所",
        "type": 0,
        "location": {
            "lat": 45.710168,
            "lng": 125.279694
        },
        "ad_info": {
            "adcode": 230621,
            "province": "黑龙江省",
            "city": "大庆市",
            "district": "肇州县"
        }
    },
    {
        "id": "3195425451097990855",
        "title": "公共厕所",
        "address": "黑龙江省大庆市肇源县东山大街与四方山大街交叉口东北方向40米左右",
        "tel": "",
        "category": "基础设施:公共设施:公共厕所",
        "type": 0,
        "location": {
            "lat": 45.521729,
            "lng": 125.09579
        },
        "ad_info": {
            "adcode": 230622,
            "province": "黑龙江省",
            "city": "大庆市",
            "district": "肇源县"
        }
    },
    {
        "id": "8726177223379035201",
        "title": "公共厕所",
        "address": "黑龙江省大庆市杜尔伯特蒙古族自治县向阳路与富鑫街交叉口西北方向130米左右",
        "tel": "",
        "category": "基础设施:公共设施:公共厕所",
        "type": 0,
        "location": {
            "lat": 46.872499,
            "lng": 124.452486
        },
        "ad_info": {
            "adcode": 230624,
            "province": "黑龙江省",
            "city": "大庆市",
            "district": "杜尔伯特蒙古族自治县"
        }
    },
    {
        "id": "154022320023816128",
        "title": "公共厕所",
        "address": "黑龙江省大庆市肇州县井业路与耀先街交叉口东北方向56米左右",
        "tel": "",
        "category": "基础设施:公共设施:公共厕所",
        "type": 0,
        "location": {
            "lat": 45.712979,
            "lng": 125.279578
        },
        "ad_info": {
            "adcode": 230621,
            "province": "黑龙江省",
            "city": "大庆市",
            "district": "肇州县"
        }
    },
    {
        "id": "838678227954912137",
        "title": "公共厕所",
        "address": "黑龙江省大庆市肇源县东环大街与北环大街交叉口正西方向100米左右",
        "tel": "",
        "category": "基础设施:公共设施:公共厕所",
        "type": 0,
        "location": {
            "lat": 45.523805,
            "lng": 125.089156
        },
        "ad_info": {
            "adcode": 230622,
            "province": "黑龙江省",
            "city": "大庆市",
            "district": "肇源县"
        }
    },
    {
        "id": "13860954227566184649",
        "title": "公共厕所",
        "address": "黑龙江省大庆市杜尔伯特蒙古族自治县马拉图雅街与214省道辅路交叉口西60米",
        "tel": "",
        "category": "基础设施:公共设施:公共厕所",
        "type": 0,
        "location": {
            "lat": 46.866208,
            "lng": 124.450694
        },
        "ad_info": {
            "adcode": 230624,
            "province": "黑龙江省",
            "city": "大庆市",
            "district": "杜尔伯特蒙古族自治县"
        }
    },
    {
        "id": "15224758956844300342",
        "title": "公共厕所",
        "address": "黑龙江省大庆市让胡路区中央大街与求知路交叉口东南方向482米左右",
        "tel": "",
        "category": "基础设施:公共设施:公共厕所",
        "type": 0,
        "location": {
            "lat": 46.642275,
            "lng": 124.876285
        },
        "ad_info": {
            "adcode": 230604,
            "province": "黑龙江省",
            "city": "大庆市",
            "district": "让胡路区"
        }
    },
    {
        "id": "6536125314590777173",
        "title": "兰德湖公园二号公共厕所",
        "address": "黑龙江省大庆市萨尔图区经三街兰德湖公园入口",
        "tel": "",
        "category": "基础设施:公共设施:公共厕所",
        "type": 0,
        "location": {
            "lat": 46.630118,
            "lng": 125.115871
        },
        "ad_info": {
            "adcode": 230602,
            "province": "黑龙江省",
            "city": "大庆市",
            "district": "萨尔图区"
        }
    },
    {
        "id": "9102230638865101301",
        "title": "卫生间",
        "address": "黑龙江省大庆市萨尔图区东风路15-3号万达广场B1",
        "tel": "",
        "category": "基础设施:公共设施:公共厕所",
        "type": 0,
        "location": {
            "lat": 46.594069,
            "lng": 125.09627
        },
        "ad_info": {
            "adcode": 230602,
            "province": "黑龙江省",
            "city": "大庆市",
            "district": "萨尔图区"
        }
    },
    {
        "id": "15654486227027036278",
        "title": "扎龙服务区公共厕所",
        "address": "黑龙江省大庆市林甸县G301与胜利桥交叉口正西方向1849米左右",
        "tel": "",
        "category": "基础设施:公共设施:公共厕所",
        "type": 0,
        "location": {
            "lat": 47.284813,
            "lng": 124.563753
        },
        "ad_info": {
            "adcode": 230623,
            "province": "黑龙江省",
            "city": "大庆市",
            "district": "林甸县"
        }
    },
    {
        "id": "12230037291826122744",
        "title": "无障碍洗手间(大商集团麦凯乐)",
        "address": "黑龙江省大庆市让胡路区昆仑大街2号大商集团麦凯乐F4层",
        "tel": "",
        "category": "基础设施:公共设施:公共厕所",
        "type": 0,
        "location": {
            "lat": 46.63481,
            "lng": 124.884487
        },
        "ad_info": {
            "adcode": 230604,
            "province": "黑龙江省",
            "city": "大庆市",
            "district": "让胡路区"
        }
    },
    {
        "id": "3569457907284478081",
        "title": "卫生间",
        "address": "黑龙江省大庆市萨尔图区东风路15-3号万达广场F1",
        "tel": "",
        "category": "基础设施:公共设施:公共厕所",
        "type": 0,
        "location": {
            "lat": 46.594699,
            "lng": 125.094473
        },
        "ad_info": {
            "adcode": 230602,
            "province": "黑龙江省",
            "city": "大庆市",
            "district": "萨尔图区"
        }
    },
    {
        "id": "5669968645140190810",
        "title": "无障碍洗手间(大商集团麦凯乐)",
        "address": "黑龙江省大庆市让胡路区昆仑大街2号大商集团麦凯乐F4层",
        "tel": "",
        "category": "基础设施:公共设施:公共厕所",
        "type": 0,
        "location": {
            "lat": 46.634134,
            "lng": 124.884442
        },
        "ad_info": {
            "adcode": 230604,
            "province": "黑龙江省",
            "city": "大庆市",
            "district": "让胡路区"
        }
    },
    {
        "id": "14791624423646086905",
        "title": "卫生间",
        "address": "黑龙江省大庆市萨尔图区东风路15-3号万达广场F2",
        "tel": "",
        "category": "基础设施:公共设施:公共厕所",
        "type": 0,
        "location": {
            "lat": 46.594703,
            "lng": 125.094471
        },
        "ad_info": {
            "adcode": 230602,
            "province": "黑龙江省",
            "city": "大庆市",
            "district": "萨尔图区"
        }
    },
    {
        "id": "11237842957263597072",
        "title": "红湖服务区公共厕所",
        "address": "黑龙江省大庆市龙凤区绥满高速公路红湖服务区",
        "tel": "",
        "category": "基础设施:公共设施:公共厕所",
        "type": 0,
        "location": {
            "lat": 46.598347,
            "lng": 125.232987
        },
        "ad_info": {
            "adcode": 230603,
            "province": "黑龙江省",
            "city": "大庆市",
            "district": "龙凤区"
        }
    },
    {
        "id": "18079733943156523250",
        "title": "卫生间",
        "address": "黑龙江省大庆市萨尔图区东风路15-3号万达广场B2",
        "tel": "",
        "category": "基础设施:公共设施:公共厕所",
        "type": 0,
        "location": {
            "lat": 46.594495,
            "lng": 125.095509
        },
        "ad_info": {
            "adcode": 230602,
            "province": "黑龙江省",
            "city": "大庆市",
            "district": "萨尔图区"
        }
    },
    {
        "id": "16919806288932128710",
        "title": "扎龙自然保护区-公共厕所",
        "address": "黑龙江省大庆市杜尔伯特蒙古族自治县Y028与恩和路交叉口西北方向688米左右",
        "tel": "",
        "category": "基础设施:公共设施:公共厕所",
        "type": 0,
        "location": {
            "lat": 46.885724,
            "lng": 124.429437
        },
        "ad_info": {
            "adcode": 230624,
            "province": "黑龙江省",
            "city": "大庆市",
            "district": "杜尔伯特蒙古族自治县"
        }
    },
    {
        "id": "15193675378209987615",
        "title": "肯德基(东风餐厅)-洗手间",
        "address": "黑龙江省大庆市萨尔图区纬七路与经五街交叉口西北方向37米左右",
        "tel": "",
        "category": "基础设施:公共设施:公共厕所",
        "type": 0,
        "location": {
            "lat": 46.598557,
            "lng": 125.111679
        },
        "ad_info": {
            "adcode": 230602,
            "province": "黑龙江省",
            "city": "大庆市",
            "district": "萨尔图区"
        }
    },
    {
        "id": "1175311759750118618",
        "title": "肯德基(湖滨餐厅)-洗手间",
        "address": "黑龙江省大庆市龙凤区发展路与湖滨大街交叉口正北方向84米左右",
        "tel": "",
        "category": "基础设施:公共设施:公共厕所",
        "type": 0,
        "location": {
            "lat": 46.588311,
            "lng": 125.141712
        },
        "ad_info": {
            "adcode": 230603,
            "province": "黑龙江省",
            "city": "大庆市",
            "district": "龙凤区"
        }
    },
    {
        "id": "14473909016251225396",
        "title": "大同服务区公共厕所",
        "address": "黑龙江省大庆市大同区G45大广高速附近",
        "tel": "",
        "category": "基础设施:公共设施:公共厕所",
        "type": 0,
        "location": {
            "lat": 46.048139,
            "lng": 124.927959
        },
        "ad_info": {
            "adcode": 230606,
            "province": "黑龙江省",
            "city": "大庆市",
            "district": "大同区"
        }
    },
    {
        "id": "3626288320356630919",
        "title": "无障碍洗手间(万达广场)",
        "address": "黑龙江省大庆市萨尔图区东风路15-3号万达广场F2",
        "tel": "",
        "category": "基础设施:公共设施:公共厕所",
        "type": 0,
        "location": {
            "lat": 46.594912,
            "lng": 125.093805
        },
        "ad_info": {
            "adcode": 230602,
            "province": "黑龙江省",
            "city": "大庆市",
            "district": "萨尔图区"
        }
    },
    {
        "id": "1577934623578161371",
        "title": "男洗手间(万达广场大庆萨尔图店)",
        "address": "黑龙江省大庆市萨尔图区东风路15号万达广场(大庆萨尔图店)3F层",
        "tel": "",
        "category": "基础设施:公共设施:公共厕所",
        "type": 0,
        "location": {
            "lat": 46.594922,
            "lng": 125.093764
        },
        "ad_info": {
            "adcode": 230602,
            "province": "黑龙江省",
            "city": "大庆市",
            "district": "萨尔图区"
        }
    },
    {
        "id": "5313170409793879850",
        "title": "男洗手间(万达广场大庆萨尔图店)",
        "address": "黑龙江省大庆市萨尔图区东风路15号万达广场(大庆萨尔图店)2F层",
        "tel": "",
        "category": "基础设施:公共设施:公共厕所",
        "type": 0,
        "location": {
            "lat": 46.594935,
            "lng": 125.09378
        },
        "ad_info": {
            "adcode": 230602,
            "province": "黑龙江省",
            "city": "大庆市",
            "district": "萨尔图区"
        }
    },
    {
        "id": "11234780670829623224",
        "title": "红湖服务区公共厕所",
        "address": "黑龙江省大庆市龙凤区绥满高速公路红湖服务区",
        "tel": "",
        "category": "基础设施:公共设施:公共厕所",
        "type": 0,
        "location": {
            "lat": 46.601424,
            "lng": 125.233151
        },
        "ad_info": {
            "adcode": 230603,
            "province": "黑龙江省",
            "city": "大庆市",
            "district": "龙凤区"
        }
    },
    {
        "id": "84037806277187271",
        "title": "无障碍洗手间(毅腾商都购物中心)",
        "address": "黑龙江省大庆市萨尔图区东风街道东风新村经六街24号毅腾商都购物中心F1",
        "tel": "",
        "category": "基础设施:公共设施:公共厕所",
        "type": 0,
        "location": {
            "lat": 46.59436,
            "lng": 125.118471
        },
        "ad_info": {
            "adcode": 230602,
            "province": "黑龙江省",
            "city": "大庆市",
            "district": "萨尔图区"
        }
    },
    {
        "id": "13799285332286694455",
        "title": "男卫生间",
        "address": "黑龙江省大庆市让胡路区昆仑大街与西宾路交会处昆仑唐人中心C-F2",
        "tel": "",
        "category": "基础设施:公共设施:男洗手间",
        "type": 0,
        "location": {
            "lat": 46.634148,
            "lng": 124.884644
        },
        "ad_info": {
            "adcode": 230604,
            "province": "黑龙江省",
            "city": "大庆市",
            "district": "让胡路区"
        }
    },
    {
        "id": "883360796318485445",
        "title": "男卫生间",
        "address": "黑龙江省大庆市让胡路区昆仑大街与西宾路交会处昆仑唐人中心C-F2",
        "tel": "",
        "category": "基础设施:公共设施:男洗手间",
        "type": 0,
        "location": {
            "lat": 46.635535,
            "lng": 124.882876
        },
        "ad_info": {
            "adcode": 230604,
            "province": "黑龙江省",
            "city": "大庆市",
            "district": "让胡路区"
        }
    },
    {
        "id": "7416639230977216800",
        "title": "女卫生间",
        "address": "黑龙江省大庆市让胡路区昆仑大街与西宾路交会处昆仑唐人中心C-F1",
        "tel": "",
        "category": "基础设施:公共设施:女洗手间",
        "type": 0,
        "location": {
            "lat": 46.634193,
            "lng": 124.884704
        },
        "ad_info": {
            "adcode": 230604,
            "province": "黑龙江省",
            "city": "大庆市",
            "district": "让胡路区"
        }
    },
    {
        "id": "3235918766546616816",
        "title": "男洗手间(毅腾商都购物中心)",
        "address": "黑龙江省大庆市萨尔图区东风街道东风新村经六街24号毅腾商都购物中心F4",
        "tel": "",
        "category": "基础设施:公共设施:男洗手间",
        "type": 0,
        "location": {
            "lat": 46.59448,
            "lng": 125.118318
        },
        "ad_info": {
            "adcode": 230602,
            "province": "黑龙江省",
            "city": "大庆市",
            "district": "萨尔图区"
        }
    },
    {
        "id": "45516157303212487",
        "title": "男卫生间",
        "address": "黑龙江省大庆市让胡路区昆仑大街与西宾路交会处昆仑唐人中心C-F2",
        "tel": "",
        "category": "基础设施:公共设施:男洗手间",
        "type": 0,
        "location": {
            "lat": 46.631368,
            "lng": 124.885428
        },
        "ad_info": {
            "adcode": 230604,
            "province": "黑龙江省",
            "city": "大庆市",
            "district": "让胡路区"
        }
    },
    {
        "id": "16460519638518850182",
        "title": "无障碍卫生间",
        "address": "黑龙江省大庆市让胡路区昆仑大街与西宾路交会处昆仑唐人中心C-F2",
        "tel": "",
        "category": "基础设施:公共设施:无障碍洗手间",
        "type": 0,
        "location": {
            "lat": 46.635528,
            "lng": 124.881439
        },
        "ad_info": {
            "adcode": 230604,
            "province": "黑龙江省",
            "city": "大庆市",
            "district": "让胡路区"
        }
    },
    {
        "id": "1898451051365399717",
        "title": "男卫生间",
        "address": "黑龙江省大庆市让胡路区昆仑大街与西宾路交会处昆仑唐人中心C-F3",
        "tel": "",
        "category": "基础设施:公共设施:男洗手间",
        "type": 0,
        "location": {
            "lat": 46.635504,
            "lng": 124.881466
        },
        "ad_info": {
            "adcode": 230604,
            "province": "黑龙江省",
            "city": "大庆市",
            "district": "让胡路区"
        }
    },
    {
        "id": "10126420183934224631",
        "title": "女卫生间",
        "address": "黑龙江省大庆市让胡路区昆仑大街与西宾路交会处昆仑唐人中心C-F2",
        "tel": "",
        "category": "基础设施:公共设施:女洗手间",
        "type": 0,
        "location": {
            "lat": 46.63418,
            "lng": 124.884703
        },
        "ad_info": {
            "adcode": 230604,
            "province": "黑龙江省",
            "city": "大庆市",
            "district": "让胡路区"
        }
    },
    {
        "id": "15512229030551314771",
        "title": "女卫生间",
        "address": "黑龙江省大庆市让胡路区昆仑大街与西宾路交会处昆仑唐人中心C-F1",
        "tel": "",
        "category": "基础设施:公共设施:女洗手间",
        "type": 0,
        "location": {
            "lat": 46.635531,
            "lng": 124.882917
        },
        "ad_info": {
            "adcode": 230604,
            "province": "黑龙江省",
            "city": "大庆市",
            "district": "让胡路区"
        }
    },
    {
        "id": "1028047298892680900",
        "title": "男卫生间",
        "address": "黑龙江省大庆市让胡路区昆仑大街与西宾路交会处昆仑唐人中心C-F2",
        "tel": "",
        "category": "基础设施:公共设施:男洗手间",
        "type": 0,
        "location": {
            "lat": 46.631556,
            "lng": 124.884622
        },
        "ad_info": {
            "adcode": 230604,
            "province": "黑龙江省",
            "city": "大庆市",
            "district": "让胡路区"
        }
    },
    {
        "id": "2127020291670461290",
        "title": "公共厕所",
        "address": "黑龙江省大庆市肇源县利民路与南阳大街交叉口东北方向55米左右",
        "tel": "",
        "category": "基础设施:公共设施:公共厕所",
        "type": 0,
        "location": {
            "lat": 45.513073,
            "lng": 125.090893
        },
        "ad_info": {
            "adcode": 230622,
            "province": "黑龙江省",
            "city": "大庆市",
            "district": "肇源县"
        }
    },
    {
        "id": "16559662712787704024",
        "title": "公共厕所",
        "address": "黑龙江省大庆市萨尔图区建行街与纬二路交叉口正东方向167米左右",
        "tel": "",
        "category": "基础设施:公共设施:公共厕所",
        "type": 0,
        "location": {
            "lat": 46.588277,
            "lng": 125.11753
        },
        "ad_info": {
            "adcode": 230602,
            "province": "黑龙江省",
            "city": "大庆市",
            "district": "萨尔图区"
        }
    },
    {
        "id": "3869726940208280873",
        "title": "公共厕所",
        "address": "黑龙江省大庆市肇州县东环南路与奋斗街交叉口正东方向93米左右",
        "tel": "",
        "category": "基础设施:公共设施:公共厕所",
        "type": 0,
        "location": {
            "lat": 45.703636,
            "lng": 125.287291
        },
        "ad_info": {
            "adcode": 230621,
            "province": "黑龙江省",
            "city": "大庆市",
            "district": "肇州县"
        }
    },
    {
        "id": "10079826945172648629",
        "title": "公共厕所",
        "address": "黑龙江省大庆市萨尔图区纬九路与经四街交叉口东北方向118米左右",
        "tel": "",
        "category": "基础设施:公共设施:公共厕所",
        "type": 0,
        "location": {
            "lat": 46.602988,
            "lng": 125.109836
        },
        "ad_info": {
            "adcode": 230602,
            "province": "黑龙江省",
            "city": "大庆市",
            "district": "萨尔图区"
        }
    },
    {
        "id": "5737861767614197662",
        "title": "公共厕所",
        "address": "黑龙江省大庆市萨尔图区义耕时代广场步行街与纬六路交叉口西北方向54米左右",
        "tel": "",
        "category": "基础设施:公共设施:公共厕所",
        "type": 0,
        "location": {
            "lat": 46.596084,
            "lng": 125.111719
        },
        "ad_info": {
            "adcode": 230602,
            "province": "黑龙江省",
            "city": "大庆市",
            "district": "萨尔图区"
        }
    },
    {
        "id": "2672335490854288486",
        "title": "公共厕所",
        "address": "黑龙江省大庆市肇源县建镇路与育才路交叉口正西方向61米左右",
        "tel": "",
        "category": "基础设施:公共设施:公共厕所",
        "type": 0,
        "location": {
            "lat": 45.520315,
            "lng": 125.07894
        },
        "ad_info": {
            "adcode": 230622,
            "province": "黑龙江省",
            "city": "大庆市",
            "district": "肇源县"
        }
    },
    {
        "id": "14865874444204269020",
        "title": "公共厕所",
        "address": "黑龙江省大庆市红岗区八百垧南四街与八百垧南路交叉口西北方向25米左右",
        "tel": "",
        "category": "基础设施:公共设施:公共厕所",
        "type": 0,
        "location": {
            "lat": 46.44841,
            "lng": 124.843126
        },
        "ad_info": {
            "adcode": 230605,
            "province": "黑龙江省",
            "city": "大庆市",
            "district": "红岗区"
        }
    },
    {
        "id": "17334161008092658942",
        "title": "公共厕所",
        "address": "黑龙江省大庆市龙凤区兴盛路与化工路交叉口正西方向402米左右",
        "tel": "",
        "category": "基础设施:公共设施:公共厕所",
        "type": 0,
        "location": {
            "lat": 46.435089,
            "lng": 125.203818
        },
        "ad_info": {
            "adcode": 230603,
            "province": "黑龙江省",
            "city": "大庆市",
            "district": "龙凤区"
        }
    },
    {
        "id": "1606513379198941566",
        "title": "公共厕所",
        "address": "黑龙江省大庆市龙凤区卧兴路与G10绥满高速入口交叉口西北150米",
        "tel": "",
        "category": "基础设施:公共设施:公共厕所",
        "type": 0,
        "location": {
            "lat": 46.507022,
            "lng": 125.242383
        },
        "ad_info": {
            "adcode": 230603,
            "province": "黑龙江省",
            "city": "大庆市",
            "district": "龙凤区"
        }
    },
    {
        "id": "1226127940326963819",
        "title": "公共厕所",
        "address": "黑龙江省大庆市龙凤区滨洲中街与滨湖北路交叉口正西方向42米左右",
        "tel": "",
        "category": "基础设施:公共设施:公共厕所",
        "type": 0,
        "location": {
            "lat": 46.623794,
            "lng": 125.148962
        },
        "ad_info": {
            "adcode": 230603,
            "province": "黑龙江省",
            "city": "大庆市",
            "district": "龙凤区"
        }
    },
    {
        "id": "11987677195531008576",
        "title": "公共厕所",
        "address": "黑龙江省大庆市肇源县西海大街拉菲公馆",
        "tel": "",
        "category": "基础设施:公共设施:公共厕所",
        "type": 0,
        "location": {
            "lat": 45.511073,
            "lng": 125.069858
        },
        "ad_info": {
            "adcode": 230622,
            "province": "黑龙江省",
            "city": "大庆市",
            "district": "肇源县"
        }
    },
    {
        "id": "7450849741995255327",
        "title": "公共厕所",
        "address": "黑龙江省大庆市肇州县Y014与Y076交叉口东北方向321米左右",
        "tel": "",
        "category": "基础设施:公共设施:公共厕所",
        "type": 0,
        "location": {
            "lat": 45.778704,
            "lng": 125.420071
        },
        "ad_info": {
            "adcode": 230621,
            "province": "黑龙江省",
            "city": "大庆市",
            "district": "肇州县"
        }
    },
    {
        "id": "15619983750392387272",
        "title": "公共厕所",
        "address": "黑龙江省大庆市肇源县嫩江大街与政府大街交叉口正西方向381米左右",
        "tel": "",
        "category": "基础设施:公共设施:公共厕所",
        "type": 0,
        "location": {
            "lat": 45.518362,
            "lng": 125.065616
        },
        "ad_info": {
            "adcode": 230622,
            "province": "黑龙江省",
            "city": "大庆市",
            "district": "肇源县"
        }
    },
    {
        "id": "8276670535053533050",
        "title": "公共厕所",
        "address": "黑龙江省大庆市让胡路区阳光嘉城3期F区西侧430米",
        "tel": "",
        "category": "基础设施:公共设施:公共厕所",
        "type": 0,
        "location": {
            "lat": 46.63467,
            "lng": 124.84782
        },
        "ad_info": {
            "adcode": 230604,
            "province": "黑龙江省",
            "city": "大庆市",
            "district": "让胡路区"
        }
    },
    {
        "id": "16961508942659087218",
        "title": "公共厕所",
        "address": "黑龙江省大庆市杜尔伯特蒙古族自治县奶源路与庆阳街交叉口西南方向137米左右",
        "tel": "",
        "category": "基础设施:公共设施:公共厕所",
        "type": 0,
        "location": {
            "lat": 46.871381,
            "lng": 124.447598
        },
        "ad_info": {
            "adcode": 230624,
            "province": "黑龙江省",
            "city": "大庆市",
            "district": "杜尔伯特蒙古族自治县"
        }
    },
    {
        "id": "8524115315738685151",
        "title": "卫生间",
        "address": "黑龙江省大庆市萨尔图区东风路15-3号万达广场F3",
        "tel": "",
        "category": "基础设施:公共设施:公共厕所",
        "type": 0,
        "location": {
            "lat": 46.594699,
            "lng": 125.094474
        },
        "ad_info": {
            "adcode": 230602,
            "province": "黑龙江省",
            "city": "大庆市",
            "district": "萨尔图区"
        }
    },
    {
        "id": "7962602341706374381",
        "title": "公共厕所",
        "address": "黑龙江省大庆市萨尔图区纬二路与纬五路交叉口正北方向54米左右",
        "tel": "",
        "category": "基础设施:公共设施:公共厕所",
        "type": 0,
        "location": {
            "lat": 46.595641,
            "lng": 125.102792
        },
        "ad_info": {
            "adcode": 230602,
            "province": "黑龙江省",
            "city": "大庆市",
            "district": "萨尔图区"
        }
    },
    {
        "id": "15648374642167445423",
        "title": "公共厕所",
        "address": "黑龙江省大庆市红岗区杏五井中街与萨大中路交叉口正西方向565米左右",
        "tel": "",
        "category": "基础设施:公共设施:公共厕所",
        "type": 0,
        "location": {
            "lat": 46.453871,
            "lng": 124.897054
        },
        "ad_info": {
            "adcode": 230605,
            "province": "黑龙江省",
            "city": "大庆市",
            "district": "红岗区"
        }
    },
    {
        "id": "9329031256427620292",
        "title": "公共厕所",
        "address": "黑龙江省大庆市肇源县兴源路与新风路交叉口正北方向94米左右",
        "tel": "",
        "category": "基础设施:公共设施:公共厕所",
        "type": 0,
        "location": {
            "lat": 45.520443,
            "lng": 125.080983
        },
        "ad_info": {
            "adcode": 230622,
            "province": "黑龙江省",
            "city": "大庆市",
            "district": "肇源县"
        }
    },
    {
        "id": "924654353454275785",
        "title": "女卫生间",
        "address": "黑龙江省大庆市让胡路区昆仑大街与西宾路交会处昆仑唐人中心C-F2",
        "tel": "",
        "category": "基础设施:公共设施:女洗手间",
        "type": 0,
        "location": {
            "lat": 46.631651,
            "lng": 124.884608
        },
        "ad_info": {
            "adcode": 230604,
            "province": "黑龙江省",
            "city": "大庆市",
            "district": "让胡路区"
        }
    },
    {
        "id": "16118931747915740148",
        "title": "扎龙服务区公共厕所",
        "address": "黑龙江省大庆市林甸县G10绥满高速南50米",
        "tel": "",
        "category": "基础设施:公共设施:公共厕所",
        "type": 0,
        "location": {
            "lat": 47.303744,
            "lng": 124.470168
        },
        "ad_info": {
            "adcode": 230623,
            "province": "黑龙江省",
            "city": "大庆市",
            "district": "林甸县"
        }
    },
    {
        "id": "15843505720091949913",
        "title": "公共厕所",
        "address": "黑龙江省大庆市杜尔伯特蒙古族自治县乌兰图雅街与哈萨尔路交叉口西北方向73米左右",
        "tel": "",
        "category": "基础设施:公共设施:公共厕所",
        "type": 0,
        "location": {
            "lat": 46.867553,
            "lng": 124.448481
        },
        "ad_info": {
            "adcode": 230624,
            "province": "黑龙江省",
            "city": "大庆市",
            "district": "杜尔伯特蒙古族自治县"
        }
    },
    {
        "id": "3375760397771787072",
        "title": "公共厕所",
        "address": "黑龙江省大庆市龙凤区东干桥与大广高速交叉口正北方向268米左右",
        "tel": "",
        "category": "基础设施:公共设施:公共厕所",
        "type": 0,
        "location": {
            "lat": 46.545304,
            "lng": 125.060079
        },
        "ad_info": {
            "adcode": 230603,
            "province": "黑龙江省",
            "city": "大庆市",
            "district": "龙凤区"
        }
    },
    {
        "id": "10528029623148437752",
        "title": "公共厕所",
        "address": "黑龙江省大庆市肇州县兴工路与奋斗街交叉口正南方向265米左右",
        "tel": "",
        "category": "基础设施:公共设施:公共厕所",
        "type": 0,
        "location": {
            "lat": 45.702148,
            "lng": 125.292585
        },
        "ad_info": {
            "adcode": 230621,
            "province": "黑龙江省",
            "city": "大庆市",
            "district": "肇州县"
        }
    },
    {
        "id": "17132874247479877498",
        "title": "公共厕所",
        "address": "黑龙江省大庆市让胡路区华峻路与新国路交叉口西南方向25米左右",
        "tel": "",
        "category": "基础设施:公共设施:公共厕所",
        "type": 0,
        "location": {
            "lat": 46.605658,
            "lng": 124.89781
        },
        "ad_info": {
            "adcode": 230604,
            "province": "黑龙江省",
            "city": "大庆市",
            "district": "让胡路区"
        }
    },
    {
        "id": "10868544781681563720",
        "title": "男卫生间",
        "address": "黑龙江省大庆市让胡路区昆仑大街与西宾路交会处昆仑唐人中心C-F4",
        "tel": "",
        "category": "基础设施:公共设施:男洗手间",
        "type": 0,
        "location": {
            "lat": 46.635824,
            "lng": 124.881526
        },
        "ad_info": {
            "adcode": 230604,
            "province": "黑龙江省",
            "city": "大庆市",
            "district": "让胡路区"
        }
    },
    {
        "id": "9254860319036332297",
        "title": "无障碍洗手间(大商集团麦凯乐)",
        "address": "黑龙江省大庆市让胡路区昆仑大街2号大商集团麦凯乐F5层",
        "tel": "",
        "category": "基础设施:公共设施:公共厕所",
        "type": 0,
        "location": {
            "lat": 46.634134,
            "lng": 124.884438
        },
        "ad_info": {
            "adcode": 230604,
            "province": "黑龙江省",
            "city": "大庆市",
            "district": "让胡路区"
        }
    },
    {
        "id": "11423738215226726643",
        "title": "公共厕所",
        "address": "黑龙江省大庆市肇源县吉泰路与政府大街交叉口正西方向93米左右",
        "tel": "",
        "category": "基础设施:公共设施:公共厕所",
        "type": 0,
        "location": {
            "lat": 45.711229,
            "lng": 124.410033
        },
        "ad_info": {
            "adcode": 230622,
            "province": "黑龙江省",
            "city": "大庆市",
            "district": "肇源县"
        }
    },
    {
        "id": "13735531474610078675",
        "title": "公共厕所",
        "address": "黑龙江省大庆市肇州县东环北路与德明街交叉口正北方向77米左右",
        "tel": "",
        "category": "基础设施:公共设施:公共厕所",
        "type": 0,
        "location": {
            "lat": 45.712306,
            "lng": 125.284493
        },
        "ad_info": {
            "adcode": 230621,
            "province": "黑龙江省",
            "city": "大庆市",
            "district": "肇州县"
        }
    },
    {
        "id": "9921447111681493294",
        "title": "女卫生间",
        "address": "黑龙江省大庆市让胡路区昆仑大街与西宾路交会处昆仑唐人中心C-F4",
        "tel": "",
        "category": "基础设施:公共设施:女洗手间",
        "type": 0,
        "location": {
            "lat": 46.635805,
            "lng": 124.881777
        },
        "ad_info": {
            "adcode": 230604,
            "province": "黑龙江省",
            "city": "大庆市",
            "district": "让胡路区"
        }
    },
    {
        "id": "11752061200066533976",
        "title": "男卫生间",
        "address": "黑龙江省大庆市让胡路区昆仑大街与西宾路交会处昆仑唐人中心C-F3",
        "tel": "",
        "category": "基础设施:公共设施:男洗手间",
        "type": 0,
        "location": {
            "lat": 46.634848,
            "lng": 124.884657
        },
        "ad_info": {
            "adcode": 230604,
            "province": "黑龙江省",
            "city": "大庆市",
            "district": "让胡路区"
        }
    },
    {
        "id": "17117863737225604567",
        "title": "公共厕所",
        "address": "黑龙江省大庆市萨尔图区中八路与会战大街交叉口正南方向109米左右",
        "tel": "",
        "category": "基础设施:公共设施:公共厕所",
        "type": 0,
        "location": {
            "lat": 46.599641,
            "lng": 125.018101
        },
        "ad_info": {
            "adcode": 230602,
            "province": "黑龙江省",
            "city": "大庆市",
            "district": "萨尔图区"
        }
    },
    {
        "id": "13419310899550798716",
        "title": "公共厕所",
        "address": "黑龙江省大庆市林甸县Y024与东庆路交叉口东南方向603米左右",
        "tel": "",
        "category": "基础设施:公共设施:公共厕所",
        "type": 0,
        "location": {
            "lat": 47.23621,
            "lng": 124.728792
        },
        "ad_info": {
            "adcode": 230623,
            "province": "黑龙江省",
            "city": "大庆市",
            "district": "林甸县"
        }
    },
    {
        "id": "14111623737302550396",
        "title": "公共卫生间",
        "address": "黑龙江省大庆市萨尔图区纬八路与经四街交叉口东北方向33米左右",
        "tel": "",
        "category": "基础设施:公共设施:公共厕所",
        "type": 0,
        "location": {
            "lat": 46.600764,
            "lng": 125.109201
        },
        "ad_info": {
            "adcode": 230602,
            "province": "黑龙江省",
            "city": "大庆市",
            "district": "萨尔图区"
        }
    },
    {
        "id": "17583949910179496282",
        "title": "公共厕所",
        "address": "黑龙江省大庆市让胡路区华兴路与开拓街交叉口正北方向195米左右",
        "tel": "",
        "category": "基础设施:公共设施:公共厕所",
        "type": 0,
        "location": {
            "lat": 46.596292,
            "lng": 124.903861
        },
        "ad_info": {
            "adcode": 230604,
            "province": "黑龙江省",
            "city": "大庆市",
            "district": "让胡路区"
        }
    },
    {
        "id": "4540483763094312806",
        "title": "女卫生间",
        "address": "黑龙江省大庆市让胡路区昆仑大街与西宾路交会处昆仑唐人中心C-F3",
        "tel": "",
        "category": "基础设施:公共设施:女洗手间",
        "type": 0,
        "location": {
            "lat": 46.634859,
            "lng": 124.884722
        },
        "ad_info": {
            "adcode": 230604,
            "province": "黑龙江省",
            "city": "大庆市",
            "district": "让胡路区"
        }
    },
    {
        "id": "6943862614585926441",
        "title": "无障碍卫生间",
        "address": "黑龙江省大庆市让胡路区昆仑大街与西宾路交会处昆仑唐人中心C-F3",
        "tel": "",
        "category": "基础设施:公共设施:无障碍洗手间",
        "type": 0,
        "location": {
            "lat": 46.635523,
            "lng": 124.881444
        },
        "ad_info": {
            "adcode": 230604,
            "province": "黑龙江省",
            "city": "大庆市",
            "district": "让胡路区"
        }
    },
    {
        "id": "14918771502407498588",
        "title": "公共厕所",
        "address": "黑龙江省大庆市肇州县S311与丰州桥交叉口东北方向672米左右",
        "tel": "",
        "category": "基础设施:公共设施:公共厕所",
        "type": 0,
        "location": {
            "lat": 45.749305,
            "lng": 125.37022
        },
        "ad_info": {
            "adcode": 230621,
            "province": "黑龙江省",
            "city": "大庆市",
            "district": "肇州县"
        }
    },
    {
        "id": "6386732111134936806",
        "title": "公共厕所",
        "address": "黑龙江省大庆市肇源县富民东巷与政府大街交叉口东北方向47米左右",
        "tel": "",
        "category": "基础设施:公共设施:公共厕所",
        "type": 0,
        "location": {
            "lat": 45.714175,
            "lng": 124.396724
        },
        "ad_info": {
            "adcode": 230622,
            "province": "黑龙江省",
            "city": "大庆市",
            "district": "肇源县"
        }
    },
    {
        "id": "9828825364371610047",
        "title": "公共厕所",
        "address": "黑龙江省大庆市肇州县中亚路与发展街交叉口正东方向125米左右",
        "tel": "",
        "category": "基础设施:公共设施:公共厕所",
        "type": 0,
        "location": {
            "lat": 45.702209,
            "lng": 125.272152
        },
        "ad_info": {
            "adcode": 230621,
            "province": "黑龙江省",
            "city": "大庆市",
            "district": "肇州县"
        }
    },
    {
        "id": "2563983344637481109",
        "title": "公共厕所",
        "address": "黑龙江省大庆市萨尔图区经二街大庆市路灯管理所",
        "tel": "",
        "category": "基础设施:公共设施:公共厕所",
        "type": 0,
        "location": {
            "lat": 46.60077,
            "lng": 125.09967
        },
        "ad_info": {
            "adcode": 230602,
            "province": "黑龙江省",
            "city": "大庆市",
            "district": "萨尔图区"
        }
    },
    {
        "id": "1374753107234398887",
        "title": "公共厕所",
        "address": "黑龙江省大庆市林甸县G301与庆园路交叉口正南方向1067米左右",
        "tel": "",
        "category": "基础设施:公共设施:公共厕所",
        "type": 0,
        "location": {
            "lat": 46.951008,
            "lng": 124.919702
        },
        "ad_info": {
            "adcode": 230623,
            "province": "黑龙江省",
            "city": "大庆市",
            "district": "林甸县"
        }
    },
    {
        "id": "7691303814850944020",
        "title": "女卫生间",
        "address": "黑龙江省大庆市让胡路区昆仑大街与西宾路交会处昆仑唐人中心C-F1",
        "tel": "",
        "category": "基础设施:公共设施:女洗手间",
        "type": 0,
        "location": {
            "lat": 46.634846,
            "lng": 124.884766
        },
        "ad_info": {
            "adcode": 230604,
            "province": "黑龙江省",
            "city": "大庆市",
            "district": "让胡路区"
        }
    },
    {
        "id": "11481901572073784400",
        "title": "公共厕所",
        "address": "黑龙江省大庆市肇源县西环大街凤桐佳苑",
        "tel": "",
        "category": "基础设施:公共设施:公共厕所",
        "type": 0,
        "location": {
            "lat": 45.521153,
            "lng": 125.073599
        },
        "ad_info": {
            "adcode": 230622,
            "province": "黑龙江省",
            "city": "大庆市",
            "district": "肇源县"
        }
    },
    {
        "id": "553440939219244697",
        "title": "公共厕所",
        "address": "黑龙江省大庆市肇州县国志街与油建北路交叉口西北方向145米左右",
        "tel": "",
        "category": "基础设施:公共设施:公共厕所",
        "type": 0,
        "location": {
            "lat": 45.71452,
            "lng": 125.273345
        },
        "ad_info": {
            "adcode": 230621,
            "province": "黑龙江省",
            "city": "大庆市",
            "district": "肇州县"
        }
    },
    {
        "id": "8960118268826163687",
        "title": "公共厕所",
        "address": "黑龙江省大庆市肇源县东成燃气CNG加气站南侧100米",
        "tel": "",
        "category": "基础设施:公共设施:公共厕所",
        "type": 0,
        "location": {
            "lat": 45.515246,
            "lng": 125.095106
        },
        "ad_info": {
            "adcode": 230622,
            "province": "黑龙江省",
            "city": "大庆市",
            "district": "肇源县"
        }
    },
    {
        "id": "7874431402415537456",
        "title": "石油广场公共厕所",
        "address": "黑龙江省大庆市让胡路区天湖北路石油广场(北侧)",
        "tel": "",
        "category": "基础设施:公共设施:公共厕所",
        "type": 0,
        "location": {
            "lat": 46.575418,
            "lng": 124.895143
        },
        "ad_info": {
            "adcode": 230604,
            "province": "黑龙江省",
            "city": "大庆市",
            "district": "让胡路区"
        }
    },
    {
        "id": "13179871963323318124",
        "title": "公共厕所",
        "address": "黑龙江省大庆市让胡路区曙光街工程建设公司路桥公司",
        "tel": "",
        "category": "基础设施:公共设施:公共厕所",
        "type": 0,
        "location": {
            "lat": 46.624335,
            "lng": 124.901806
        },
        "ad_info": {
            "adcode": 230604,
            "province": "黑龙江省",
            "city": "大庆市",
            "district": "让胡路区"
        }
    },
    {
        "id": "7426903548582790919",
        "title": "公共厕所",
        "address": "黑龙江省大庆市肇州县G203",
        "tel": "",
        "category": "基础设施:公共设施:公共厕所",
        "type": 0,
        "location": {
            "lat": 46.059057,
            "lng": 125.307338
        },
        "ad_info": {
            "adcode": 230621,
            "province": "黑龙江省",
            "city": "大庆市",
            "district": "肇州县"
        }
    },
    {
        "id": "8029546904455326046",
        "title": "公共厕所",
        "address": "黑龙江省大庆市让胡路区科学路与西芳街交叉口东北方向73米左右",
        "tel": "",
        "category": "基础设施:公共设施:公共厕所",
        "type": 0,
        "location": {
            "lat": 46.649997,
            "lng": 124.861477
        },
        "ad_info": {
            "adcode": 230604,
            "province": "黑龙江省",
            "city": "大庆市",
            "district": "让胡路区"
        }
    },
    {
        "id": "6349274726610202340",
        "title": "公共厕所",
        "address": "黑龙江省大庆市肇源县东环大街与四方山大街交叉口正北方向131米左右",
        "tel": "",
        "category": "基础设施:公共设施:公共厕所",
        "type": 0,
        "location": {
            "lat": 45.522689,
            "lng": 125.090682
        },
        "ad_info": {
            "adcode": 230622,
            "province": "黑龙江省",
            "city": "大庆市",
            "district": "肇源县"
        }
    },
    {
        "id": "11638312587703155431",
        "title": "公共厕所",
        "address": "黑龙江省大庆市萨尔图区会战大街22号",
        "tel": "",
        "category": "基础设施:公共设施:公共厕所",
        "type": 0,
        "location": {
            "lat": 46.60144,
            "lng": 125.015981
        },
        "ad_info": {
            "adcode": 230602,
            "province": "黑龙江省",
            "city": "大庆市",
            "district": "萨尔图区"
        }
    },
    {
        "id": "15815671920268530021",
        "title": "女卫生间",
        "address": "黑龙江省大庆市让胡路区昆仑大街与西宾路交会处昆仑唐人中心C-F3",
        "tel": "",
        "category": "基础设施:公共设施:女洗手间",
        "type": 0,
        "location": {
            "lat": 46.635507,
            "lng": 124.881402
        },
        "ad_info": {
            "adcode": 230604,
            "province": "黑龙江省",
            "city": "大庆市",
            "district": "让胡路区"
        }
    },
    {
        "id": "17133200880019572261",
        "title": "公共卫生间",
        "address": "黑龙江省大庆市萨尔图区中九路与萨尔图大街交叉口西北方向63米左右",
        "tel": "",
        "category": "基础设施:公共设施:公共厕所",
        "type": 0,
        "location": {
            "lat": 46.596238,
            "lng": 125.011868
        },
        "ad_info": {
            "adcode": 230602,
            "province": "黑龙江省",
            "city": "大庆市",
            "district": "萨尔图区"
        }
    },
    {
        "id": "9662534596745788294",
        "title": "公共厕所",
        "address": "黑龙江省大庆市肇源县财源路与鼎元大道交叉口正东方向111米左右",
        "tel": "",
        "category": "基础设施:公共设施:公共厕所",
        "type": 0,
        "location": {
            "lat": 45.50905,
            "lng": 125.073586
        },
        "ad_info": {
            "adcode": 230622,
            "province": "黑龙江省",
            "city": "大庆市",
            "district": "肇源县"
        }
    },
    {
        "id": "13051921505647206967",
        "title": "女洗手间(毅腾商都购物中心)",
        "address": "黑龙江省大庆市萨尔图区东风街道东风新村经六街24号毅腾商都购物中心F1",
        "tel": "",
        "category": "基础设施:公共设施:女洗手间",
        "type": 0,
        "location": {
            "lat": 46.594309,
            "lng": 125.118484
        },
        "ad_info": {
            "adcode": 230602,
            "province": "黑龙江省",
            "city": "大庆市",
            "district": "萨尔图区"
        }
    },
    {
        "id": "10030146418868005679",
        "title": "女卫生间",
        "address": "黑龙江省大庆市让胡路区昆仑大街与西宾路交会处昆仑唐人中心C-F2",
        "tel": "",
        "category": "基础设施:公共设施:女洗手间",
        "type": 0,
        "location": {
            "lat": 46.634856,
            "lng": 124.884718
        },
        "ad_info": {
            "adcode": 230604,
            "province": "黑龙江省",
            "city": "大庆市",
            "district": "让胡路区"
        }
    },
    {
        "id": "16697884348726659581",
        "title": "公共厕所",
        "address": "黑龙江省大庆市龙凤区惠民路与龙永路交叉口正北方向515米左右",
        "tel": "",
        "category": "基础设施:公共设施:公共厕所",
        "type": 0,
        "location": {
            "lat": 46.543828,
            "lng": 125.112012
        },
        "ad_info": {
            "adcode": 230603,
            "province": "黑龙江省",
            "city": "大庆市",
            "district": "龙凤区"
        }
    },
    {
        "id": "15024820207163085266",
        "title": "男洗手间(大商集团麦凯乐)",
        "address": "黑龙江省大庆市让胡路区昆仑大街2号大商集团麦凯乐F2层",
        "tel": "",
        "category": "基础设施:公共设施:公共厕所",
        "type": 0,
        "location": {
            "lat": 46.634733,
            "lng": 124.884415
        },
        "ad_info": {
            "adcode": 230604,
            "province": "黑龙江省",
            "city": "大庆市",
            "district": "让胡路区"
        }
    },
    {
        "id": "6859819711245436429",
        "title": "公共厕所",
        "address": "黑龙江省大庆市肇州县国志街与油建北路交叉口东南方向33米左右",
        "tel": "",
        "category": "基础设施:公共设施:公共厕所",
        "type": 0,
        "location": {
            "lat": 45.713659,
            "lng": 125.275226
        },
        "ad_info": {
            "adcode": 230621,
            "province": "黑龙江省",
            "city": "大庆市",
            "district": "肇州县"
        }
    },
    {
        "id": "9436739983374682018",
        "title": "公共厕所",
        "address": "黑龙江省大庆市龙凤区外环东路与龙华路交叉口东南方向1119米左右",
        "tel": "",
        "category": "基础设施:公共设施:公共厕所",
        "type": 0,
        "location": {
            "lat": 46.514966,
            "lng": 125.145272
        },
        "ad_info": {
            "adcode": 230603,
            "province": "黑龙江省",
            "city": "大庆市",
            "district": "龙凤区"
        }
    },
    {
        "id": "10743259326235037033",
        "title": "公共卫生间",
        "address": "黑龙江省大庆市肇州县东环南路与祝三街交叉口正南方向44米左右",
        "tel": "",
        "category": "基础设施:公共设施:公共厕所",
        "type": 0,
        "location": {
            "lat": 45.704861,
            "lng": 125.285537
        },
        "ad_info": {
            "adcode": 230621,
            "province": "黑龙江省",
            "city": "大庆市",
            "district": "肇州县"
        }
    },
    {
        "id": "2062622246295811105",
        "title": "公共厕所",
        "address": "黑龙江省大庆市大同区同乐街与同北路交叉口东南方向20米左右",
        "tel": "",
        "category": "基础设施:公共设施:公共厕所",
        "type": 0,
        "location": {
            "lat": 46.033667,
            "lng": 124.805438
        },
        "ad_info": {
            "adcode": 230606,
            "province": "黑龙江省",
            "city": "大庆市",
            "district": "大同区"
        }
    },
    {
        "id": "9455117680524305371",
        "title": "公共卫生间",
        "address": "黑龙江省大庆市肇源县南二路与南阳大街交叉口正南方向87米左右",
        "tel": "",
        "category": "基础设施:公共设施:公共厕所",
        "type": 0,
        "location": {
            "lat": 45.511687,
            "lng": 125.093747
        },
        "ad_info": {
            "adcode": 230622,
            "province": "黑龙江省",
            "city": "大庆市",
            "district": "肇源县"
        }
    },
    {
        "id": "7311037899543444692",
        "title": "女洗手间(毅腾商都购物中心)",
        "address": "黑龙江省大庆市萨尔图区东风街道东风新村经六街24号毅腾商都购物中心F3",
        "tel": "",
        "category": "基础设施:公共设施:女洗手间",
        "type": 0,
        "location": {
            "lat": 46.594368,
            "lng": 125.118573
        },
        "ad_info": {
            "adcode": 230602,
            "province": "黑龙江省",
            "city": "大庆市",
            "district": "萨尔图区"
        }
    },
    {
        "id": "14983437076905597260",
        "title": "男洗手间(大庆湖滨超市)",
        "address": "黑龙江省大庆市龙凤区湖滨教师花园大庆湖滨超市F2层",
        "tel": "",
        "category": "基础设施:公共设施:公共厕所",
        "type": 0,
        "location": {
            "lat": 46.624393,
            "lng": 125.156475
        },
        "ad_info": {
            "adcode": 230603,
            "province": "黑龙江省",
            "city": "大庆市",
            "district": "龙凤区"
        }
    },
    {
        "id": "10375187208780185639",
        "title": "公共厕所",
        "address": "黑龙江省大庆市肇源县东环大街与嫩江大街交叉口东北方向31米左右",
        "tel": "",
        "category": "基础设施:公共设施:公共厕所",
        "type": 0,
        "location": {
            "lat": 45.517703,
            "lng": 125.090211
        },
        "ad_info": {
            "adcode": 230622,
            "province": "黑龙江省",
            "city": "大庆市",
            "district": "肇源县"
        }
    },
    {
        "id": "11928143819011524674",
        "title": "公共厕所",
        "address": "黑龙江省大庆市让胡路区新泽路奥林国际公寓-C区",
        "tel": "",
        "category": "基础设施:公共设施:公共厕所",
        "type": 0,
        "location": {
            "lat": 46.600905,
            "lng": 124.918869
        },
        "ad_info": {
            "adcode": 230604,
            "province": "黑龙江省",
            "city": "大庆市",
            "district": "让胡路区"
        }
    },
    {
        "id": "1851923571864896006",
        "title": "卫生间",
        "address": "黑龙江省大庆市萨尔图区东风路15-3号万达广场F3",
        "tel": "",
        "category": "基础设施:公共设施:公共厕所",
        "type": 0,
        "location": {
            "lat": 46.594122,
            "lng": 125.095188
        },
        "ad_info": {
            "adcode": 230602,
            "province": "黑龙江省",
            "city": "大庆市",
            "district": "萨尔图区"
        }
    },
    {
        "id": "3220511972366733886",
        "title": "公共厕所",
        "address": "黑龙江省大庆市肇源县松花江大街肇源县第五中学",
        "tel": "",
        "category": "基础设施:公共设施:公共厕所",
        "type": 0,
        "location": {
            "lat": 45.509267,
            "lng": 125.074081
        },
        "ad_info": {
            "adcode": 230622,
            "province": "黑龙江省",
            "city": "大庆市",
            "district": "肇源县"
        }
    },
    {
        "id": "1626776026581094535",
        "title": "公共厕所",
        "address": "黑龙江省大庆市萨尔图区中八路与中成路交叉口东北方向73米左右",
        "tel": "",
        "category": "基础设施:公共设施:公共厕所",
        "type": 0,
        "location": {
            "lat": 46.603008,
            "lng": 125.01361
        },
        "ad_info": {
            "adcode": 230602,
            "province": "黑龙江省",
            "city": "大庆市",
            "district": "萨尔图区"
        }
    },
    {
        "id": "13531477468759433197",
        "title": "公共厕所",
        "address": "黑龙江省大庆市龙凤区兴化南街与化友路交叉口西北方向144米左右",
        "tel": "",
        "category": "基础设施:公共设施:公共厕所",
        "type": 0,
        "location": {
            "lat": 46.446139,
            "lng": 125.193643
        },
        "ad_info": {
            "adcode": 230603,
            "province": "黑龙江省",
            "city": "大庆市",
            "district": "龙凤区"
        }
    },
    {
        "id": "5784939338446424241",
        "title": "公共厕所",
        "address": "黑龙江省大庆市大同区同北路与同政街交叉口正南方向91米左右",
        "tel": "",
        "category": "基础设施:公共设施:公共厕所",
        "type": 0,
        "location": {
            "lat": 46.035709,
            "lng": 124.826323
        },
        "ad_info": {
            "adcode": 230606,
            "province": "黑龙江省",
            "city": "大庆市",
            "district": "大同区"
        }
    },
    {
        "id": "1141955907150524662",
        "title": "公共厕所",
        "address": "黑龙江省大庆市萨尔图区万峰路与中兴南街交叉口正东方向572米左右",
        "tel": "",
        "category": "基础设施:公共设施:公共厕所",
        "type": 0,
        "location": {
            "lat": 46.567939,
            "lng": 125.078562
        },
        "ad_info": {
            "adcode": 230602,
            "province": "黑龙江省",
            "city": "大庆市",
            "district": "萨尔图区"
        }
    },
    {
        "id": "16344115286540594399",
        "title": "公共厕所",
        "address": "黑龙江省大庆市肇源县S502与源富路交叉口正西方向73米左右",
        "tel": "",
        "category": "基础设施:公共设施:公共厕所",
        "type": 0,
        "location": {
            "lat": 45.55045,
            "lng": 125.061619
        },
        "ad_info": {
            "adcode": 230622,
            "province": "黑龙江省",
            "city": "大庆市",
            "district": "肇源县"
        }
    },
    {
        "id": "14107575852132756788",
        "title": "男卫生间",
        "address": "黑龙江省大庆市让胡路区昆仑大街与西宾路交会处昆仑唐人中心C-F2",
        "tel": "",
        "category": "基础设施:公共设施:男洗手间",
        "type": 0,
        "location": {
            "lat": 46.635504,
            "lng": 124.881468
        },
        "ad_info": {
            "adcode": 230604,
            "province": "黑龙江省",
            "city": "大庆市",
            "district": "让胡路区"
        }
    },
    {
        "id": "125454625492169691",
        "title": "公共厕所",
        "address": "黑龙江省大庆市杜尔伯特蒙古族自治县哈萨尔路与图布沁街交叉口东南方向133米左右",
        "tel": "",
        "category": "基础设施:公共设施:公共厕所",
        "type": 0,
        "location": {
            "lat": 46.850576,
            "lng": 124.435208
        },
        "ad_info": {
            "adcode": 230624,
            "province": "黑龙江省",
            "city": "大庆市",
            "district": "杜尔伯特蒙古族自治县"
        }
    },
    {
        "id": "15867097430585018051",
        "title": "公共厕所",
        "address": "黑龙江省大庆市肇源县哈安公路与民新路交叉口正南方向69米左右",
        "tel": "",
        "category": "基础设施:公共设施:公共厕所",
        "type": 0,
        "location": {
            "lat": 45.519463,
            "lng": 124.476558
        },
        "ad_info": {
            "adcode": 230622,
            "province": "黑龙江省",
            "city": "大庆市",
            "district": "肇源县"
        }
    },
    {
        "id": "1298887842153954476",
        "title": "女洗手间(万达广场大庆萨尔图店)",
        "address": "黑龙江省大庆市萨尔图区东风路15号万达广场(大庆萨尔图店)5F层",
        "tel": "",
        "category": "基础设施:公共设施:公共厕所",
        "type": 0,
        "location": {
            "lat": 46.594025,
            "lng": 125.095266
        },
        "ad_info": {
            "adcode": 230602,
            "province": "黑龙江省",
            "city": "大庆市",
            "district": "萨尔图区"
        }
    },
    {
        "id": "15575411147008291156",
        "title": "公共厕所",
        "address": "黑龙江省大庆市林甸县S214与红旗桥交叉口东北方向210米左右",
        "tel": "",
        "category": "基础设施:公共设施:公共厕所",
        "type": 0,
        "location": {
            "lat": 47.039672,
            "lng": 124.698137
        },
        "ad_info": {
            "adcode": 230623,
            "province": "黑龙江省",
            "city": "大庆市",
            "district": "林甸县"
        }
    },
    {
        "id": "9436739983374682018",
        "title": "公共厕所",
        "address": "黑龙江省大庆市龙凤区外环东路与龙华路交叉口东南方向1119米左右",
        "tel": "",
        "category": "基础设施:公共设施:公共厕所",
        "type": 0,
        "location": {
            "lat": 46.514966,
            "lng": 125.145272
        },
        "ad_info": {
            "adcode": 230603,
            "province": "黑龙江省",
            "city": "大庆市",
            "district": "龙凤区"
        }
    },
    {
        "id": "10743259326235037033",
        "title": "公共卫生间",
        "address": "黑龙江省大庆市肇州县东环南路与祝三街交叉口正南方向44米左右",
        "tel": "",
        "category": "基础设施:公共设施:公共厕所",
        "type": 0,
        "location": {
            "lat": 45.704861,
            "lng": 125.285537
        },
        "ad_info": {
            "adcode": 230621,
            "province": "黑龙江省",
            "city": "大庆市",
            "district": "肇州县"
        }
    },
    {
        "id": "2062622246295811105",
        "title": "公共厕所",
        "address": "黑龙江省大庆市大同区同乐街与同北路交叉口东南方向20米左右",
        "tel": "",
        "category": "基础设施:公共设施:公共厕所",
        "type": 0,
        "location": {
            "lat": 46.033667,
            "lng": 124.805438
        },
        "ad_info": {
            "adcode": 230606,
            "province": "黑龙江省",
            "city": "大庆市",
            "district": "大同区"
        }
    },
    {
        "id": "9455117680524305371",
        "title": "公共卫生间",
        "address": "黑龙江省大庆市肇源县南二路与南阳大街交叉口正南方向87米左右",
        "tel": "",
        "category": "基础设施:公共设施:公共厕所",
        "type": 0,
        "location": {
            "lat": 45.511687,
            "lng": 125.093747
        },
        "ad_info": {
            "adcode": 230622,
            "province": "黑龙江省",
            "city": "大庆市",
            "district": "肇源县"
        }
    },
    {
        "id": "7311037899543444692",
        "title": "女洗手间(毅腾商都购物中心)",
        "address": "黑龙江省大庆市萨尔图区东风街道东风新村经六街24号毅腾商都购物中心F3",
        "tel": "",
        "category": "基础设施:公共设施:女洗手间",
        "type": 0,
        "location": {
            "lat": 46.594368,
            "lng": 125.118573
        },
        "ad_info": {
            "adcode": 230602,
            "province": "黑龙江省",
            "city": "大庆市",
            "district": "萨尔图区"
        }
    },
    {
        "id": "14983437076905597260",
        "title": "男洗手间(大庆湖滨超市)",
        "address": "黑龙江省大庆市龙凤区湖滨教师花园大庆湖滨超市F2层",
        "tel": "",
        "category": "基础设施:公共设施:公共厕所",
        "type": 0,
        "location": {
            "lat": 46.624393,
            "lng": 125.156475
        },
        "ad_info": {
            "adcode": 230603,
            "province": "黑龙江省",
            "city": "大庆市",
            "district": "龙凤区"
        }
    },
    {
        "id": "10375187208780185639",
        "title": "公共厕所",
        "address": "黑龙江省大庆市肇源县东环大街与嫩江大街交叉口东北方向31米左右",
        "tel": "",
        "category": "基础设施:公共设施:公共厕所",
        "type": 0,
        "location": {
            "lat": 45.517703,
            "lng": 125.090211
        },
        "ad_info": {
            "adcode": 230622,
            "province": "黑龙江省",
            "city": "大庆市",
            "district": "肇源县"
        }
    },
    {
        "id": "11928143819011524674",
        "title": "公共厕所",
        "address": "黑龙江省大庆市让胡路区新泽路奥林国际公寓-C区",
        "tel": "",
        "category": "基础设施:公共设施:公共厕所",
        "type": 0,
        "location": {
            "lat": 46.600905,
            "lng": 124.918869
        },
        "ad_info": {
            "adcode": 230604,
            "province": "黑龙江省",
            "city": "大庆市",
            "district": "让胡路区"
        }
    },
    {
        "id": "1851923571864896006",
        "title": "卫生间",
        "address": "黑龙江省大庆市萨尔图区东风路15-3号万达广场F3",
        "tel": "",
        "category": "基础设施:公共设施:公共厕所",
        "type": 0,
        "location": {
            "lat": 46.594122,
            "lng": 125.095188
        },
        "ad_info": {
            "adcode": 230602,
            "province": "黑龙江省",
            "city": "大庆市",
            "district": "萨尔图区"
        }
    },
    {
        "id": "3220511972366733886",
        "title": "公共厕所",
        "address": "黑龙江省大庆市肇源县松花江大街肇源县第五中学",
        "tel": "",
        "category": "基础设施:公共设施:公共厕所",
        "type": 0,
        "location": {
            "lat": 45.509267,
            "lng": 125.074081
        },
        "ad_info": {
            "adcode": 230622,
            "province": "黑龙江省",
            "city": "大庆市",
            "district": "肇源县"
        }
    },
    {
        "id": "1626776026581094535",
        "title": "公共厕所",
        "address": "黑龙江省大庆市萨尔图区中八路与中成路交叉口东北方向73米左右",
        "tel": "",
        "category": "基础设施:公共设施:公共厕所",
        "type": 0,
        "location": {
            "lat": 46.603008,
            "lng": 125.01361
        },
        "ad_info": {
            "adcode": 230602,
            "province": "黑龙江省",
            "city": "大庆市",
            "district": "萨尔图区"
        }
    },
    {
        "id": "13531477468759433197",
        "title": "公共厕所",
        "address": "黑龙江省大庆市龙凤区兴化南街与化友路交叉口西北方向144米左右",
        "tel": "",
        "category": "基础设施:公共设施:公共厕所",
        "type": 0,
        "location": {
            "lat": 46.446139,
            "lng": 125.193643
        },
        "ad_info": {
            "adcode": 230603,
            "province": "黑龙江省",
            "city": "大庆市",
            "district": "龙凤区"
        }
    },
    {
        "id": "5784939338446424241",
        "title": "公共厕所",
        "address": "黑龙江省大庆市大同区同北路与同政街交叉口正南方向91米左右",
        "tel": "",
        "category": "基础设施:公共设施:公共厕所",
        "type": 0,
        "location": {
            "lat": 46.035709,
            "lng": 124.826323
        },
        "ad_info": {
            "adcode": 230606,
            "province": "黑龙江省",
            "city": "大庆市",
            "district": "大同区"
        }
    },
    {
        "id": "1141955907150524662",
        "title": "公共厕所",
        "address": "黑龙江省大庆市萨尔图区万峰路与中兴南街交叉口正东方向572米左右",
        "tel": "",
        "category": "基础设施:公共设施:公共厕所",
        "type": 0,
        "location": {
            "lat": 46.567939,
            "lng": 125.078562
        },
        "ad_info": {
            "adcode": 230602,
            "province": "黑龙江省",
            "city": "大庆市",
            "district": "萨尔图区"
        }
    },
    {
        "id": "16344115286540594399",
        "title": "公共厕所",
        "address": "黑龙江省大庆市肇源县S502与源富路交叉口正西方向73米左右",
        "tel": "",
        "category": "基础设施:公共设施:公共厕所",
        "type": 0,
        "location": {
            "lat": 45.55045,
            "lng": 125.061619
        },
        "ad_info": {
            "adcode": 230622,
            "province": "黑龙江省",
            "city": "大庆市",
            "district": "肇源县"
        }
    },
    {
        "id": "14107575852132756788",
        "title": "男卫生间",
        "address": "黑龙江省大庆市让胡路区昆仑大街与西宾路交会处昆仑唐人中心C-F2",
        "tel": "",
        "category": "基础设施:公共设施:男洗手间",
        "type": 0,
        "location": {
            "lat": 46.635504,
            "lng": 124.881468
        },
        "ad_info": {
            "adcode": 230604,
            "province": "黑龙江省",
            "city": "大庆市",
            "district": "让胡路区"
        }
    },
    {
        "id": "125454625492169691",
        "title": "公共厕所",
        "address": "黑龙江省大庆市杜尔伯特蒙古族自治县哈萨尔路与图布沁街交叉口东南方向133米左右",
        "tel": "",
        "category": "基础设施:公共设施:公共厕所",
        "type": 0,
        "location": {
            "lat": 46.850576,
            "lng": 124.435208
        },
        "ad_info": {
            "adcode": 230624,
            "province": "黑龙江省",
            "city": "大庆市",
            "district": "杜尔伯特蒙古族自治县"
        }
    },
    {
        "id": "15867097430585018051",
        "title": "公共厕所",
        "address": "黑龙江省大庆市肇源县哈安公路与民新路交叉口正南方向69米左右",
        "tel": "",
        "category": "基础设施:公共设施:公共厕所",
        "type": 0,
        "location": {
            "lat": 45.519463,
            "lng": 124.476558
        },
        "ad_info": {
            "adcode": 230622,
            "province": "黑龙江省",
            "city": "大庆市",
            "district": "肇源县"
        }
    },
    {
        "id": "1298887842153954476",
        "title": "女洗手间(万达广场大庆萨尔图店)",
        "address": "黑龙江省大庆市萨尔图区东风路15号万达广场(大庆萨尔图店)5F层",
        "tel": "",
        "category": "基础设施:公共设施:公共厕所",
        "type": 0,
        "location": {
            "lat": 46.594025,
            "lng": 125.095266
        },
        "ad_info": {
            "adcode": 230602,
            "province": "黑龙江省",
            "city": "大庆市",
            "district": "萨尔图区"
        }
    },
    {
        "id": "15575411147008291156",
        "title": "公共厕所",
        "address": "黑龙江省大庆市林甸县S214与红旗桥交叉口东北方向210米左右",
        "tel": "",
        "category": "基础设施:公共设施:公共厕所",
        "type": 0,
        "location": {
            "lat": 47.039672,
            "lng": 124.698137
        },
        "ad_info": {
            "adcode": 230623,
            "province": "黑龙江省",
            "city": "大庆市",
            "district": "林甸县"
        }
    },
    {
        "id": "9436739983374682018",
        "title": "公共厕所",
        "address": "黑龙江省大庆市龙凤区外环东路与龙华路交叉口东南方向1119米左右",
        "tel": "",
        "category": "基础设施:公共设施:公共厕所",
        "type": 0,
        "location": {
            "lat": 46.514966,
            "lng": 125.145272
        },
        "ad_info": {
            "adcode": 230603,
            "province": "黑龙江省",
            "city": "大庆市",
            "district": "龙凤区"
        }
    },
    {
        "id": "10743259326235037033",
        "title": "公共卫生间",
        "address": "黑龙江省大庆市肇州县东环南路与祝三街交叉口正南方向44米左右",
        "tel": "",
        "category": "基础设施:公共设施:公共厕所",
        "type": 0,
        "location": {
            "lat": 45.704861,
            "lng": 125.285537
        },
        "ad_info": {
            "adcode": 230621,
            "province": "黑龙江省",
            "city": "大庆市",
            "district": "肇州县"
        }
    },
    {
        "id": "2062622246295811105",
        "title": "公共厕所",
        "address": "黑龙江省大庆市大同区同乐街与同北路交叉口东南方向20米左右",
        "tel": "",
        "category": "基础设施:公共设施:公共厕所",
        "type": 0,
        "location": {
            "lat": 46.033667,
            "lng": 124.805438
        },
        "ad_info": {
            "adcode": 230606,
            "province": "黑龙江省",
            "city": "大庆市",
            "district": "大同区"
        }
    },
    {
        "id": "9455117680524305371",
        "title": "公共卫生间",
        "address": "黑龙江省大庆市肇源县南二路与南阳大街交叉口正南方向87米左右",
        "tel": "",
        "category": "基础设施:公共设施:公共厕所",
        "type": 0,
        "location": {
            "lat": 45.511687,
            "lng": 125.093747
        },
        "ad_info": {
            "adcode": 230622,
            "province": "黑龙江省",
            "city": "大庆市",
            "district": "肇源县"
        }
    },
    {
        "id": "7311037899543444692",
        "title": "女洗手间(毅腾商都购物中心)",
        "address": "黑龙江省大庆市萨尔图区东风街道东风新村经六街24号毅腾商都购物中心F3",
        "tel": "",
        "category": "基础设施:公共设施:女洗手间",
        "type": 0,
        "location": {
            "lat": 46.594368,
            "lng": 125.118573
        },
        "ad_info": {
            "adcode": 230602,
            "province": "黑龙江省",
            "city": "大庆市",
            "district": "萨尔图区"
        }
    },
    {
        "id": "14983437076905597260",
        "title": "男洗手间(大庆湖滨超市)",
        "address": "黑龙江省大庆市龙凤区湖滨教师花园大庆湖滨超市F2层",
        "tel": "",
        "category": "基础设施:公共设施:公共厕所",
        "type": 0,
        "location": {
            "lat": 46.624393,
            "lng": 125.156475
        },
        "ad_info": {
            "adcode": 230603,
            "province": "黑龙江省",
            "city": "大庆市",
            "district": "龙凤区"
        }
    },
    {
        "id": "10375187208780185639",
        "title": "公共厕所",
        "address": "黑龙江省大庆市肇源县东环大街与嫩江大街交叉口东北方向31米左右",
        "tel": "",
        "category": "基础设施:公共设施:公共厕所",
        "type": 0,
        "location": {
            "lat": 45.517703,
            "lng": 125.090211
        },
        "ad_info": {
            "adcode": 230622,
            "province": "黑龙江省",
            "city": "大庆市",
            "district": "肇源县"
        }
    },
    {
        "id": "11928143819011524674",
        "title": "公共厕所",
        "address": "黑龙江省大庆市让胡路区新泽路奥林国际公寓-C区",
        "tel": "",
        "category": "基础设施:公共设施:公共厕所",
        "type": 0,
        "location": {
            "lat": 46.600905,
            "lng": 124.918869
        },
        "ad_info": {
            "adcode": 230604,
            "province": "黑龙江省",
            "city": "大庆市",
            "district": "让胡路区"
        }
    },
    {
        "id": "1851923571864896006",
        "title": "卫生间",
        "address": "黑龙江省大庆市萨尔图区东风路15-3号万达广场F3",
        "tel": "",
        "category": "基础设施:公共设施:公共厕所",
        "type": 0,
        "location": {
            "lat": 46.594122,
            "lng": 125.095188
        },
        "ad_info": {
            "adcode": 230602,
            "province": "黑龙江省",
            "city": "大庆市",
            "district": "萨尔图区"
        }
    },
    {
        "id": "3220511972366733886",
        "title": "公共厕所",
        "address": "黑龙江省大庆市肇源县松花江大街肇源县第五中学",
        "tel": "",
        "category": "基础设施:公共设施:公共厕所",
        "type": 0,
        "location": {
            "lat": 45.509267,
            "lng": 125.074081
        },
        "ad_info": {
            "adcode": 230622,
            "province": "黑龙江省",
            "city": "大庆市",
            "district": "肇源县"
        }
    },
    {
        "id": "1626776026581094535",
        "title": "公共厕所",
        "address": "黑龙江省大庆市萨尔图区中八路与中成路交叉口东北方向73米左右",
        "tel": "",
        "category": "基础设施:公共设施:公共厕所",
        "type": 0,
        "location": {
            "lat": 46.603008,
            "lng": 125.01361
        },
        "ad_info": {
            "adcode": 230602,
            "province": "黑龙江省",
            "city": "大庆市",
            "district": "萨尔图区"
        }
    },
    {
        "id": "13531477468759433197",
        "title": "公共厕所",
        "address": "黑龙江省大庆市龙凤区兴化南街与化友路交叉口西北方向144米左右",
        "tel": "",
        "category": "基础设施:公共设施:公共厕所",
        "type": 0,
        "location": {
            "lat": 46.446139,
            "lng": 125.193643
        },
        "ad_info": {
            "adcode": 230603,
            "province": "黑龙江省",
            "city": "大庆市",
            "district": "龙凤区"
        }
    },
    {
        "id": "5784939338446424241",
        "title": "公共厕所",
        "address": "黑龙江省大庆市大同区同北路与同政街交叉口正南方向91米左右",
        "tel": "",
        "category": "基础设施:公共设施:公共厕所",
        "type": 0,
        "location": {
            "lat": 46.035709,
            "lng": 124.826323
        },
        "ad_info": {
            "adcode": 230606,
            "province": "黑龙江省",
            "city": "大庆市",
            "district": "大同区"
        }
    },
    {
        "id": "1141955907150524662",
        "title": "公共厕所",
        "address": "黑龙江省大庆市萨尔图区万峰路与中兴南街交叉口正东方向572米左右",
        "tel": "",
        "category": "基础设施:公共设施:公共厕所",
        "type": 0,
        "location": {
            "lat": 46.567939,
            "lng": 125.078562
        },
        "ad_info": {
            "adcode": 230602,
            "province": "黑龙江省",
            "city": "大庆市",
            "district": "萨尔图区"
        }
    },
    {
        "id": "16344115286540594399",
        "title": "公共厕所",
        "address": "黑龙江省大庆市肇源县S502与源富路交叉口正西方向73米左右",
        "tel": "",
        "category": "基础设施:公共设施:公共厕所",
        "type": 0,
        "location": {
            "lat": 45.55045,
            "lng": 125.061619
        },
        "ad_info": {
            "adcode": 230622,
            "province": "黑龙江省",
            "city": "大庆市",
            "district": "肇源县"
        }
    },
    {
        "id": "14107575852132756788",
        "title": "男卫生间",
        "address": "黑龙江省大庆市让胡路区昆仑大街与西宾路交会处昆仑唐人中心C-F2",
        "tel": "",
        "category": "基础设施:公共设施:男洗手间",
        "type": 0,
        "location": {
            "lat": 46.635504,
            "lng": 124.881468
        },
        "ad_info": {
            "adcode": 230604,
            "province": "黑龙江省",
            "city": "大庆市",
            "district": "让胡路区"
        }
    },
    {
        "id": "125454625492169691",
        "title": "公共厕所",
        "address": "黑龙江省大庆市杜尔伯特蒙古族自治县哈萨尔路与图布沁街交叉口东南方向133米左右",
        "tel": "",
        "category": "基础设施:公共设施:公共厕所",
        "type": 0,
        "location": {
            "lat": 46.850576,
            "lng": 124.435208
        },
        "ad_info": {
            "adcode": 230624,
            "province": "黑龙江省",
            "city": "大庆市",
            "district": "杜尔伯特蒙古族自治县"
        }
    },
    {
        "id": "15867097430585018051",
        "title": "公共厕所",
        "address": "黑龙江省大庆市肇源县哈安公路与民新路交叉口正南方向69米左右",
        "tel": "",
        "category": "基础设施:公共设施:公共厕所",
        "type": 0,
        "location": {
            "lat": 45.519463,
            "lng": 124.476558
        },
        "ad_info": {
            "adcode": 230622,
            "province": "黑龙江省",
            "city": "大庆市",
            "district": "肇源县"
        }
    },
    {
        "id": "1298887842153954476",
        "title": "女洗手间(万达广场大庆萨尔图店)",
        "address": "黑龙江省大庆市萨尔图区东风路15号万达广场(大庆萨尔图店)5F层",
        "tel": "",
        "category": "基础设施:公共设施:公共厕所",
        "type": 0,
        "location": {
            "lat": 46.594025,
            "lng": 125.095266
        },
        "ad_info": {
            "adcode": 230602,
            "province": "黑龙江省",
            "city": "大庆市",
            "district": "萨尔图区"
        }
    },
    {
        "id": "15575411147008291156",
        "title": "公共厕所",
        "address": "黑龙江省大庆市林甸县S214与红旗桥交叉口东北方向210米左右",
        "tel": "",
        "category": "基础设施:公共设施:公共厕所",
        "type": 0,
        "location": {
            "lat": 47.039672,
            "lng": 124.698137
        },
        "ad_info": {
            "adcode": 230623,
            "province": "黑龙江省",
            "city": "大庆市",
            "district": "林甸县"
        }
    },
    {
        "id": "9436739983374682018",
        "title": "公共厕所",
        "address": "黑龙江省大庆市龙凤区外环东路与龙华路交叉口东南方向1119米左右",
        "tel": "",
        "category": "基础设施:公共设施:公共厕所",
        "type": 0,
        "location": {
            "lat": 46.514966,
            "lng": 125.145272
        },
        "ad_info": {
            "adcode": 230603,
            "province": "黑龙江省",
            "city": "大庆市",
            "district": "龙凤区"
        }
    },
    {
        "id": "10743259326235037033",
        "title": "公共卫生间",
        "address": "黑龙江省大庆市肇州县东环南路与祝三街交叉口正南方向44米左右",
        "tel": "",
        "category": "基础设施:公共设施:公共厕所",
        "type": 0,
        "location": {
            "lat": 45.704861,
            "lng": 125.285537
        },
        "ad_info": {
            "adcode": 230621,
            "province": "黑龙江省",
            "city": "大庆市",
            "district": "肇州县"
        }
    },
    {
        "id": "2062622246295811105",
        "title": "公共厕所",
        "address": "黑龙江省大庆市大同区同乐街与同北路交叉口东南方向20米左右",
        "tel": "",
        "category": "基础设施:公共设施:公共厕所",
        "type": 0,
        "location": {
            "lat": 46.033667,
            "lng": 124.805438
        },
        "ad_info": {
            "adcode": 230606,
            "province": "黑龙江省",
            "city": "大庆市",
            "district": "大同区"
        }
    },
    {
        "id": "9455117680524305371",
        "title": "公共卫生间",
        "address": "黑龙江省大庆市肇源县南二路与南阳大街交叉口正南方向87米左右",
        "tel": "",
        "category": "基础设施:公共设施:公共厕所",
        "type": 0,
        "location": {
            "lat": 45.511687,
            "lng": 125.093747
        },
        "ad_info": {
            "adcode": 230622,
            "province": "黑龙江省",
            "city": "大庆市",
            "district": "肇源县"
        }
    },
    {
        "id": "7311037899543444692",
        "title": "女洗手间(毅腾商都购物中心)",
        "address": "黑龙江省大庆市萨尔图区东风街道东风新村经六街24号毅腾商都购物中心F3",
        "tel": "",
        "category": "基础设施:公共设施:女洗手间",
        "type": 0,
        "location": {
            "lat": 46.594368,
            "lng": 125.118573
        },
        "ad_info": {
            "adcode": 230602,
            "province": "黑龙江省",
            "city": "大庆市",
            "district": "萨尔图区"
        }
    },
    {
        "id": "14983437076905597260",
        "title": "男洗手间(大庆湖滨超市)",
        "address": "黑龙江省大庆市龙凤区湖滨教师花园大庆湖滨超市F2层",
        "tel": "",
        "category": "基础设施:公共设施:公共厕所",
        "type": 0,
        "location": {
            "lat": 46.624393,
            "lng": 125.156475
        },
        "ad_info": {
            "adcode": 230603,
            "province": "黑龙江省",
            "city": "大庆市",
            "district": "龙凤区"
        }
    },
    {
        "id": "10375187208780185639",
        "title": "公共厕所",
        "address": "黑龙江省大庆市肇源县东环大街与嫩江大街交叉口东北方向31米左右",
        "tel": "",
        "category": "基础设施:公共设施:公共厕所",
        "type": 0,
        "location": {
            "lat": 45.517703,
            "lng": 125.090211
        },
        "ad_info": {
            "adcode": 230622,
            "province": "黑龙江省",
            "city": "大庆市",
            "district": "肇源县"
        }
    },
    {
        "id": "11928143819011524674",
        "title": "公共厕所",
        "address": "黑龙江省大庆市让胡路区新泽路奥林国际公寓-C区",
        "tel": "",
        "category": "基础设施:公共设施:公共厕所",
        "type": 0,
        "location": {
            "lat": 46.600905,
            "lng": 124.918869
        },
        "ad_info": {
            "adcode": 230604,
            "province": "黑龙江省",
            "city": "大庆市",
            "district": "让胡路区"
        }
    },
    {
        "id": "1851923571864896006",
        "title": "卫生间",
        "address": "黑龙江省大庆市萨尔图区东风路15-3号万达广场F3",
        "tel": "",
        "category": "基础设施:公共设施:公共厕所",
        "type": 0,
        "location": {
            "lat": 46.594122,
            "lng": 125.095188
        },
        "ad_info": {
            "adcode": 230602,
            "province": "黑龙江省",
            "city": "大庆市",
            "district": "萨尔图区"
        }
    },
    {
        "id": "3220511972366733886",
        "title": "公共厕所",
        "address": "黑龙江省大庆市肇源县松花江大街肇源县第五中学",
        "tel": "",
        "category": "基础设施:公共设施:公共厕所",
        "type": 0,
        "location": {
            "lat": 45.509267,
            "lng": 125.074081
        },
        "ad_info": {
            "adcode": 230622,
            "province": "黑龙江省",
            "city": "大庆市",
            "district": "肇源县"
        }
    },
    {
        "id": "1626776026581094535",
        "title": "公共厕所",
        "address": "黑龙江省大庆市萨尔图区中八路与中成路交叉口东北方向73米左右",
        "tel": "",
        "category": "基础设施:公共设施:公共厕所",
        "type": 0,
        "location": {
            "lat": 46.603008,
            "lng": 125.01361
        },
        "ad_info": {
            "adcode": 230602,
            "province": "黑龙江省",
            "city": "大庆市",
            "district": "萨尔图区"
        }
    },
    {
        "id": "13531477468759433197",
        "title": "公共厕所",
        "address": "黑龙江省大庆市龙凤区兴化南街与化友路交叉口西北方向144米左右",
        "tel": "",
        "category": "基础设施:公共设施:公共厕所",
        "type": 0,
        "location": {
            "lat": 46.446139,
            "lng": 125.193643
        },
        "ad_info": {
            "adcode": 230603,
            "province": "黑龙江省",
            "city": "大庆市",
            "district": "龙凤区"
        }
    },
    {
        "id": "5784939338446424241",
        "title": "公共厕所",
        "address": "黑龙江省大庆市大同区同北路与同政街交叉口正南方向91米左右",
        "tel": "",
        "category": "基础设施:公共设施:公共厕所",
        "type": 0,
        "location": {
            "lat": 46.035709,
            "lng": 124.826323
        },
        "ad_info": {
            "adcode": 230606,
            "province": "黑龙江省",
            "city": "大庆市",
            "district": "大同区"
        }
    },
    {
        "id": "1141955907150524662",
        "title": "公共厕所",
        "address": "黑龙江省大庆市萨尔图区万峰路与中兴南街交叉口正东方向572米左右",
        "tel": "",
        "category": "基础设施:公共设施:公共厕所",
        "type": 0,
        "location": {
            "lat": 46.567939,
            "lng": 125.078562
        },
        "ad_info": {
            "adcode": 230602,
            "province": "黑龙江省",
            "city": "大庆市",
            "district": "萨尔图区"
        }
    },
    {
        "id": "16344115286540594399",
        "title": "公共厕所",
        "address": "黑龙江省大庆市肇源县S502与源富路交叉口正西方向73米左右",
        "tel": "",
        "category": "基础设施:公共设施:公共厕所",
        "type": 0,
        "location": {
            "lat": 45.55045,
            "lng": 125.061619
        },
        "ad_info": {
            "adcode": 230622,
            "province": "黑龙江省",
            "city": "大庆市",
            "district": "肇源县"
        }
    },
    {
        "id": "14107575852132756788",
        "title": "男卫生间",
        "address": "黑龙江省大庆市让胡路区昆仑大街与西宾路交会处昆仑唐人中心C-F2",
        "tel": "",
        "category": "基础设施:公共设施:男洗手间",
        "type": 0,
        "location": {
            "lat": 46.635504,
            "lng": 124.881468
        },
        "ad_info": {
            "adcode": 230604,
            "province": "黑龙江省",
            "city": "大庆市",
            "district": "让胡路区"
        }
    },
    {
        "id": "125454625492169691",
        "title": "公共厕所",
        "address": "黑龙江省大庆市杜尔伯特蒙古族自治县哈萨尔路与图布沁街交叉口东南方向133米左右",
        "tel": "",
        "category": "基础设施:公共设施:公共厕所",
        "type": 0,
        "location": {
            "lat": 46.850576,
            "lng": 124.435208
        },
        "ad_info": {
            "adcode": 230624,
            "province": "黑龙江省",
            "city": "大庆市",
            "district": "杜尔伯特蒙古族自治县"
        }
    },
    {
        "id": "15867097430585018051",
        "title": "公共厕所",
        "address": "黑龙江省大庆市肇源县哈安公路与民新路交叉口正南方向69米左右",
        "tel": "",
        "category": "基础设施:公共设施:公共厕所",
        "type": 0,
        "location": {
            "lat": 45.519463,
            "lng": 124.476558
        },
        "ad_info": {
            "adcode": 230622,
            "province": "黑龙江省",
            "city": "大庆市",
            "district": "肇源县"
        }
    },
    {
        "id": "1298887842153954476",
        "title": "女洗手间(万达广场大庆萨尔图店)",
        "address": "黑龙江省大庆市萨尔图区东风路15号万达广场(大庆萨尔图店)5F层",
        "tel": "",
        "category": "基础设施:公共设施:公共厕所",
        "type": 0,
        "location": {
            "lat": 46.594025,
            "lng": 125.095266
        },
        "ad_info": {
            "adcode": 230602,
            "province": "黑龙江省",
            "city": "大庆市",
            "district": "萨尔图区"
        }
    },
    {
        "id": "15575411147008291156",
        "title": "公共厕所",
        "address": "黑龙江省大庆市林甸县S214与红旗桥交叉口东北方向210米左右",
        "tel": "",
        "category": "基础设施:公共设施:公共厕所",
        "type": 0,
        "location": {
            "lat": 47.039672,
            "lng": 124.698137
        },
        "ad_info": {
            "adcode": 230623,
            "province": "黑龙江省",
            "city": "大庆市",
            "district": "林甸县"
        }
    },
    {
        "id": "9436739983374682018",
        "title": "公共厕所",
        "address": "黑龙江省大庆市龙凤区外环东路与龙华路交叉口东南方向1119米左右",
        "tel": "",
        "category": "基础设施:公共设施:公共厕所",
        "type": 0,
        "location": {
            "lat": 46.514966,
            "lng": 125.145272
        },
        "ad_info": {
            "adcode": 230603,
            "province": "黑龙江省",
            "city": "大庆市",
            "district": "龙凤区"
        }
    },
    {
        "id": "10743259326235037033",
        "title": "公共卫生间",
        "address": "黑龙江省大庆市肇州县东环南路与祝三街交叉口正南方向44米左右",
        "tel": "",
        "category": "基础设施:公共设施:公共厕所",
        "type": 0,
        "location": {
            "lat": 45.704861,
            "lng": 125.285537
        },
        "ad_info": {
            "adcode": 230621,
            "province": "黑龙江省",
            "city": "大庆市",
            "district": "肇州县"
        }
    },
    {
        "id": "2062622246295811105",
        "title": "公共厕所",
        "address": "黑龙江省大庆市大同区同乐街与同北路交叉口东南方向20米左右",
        "tel": "",
        "category": "基础设施:公共设施:公共厕所",
        "type": 0,
        "location": {
            "lat": 46.033667,
            "lng": 124.805438
        },
        "ad_info": {
            "adcode": 230606,
            "province": "黑龙江省",
            "city": "大庆市",
            "district": "大同区"
        }
    },
    {
        "id": "9455117680524305371",
        "title": "公共卫生间",
        "address": "黑龙江省大庆市肇源县南二路与南阳大街交叉口正南方向87米左右",
        "tel": "",
        "category": "基础设施:公共设施:公共厕所",
        "type": 0,
        "location": {
            "lat": 45.511687,
            "lng": 125.093747
        },
        "ad_info": {
            "adcode": 230622,
            "province": "黑龙江省",
            "city": "大庆市",
            "district": "肇源县"
        }
    },
    {
        "id": "7311037899543444692",
        "title": "女洗手间(毅腾商都购物中心)",
        "address": "黑龙江省大庆市萨尔图区东风街道东风新村经六街24号毅腾商都购物中心F3",
        "tel": "",
        "category": "基础设施:公共设施:女洗手间",
        "type": 0,
        "location": {
            "lat": 46.594368,
            "lng": 125.118573
        },
        "ad_info": {
            "adcode": 230602,
            "province": "黑龙江省",
            "city": "大庆市",
            "district": "萨尔图区"
        }
    },
    {
        "id": "14983437076905597260",
        "title": "男洗手间(大庆湖滨超市)",
        "address": "黑龙江省大庆市龙凤区湖滨教师花园大庆湖滨超市F2层",
        "tel": "",
        "category": "基础设施:公共设施:公共厕所",
        "type": 0,
        "location": {
            "lat": 46.624393,
            "lng": 125.156475
        },
        "ad_info": {
            "adcode": 230603,
            "province": "黑龙江省",
            "city": "大庆市",
            "district": "龙凤区"
        }
    },
    {
        "id": "10375187208780185639",
        "title": "公共厕所",
        "address": "黑龙江省大庆市肇源县东环大街与嫩江大街交叉口东北方向31米左右",
        "tel": "",
        "category": "基础设施:公共设施:公共厕所",
        "type": 0,
        "location": {
            "lat": 45.517703,
            "lng": 125.090211
        },
        "ad_info": {
            "adcode": 230622,
            "province": "黑龙江省",
            "city": "大庆市",
            "district": "肇源县"
        }
    },
    {
        "id": "11928143819011524674",
        "title": "公共厕所",
        "address": "黑龙江省大庆市让胡路区新泽路奥林国际公寓-C区",
        "tel": "",
        "category": "基础设施:公共设施:公共厕所",
        "type": 0,
        "location": {
            "lat": 46.600905,
            "lng": 124.918869
        },
        "ad_info": {
            "adcode": 230604,
            "province": "黑龙江省",
            "city": "大庆市",
            "district": "让胡路区"
        }
    },
    {
        "id": "1851923571864896006",
        "title": "卫生间",
        "address": "黑龙江省大庆市萨尔图区东风路15-3号万达广场F3",
        "tel": "",
        "category": "基础设施:公共设施:公共厕所",
        "type": 0,
        "location": {
            "lat": 46.594122,
            "lng": 125.095188
        },
        "ad_info": {
            "adcode": 230602,
            "province": "黑龙江省",
            "city": "大庆市",
            "district": "萨尔图区"
        }
    },
    {
        "id": "3220511972366733886",
        "title": "公共厕所",
        "address": "黑龙江省大庆市肇源县松花江大街肇源县第五中学",
        "tel": "",
        "category": "基础设施:公共设施:公共厕所",
        "type": 0,
        "location": {
            "lat": 45.509267,
            "lng": 125.074081
        },
        "ad_info": {
            "adcode": 230622,
            "province": "黑龙江省",
            "city": "大庆市",
            "district": "肇源县"
        }
    },
    {
        "id": "1626776026581094535",
        "title": "公共厕所",
        "address": "黑龙江省大庆市萨尔图区中八路与中成路交叉口东北方向73米左右",
        "tel": "",
        "category": "基础设施:公共设施:公共厕所",
        "type": 0,
        "location": {
            "lat": 46.603008,
            "lng": 125.01361
        },
        "ad_info": {
            "adcode": 230602,
            "province": "黑龙江省",
            "city": "大庆市",
            "district": "萨尔图区"
        }
    },
    {
        "id": "13531477468759433197",
        "title": "公共厕所",
        "address": "黑龙江省大庆市龙凤区兴化南街与化友路交叉口西北方向144米左右",
        "tel": "",
        "category": "基础设施:公共设施:公共厕所",
        "type": 0,
        "location": {
            "lat": 46.446139,
            "lng": 125.193643
        },
        "ad_info": {
            "adcode": 230603,
            "province": "黑龙江省",
            "city": "大庆市",
            "district": "龙凤区"
        }
    },
    {
        "id": "5784939338446424241",
        "title": "公共厕所",
        "address": "黑龙江省大庆市大同区同北路与同政街交叉口正南方向91米左右",
        "tel": "",
        "category": "基础设施:公共设施:公共厕所",
        "type": 0,
        "location": {
            "lat": 46.035709,
            "lng": 124.826323
        },
        "ad_info": {
            "adcode": 230606,
            "province": "黑龙江省",
            "city": "大庆市",
            "district": "大同区"
        }
    },
    {
        "id": "1141955907150524662",
        "title": "公共厕所",
        "address": "黑龙江省大庆市萨尔图区万峰路与中兴南街交叉口正东方向572米左右",
        "tel": "",
        "category": "基础设施:公共设施:公共厕所",
        "type": 0,
        "location": {
            "lat": 46.567939,
            "lng": 125.078562
        },
        "ad_info": {
            "adcode": 230602,
            "province": "黑龙江省",
            "city": "大庆市",
            "district": "萨尔图区"
        }
    },
    {
        "id": "16344115286540594399",
        "title": "公共厕所",
        "address": "黑龙江省大庆市肇源县S502与源富路交叉口正西方向73米左右",
        "tel": "",
        "category": "基础设施:公共设施:公共厕所",
        "type": 0,
        "location": {
            "lat": 45.55045,
            "lng": 125.061619
        },
        "ad_info": {
            "adcode": 230622,
            "province": "黑龙江省",
            "city": "大庆市",
            "district": "肇源县"
        }
    },
    {
        "id": "14107575852132756788",
        "title": "男卫生间",
        "address": "黑龙江省大庆市让胡路区昆仑大街与西宾路交会处昆仑唐人中心C-F2",
        "tel": "",
        "category": "基础设施:公共设施:男洗手间",
        "type": 0,
        "location": {
            "lat": 46.635504,
            "lng": 124.881468
        },
        "ad_info": {
            "adcode": 230604,
            "province": "黑龙江省",
            "city": "大庆市",
            "district": "让胡路区"
        }
    },
    {
        "id": "125454625492169691",
        "title": "公共厕所",
        "address": "黑龙江省大庆市杜尔伯特蒙古族自治县哈萨尔路与图布沁街交叉口东南方向133米左右",
        "tel": "",
        "category": "基础设施:公共设施:公共厕所",
        "type": 0,
        "location": {
            "lat": 46.850576,
            "lng": 124.435208
        },
        "ad_info": {
            "adcode": 230624,
            "province": "黑龙江省",
            "city": "大庆市",
            "district": "杜尔伯特蒙古族自治县"
        }
    },
    {
        "id": "15867097430585018051",
        "title": "公共厕所",
        "address": "黑龙江省大庆市肇源县哈安公路与民新路交叉口正南方向69米左右",
        "tel": "",
        "category": "基础设施:公共设施:公共厕所",
        "type": 0,
        "location": {
            "lat": 45.519463,
            "lng": 124.476558
        },
        "ad_info": {
            "adcode": 230622,
            "province": "黑龙江省",
            "city": "大庆市",
            "district": "肇源县"
        }
    },
    {
        "id": "1298887842153954476",
        "title": "女洗手间(万达广场大庆萨尔图店)",
        "address": "黑龙江省大庆市萨尔图区东风路15号万达广场(大庆萨尔图店)5F层",
        "tel": "",
        "category": "基础设施:公共设施:公共厕所",
        "type": 0,
        "location": {
            "lat": 46.594025,
            "lng": 125.095266
        },
        "ad_info": {
            "adcode": 230602,
            "province": "黑龙江省",
            "city": "大庆市",
            "district": "萨尔图区"
        }
    },
    {
        "id": "15575411147008291156",
        "title": "公共厕所",
        "address": "黑龙江省大庆市林甸县S214与红旗桥交叉口东北方向210米左右",
        "tel": "",
        "category": "基础设施:公共设施:公共厕所",
        "type": 0,
        "location": {
            "lat": 47.039672,
            "lng": 124.698137
        },
        "ad_info": {
            "adcode": 230623,
            "province": "黑龙江省",
            "city": "大庆市",
            "district": "林甸县"
        }
    },
    {
        "id": "9436739983374682018",
        "title": "公共厕所",
        "address": "黑龙江省大庆市龙凤区外环东路与龙华路交叉口东南方向1119米左右",
        "tel": "",
        "category": "基础设施:公共设施:公共厕所",
        "type": 0,
        "location": {
            "lat": 46.514966,
            "lng": 125.145272
        },
        "ad_info": {
            "adcode": 230603,
            "province": "黑龙江省",
            "city": "大庆市",
            "district": "龙凤区"
        }
    },
    {
        "id": "10743259326235037033",
        "title": "公共卫生间",
        "address": "黑龙江省大庆市肇州县东环南路与祝三街交叉口正南方向44米左右",
        "tel": "",
        "category": "基础设施:公共设施:公共厕所",
        "type": 0,
        "location": {
            "lat": 45.704861,
            "lng": 125.285537
        },
        "ad_info": {
            "adcode": 230621,
            "province": "黑龙江省",
            "city": "大庆市",
            "district": "肇州县"
        }
    },
    {
        "id": "2062622246295811105",
        "title": "公共厕所",
        "address": "黑龙江省大庆市大同区同乐街与同北路交叉口东南方向20米左右",
        "tel": "",
        "category": "基础设施:公共设施:公共厕所",
        "type": 0,
        "location": {
            "lat": 46.033667,
            "lng": 124.805438
        },
        "ad_info": {
            "adcode": 230606,
            "province": "黑龙江省",
            "city": "大庆市",
            "district": "大同区"
        }
    },
    {
        "id": "9455117680524305371",
        "title": "公共卫生间",
        "address": "黑龙江省大庆市肇源县南二路与南阳大街交叉口正南方向87米左右",
        "tel": "",
        "category": "基础设施:公共设施:公共厕所",
        "type": 0,
        "location": {
            "lat": 45.511687,
            "lng": 125.093747
        },
        "ad_info": {
            "adcode": 230622,
            "province": "黑龙江省",
            "city": "大庆市",
            "district": "肇源县"
        }
    },
    {
        "id": "7311037899543444692",
        "title": "女洗手间(毅腾商都购物中心)",
        "address": "黑龙江省大庆市萨尔图区东风街道东风新村经六街24号毅腾商都购物中心F3",
        "tel": "",
        "category": "基础设施:公共设施:女洗手间",
        "type": 0,
        "location": {
            "lat": 46.594368,
            "lng": 125.118573
        },
        "ad_info": {
            "adcode": 230602,
            "province": "黑龙江省",
            "city": "大庆市",
            "district": "萨尔图区"
        }
    },
    {
        "id": "14983437076905597260",
        "title": "男洗手间(大庆湖滨超市)",
        "address": "黑龙江省大庆市龙凤区湖滨教师花园大庆湖滨超市F2层",
        "tel": "",
        "category": "基础设施:公共设施:公共厕所",
        "type": 0,
        "location": {
            "lat": 46.624393,
            "lng": 125.156475
        },
        "ad_info": {
            "adcode": 230603,
            "province": "黑龙江省",
            "city": "大庆市",
            "district": "龙凤区"
        }
    },
    {
        "id": "10375187208780185639",
        "title": "公共厕所",
        "address": "黑龙江省大庆市肇源县东环大街与嫩江大街交叉口东北方向31米左右",
        "tel": "",
        "category": "基础设施:公共设施:公共厕所",
        "type": 0,
        "location": {
            "lat": 45.517703,
            "lng": 125.090211
        },
        "ad_info": {
            "adcode": 230622,
            "province": "黑龙江省",
            "city": "大庆市",
            "district": "肇源县"
        }
    },
    {
        "id": "11928143819011524674",
        "title": "公共厕所",
        "address": "黑龙江省大庆市让胡路区新泽路奥林国际公寓-C区",
        "tel": "",
        "category": "基础设施:公共设施:公共厕所",
        "type": 0,
        "location": {
            "lat": 46.600905,
            "lng": 124.918869
        },
        "ad_info": {
            "adcode": 230604,
            "province": "黑龙江省",
            "city": "大庆市",
            "district": "让胡路区"
        }
    },
    {
        "id": "1851923571864896006",
        "title": "卫生间",
        "address": "黑龙江省大庆市萨尔图区东风路15-3号万达广场F3",
        "tel": "",
        "category": "基础设施:公共设施:公共厕所",
        "type": 0,
        "location": {
            "lat": 46.594122,
            "lng": 125.095188
        },
        "ad_info": {
            "adcode": 230602,
            "province": "黑龙江省",
            "city": "大庆市",
            "district": "萨尔图区"
        }
    },
    {
        "id": "3220511972366733886",
        "title": "公共厕所",
        "address": "黑龙江省大庆市肇源县松花江大街肇源县第五中学",
        "tel": "",
        "category": "基础设施:公共设施:公共厕所",
        "type": 0,
        "location": {
            "lat": 45.509267,
            "lng": 125.074081
        },
        "ad_info": {
            "adcode": 230622,
            "province": "黑龙江省",
            "city": "大庆市",
            "district": "肇源县"
        }
    },
    {
        "id": "1626776026581094535",
        "title": "公共厕所",
        "address": "黑龙江省大庆市萨尔图区中八路与中成路交叉口东北方向73米左右",
        "tel": "",
        "category": "基础设施:公共设施:公共厕所",
        "type": 0,
        "location": {
            "lat": 46.603008,
            "lng": 125.01361
        },
        "ad_info": {
            "adcode": 230602,
            "province": "黑龙江省",
            "city": "大庆市",
            "district": "萨尔图区"
        }
    },
    {
        "id": "13531477468759433197",
        "title": "公共厕所",
        "address": "黑龙江省大庆市龙凤区兴化南街与化友路交叉口西北方向144米左右",
        "tel": "",
        "category": "基础设施:公共设施:公共厕所",
        "type": 0,
        "location": {
            "lat": 46.446139,
            "lng": 125.193643
        },
        "ad_info": {
            "adcode": 230603,
            "province": "黑龙江省",
            "city": "大庆市",
            "district": "龙凤区"
        }
    },
    {
        "id": "5784939338446424241",
        "title": "公共厕所",
        "address": "黑龙江省大庆市大同区同北路与同政街交叉口正南方向91米左右",
        "tel": "",
        "category": "基础设施:公共设施:公共厕所",
        "type": 0,
        "location": {
            "lat": 46.035709,
            "lng": 124.826323
        },
        "ad_info": {
            "adcode": 230606,
            "province": "黑龙江省",
            "city": "大庆市",
            "district": "大同区"
        }
    },
    {
        "id": "1141955907150524662",
        "title": "公共厕所",
        "address": "黑龙江省大庆市萨尔图区万峰路与中兴南街交叉口正东方向572米左右",
        "tel": "",
        "category": "基础设施:公共设施:公共厕所",
        "type": 0,
        "location": {
            "lat": 46.567939,
            "lng": 125.078562
        },
        "ad_info": {
            "adcode": 230602,
            "province": "黑龙江省",
            "city": "大庆市",
            "district": "萨尔图区"
        }
    },
    {
        "id": "16344115286540594399",
        "title": "公共厕所",
        "address": "黑龙江省大庆市肇源县S502与源富路交叉口正西方向73米左右",
        "tel": "",
        "category": "基础设施:公共设施:公共厕所",
        "type": 0,
        "location": {
            "lat": 45.55045,
            "lng": 125.061619
        },
        "ad_info": {
            "adcode": 230622,
            "province": "黑龙江省",
            "city": "大庆市",
            "district": "肇源县"
        }
    },
    {
        "id": "14107575852132756788",
        "title": "男卫生间",
        "address": "黑龙江省大庆市让胡路区昆仑大街与西宾路交会处昆仑唐人中心C-F2",
        "tel": "",
        "category": "基础设施:公共设施:男洗手间",
        "type": 0,
        "location": {
            "lat": 46.635504,
            "lng": 124.881468
        },
        "ad_info": {
            "adcode": 230604,
            "province": "黑龙江省",
            "city": "大庆市",
            "district": "让胡路区"
        }
    },
    {
        "id": "125454625492169691",
        "title": "公共厕所",
        "address": "黑龙江省大庆市杜尔伯特蒙古族自治县哈萨尔路与图布沁街交叉口东南方向133米左右",
        "tel": "",
        "category": "基础设施:公共设施:公共厕所",
        "type": 0,
        "location": {
            "lat": 46.850576,
            "lng": 124.435208
        },
        "ad_info": {
            "adcode": 230624,
            "province": "黑龙江省",
            "city": "大庆市",
            "district": "杜尔伯特蒙古族自治县"
        }
    },
    {
        "id": "15867097430585018051",
        "title": "公共厕所",
        "address": "黑龙江省大庆市肇源县哈安公路与民新路交叉口正南方向69米左右",
        "tel": "",
        "category": "基础设施:公共设施:公共厕所",
        "type": 0,
        "location": {
            "lat": 45.519463,
            "lng": 124.476558
        },
        "ad_info": {
            "adcode": 230622,
            "province": "黑龙江省",
            "city": "大庆市",
            "district": "肇源县"
        }
    },
    {
        "id": "1298887842153954476",
        "title": "女洗手间(万达广场大庆萨尔图店)",
        "address": "黑龙江省大庆市萨尔图区东风路15号万达广场(大庆萨尔图店)5F层",
        "tel": "",
        "category": "基础设施:公共设施:公共厕所",
        "type": 0,
        "location": {
            "lat": 46.594025,
            "lng": 125.095266
        },
        "ad_info": {
            "adcode": 230602,
            "province": "黑龙江省",
            "city": "大庆市",
            "district": "萨尔图区"
        }
    },
    {
        "id": "15575411147008291156",
        "title": "公共厕所",
        "address": "黑龙江省大庆市林甸县S214与红旗桥交叉口东北方向210米左右",
        "tel": "",
        "category": "基础设施:公共设施:公共厕所",
        "type": 0,
        "location": {
            "lat": 47.039672,
            "lng": 124.698137
        },
        "ad_info": {
            "adcode": 230623,
            "province": "黑龙江省",
            "city": "大庆市",
            "district": "林甸县"
        }
    },
    {
        "id": "9436739983374682018",
        "title": "公共厕所",
        "address": "黑龙江省大庆市龙凤区外环东路与龙华路交叉口东南方向1119米左右",
        "tel": "",
        "category": "基础设施:公共设施:公共厕所",
        "type": 0,
        "location": {
            "lat": 46.514966,
            "lng": 125.145272
        },
        "ad_info": {
            "adcode": 230603,
            "province": "黑龙江省",
            "city": "大庆市",
            "district": "龙凤区"
        }
    },
    {
        "id": "10743259326235037033",
        "title": "公共卫生间",
        "address": "黑龙江省大庆市肇州县东环南路与祝三街交叉口正南方向44米左右",
        "tel": "",
        "category": "基础设施:公共设施:公共厕所",
        "type": 0,
        "location": {
            "lat": 45.704861,
            "lng": 125.285537
        },
        "ad_info": {
            "adcode": 230621,
            "province": "黑龙江省",
            "city": "大庆市",
            "district": "肇州县"
        }
    },
    {
        "id": "2062622246295811105",
        "title": "公共厕所",
        "address": "黑龙江省大庆市大同区同乐街与同北路交叉口东南方向20米左右",
        "tel": "",
        "category": "基础设施:公共设施:公共厕所",
        "type": 0,
        "location": {
            "lat": 46.033667,
            "lng": 124.805438
        },
        "ad_info": {
            "adcode": 230606,
            "province": "黑龙江省",
            "city": "大庆市",
            "district": "大同区"
        }
    },
    {
        "id": "9455117680524305371",
        "title": "公共卫生间",
        "address": "黑龙江省大庆市肇源县南二路与南阳大街交叉口正南方向87米左右",
        "tel": "",
        "category": "基础设施:公共设施:公共厕所",
        "type": 0,
        "location": {
            "lat": 45.511687,
            "lng": 125.093747
        },
        "ad_info": {
            "adcode": 230622,
            "province": "黑龙江省",
            "city": "大庆市",
            "district": "肇源县"
        }
    },
    {
        "id": "7311037899543444692",
        "title": "女洗手间(毅腾商都购物中心)",
        "address": "黑龙江省大庆市萨尔图区东风街道东风新村经六街24号毅腾商都购物中心F3",
        "tel": "",
        "category": "基础设施:公共设施:女洗手间",
        "type": 0,
        "location": {
            "lat": 46.594368,
            "lng": 125.118573
        },
        "ad_info": {
            "adcode": 230602,
            "province": "黑龙江省",
            "city": "大庆市",
            "district": "萨尔图区"
        }
    },
    {
        "id": "14983437076905597260",
        "title": "男洗手间(大庆湖滨超市)",
        "address": "黑龙江省大庆市龙凤区湖滨教师花园大庆湖滨超市F2层",
        "tel": "",
        "category": "基础设施:公共设施:公共厕所",
        "type": 0,
        "location": {
            "lat": 46.624393,
            "lng": 125.156475
        },
        "ad_info": {
            "adcode": 230603,
            "province": "黑龙江省",
            "city": "大庆市",
            "district": "龙凤区"
        }
    },
    {
        "id": "10375187208780185639",
        "title": "公共厕所",
        "address": "黑龙江省大庆市肇源县东环大街与嫩江大街交叉口东北方向31米左右",
        "tel": "",
        "category": "基础设施:公共设施:公共厕所",
        "type": 0,
        "location": {
            "lat": 45.517703,
            "lng": 125.090211
        },
        "ad_info": {
            "adcode": 230622,
            "province": "黑龙江省",
            "city": "大庆市",
            "district": "肇源县"
        }
    },
    {
        "id": "11928143819011524674",
        "title": "公共厕所",
        "address": "黑龙江省大庆市让胡路区新泽路奥林国际公寓-C区",
        "tel": "",
        "category": "基础设施:公共设施:公共厕所",
        "type": 0,
        "location": {
            "lat": 46.600905,
            "lng": 124.918869
        },
        "ad_info": {
            "adcode": 230604,
            "province": "黑龙江省",
            "city": "大庆市",
            "district": "让胡路区"
        }
    },
    {
        "id": "1851923571864896006",
        "title": "卫生间",
        "address": "黑龙江省大庆市萨尔图区东风路15-3号万达广场F3",
        "tel": "",
        "category": "基础设施:公共设施:公共厕所",
        "type": 0,
        "location": {
            "lat": 46.594122,
            "lng": 125.095188
        },
        "ad_info": {
            "adcode": 230602,
            "province": "黑龙江省",
            "city": "大庆市",
            "district": "萨尔图区"
        }
    },
    {
        "id": "3220511972366733886",
        "title": "公共厕所",
        "address": "黑龙江省大庆市肇源县松花江大街肇源县第五中学",
        "tel": "",
        "category": "基础设施:公共设施:公共厕所",
        "type": 0,
        "location": {
            "lat": 45.509267,
            "lng": 125.074081
        },
        "ad_info": {
            "adcode": 230622,
            "province": "黑龙江省",
            "city": "大庆市",
            "district": "肇源县"
        }
    },
    {
        "id": "1626776026581094535",
        "title": "公共厕所",
        "address": "黑龙江省大庆市萨尔图区中八路与中成路交叉口东北方向73米左右",
        "tel": "",
        "category": "基础设施:公共设施:公共厕所",
        "type": 0,
        "location": {
            "lat": 46.603008,
            "lng": 125.01361
        },
        "ad_info": {
            "adcode": 230602,
            "province": "黑龙江省",
            "city": "大庆市",
            "district": "萨尔图区"
        }
    },
    {
        "id": "13531477468759433197",
        "title": "公共厕所",
        "address": "黑龙江省大庆市龙凤区兴化南街与化友路交叉口西北方向144米左右",
        "tel": "",
        "category": "基础设施:公共设施:公共厕所",
        "type": 0,
        "location": {
            "lat": 46.446139,
            "lng": 125.193643
        },
        "ad_info": {
            "adcode": 230603,
            "province": "黑龙江省",
            "city": "大庆市",
            "district": "龙凤区"
        }
    },
    {
        "id": "5784939338446424241",
        "title": "公共厕所",
        "address": "黑龙江省大庆市大同区同北路与同政街交叉口正南方向91米左右",
        "tel": "",
        "category": "基础设施:公共设施:公共厕所",
        "type": 0,
        "location": {
            "lat": 46.035709,
            "lng": 124.826323
        },
        "ad_info": {
            "adcode": 230606,
            "province": "黑龙江省",
            "city": "大庆市",
            "district": "大同区"
        }
    },
    {
        "id": "1141955907150524662",
        "title": "公共厕所",
        "address": "黑龙江省大庆市萨尔图区万峰路与中兴南街交叉口正东方向572米左右",
        "tel": "",
        "category": "基础设施:公共设施:公共厕所",
        "type": 0,
        "location": {
            "lat": 46.567939,
            "lng": 125.078562
        },
        "ad_info": {
            "adcode": 230602,
            "province": "黑龙江省",
            "city": "大庆市",
            "district": "萨尔图区"
        }
    },
    {
        "id": "16344115286540594399",
        "title": "公共厕所",
        "address": "黑龙江省大庆市肇源县S502与源富路交叉口正西方向73米左右",
        "tel": "",
        "category": "基础设施:公共设施:公共厕所",
        "type": 0,
        "location": {
            "lat": 45.55045,
            "lng": 125.061619
        },
        "ad_info": {
            "adcode": 230622,
            "province": "黑龙江省",
            "city": "大庆市",
            "district": "肇源县"
        }
    },
    {
        "id": "14107575852132756788",
        "title": "男卫生间",
        "address": "黑龙江省大庆市让胡路区昆仑大街与西宾路交会处昆仑唐人中心C-F2",
        "tel": "",
        "category": "基础设施:公共设施:男洗手间",
        "type": 0,
        "location": {
            "lat": 46.635504,
            "lng": 124.881468
        },
        "ad_info": {
            "adcode": 230604,
            "province": "黑龙江省",
            "city": "大庆市",
            "district": "让胡路区"
        }
    },
    {
        "id": "125454625492169691",
        "title": "公共厕所",
        "address": "黑龙江省大庆市杜尔伯特蒙古族自治县哈萨尔路与图布沁街交叉口东南方向133米左右",
        "tel": "",
        "category": "基础设施:公共设施:公共厕所",
        "type": 0,
        "location": {
            "lat": 46.850576,
            "lng": 124.435208
        },
        "ad_info": {
            "adcode": 230624,
            "province": "黑龙江省",
            "city": "大庆市",
            "district": "杜尔伯特蒙古族自治县"
        }
    },
    {
        "id": "15867097430585018051",
        "title": "公共厕所",
        "address": "黑龙江省大庆市肇源县哈安公路与民新路交叉口正南方向69米左右",
        "tel": "",
        "category": "基础设施:公共设施:公共厕所",
        "type": 0,
        "location": {
            "lat": 45.519463,
            "lng": 124.476558
        },
        "ad_info": {
            "adcode": 230622,
            "province": "黑龙江省",
            "city": "大庆市",
            "district": "肇源县"
        }
    },
    {
        "id": "1298887842153954476",
        "title": "女洗手间(万达广场大庆萨尔图店)",
        "address": "黑龙江省大庆市萨尔图区东风路15号万达广场(大庆萨尔图店)5F层",
        "tel": "",
        "category": "基础设施:公共设施:公共厕所",
        "type": 0,
        "location": {
            "lat": 46.594025,
            "lng": 125.095266
        },
        "ad_info": {
            "adcode": 230602,
            "province": "黑龙江省",
            "city": "大庆市",
            "district": "萨尔图区"
        }
    },
    {
        "id": "15575411147008291156",
        "title": "公共厕所",
        "address": "黑龙江省大庆市林甸县S214与红旗桥交叉口东北方向210米左右",
        "tel": "",
        "category": "基础设施:公共设施:公共厕所",
        "type": 0,
        "location": {
            "lat": 47.039672,
            "lng": 124.698137
        },
        "ad_info": {
            "adcode": 230623,
            "province": "黑龙江省",
            "city": "大庆市",
            "district": "林甸县"
        }
    },
    {
        "id": "9436739983374682018",
        "title": "公共厕所",
        "address": "黑龙江省大庆市龙凤区外环东路与龙华路交叉口东南方向1119米左右",
        "tel": "",
        "category": "基础设施:公共设施:公共厕所",
        "type": 0,
        "location": {
            "lat": 46.514966,
            "lng": 125.145272
        },
        "ad_info": {
            "adcode": 230603,
            "province": "黑龙江省",
            "city": "大庆市",
            "district": "龙凤区"
        }
    },
    {
        "id": "10743259326235037033",
        "title": "公共卫生间",
        "address": "黑龙江省大庆市肇州县东环南路与祝三街交叉口正南方向44米左右",
        "tel": "",
        "category": "基础设施:公共设施:公共厕所",
        "type": 0,
        "location": {
            "lat": 45.704861,
            "lng": 125.285537
        },
        "ad_info": {
            "adcode": 230621,
            "province": "黑龙江省",
            "city": "大庆市",
            "district": "肇州县"
        }
    },
    {
        "id": "2062622246295811105",
        "title": "公共厕所",
        "address": "黑龙江省大庆市大同区同乐街与同北路交叉口东南方向20米左右",
        "tel": "",
        "category": "基础设施:公共设施:公共厕所",
        "type": 0,
        "location": {
            "lat": 46.033667,
            "lng": 124.805438
        },
        "ad_info": {
            "adcode": 230606,
            "province": "黑龙江省",
            "city": "大庆市",
            "district": "大同区"
        }
    },
    {
        "id": "9455117680524305371",
        "title": "公共卫生间",
        "address": "黑龙江省大庆市肇源县南二路与南阳大街交叉口正南方向87米左右",
        "tel": "",
        "category": "基础设施:公共设施:公共厕所",
        "type": 0,
        "location": {
            "lat": 45.511687,
            "lng": 125.093747
        },
        "ad_info": {
            "adcode": 230622,
            "province": "黑龙江省",
            "city": "大庆市",
            "district": "肇源县"
        }
    },
    {
        "id": "7311037899543444692",
        "title": "女洗手间(毅腾商都购物中心)",
        "address": "黑龙江省大庆市萨尔图区东风街道东风新村经六街24号毅腾商都购物中心F3",
        "tel": "",
        "category": "基础设施:公共设施:女洗手间",
        "type": 0,
        "location": {
            "lat": 46.594368,
            "lng": 125.118573
        },
        "ad_info": {
            "adcode": 230602,
            "province": "黑龙江省",
            "city": "大庆市",
            "district": "萨尔图区"
        }
    },
    {
        "id": "14983437076905597260",
        "title": "男洗手间(大庆湖滨超市)",
        "address": "黑龙江省大庆市龙凤区湖滨教师花园大庆湖滨超市F2层",
        "tel": "",
        "category": "基础设施:公共设施:公共厕所",
        "type": 0,
        "location": {
            "lat": 46.624393,
            "lng": 125.156475
        },
        "ad_info": {
            "adcode": 230603,
            "province": "黑龙江省",
            "city": "大庆市",
            "district": "龙凤区"
        }
    },
    {
        "id": "10375187208780185639",
        "title": "公共厕所",
        "address": "黑龙江省大庆市肇源县东环大街与嫩江大街交叉口东北方向31米左右",
        "tel": "",
        "category": "基础设施:公共设施:公共厕所",
        "type": 0,
        "location": {
            "lat": 45.517703,
            "lng": 125.090211
        },
        "ad_info": {
            "adcode": 230622,
            "province": "黑龙江省",
            "city": "大庆市",
            "district": "肇源县"
        }
    },
    {
        "id": "11928143819011524674",
        "title": "公共厕所",
        "address": "黑龙江省大庆市让胡路区新泽路奥林国际公寓-C区",
        "tel": "",
        "category": "基础设施:公共设施:公共厕所",
        "type": 0,
        "location": {
            "lat": 46.600905,
            "lng": 124.918869
        },
        "ad_info": {
            "adcode": 230604,
            "province": "黑龙江省",
            "city": "大庆市",
            "district": "让胡路区"
        }
    },
    {
        "id": "1851923571864896006",
        "title": "卫生间",
        "address": "黑龙江省大庆市萨尔图区东风路15-3号万达广场F3",
        "tel": "",
        "category": "基础设施:公共设施:公共厕所",
        "type": 0,
        "location": {
            "lat": 46.594122,
            "lng": 125.095188
        },
        "ad_info": {
            "adcode": 230602,
            "province": "黑龙江省",
            "city": "大庆市",
            "district": "萨尔图区"
        }
    },
    {
        "id": "3220511972366733886",
        "title": "公共厕所",
        "address": "黑龙江省大庆市肇源县松花江大街肇源县第五中学",
        "tel": "",
        "category": "基础设施:公共设施:公共厕所",
        "type": 0,
        "location": {
            "lat": 45.509267,
            "lng": 125.074081
        },
        "ad_info": {
            "adcode": 230622,
            "province": "黑龙江省",
            "city": "大庆市",
            "district": "肇源县"
        }
    },
    {
        "id": "1626776026581094535",
        "title": "公共厕所",
        "address": "黑龙江省大庆市萨尔图区中八路与中成路交叉口东北方向73米左右",
        "tel": "",
        "category": "基础设施:公共设施:公共厕所",
        "type": 0,
        "location": {
            "lat": 46.603008,
            "lng": 125.01361
        },
        "ad_info": {
            "adcode": 230602,
            "province": "黑龙江省",
            "city": "大庆市",
            "district": "萨尔图区"
        }
    },
    {
        "id": "13531477468759433197",
        "title": "公共厕所",
        "address": "黑龙江省大庆市龙凤区兴化南街与化友路交叉口西北方向144米左右",
        "tel": "",
        "category": "基础设施:公共设施:公共厕所",
        "type": 0,
        "location": {
            "lat": 46.446139,
            "lng": 125.193643
        },
        "ad_info": {
            "adcode": 230603,
            "province": "黑龙江省",
            "city": "大庆市",
            "district": "龙凤区"
        }
    },
    {
        "id": "5784939338446424241",
        "title": "公共厕所",
        "address": "黑龙江省大庆市大同区同北路与同政街交叉口正南方向91米左右",
        "tel": "",
        "category": "基础设施:公共设施:公共厕所",
        "type": 0,
        "location": {
            "lat": 46.035709,
            "lng": 124.826323
        },
        "ad_info": {
            "adcode": 230606,
            "province": "黑龙江省",
            "city": "大庆市",
            "district": "大同区"
        }
    },
    {
        "id": "1141955907150524662",
        "title": "公共厕所",
        "address": "黑龙江省大庆市萨尔图区万峰路与中兴南街交叉口正东方向572米左右",
        "tel": "",
        "category": "基础设施:公共设施:公共厕所",
        "type": 0,
        "location": {
            "lat": 46.567939,
            "lng": 125.078562
        },
        "ad_info": {
            "adcode": 230602,
            "province": "黑龙江省",
            "city": "大庆市",
            "district": "萨尔图区"
        }
    },
    {
        "id": "16344115286540594399",
        "title": "公共厕所",
        "address": "黑龙江省大庆市肇源县S502与源富路交叉口正西方向73米左右",
        "tel": "",
        "category": "基础设施:公共设施:公共厕所",
        "type": 0,
        "location": {
            "lat": 45.55045,
            "lng": 125.061619
        },
        "ad_info": {
            "adcode": 230622,
            "province": "黑龙江省",
            "city": "大庆市",
            "district": "肇源县"
        }
    },
    {
        "id": "14107575852132756788",
        "title": "男卫生间",
        "address": "黑龙江省大庆市让胡路区昆仑大街与西宾路交会处昆仑唐人中心C-F2",
        "tel": "",
        "category": "基础设施:公共设施:男洗手间",
        "type": 0,
        "location": {
            "lat": 46.635504,
            "lng": 124.881468
        },
        "ad_info": {
            "adcode": 230604,
            "province": "黑龙江省",
            "city": "大庆市",
            "district": "让胡路区"
        }
    },
    {
        "id": "125454625492169691",
        "title": "公共厕所",
        "address": "黑龙江省大庆市杜尔伯特蒙古族自治县哈萨尔路与图布沁街交叉口东南方向133米左右",
        "tel": "",
        "category": "基础设施:公共设施:公共厕所",
        "type": 0,
        "location": {
            "lat": 46.850576,
            "lng": 124.435208
        },
        "ad_info": {
            "adcode": 230624,
            "province": "黑龙江省",
            "city": "大庆市",
            "district": "杜尔伯特蒙古族自治县"
        }
    },
    {
        "id": "15867097430585018051",
        "title": "公共厕所",
        "address": "黑龙江省大庆市肇源县哈安公路与民新路交叉口正南方向69米左右",
        "tel": "",
        "category": "基础设施:公共设施:公共厕所",
        "type": 0,
        "location": {
            "lat": 45.519463,
            "lng": 124.476558
        },
        "ad_info": {
            "adcode": 230622,
            "province": "黑龙江省",
            "city": "大庆市",
            "district": "肇源县"
        }
    },
    {
        "id": "1298887842153954476",
        "title": "女洗手间(万达广场大庆萨尔图店)",
        "address": "黑龙江省大庆市萨尔图区东风路15号万达广场(大庆萨尔图店)5F层",
        "tel": "",
        "category": "基础设施:公共设施:公共厕所",
        "type": 0,
        "location": {
            "lat": 46.594025,
            "lng": 125.095266
        },
        "ad_info": {
            "adcode": 230602,
            "province": "黑龙江省",
            "city": "大庆市",
            "district": "萨尔图区"
        }
    },
    {
        "id": "15575411147008291156",
        "title": "公共厕所",
        "address": "黑龙江省大庆市林甸县S214与红旗桥交叉口东北方向210米左右",
        "tel": "",
        "category": "基础设施:公共设施:公共厕所",
        "type": 0,
        "location": {
            "lat": 47.039672,
            "lng": 124.698137
        },
        "ad_info": {
            "adcode": 230623,
            "province": "黑龙江省",
            "city": "大庆市",
            "district": "林甸县"
        }
    },
    {
        "id": "9436739983374682018",
        "title": "公共厕所",
        "address": "黑龙江省大庆市龙凤区外环东路与龙华路交叉口东南方向1119米左右",
        "tel": "",
        "category": "基础设施:公共设施:公共厕所",
        "type": 0,
        "location": {
            "lat": 46.514966,
            "lng": 125.145272
        },
        "ad_info": {
            "adcode": 230603,
            "province": "黑龙江省",
            "city": "大庆市",
            "district": "龙凤区"
        }
    },
    {
        "id": "10743259326235037033",
        "title": "公共卫生间",
        "address": "黑龙江省大庆市肇州县东环南路与祝三街交叉口正南方向44米左右",
        "tel": "",
        "category": "基础设施:公共设施:公共厕所",
        "type": 0,
        "location": {
            "lat": 45.704861,
            "lng": 125.285537
        },
        "ad_info": {
            "adcode": 230621,
            "province": "黑龙江省",
            "city": "大庆市",
            "district": "肇州县"
        }
    },
    {
        "id": "2062622246295811105",
        "title": "公共厕所",
        "address": "黑龙江省大庆市大同区同乐街与同北路交叉口东南方向20米左右",
        "tel": "",
        "category": "基础设施:公共设施:公共厕所",
        "type": 0,
        "location": {
            "lat": 46.033667,
            "lng": 124.805438
        },
        "ad_info": {
            "adcode": 230606,
            "province": "黑龙江省",
            "city": "大庆市",
            "district": "大同区"
        }
    },
    {
        "id": "9455117680524305371",
        "title": "公共卫生间",
        "address": "黑龙江省大庆市肇源县南二路与南阳大街交叉口正南方向87米左右",
        "tel": "",
        "category": "基础设施:公共设施:公共厕所",
        "type": 0,
        "location": {
            "lat": 45.511687,
            "lng": 125.093747
        },
        "ad_info": {
            "adcode": 230622,
            "province": "黑龙江省",
            "city": "大庆市",
            "district": "肇源县"
        }
    },
    {
        "id": "7311037899543444692",
        "title": "女洗手间(毅腾商都购物中心)",
        "address": "黑龙江省大庆市萨尔图区东风街道东风新村经六街24号毅腾商都购物中心F3",
        "tel": "",
        "category": "基础设施:公共设施:女洗手间",
        "type": 0,
        "location": {
            "lat": 46.594368,
            "lng": 125.118573
        },
        "ad_info": {
            "adcode": 230602,
            "province": "黑龙江省",
            "city": "大庆市",
            "district": "萨尔图区"
        }
    },
    {
        "id": "14983437076905597260",
        "title": "男洗手间(大庆湖滨超市)",
        "address": "黑龙江省大庆市龙凤区湖滨教师花园大庆湖滨超市F2层",
        "tel": "",
        "category": "基础设施:公共设施:公共厕所",
        "type": 0,
        "location": {
            "lat": 46.624393,
            "lng": 125.156475
        },
        "ad_info": {
            "adcode": 230603,
            "province": "黑龙江省",
            "city": "大庆市",
            "district": "龙凤区"
        }
    },
    {
        "id": "10375187208780185639",
        "title": "公共厕所",
        "address": "黑龙江省大庆市肇源县东环大街与嫩江大街交叉口东北方向31米左右",
        "tel": "",
        "category": "基础设施:公共设施:公共厕所",
        "type": 0,
        "location": {
            "lat": 45.517703,
            "lng": 125.090211
        },
        "ad_info": {
            "adcode": 230622,
            "province": "黑龙江省",
            "city": "大庆市",
            "district": "肇源县"
        }
    },
    {
        "id": "11928143819011524674",
        "title": "公共厕所",
        "address": "黑龙江省大庆市让胡路区新泽路奥林国际公寓-C区",
        "tel": "",
        "category": "基础设施:公共设施:公共厕所",
        "type": 0,
        "location": {
            "lat": 46.600905,
            "lng": 124.918869
        },
        "ad_info": {
            "adcode": 230604,
            "province": "黑龙江省",
            "city": "大庆市",
            "district": "让胡路区"
        }
    },
    {
        "id": "1851923571864896006",
        "title": "卫生间",
        "address": "黑龙江省大庆市萨尔图区东风路15-3号万达广场F3",
        "tel": "",
        "category": "基础设施:公共设施:公共厕所",
        "type": 0,
        "location": {
            "lat": 46.594122,
            "lng": 125.095188
        },
        "ad_info": {
            "adcode": 230602,
            "province": "黑龙江省",
            "city": "大庆市",
            "district": "萨尔图区"
        }
    },
    {
        "id": "3220511972366733886",
        "title": "公共厕所",
        "address": "黑龙江省大庆市肇源县松花江大街肇源县第五中学",
        "tel": "",
        "category": "基础设施:公共设施:公共厕所",
        "type": 0,
        "location": {
            "lat": 45.509267,
            "lng": 125.074081
        },
        "ad_info": {
            "adcode": 230622,
            "province": "黑龙江省",
            "city": "大庆市",
            "district": "肇源县"
        }
    },
    {
        "id": "1626776026581094535",
        "title": "公共厕所",
        "address": "黑龙江省大庆市萨尔图区中八路与中成路交叉口东北方向73米左右",
        "tel": "",
        "category": "基础设施:公共设施:公共厕所",
        "type": 0,
        "location": {
            "lat": 46.603008,
            "lng": 125.01361
        },
        "ad_info": {
            "adcode": 230602,
            "province": "黑龙江省",
            "city": "大庆市",
            "district": "萨尔图区"
        }
    },
    {
        "id": "13531477468759433197",
        "title": "公共厕所",
        "address": "黑龙江省大庆市龙凤区兴化南街与化友路交叉口西北方向144米左右",
        "tel": "",
        "category": "基础设施:公共设施:公共厕所",
        "type": 0,
        "location": {
            "lat": 46.446139,
            "lng": 125.193643
        },
        "ad_info": {
            "adcode": 230603,
            "province": "黑龙江省",
            "city": "大庆市",
            "district": "龙凤区"
        }
    },
    {
        "id": "5784939338446424241",
        "title": "公共厕所",
        "address": "黑龙江省大庆市大同区同北路与同政街交叉口正南方向91米左右",
        "tel": "",
        "category": "基础设施:公共设施:公共厕所",
        "type": 0,
        "location": {
            "lat": 46.035709,
            "lng": 124.826323
        },
        "ad_info": {
            "adcode": 230606,
            "province": "黑龙江省",
            "city": "大庆市",
            "district": "大同区"
        }
    },
    {
        "id": "1141955907150524662",
        "title": "公共厕所",
        "address": "黑龙江省大庆市萨尔图区万峰路与中兴南街交叉口正东方向572米左右",
        "tel": "",
        "category": "基础设施:公共设施:公共厕所",
        "type": 0,
        "location": {
            "lat": 46.567939,
            "lng": 125.078562
        },
        "ad_info": {
            "adcode": 230602,
            "province": "黑龙江省",
            "city": "大庆市",
            "district": "萨尔图区"
        }
    },
    {
        "id": "16344115286540594399",
        "title": "公共厕所",
        "address": "黑龙江省大庆市肇源县S502与源富路交叉口正西方向73米左右",
        "tel": "",
        "category": "基础设施:公共设施:公共厕所",
        "type": 0,
        "location": {
            "lat": 45.55045,
            "lng": 125.061619
        },
        "ad_info": {
            "adcode": 230622,
            "province": "黑龙江省",
            "city": "大庆市",
            "district": "肇源县"
        }
    },
    {
        "id": "14107575852132756788",
        "title": "男卫生间",
        "address": "黑龙江省大庆市让胡路区昆仑大街与西宾路交会处昆仑唐人中心C-F2",
        "tel": "",
        "category": "基础设施:公共设施:男洗手间",
        "type": 0,
        "location": {
            "lat": 46.635504,
            "lng": 124.881468
        },
        "ad_info": {
            "adcode": 230604,
            "province": "黑龙江省",
            "city": "大庆市",
            "district": "让胡路区"
        }
    },
    {
        "id": "125454625492169691",
        "title": "公共厕所",
        "address": "黑龙江省大庆市杜尔伯特蒙古族自治县哈萨尔路与图布沁街交叉口东南方向133米左右",
        "tel": "",
        "category": "基础设施:公共设施:公共厕所",
        "type": 0,
        "location": {
            "lat": 46.850576,
            "lng": 124.435208
        },
        "ad_info": {
            "adcode": 230624,
            "province": "黑龙江省",
            "city": "大庆市",
            "district": "杜尔伯特蒙古族自治县"
        }
    },
    {
        "id": "15867097430585018051",
        "title": "公共厕所",
        "address": "黑龙江省大庆市肇源县哈安公路与民新路交叉口正南方向69米左右",
        "tel": "",
        "category": "基础设施:公共设施:公共厕所",
        "type": 0,
        "location": {
            "lat": 45.519463,
            "lng": 124.476558
        },
        "ad_info": {
            "adcode": 230622,
            "province": "黑龙江省",
            "city": "大庆市",
            "district": "肇源县"
        }
    },
    {
        "id": "1298887842153954476",
        "title": "女洗手间(万达广场大庆萨尔图店)",
        "address": "黑龙江省大庆市萨尔图区东风路15号万达广场(大庆萨尔图店)5F层",
        "tel": "",
        "category": "基础设施:公共设施:公共厕所",
        "type": 0,
        "location": {
            "lat": 46.594025,
            "lng": 125.095266
        },
        "ad_info": {
            "adcode": 230602,
            "province": "黑龙江省",
            "city": "大庆市",
            "district": "萨尔图区"
        }
    },
    {
        "id": "15575411147008291156",
        "title": "公共厕所",
        "address": "黑龙江省大庆市林甸县S214与红旗桥交叉口东北方向210米左右",
        "tel": "",
        "category": "基础设施:公共设施:公共厕所",
        "type": 0,
        "location": {
            "lat": 47.039672,
            "lng": 124.698137
        },
        "ad_info": {
            "adcode": 230623,
            "province": "黑龙江省",
            "city": "大庆市",
            "district": "林甸县"
        }
    },
    {
        "id": "9436739983374682018",
        "title": "公共厕所",
        "address": "黑龙江省大庆市龙凤区外环东路与龙华路交叉口东南方向1119米左右",
        "tel": "",
        "category": "基础设施:公共设施:公共厕所",
        "type": 0,
        "location": {
            "lat": 46.514966,
            "lng": 125.145272
        },
        "ad_info": {
            "adcode": 230603,
            "province": "黑龙江省",
            "city": "大庆市",
            "district": "龙凤区"
        }
    },
    {
        "id": "10743259326235037033",
        "title": "公共卫生间",
        "address": "黑龙江省大庆市肇州县东环南路与祝三街交叉口正南方向44米左右",
        "tel": "",
        "category": "基础设施:公共设施:公共厕所",
        "type": 0,
        "location": {
            "lat": 45.704861,
            "lng": 125.285537
        },
        "ad_info": {
            "adcode": 230621,
            "province": "黑龙江省",
            "city": "大庆市",
            "district": "肇州县"
        }
    },
    {
        "id": "2062622246295811105",
        "title": "公共厕所",
        "address": "黑龙江省大庆市大同区同乐街与同北路交叉口东南方向20米左右",
        "tel": "",
        "category": "基础设施:公共设施:公共厕所",
        "type": 0,
        "location": {
            "lat": 46.033667,
            "lng": 124.805438
        },
        "ad_info": {
            "adcode": 230606,
            "province": "黑龙江省",
            "city": "大庆市",
            "district": "大同区"
        }
    },
    {
        "id": "9455117680524305371",
        "title": "公共卫生间",
        "address": "黑龙江省大庆市肇源县南二路与南阳大街交叉口正南方向87米左右",
        "tel": "",
        "category": "基础设施:公共设施:公共厕所",
        "type": 0,
        "location": {
            "lat": 45.511687,
            "lng": 125.093747
        },
        "ad_info": {
            "adcode": 230622,
            "province": "黑龙江省",
            "city": "大庆市",
            "district": "肇源县"
        }
    },
    {
        "id": "7311037899543444692",
        "title": "女洗手间(毅腾商都购物中心)",
        "address": "黑龙江省大庆市萨尔图区东风街道东风新村经六街24号毅腾商都购物中心F3",
        "tel": "",
        "category": "基础设施:公共设施:女洗手间",
        "type": 0,
        "location": {
            "lat": 46.594368,
            "lng": 125.118573
        },
        "ad_info": {
            "adcode": 230602,
            "province": "黑龙江省",
            "city": "大庆市",
            "district": "萨尔图区"
        }
    },
    {
        "id": "14983437076905597260",
        "title": "男洗手间(大庆湖滨超市)",
        "address": "黑龙江省大庆市龙凤区湖滨教师花园大庆湖滨超市F2层",
        "tel": "",
        "category": "基础设施:公共设施:公共厕所",
        "type": 0,
        "location": {
            "lat": 46.624393,
            "lng": 125.156475
        },
        "ad_info": {
            "adcode": 230603,
            "province": "黑龙江省",
            "city": "大庆市",
            "district": "龙凤区"
        }
    },
    {
        "id": "10375187208780185639",
        "title": "公共厕所",
        "address": "黑龙江省大庆市肇源县东环大街与嫩江大街交叉口东北方向31米左右",
        "tel": "",
        "category": "基础设施:公共设施:公共厕所",
        "type": 0,
        "location": {
            "lat": 45.517703,
            "lng": 125.090211
        },
        "ad_info": {
            "adcode": 230622,
            "province": "黑龙江省",
            "city": "大庆市",
            "district": "肇源县"
        }
    },
    {
        "id": "11928143819011524674",
        "title": "公共厕所",
        "address": "黑龙江省大庆市让胡路区新泽路奥林国际公寓-C区",
        "tel": "",
        "category": "基础设施:公共设施:公共厕所",
        "type": 0,
        "location": {
            "lat": 46.600905,
            "lng": 124.918869
        },
        "ad_info": {
            "adcode": 230604,
            "province": "黑龙江省",
            "city": "大庆市",
            "district": "让胡路区"
        }
    },
    {
        "id": "1851923571864896006",
        "title": "卫生间",
        "address": "黑龙江省大庆市萨尔图区东风路15-3号万达广场F3",
        "tel": "",
        "category": "基础设施:公共设施:公共厕所",
        "type": 0,
        "location": {
            "lat": 46.594122,
            "lng": 125.095188
        },
        "ad_info": {
            "adcode": 230602,
            "province": "黑龙江省",
            "city": "大庆市",
            "district": "萨尔图区"
        }
    },
    {
        "id": "3220511972366733886",
        "title": "公共厕所",
        "address": "黑龙江省大庆市肇源县松花江大街肇源县第五中学",
        "tel": "",
        "category": "基础设施:公共设施:公共厕所",
        "type": 0,
        "location": {
            "lat": 45.509267,
            "lng": 125.074081
        },
        "ad_info": {
            "adcode": 230622,
            "province": "黑龙江省",
            "city": "大庆市",
            "district": "肇源县"
        }
    },
    {
        "id": "1626776026581094535",
        "title": "公共厕所",
        "address": "黑龙江省大庆市萨尔图区中八路与中成路交叉口东北方向73米左右",
        "tel": "",
        "category": "基础设施:公共设施:公共厕所",
        "type": 0,
        "location": {
            "lat": 46.603008,
            "lng": 125.01361
        },
        "ad_info": {
            "adcode": 230602,
            "province": "黑龙江省",
            "city": "大庆市",
            "district": "萨尔图区"
        }
    },
    {
        "id": "13531477468759433197",
        "title": "公共厕所",
        "address": "黑龙江省大庆市龙凤区兴化南街与化友路交叉口西北方向144米左右",
        "tel": "",
        "category": "基础设施:公共设施:公共厕所",
        "type": 0,
        "location": {
            "lat": 46.446139,
            "lng": 125.193643
        },
        "ad_info": {
            "adcode": 230603,
            "province": "黑龙江省",
            "city": "大庆市",
            "district": "龙凤区"
        }
    },
    {
        "id": "5784939338446424241",
        "title": "公共厕所",
        "address": "黑龙江省大庆市大同区同北路与同政街交叉口正南方向91米左右",
        "tel": "",
        "category": "基础设施:公共设施:公共厕所",
        "type": 0,
        "location": {
            "lat": 46.035709,
            "lng": 124.826323
        },
        "ad_info": {
            "adcode": 230606,
            "province": "黑龙江省",
            "city": "大庆市",
            "district": "大同区"
        }
    },
    {
        "id": "1141955907150524662",
        "title": "公共厕所",
        "address": "黑龙江省大庆市萨尔图区万峰路与中兴南街交叉口正东方向572米左右",
        "tel": "",
        "category": "基础设施:公共设施:公共厕所",
        "type": 0,
        "location": {
            "lat": 46.567939,
            "lng": 125.078562
        },
        "ad_info": {
            "adcode": 230602,
            "province": "黑龙江省",
            "city": "大庆市",
            "district": "萨尔图区"
        }
    },
    {
        "id": "16344115286540594399",
        "title": "公共厕所",
        "address": "黑龙江省大庆市肇源县S502与源富路交叉口正西方向73米左右",
        "tel": "",
        "category": "基础设施:公共设施:公共厕所",
        "type": 0,
        "location": {
            "lat": 45.55045,
            "lng": 125.061619
        },
        "ad_info": {
            "adcode": 230622,
            "province": "黑龙江省",
            "city": "大庆市",
            "district": "肇源县"
        }
    },
    {
        "id": "14107575852132756788",
        "title": "男卫生间",
        "address": "黑龙江省大庆市让胡路区昆仑大街与西宾路交会处昆仑唐人中心C-F2",
        "tel": "",
        "category": "基础设施:公共设施:男洗手间",
        "type": 0,
        "location": {
            "lat": 46.635504,
            "lng": 124.881468
        },
        "ad_info": {
            "adcode": 230604,
            "province": "黑龙江省",
            "city": "大庆市",
            "district": "让胡路区"
        }
    },
    {
        "id": "125454625492169691",
        "title": "公共厕所",
        "address": "黑龙江省大庆市杜尔伯特蒙古族自治县哈萨尔路与图布沁街交叉口东南方向133米左右",
        "tel": "",
        "category": "基础设施:公共设施:公共厕所",
        "type": 0,
        "location": {
            "lat": 46.850576,
            "lng": 124.435208
        },
        "ad_info": {
            "adcode": 230624,
            "province": "黑龙江省",
            "city": "大庆市",
            "district": "杜尔伯特蒙古族自治县"
        }
    },
    {
        "id": "15867097430585018051",
        "title": "公共厕所",
        "address": "黑龙江省大庆市肇源县哈安公路与民新路交叉口正南方向69米左右",
        "tel": "",
        "category": "基础设施:公共设施:公共厕所",
        "type": 0,
        "location": {
            "lat": 45.519463,
            "lng": 124.476558
        },
        "ad_info": {
            "adcode": 230622,
            "province": "黑龙江省",
            "city": "大庆市",
            "district": "肇源县"
        }
    },
    {
        "id": "1298887842153954476",
        "title": "女洗手间(万达广场大庆萨尔图店)",
        "address": "黑龙江省大庆市萨尔图区东风路15号万达广场(大庆萨尔图店)5F层",
        "tel": "",
        "category": "基础设施:公共设施:公共厕所",
        "type": 0,
        "location": {
            "lat": 46.594025,
            "lng": 125.095266
        },
        "ad_info": {
            "adcode": 230602,
            "province": "黑龙江省",
            "city": "大庆市",
            "district": "萨尔图区"
        }
    },
    {
        "id": "15575411147008291156",
        "title": "公共厕所",
        "address": "黑龙江省大庆市林甸县S214与红旗桥交叉口东北方向210米左右",
        "tel": "",
        "category": "基础设施:公共设施:公共厕所",
        "type": 0,
        "location": {
            "lat": 47.039672,
            "lng": 124.698137
        },
        "ad_info": {
            "adcode": 230623,
            "province": "黑龙江省",
            "city": "大庆市",
            "district": "林甸县"
        }
    }
]