[
    {
        "id": "17461611652724514062",
        "title": "公共厕所",
        "address": "山西省大同市平城区南环东路与文兴路交叉口东北方向84米左右",
        "tel": "",
        "category": "基础设施:公共设施:公共厕所",
        "type": 0,
        "location": {
            "lat": 40.063955,
            "lng": 113.346019
        },
        "ad_info": {
            "adcode": 140213,
            "province": "山西省",
            "city": "大同市",
            "district": "平城区"
        }
    },
    {
        "id": "1107740334289988422",
        "title": "公共厕所",
        "address": "山西省大同市平城区永固街与永祥路交叉口正北方向338米左右",
        "tel": "",
        "category": "基础设施:公共设施:公共厕所",
        "type": 0,
        "location": {
            "lat": 40.092213,
            "lng": 113.354338
        },
        "ad_info": {
            "adcode": 140213,
            "province": "山西省",
            "city": "大同市",
            "district": "平城区"
        }
    },
    {
        "id": "2111779815569425867",
        "title": "公共卫生间",
        "address": "山西省大同市平城区操场城街与魏都大道交叉口正南方向63米左右",
        "tel": "",
        "category": "基础设施:公共设施:公共厕所",
        "type": 0,
        "location": {
            "lat": 40.105747,
            "lng": 113.289209
        },
        "ad_info": {
            "adcode": 140213,
            "province": "山西省",
            "city": "大同市",
            "district": "平城区"
        }
    },
    {
        "id": "16047637350291937593",
        "title": "公共厕所",
        "address": "山西省大同市平城区源茂街416正南方向60米",
        "tel": "",
        "category": "基础设施:公共设施:公共厕所",
        "type": 0,
        "location": {
            "lat": 40.052692,
            "lng": 113.291383
        },
        "ad_info": {
            "adcode": 140213,
            "province": "山西省",
            "city": "大同市",
            "district": "平城区"
        }
    },
    {
        "id": "14096565506773122712",
        "title": "公共厕所",
        "address": "山西省大同市平城区西环路168号",
        "tel": "",
        "category": "基础设施:公共设施:公共厕所",
        "type": 0,
        "location": {
            "lat": 40.078554,
            "lng": 113.268441
        },
        "ad_info": {
            "adcode": 140213,
            "province": "山西省",
            "city": "大同市",
            "district": "平城区"
        }
    },
    {
        "id": "2527922703868498678",
        "title": "公共厕所",
        "address": "山西省大同市平城区华严街与赐福庙街交叉口正西方向80米左右",
        "tel": "",
        "category": "基础设施:公共设施:公共厕所",
        "type": 0,
        "location": {
            "lat": 40.089894,
            "lng": 113.296121
        },
        "ad_info": {
            "adcode": 140213,
            "province": "山西省",
            "city": "大同市",
            "district": "平城区"
        }
    },
    {
        "id": "342251981069054448",
        "title": "公共卫生间",
        "address": "山西省大同市平城区民航街45号",
        "tel": "",
        "category": "基础设施:公共设施:公共厕所",
        "type": 0,
        "location": {
            "lat": 40.072415,
            "lng": 113.315474
        },
        "ad_info": {
            "adcode": 140213,
            "province": "山西省",
            "city": "大同市",
            "district": "平城区"
        }
    },
    {
        "id": "2469037342256323150",
        "title": "公共厕所",
        "address": "山西省大同市平城区新世纪广场(开源街北100米)",
        "tel": "",
        "category": "基础设施:公共设施:公共厕所",
        "type": 0,
        "location": {
            "lat": 40.050389,
            "lng": 113.291774
        },
        "ad_info": {
            "adcode": 140213,
            "province": "山西省",
            "city": "大同市",
            "district": "平城区"
        }
    },
    {
        "id": "2542291516829712500",
        "title": "公共厕所",
        "address": "山西省大同市平城区鼓楼东街26号",
        "tel": "",
        "category": "基础设施:公共设施:公共厕所",
        "type": 0,
        "location": {
            "lat": 40.091302,
            "lng": 113.30384
        },
        "ad_info": {
            "adcode": 140213,
            "province": "山西省",
            "city": "大同市",
            "district": "平城区"
        }
    },
    {
        "id": "9652293311097496030",
        "title": "公共厕所",
        "address": "山西省大同市平城区兴国寺街与至宁街交叉口正南方向42米左右",
        "tel": "",
        "category": "基础设施:公共设施:公共厕所",
        "type": 0,
        "location": {
            "lat": 40.07984,
            "lng": 113.298621
        },
        "ad_info": {
            "adcode": 140213,
            "province": "山西省",
            "city": "大同市",
            "district": "平城区"
        }
    },
    {
        "id": "12699820039321685494",
        "title": "公共厕所",
        "address": "山西省大同市平城区南环路与延昌路交叉口正西方向138米左右",
        "tel": "",
        "category": "基础设施:公共设施:公共厕所",
        "type": 0,
        "location": {
            "lat": 40.063726,
            "lng": 113.283449
        },
        "ad_info": {
            "adcode": 140213,
            "province": "山西省",
            "city": "大同市",
            "district": "平城区"
        }
    },
    {
        "id": "16384053103460994250",
        "title": "公共厕所",
        "address": "山西省大同市平城区南环东路大同文化科技产业基地内方特欢乐世界",
        "tel": "",
        "category": "基础设施:公共设施:公共厕所",
        "type": 0,
        "location": {
            "lat": 40.061456,
            "lng": 113.366325
        },
        "ad_info": {
            "adcode": 140213,
            "province": "山西省",
            "city": "大同市",
            "district": "平城区"
        }
    },
    {
        "id": "14573054751280418371",
        "title": "公共厕所",
        "address": "山西省大同市平城区云冈路与同泉路交叉口东北方向131米左右",
        "tel": "",
        "category": "基础设施:公共设施:公共厕所",
        "type": 0,
        "location": {
            "lat": 40.0874,
            "lng": 113.2691
        },
        "ad_info": {
            "adcode": 140213,
            "province": "山西省",
            "city": "大同市",
            "district": "平城区"
        }
    },
    {
        "id": "14183114359573651937",
        "title": "公共厕所",
        "address": "山西省大同市平城区南环西路与新建路交叉口正西方向61米左右",
        "tel": "",
        "category": "基础设施:公共设施:公共厕所",
        "type": 0,
        "location": {
            "lat": 40.057922,
            "lng": 113.272276
        },
        "ad_info": {
            "adcode": 140213,
            "province": "山西省",
            "city": "大同市",
            "district": "平城区"
        }
    },
    {
        "id": "13764112178336621036",
        "title": "公共厕所",
        "address": "山西省大同市平城区昌宁街与柳泉南街交叉口正南方向71米左右",
        "tel": "",
        "category": "基础设施:公共设施:公共厕所",
        "type": 0,
        "location": {
            "lat": 40.050968,
            "lng": 113.312472
        },
        "ad_info": {
            "adcode": 140213,
            "province": "山西省",
            "city": "大同市",
            "district": "平城区"
        }
    },
    {
        "id": "1279010457606473820",
        "title": "公共厕所",
        "address": "山西省大同市平城区平城街与滨河路交叉口正北方向55米左右",
        "tel": "",
        "category": "基础设施:公共设施:公共厕所",
        "type": 0,
        "location": {
            "lat": 40.103509,
            "lng": 113.322544
        },
        "ad_info": {
            "adcode": 140213,
            "province": "山西省",
            "city": "大同市",
            "district": "平城区"
        }
    },
    {
        "id": "1019531822624912326",
        "title": "公共厕所",
        "address": "山西省大同市灵丘县新华东街与沙河南路交叉口东南方向80米左右",
        "tel": "",
        "category": "基础设施:公共设施:公共厕所",
        "type": 0,
        "location": {
            "lat": 39.43934,
            "lng": 114.24226
        },
        "ad_info": {
            "adcode": 140224,
            "province": "山西省",
            "city": "大同市",
            "district": "灵丘县"
        }
    },
    {
        "id": "8775204678736184114",
        "title": "公共厕所",
        "address": "山西省大同市平城区同庆路与同泉路交叉口正南方向190米左右",
        "tel": "",
        "category": "基础设施:公共设施:公共厕所",
        "type": 0,
        "location": {
            "lat": 40.081759,
            "lng": 113.255181
        },
        "ad_info": {
            "adcode": 140213,
            "province": "山西省",
            "city": "大同市",
            "district": "平城区"
        }
    },
    {
        "id": "13025819312101709266",
        "title": "公共厕所",
        "address": "山西省大同市平城区南环路与魏都大道交叉口正西方向78米左右",
        "tel": "",
        "category": "基础设施:公共设施:公共厕所",
        "type": 0,
        "location": {
            "lat": 40.063679,
            "lng": 113.288537
        },
        "ad_info": {
            "adcode": 140213,
            "province": "山西省",
            "city": "大同市",
            "district": "平城区"
        }
    },
    {
        "id": "12844676828747485873",
        "title": "公共厕所",
        "address": "山西省大同市平城区同泉路与文渊街交叉口正北方向26米左右",
        "tel": "",
        "category": "基础设施:公共设施:公共厕所",
        "type": 0,
        "location": {
            "lat": 40.08526,
            "lng": 113.264523
        },
        "ad_info": {
            "adcode": 140213,
            "province": "山西省",
            "city": "大同市",
            "district": "平城区"
        }
    },
    {
        "id": "1943149727641777802",
        "title": "公共厕所",
        "address": "山西省大同市平城区西水磨新村北侧310米",
        "tel": "",
        "category": "基础设施:公共设施:公共厕所",
        "type": 0,
        "location": {
            "lat": 40.067237,
            "lng": 113.239183
        },
        "ad_info": {
            "adcode": 140213,
            "province": "山西省",
            "city": "大同市",
            "district": "平城区"
        }
    },
    {
        "id": "4899685382419976217",
        "title": "公共厕所",
        "address": "山西省大同市平城区操场城街与雁运路交叉口正南方向97米左右",
        "tel": "",
        "category": "基础设施:公共设施:公共厕所",
        "type": 0,
        "location": {
            "lat": 40.10537,
            "lng": 113.293858
        },
        "ad_info": {
            "adcode": 140213,
            "province": "山西省",
            "city": "大同市",
            "district": "平城区"
        }
    },
    {
        "id": "13615876561415245364",
        "title": "公共厕所",
        "address": "山西省大同市平城区工农路甲17号",
        "tel": "",
        "category": "基础设施:公共设施:公共厕所",
        "type": 0,
        "location": {
            "lat": 40.063782,
            "lng": 113.305077
        },
        "ad_info": {
            "adcode": 140213,
            "province": "山西省",
            "city": "大同市",
            "district": "平城区"
        }
    },
    {
        "id": "481059363473668770",
        "title": "公共厕所",
        "address": "山西省大同市平城区南环路与永泰南路交叉口西南方向78米左右",
        "tel": "",
        "category": "基础设施:公共设施:公共厕所",
        "type": 0,
        "location": {
            "lat": 40.063125,
            "lng": 113.301856
        },
        "ad_info": {
            "adcode": 140213,
            "province": "山西省",
            "city": "大同市",
            "district": "平城区"
        }
    },
    {
        "id": "961755637907125094",
        "title": "公共厕所",
        "address": "山西省大同市平城区清远西街与迎泽北街交叉口东南方向102米左右",
        "tel": "",
        "category": "基础设施:公共设施:公共厕所",
        "type": 0,
        "location": {
            "lat": 40.093297,
            "lng": 113.287254
        },
        "ad_info": {
            "adcode": 140213,
            "province": "山西省",
            "city": "大同市",
            "district": "平城区"
        }
    },
    {
        "id": "7873761354407087107",
        "title": "公共厕所",
        "address": "山西省大同市平城区站北街与观清街交叉口东北方向282米左右",
        "tel": "",
        "category": "基础设施:公共设施:公共厕所",
        "type": 0,
        "location": {
            "lat": 40.124796,
            "lng": 113.303788
        },
        "ad_info": {
            "adcode": 140213,
            "province": "山西省",
            "city": "大同市",
            "district": "平城区"
        }
    },
    {
        "id": "338059360794894399",
        "title": "公共厕所",
        "address": "山西省大同市平城区南环东路大同文化科技产业基地内方特欢乐世界",
        "tel": "",
        "category": "基础设施:公共设施:公共厕所",
        "type": 0,
        "location": {
            "lat": 40.058071,
            "lng": 113.364426
        },
        "ad_info": {
            "adcode": 140213,
            "province": "山西省",
            "city": "大同市",
            "district": "平城区"
        }
    },
    {
        "id": "11701447733381575990",
        "title": "公共厕所",
        "address": "山西省大同市天镇县东大街与府东街交叉口正北方向56米左右",
        "tel": "",
        "category": "基础设施:公共设施:公共厕所",
        "type": 0,
        "location": {
            "lat": 40.420583,
            "lng": 114.092636
        },
        "ad_info": {
            "adcode": 140222,
            "province": "山西省",
            "city": "大同市",
            "district": "天镇县"
        }
    },
    {
        "id": "5604888511886012369",
        "title": "公共厕所",
        "address": "山西省大同市平城区云中路与新开西三路交叉口正东方向209米左右",
        "tel": "",
        "category": "基础设施:公共设施:公共厕所",
        "type": 0,
        "location": {
            "lat": 40.079904,
            "lng": 113.285261
        },
        "ad_info": {
            "adcode": 140213,
            "province": "山西省",
            "city": "大同市",
            "district": "平城区"
        }
    },
    {
        "id": "11143787609158454839",
        "title": "公共厕所",
        "address": "山西省大同市平城区北环路与北苑路交叉口正南方向46米左右",
        "tel": "",
        "category": "基础设施:公共设施:公共厕所",
        "type": 0,
        "location": {
            "lat": 40.111488,
            "lng": 113.308325
        },
        "ad_info": {
            "adcode": 140213,
            "province": "山西省",
            "city": "大同市",
            "district": "平城区"
        }
    },
    {
        "id": "3339492058388111835",
        "title": "公共厕所",
        "address": "山西省大同市平城区平城街与西环路交叉口正东方向81米左右",
        "tel": "",
        "category": "基础设施:公共设施:公共厕所",
        "type": 0,
        "location": {
            "lat": 40.10341,
            "lng": 113.280721
        },
        "ad_info": {
            "adcode": 140213,
            "province": "山西省",
            "city": "大同市",
            "district": "平城区"
        }
    },
    {
        "id": "3314771589576155014",
        "title": "公共厕所",
        "address": "山西省大同市平城区文瑞街与新建路交叉口正东方向66米左右",
        "tel": "",
        "category": "基础设施:公共设施:公共厕所",
        "type": 0,
        "location": {
            "lat": 40.05922,
            "lng": 113.271148
        },
        "ad_info": {
            "adcode": 140213,
            "province": "山西省",
            "city": "大同市",
            "district": "平城区"
        }
    },
    {
        "id": "15617198931268138814",
        "title": "公共厕所",
        "address": "山西省大同市云州区南环东路与恒顺路交叉口正西方向243米左右",
        "tel": "",
        "category": "基础设施:公共设施:公共厕所",
        "type": 0,
        "location": {
            "lat": 40.062322,
            "lng": 113.401107
        },
        "ad_info": {
            "adcode": 140215,
            "province": "山西省",
            "city": "大同市",
            "district": "云州区"
        }
    },
    {
        "id": "172945301363639715",
        "title": "公共卫生间",
        "address": "山西省大同市平城区福盛园西南侧240米",
        "tel": "",
        "category": "基础设施:公共设施:公共厕所",
        "type": 0,
        "location": {
            "lat": 40.044076,
            "lng": 113.283292
        },
        "ad_info": {
            "adcode": 140213,
            "province": "山西省",
            "city": "大同市",
            "district": "平城区"
        }
    },
    {
        "id": "9488879317185001438",
        "title": "公共厕所",
        "address": "山西省大同市平城区御河西路与灵泽路交叉口正西方向80米左右",
        "tel": "",
        "category": "基础设施:公共设施:公共厕所",
        "type": 0,
        "location": {
            "lat": 40.124329,
            "lng": 113.312861
        },
        "ad_info": {
            "adcode": 140213,
            "province": "山西省",
            "city": "大同市",
            "district": "平城区"
        }
    },
    {
        "id": "4471878028293774280",
        "title": "公共厕所",
        "address": "山西省大同市阳高县阳和大道(山西阳高第四中学附近)",
        "tel": "",
        "category": "基础设施:公共设施:公共厕所",
        "type": 0,
        "location": {
            "lat": 40.350486,
            "lng": 113.759439
        },
        "ad_info": {
            "adcode": 140221,
            "province": "山西省",
            "city": "大同市",
            "district": "阳高县"
        }
    },
    {
        "id": "9654747181209418649",
        "title": "公共厕所",
        "address": "山西省大同市平城区云冈路与北环路交叉口正东方向468米左右",
        "tel": "",
        "category": "基础设施:公共设施:公共厕所",
        "type": 0,
        "location": {
            "lat": 40.094587,
            "lng": 113.257603
        },
        "ad_info": {
            "adcode": 140213,
            "province": "山西省",
            "city": "大同市",
            "district": "平城区"
        }
    },
    {
        "id": "16448882386393825980",
        "title": "公共厕所",
        "address": "山西省大同市平城区云冈路与庆新路交叉口正南方向55米左右",
        "tel": "",
        "category": "基础设施:公共设施:公共厕所",
        "type": 0,
        "location": {
            "lat": 40.094716,
            "lng": 113.244834
        },
        "ad_info": {
            "adcode": 140213,
            "province": "山西省",
            "city": "大同市",
            "district": "平城区"
        }
    },
    {
        "id": "14236499585454379128",
        "title": "公共厕所",
        "address": "山西省大同市浑源县安明二巷与辅城巷交叉口东北方向74米左右",
        "tel": "",
        "category": "基础设施:公共设施:公共厕所",
        "type": 0,
        "location": {
            "lat": 39.705327,
            "lng": 113.697897
        },
        "ad_info": {
            "adcode": 140225,
            "province": "山西省",
            "city": "大同市",
            "district": "浑源县"
        }
    },
    {
        "id": "12780925469938111990",
        "title": "公共厕所",
        "address": "山西省大同市平城区和阳门内街与武定门内街交叉口正南方向273米左右",
        "tel": "",
        "category": "基础设施:公共设施:公共厕所",
        "type": 0,
        "location": {
            "lat": 40.098977,
            "lng": 113.311133
        },
        "ad_info": {
            "adcode": 140213,
            "province": "山西省",
            "city": "大同市",
            "district": "平城区"
        }
    },
    {
        "id": "16175753425563085745",
        "title": "公共厕所",
        "address": "山西省大同市阳高县众和路与新华二路交叉口东北方向72米左右",
        "tel": "",
        "category": "基础设施:公共设施:公共厕所",
        "type": 0,
        "location": {
            "lat": 40.356759,
            "lng": 113.741466
        },
        "ad_info": {
            "adcode": 140221,
            "province": "山西省",
            "city": "大同市",
            "district": "阳高县"
        }
    },
    {
        "id": "2122095457222196421",
        "title": "公共厕所",
        "address": "山西省大同市平城区滨河路1089号",
        "tel": "",
        "category": "基础设施:公共设施:公共厕所",
        "type": 0,
        "location": {
            "lat": 40.073226,
            "lng": 113.322363
        },
        "ad_info": {
            "adcode": 140213,
            "province": "山西省",
            "city": "大同市",
            "district": "平城区"
        }
    },
    {
        "id": "18061422921919169652",
        "title": "公共厕所",
        "address": "山西省大同市平城区滨河路1021号",
        "tel": "",
        "category": "基础设施:公共设施:公共厕所",
        "type": 0,
        "location": {
            "lat": 40.079089,
            "lng": 113.323533
        },
        "ad_info": {
            "adcode": 140213,
            "province": "山西省",
            "city": "大同市",
            "district": "平城区"
        }
    },
    {
        "id": "14566198228666150437",
        "title": "公共厕所",
        "address": "山西省大同市阳高县G512与高柳街交叉口西南方向52米左右",
        "tel": "",
        "category": "基础设施:公共设施:公共厕所",
        "type": 0,
        "location": {
            "lat": 40.344103,
            "lng": 113.765189
        },
        "ad_info": {
            "adcode": 140221,
            "province": "山西省",
            "city": "大同市",
            "district": "阳高县"
        }
    },
    {
        "id": "4325074903375791581",
        "title": "公共厕所",
        "address": "山西省大同市阳高县云林路阳光·财富城",
        "tel": "",
        "category": "基础设施:公共设施:公共厕所",
        "type": 0,
        "location": {
            "lat": 40.363276,
            "lng": 113.746698
        },
        "ad_info": {
            "adcode": 140221,
            "province": "山西省",
            "city": "大同市",
            "district": "阳高县"
        }
    },
    {
        "id": "11092015086368454212",
        "title": "公共厕所",
        "address": "山西省大同市天镇县滨江花园西北侧100米",
        "tel": "",
        "category": "基础设施:公共设施:公共厕所",
        "type": 0,
        "location": {
            "lat": 40.423664,
            "lng": 114.075446
        },
        "ad_info": {
            "adcode": 140222,
            "province": "山西省",
            "city": "大同市",
            "district": "天镇县"
        }
    },
    {
        "id": "5605943205260431918",
        "title": "公共厕所",
        "address": "山西省大同市平城区帝君庙街与朱衣阁街交叉口正南方向65米左右",
        "tel": "",
        "category": "基础设施:公共设施:公共厕所",
        "type": 0,
        "location": {
            "lat": 40.088835,
            "lng": 113.307693
        },
        "ad_info": {
            "adcode": 140213,
            "province": "山西省",
            "city": "大同市",
            "district": "平城区"
        }
    },
    {
        "id": "9916156392069057963",
        "title": "公共厕所",
        "address": "山西省大同市新荣区康乐巷与长城西街交叉口东南方向238米左右",
        "tel": "",
        "category": "基础设施:公共设施:公共厕所",
        "type": 0,
        "location": {
            "lat": 40.255515,
            "lng": 113.136831
        },
        "ad_info": {
            "adcode": 140212,
            "province": "山西省",
            "city": "大同市",
            "district": "新荣区"
        }
    },
    {
        "id": "16919575072924103984",
        "title": "公共厕所",
        "address": "山西省大同市阳高县孙右高速与宣大高速交叉口西北方向277米左右",
        "tel": "",
        "category": "基础设施:公共设施:公共厕所",
        "type": 0,
        "location": {
            "lat": 40.037225,
            "lng": 113.95878
        },
        "ad_info": {
            "adcode": 140221,
            "province": "山西省",
            "city": "大同市",
            "district": "阳高县"
        }
    },
    {
        "id": "5253718180173380841",
        "title": "公共厕所",
        "address": "山西省大同市阳高县众和北路与长青街交叉口正西方向74米左右",
        "tel": "",
        "category": "基础设施:公共设施:公共厕所",
        "type": 0,
        "location": {
            "lat": 40.364583,
            "lng": 113.738698
        },
        "ad_info": {
            "adcode": 140221,
            "province": "山西省",
            "city": "大同市",
            "district": "阳高县"
        }
    },
    {
        "id": "7813917025423905803",
        "title": "公共厕所",
        "address": "山西省大同市平城区和阳门内街与武定门内街交叉口西南方向246米左右",
        "tel": "",
        "category": "基础设施:公共设施:公共厕所",
        "type": 0,
        "location": {
            "lat": 40.099916,
            "lng": 113.309817
        },
        "ad_info": {
            "adcode": 140213,
            "province": "山西省",
            "city": "大同市",
            "district": "平城区"
        }
    },
    {
        "id": "966659319356408746",
        "title": "公共厕所",
        "address": "山西省大同市阳高县G512与高柳街交叉口东北方向71米左右",
        "tel": "",
        "category": "基础设施:公共设施:公共厕所",
        "type": 0,
        "location": {
            "lat": 40.344806,
            "lng": 113.76626
        },
        "ad_info": {
            "adcode": 140221,
            "province": "山西省",
            "city": "大同市",
            "district": "阳高县"
        }
    },
    {
        "id": "16387500951995999777",
        "title": "公共厕所",
        "address": "山西省大同市平城区东柴市角与北十府街交叉口正南方向41米左右",
        "tel": "",
        "category": "基础设施:公共设施:公共厕所",
        "type": 0,
        "location": {
            "lat": 40.096149,
            "lng": 113.30984
        },
        "ad_info": {
            "adcode": 140213,
            "province": "山西省",
            "city": "大同市",
            "district": "平城区"
        }
    },
    {
        "id": "11952995555570195101",
        "title": "公共厕所",
        "address": "山西省大同市阳高县云林路40号",
        "tel": "",
        "category": "基础设施:公共设施:公共厕所",
        "type": 0,
        "location": {
            "lat": 40.348809,
            "lng": 113.747375
        },
        "ad_info": {
            "adcode": 140221,
            "province": "山西省",
            "city": "大同市",
            "district": "阳高县"
        }
    },
    {
        "id": "5889818382641587073",
        "title": "公共厕所",
        "address": "山西省大同市左云县S210与京拉线交叉口正西方向45米左右",
        "tel": "",
        "category": "基础设施:公共设施:公共厕所",
        "type": 0,
        "location": {
            "lat": 40.033946,
            "lng": 112.741481
        },
        "ad_info": {
            "adcode": 140226,
            "province": "山西省",
            "city": "大同市",
            "district": "左云县"
        }
    },
    {
        "id": "18366313635576621338",
        "title": "公共厕所",
        "address": "山西省大同市左云县S210与Y003交叉口正北方向463米左右",
        "tel": "",
        "category": "基础设施:公共设施:公共厕所",
        "type": 0,
        "location": {
            "lat": 39.888581,
            "lng": 112.771353
        },
        "ad_info": {
            "adcode": 140226,
            "province": "山西省",
            "city": "大同市",
            "district": "左云县"
        }
    },
    {
        "id": "6400501974882111204",
        "title": "公共厕所",
        "address": "山西省大同市左云县国土小区西侧160米",
        "tel": "",
        "category": "基础设施:公共设施:公共厕所",
        "type": 0,
        "location": {
            "lat": 40.019805,
            "lng": 112.714544
        },
        "ad_info": {
            "adcode": 140226,
            "province": "山西省",
            "city": "大同市",
            "district": "左云县"
        }
    },
    {
        "id": "14027112536728182716",
        "title": "公共厕所",
        "address": "山西省大同市云州区S203与固定桥交叉口正西方向49米左右",
        "tel": "",
        "category": "基础设施:公共设施:公共厕所",
        "type": 0,
        "location": {
            "lat": 39.876272,
            "lng": 113.486584
        },
        "ad_info": {
            "adcode": 140215,
            "province": "山西省",
            "city": "大同市",
            "district": "云州区"
        }
    },
    {
        "id": "3447503347357248998",
        "title": "公共厕所",
        "address": "山西省大同市新荣区204省道东50米",
        "tel": "",
        "category": "基础设施:公共设施:公共厕所",
        "type": 0,
        "location": {
            "lat": 40.378568,
            "lng": 113.173576
        },
        "ad_info": {
            "adcode": 140212,
            "province": "山西省",
            "city": "大同市",
            "district": "新荣区"
        }
    },
    {
        "id": "14155424026178315663",
        "title": "善化古寺公共厕所",
        "address": "山西省大同市平城区教场街与欢乐街交叉口正南方向192米左右",
        "tel": "",
        "category": "基础设施:公共设施:公共厕所",
        "type": 0,
        "location": {
            "lat": 40.086683,
            "lng": 113.299175
        },
        "ad_info": {
            "adcode": 140213,
            "province": "山西省",
            "city": "大同市",
            "district": "平城区"
        }
    },
    {
        "id": "9556497293275944664",
        "title": "公共厕所",
        "address": "山西省大同市新荣区长城东街大同唐山沟甘庄医院",
        "tel": "",
        "category": "基础设施:公共设施:公共厕所",
        "type": 0,
        "location": {
            "lat": 40.260639,
            "lng": 113.148756
        },
        "ad_info": {
            "adcode": 140212,
            "province": "山西省",
            "city": "大同市",
            "district": "新荣区"
        }
    },
    {
        "id": "16823800584478823311",
        "title": "公共厕所",
        "address": "山西省大同市左云县祥和嘉园西侧160米",
        "tel": "",
        "category": "基础设施:公共设施:公共厕所",
        "type": 0,
        "location": {
            "lat": 40.011061,
            "lng": 112.726124
        },
        "ad_info": {
            "adcode": 140226,
            "province": "山西省",
            "city": "大同市",
            "district": "左云县"
        }
    },
    {
        "id": "14068493287762407966",
        "title": "公共厕所",
        "address": "山西省大同市平城区云冈路与北环路交叉口正南方向155米左右",
        "tel": "",
        "category": "基础设施:公共设施:公共厕所",
        "type": 0,
        "location": {
            "lat": 40.094149,
            "lng": 113.252029
        },
        "ad_info": {
            "adcode": 140213,
            "province": "山西省",
            "city": "大同市",
            "district": "平城区"
        }
    },
    {
        "id": "5576097546036569122",
        "title": "公共厕所",
        "address": "山西省大同市云冈区同泉东路与同泉路交叉口正南方向786米",
        "tel": "",
        "category": "基础设施:公共设施:公共厕所",
        "type": 0,
        "location": {
            "lat": 40.059151,
            "lng": 113.218826
        },
        "ad_info": {
            "adcode": 140214,
            "province": "山西省",
            "city": "大同市",
            "district": "云冈区"
        }
    },
    {
        "id": "3242797091345547182",
        "title": "公共厕所",
        "address": "山西省大同市左云县云新西大街与府西路交叉口西南方向72米左右",
        "tel": "",
        "category": "基础设施:公共设施:公共厕所",
        "type": 0,
        "location": {
            "lat": 40.012852,
            "lng": 112.701482
        },
        "ad_info": {
            "adcode": 140226,
            "province": "山西省",
            "city": "大同市",
            "district": "左云县"
        }
    },
    {
        "id": "13136493205150062832",
        "title": "公共厕所",
        "address": "山西省大同市阳高县政通巷与辕门西街交叉口东北方向49米左右",
        "tel": "",
        "category": "基础设施:公共设施:公共厕所",
        "type": 0,
        "location": {
            "lat": 40.36096,
            "lng": 113.73808
        },
        "ad_info": {
            "adcode": 140221,
            "province": "山西省",
            "city": "大同市",
            "district": "阳高县"
        }
    },
    {
        "id": "2877424169499706635",
        "title": "公共厕所",
        "address": "山西省大同市天镇县G512与X002交叉口正西方向73米左右",
        "tel": "",
        "category": "基础设施:公共设施:公共厕所",
        "type": 0,
        "location": {
            "lat": 40.438199,
            "lng": 114.227979
        },
        "ad_info": {
            "adcode": 140222,
            "province": "山西省",
            "city": "大同市",
            "district": "天镇县"
        }
    },
    {
        "id": "11763196900215878589",
        "title": "公共厕所",
        "address": "山西省大同市云州区S203与鳌镇线交叉口正西方向64米左右",
        "tel": "",
        "category": "基础设施:公共设施:公共厕所",
        "type": 0,
        "location": {
            "lat": 39.87206,
            "lng": 113.497813
        },
        "ad_info": {
            "adcode": 140215,
            "province": "山西省",
            "city": "大同市",
            "district": "云州区"
        }
    },
    {
        "id": "18217449629110196686",
        "title": "公共厕所",
        "address": "山西省大同市云州区坪邑东街与景山路交叉口正东方向55米左右",
        "tel": "",
        "category": "基础设施:公共设施:公共厕所",
        "type": 0,
        "location": {
            "lat": 40.039967,
            "lng": 113.620124
        },
        "ad_info": {
            "adcode": 140215,
            "province": "山西省",
            "city": "大同市",
            "district": "云州区"
        }
    },
    {
        "id": "17200854384608644566",
        "title": "公共厕所",
        "address": "山西省大同市云冈区平安大道恒安新区K区-安祥里小区",
        "tel": "",
        "category": "基础设施:公共设施:公共厕所",
        "type": 0,
        "location": {
            "lat": 40.018909,
            "lng": 113.220504
        },
        "ad_info": {
            "adcode": 140214,
            "province": "山西省",
            "city": "大同市",
            "district": "云冈区"
        }
    },
    {
        "id": "7555024177054662997",
        "title": "公共厕所",
        "address": "山西省大同市云冈区平安大道与平德路交叉口正南方向65米左右",
        "tel": "",
        "category": "基础设施:公共设施:公共厕所",
        "type": 0,
        "location": {
            "lat": 40.018174,
            "lng": 113.221782
        },
        "ad_info": {
            "adcode": 140214,
            "province": "山西省",
            "city": "大同市",
            "district": "云冈区"
        }
    },
    {
        "id": "8221375247236715851",
        "title": "公共厕所",
        "address": "山西省大同市云冈区十里河森林公园内",
        "tel": "",
        "category": "基础设施:公共设施:公共厕所",
        "type": 0,
        "location": {
            "lat": 40.046531,
            "lng": 113.245894
        },
        "ad_info": {
            "adcode": 140214,
            "province": "山西省",
            "city": "大同市",
            "district": "云冈区"
        }
    },
    {
        "id": "6203225068402874462",
        "title": "公共厕所",
        "address": "山西省大同市浑源县天峰北路浑源中学",
        "tel": "",
        "category": "基础设施:公共设施:公共厕所",
        "type": 0,
        "location": {
            "lat": 39.701907,
            "lng": 113.705637
        },
        "ad_info": {
            "adcode": 140225,
            "province": "山西省",
            "city": "大同市",
            "district": "浑源县"
        }
    },
    {
        "id": "2124071247099644995",
        "title": "公共厕所",
        "address": "山西省大同市云冈区新晋公路与纬五路交叉口正西方向172米左右",
        "tel": "",
        "category": "基础设施:公共设施:公共厕所",
        "type": 0,
        "location": {
            "lat": 40.036267,
            "lng": 113.168353
        },
        "ad_info": {
            "adcode": 140214,
            "province": "山西省",
            "city": "大同市",
            "district": "云冈区"
        }
    },
    {
        "id": "1144579903965954786",
        "title": "公共厕所",
        "address": "山西省大同市平城区永泰街道御河西路与柳航里交叉口西50米",
        "tel": "",
        "category": "基础设施:公共设施:公共厕所",
        "type": 0,
        "location": {
            "lat": 40.070266,
            "lng": 113.316514
        },
        "ad_info": {
            "adcode": 140213,
            "province": "山西省",
            "city": "大同市",
            "district": "平城区"
        }
    },
    {
        "id": "10419856104254606286",
        "title": "公共厕所",
        "address": "山西省大同市云冈区广场东街与泉东路交叉口东南方向17米左右",
        "tel": "",
        "category": "基础设施:公共设施:公共厕所",
        "type": 0,
        "location": {
            "lat": 40.00343,
            "lng": 113.142443
        },
        "ad_info": {
            "adcode": 140214,
            "province": "山西省",
            "city": "大同市",
            "district": "云冈区"
        }
    },
    {
        "id": "16728847738257809210",
        "title": "公共厕所",
        "address": "山西省大同市浑源县G239与沙圪坨2桥交叉口西南方向147米左右",
        "tel": "",
        "category": "基础设施:公共设施:公共厕所",
        "type": 0,
        "location": {
            "lat": 39.780917,
            "lng": 113.815932
        },
        "ad_info": {
            "adcode": 140225,
            "province": "山西省",
            "city": "大同市",
            "district": "浑源县"
        }
    },
    {
        "id": "11224936302539572263",
        "title": "公共厕所",
        "address": "山西省大同市云冈区南环西路与林荫路交叉口西南方向174米左右",
        "tel": "",
        "category": "基础设施:公共设施:公共厕所",
        "type": 0,
        "location": {
            "lat": 40.027955,
            "lng": 113.179291
        },
        "ad_info": {
            "adcode": 140214,
            "province": "山西省",
            "city": "大同市",
            "district": "云冈区"
        }
    },
    {
        "id": "8866262141459665901",
        "title": "公共厕所",
        "address": "山西省大同市浑源县G336与大沟桥交叉口东北方向358米左右",
        "tel": "",
        "category": "基础设施:公共设施:公共厕所",
        "type": 0,
        "location": {
            "lat": 39.632468,
            "lng": 113.53451
        },
        "ad_info": {
            "adcode": 140225,
            "province": "山西省",
            "city": "大同市",
            "district": "浑源县"
        }
    },
    {
        "id": "14990370569707602602",
        "title": "公共厕所",
        "address": "山西省大同市云冈区平喜路与平安大道交叉口正西方向94米左右",
        "tel": "",
        "category": "基础设施:公共设施:公共厕所",
        "type": 0,
        "location": {
            "lat": 40.018862,
            "lng": 113.21363
        },
        "ad_info": {
            "adcode": 140214,
            "province": "山西省",
            "city": "大同市",
            "district": "云冈区"
        }
    },
    {
        "id": "2385974143491357561",
        "title": "大同唐坊酒店-洗手间",
        "address": "山西省大同市平城区永和路与西京街交叉口西南方向166米左右",
        "tel": "",
        "category": "基础设施:公共设施:公共厕所",
        "type": 0,
        "location": {
            "lat": 40.082434,
            "lng": 113.338004
        },
        "ad_info": {
            "adcode": 140213,
            "province": "山西省",
            "city": "大同市",
            "district": "平城区"
        }
    },
    {
        "id": "12392194584044783688",
        "title": "公共厕所",
        "address": "山西省大同市浑源县一面街与民安街交叉口西南方向199米左右",
        "tel": "",
        "category": "基础设施:公共设施:公共厕所",
        "type": 0,
        "location": {
            "lat": 39.690977,
            "lng": 113.687259
        },
        "ad_info": {
            "adcode": 140225,
            "province": "山西省",
            "city": "大同市",
            "district": "浑源县"
        }
    },
    {
        "id": "1927553162813371552",
        "title": "公共厕所",
        "address": "山西省大同市浑源县洗朔线与裕民街交叉口东北方向275米左右",
        "tel": "",
        "category": "基础设施:公共设施:公共厕所",
        "type": 0,
        "location": {
            "lat": 39.711959,
            "lng": 113.717135
        },
        "ad_info": {
            "adcode": 140225,
            "province": "山西省",
            "city": "大同市",
            "district": "浑源县"
        }
    },
    {
        "id": "9732178238545498581",
        "title": "公共厕所",
        "address": "山西省大同市浑源县G239与青瓷窑桥交叉口东南方向362米左右",
        "tel": "",
        "category": "基础设施:公共设施:公共厕所",
        "type": 0,
        "location": {
            "lat": 39.62079,
            "lng": 113.767614
        },
        "ad_info": {
            "adcode": 140225,
            "province": "山西省",
            "city": "大同市",
            "district": "浑源县"
        }
    },
    {
        "id": "6936725662759787684",
        "title": "公共厕所",
        "address": "山西省大同市云冈区梧桐大道与纬七路交叉口正北方向191米左右",
        "tel": "",
        "category": "基础设施:公共设施:公共厕所",
        "type": 0,
        "location": {
            "lat": 40.038653,
            "lng": 113.164354
        },
        "ad_info": {
            "adcode": 140214,
            "province": "山西省",
            "city": "大同市",
            "district": "云冈区"
        }
    },
    {
        "id": "18254404512639583453",
        "title": "城墙带状公园公共厕所",
        "address": "山西省大同市平城区古城街道大同城墙带状公园内",
        "tel": "",
        "category": "基础设施:公共设施:公共厕所",
        "type": 0,
        "location": {
            "lat": 40.083577,
            "lng": 113.2979
        },
        "ad_info": {
            "adcode": 140213,
            "province": "山西省",
            "city": "大同市",
            "district": "平城区"
        }
    },
    {
        "id": "2709354341314600264",
        "title": "公共厕所",
        "address": "山西省大同市平城区北都街与福康巷交叉口正南方向165米左右",
        "tel": "",
        "category": "基础设施:公共设施:公共厕所",
        "type": 0,
        "location": {
            "lat": 40.081535,
            "lng": 113.308152
        },
        "ad_info": {
            "adcode": 140213,
            "province": "山西省",
            "city": "大同市",
            "district": "平城区"
        }
    },
    {
        "id": "6369380928541455121",
        "title": "女洗手间(炫彩时尚购物广场)",
        "address": "山西省大同市平城区永泰南路西侧79号炫彩时尚购物广场F2层",
        "tel": "",
        "category": "基础设施:公共设施:公共厕所",
        "type": 0,
        "location": {
            "lat": 40.069957,
            "lng": 113.301805
        },
        "ad_info": {
            "adcode": 140213,
            "province": "山西省",
            "city": "大同市",
            "district": "平城区"
        }
    },
    {
        "id": "14132180168393357286",
        "title": "公共厕所",
        "address": "山西省大同市云冈区纬五路与纬六路交叉口正西方向95米左右",
        "tel": "",
        "category": "基础设施:公共设施:公共厕所",
        "type": 0,
        "location": {
            "lat": 40.037982,
            "lng": 113.168044
        },
        "ad_info": {
            "adcode": 140214,
            "province": "山西省",
            "city": "大同市",
            "district": "云冈区"
        }
    },
    {
        "id": "12995878095867367159",
        "title": "公共厕所",
        "address": "山西省大同市云冈区梧桐大道与纬七路交叉口正北方向374米左右",
        "tel": "",
        "category": "基础设施:公共设施:公共厕所",
        "type": 0,
        "location": {
            "lat": 40.040289,
            "lng": 113.16337
        },
        "ad_info": {
            "adcode": 140214,
            "province": "山西省",
            "city": "大同市",
            "district": "云冈区"
        }
    },
    {
        "id": "3024714338108690245",
        "title": "公共厕所",
        "address": "山西省大同市云冈区救护街与民胜街交叉口正北方向52米左右",
        "tel": "",
        "category": "基础设施:公共设施:公共厕所",
        "type": 0,
        "location": {
            "lat": 40.034849,
            "lng": 113.16579
        },
        "ad_info": {
            "adcode": 140214,
            "province": "山西省",
            "city": "大同市",
            "district": "云冈区"
        }
    },
    {
        "id": "16416082776808370100",
        "title": "公共厕所",
        "address": "山西省大同市云冈区Y012与京拉线交叉口正西方向638米左右",
        "tel": "",
        "category": "基础设施:公共设施:公共厕所",
        "type": 0,
        "location": {
            "lat": 40.107746,
            "lng": 112.983412
        },
        "ad_info": {
            "adcode": 140214,
            "province": "山西省",
            "city": "大同市",
            "district": "云冈区"
        }
    },
    {
        "id": "6478070395136056485",
        "title": "女洗手间(华林生活广场)",
        "address": "山西省大同市平城区大庆路1号华林生活广场F3层",
        "tel": "",
        "category": "基础设施:公共设施:公共厕所",
        "type": 0,
        "location": {
            "lat": 40.069628,
            "lng": 113.272499
        },
        "ad_info": {
            "adcode": 140213,
            "province": "山西省",
            "city": "大同市",
            "district": "平城区"
        }
    },
    {
        "id": "7103379477037709436",
        "title": "公共厕所",
        "address": "山西省大同市云冈区208国道与G5501大同绕城高速交叉口西南200米",
        "tel": "",
        "category": "基础设施:公共设施:公共厕所",
        "type": 0,
        "location": {
            "lat": 39.992474,
            "lng": 113.23006
        },
        "ad_info": {
            "adcode": 140214,
            "province": "山西省",
            "city": "大同市",
            "district": "云冈区"
        }
    },
    {
        "id": "1601930152633680197",
        "title": "公共厕所",
        "address": "山西省大同市云冈区新泉南三路与新泉路交叉口东南方向389米左右",
        "tel": "",
        "category": "基础设施:公共设施:公共厕所",
        "type": 0,
        "location": {
            "lat": 39.99956,
            "lng": 113.163885
        },
        "ad_info": {
            "adcode": 140214,
            "province": "山西省",
            "city": "大同市",
            "district": "云冈区"
        }
    },
    {
        "id": "17639575363536239376",
        "title": "肯德基(永泰餐厅)洗手间",
        "address": "山西省大同市平城区工农路永泰广场B1层",
        "tel": "",
        "category": "基础设施:公共设施:公共厕所",
        "type": 0,
        "location": {
            "lat": 40.069757,
            "lng": 113.303374
        },
        "ad_info": {
            "adcode": 140213,
            "province": "山西省",
            "city": "大同市",
            "district": "平城区"
        }
    },
    {
        "id": "7705014404442356024",
        "title": "公共厕所",
        "address": "山西省大同市平城区东关中国工商银行(御鑫万人新天地北)",
        "tel": "",
        "category": "基础设施:公共设施:公共厕所",
        "type": 0,
        "location": {
            "lat": 40.099409,
            "lng": 113.316364
        },
        "ad_info": {
            "adcode": 140213,
            "province": "山西省",
            "city": "大同市",
            "district": "平城区"
        }
    },
    {
        "id": "7549771553048128257",
        "title": "公共厕所",
        "address": "山西省大同市平城区迎宾街大同宾馆",
        "tel": "",
        "category": "基础设施:公共设施:公共厕所",
        "type": 0,
        "location": {
            "lat": 40.076326,
            "lng": 113.297345
        },
        "ad_info": {
            "adcode": 140213,
            "province": "山西省",
            "city": "大同市",
            "district": "平城区"
        }
    },
    {
        "id": "17695155492652137212",
        "title": "公共厕所",
        "address": "山西省大同市云冈区煤峪口社区卫生服务中心西侧150米",
        "tel": "",
        "category": "基础设施:公共设施:公共厕所",
        "type": 0,
        "location": {
            "lat": 40.026114,
            "lng": 113.144537
        },
        "ad_info": {
            "adcode": 140214,
            "province": "山西省",
            "city": "大同市",
            "district": "云冈区"
        }
    },
    {
        "id": "2398169940778592752",
        "title": "公共厕所",
        "address": "山西省大同市云冈区205省道东50米",
        "tel": "",
        "category": "基础设施:公共设施:公共厕所",
        "type": 0,
        "location": {
            "lat": 39.939882,
            "lng": 113.103235
        },
        "ad_info": {
            "adcode": 140214,
            "province": "山西省",
            "city": "大同市",
            "district": "云冈区"
        }
    },
    {
        "id": "2599711652823636948",
        "title": "生态卫生间",
        "address": "山西省大同市平城区大庆路与文化街交叉口东南方向188米左右",
        "tel": "",
        "category": "基础设施:公共设施:公共厕所",
        "type": 0,
        "location": {
            "lat": 40.062374,
            "lng": 113.266517
        },
        "ad_info": {
            "adcode": 140213,
            "province": "山西省",
            "city": "大同市",
            "district": "平城区"
        }
    },
    {
        "id": "6241806609690300554",
        "title": "公共厕所",
        "address": "山西省大同市阳高县桥北街与桥南街交叉口正南方向123米左右",
        "tel": "",
        "category": "基础设施:公共设施:公共厕所",
        "type": 0,
        "location": {
            "lat": 40.363283,
            "lng": 113.752276
        },
        "ad_info": {
            "adcode": 140221,
            "province": "山西省",
            "city": "大同市",
            "district": "阳高县"
        }
    },
    {
        "id": "17711880997263416602",
        "title": "官堡服务区公共厕所",
        "address": "山西省大同市云州区S30孙右高速北150米",
        "tel": "",
        "category": "基础设施:公共设施:公共厕所",
        "type": 0,
        "location": {
            "lat": 40.026074,
            "lng": 113.521671
        },
        "ad_info": {
            "adcode": 140215,
            "province": "山西省",
            "city": "大同市",
            "district": "云州区"
        }
    },
    {
        "id": "6174154441838889568",
        "title": "灵丘服务区公共厕所",
        "address": "山西省大同市灵丘县荣乌高速公路",
        "tel": "",
        "category": "基础设施:公共设施:公共厕所",
        "type": 0,
        "location": {
            "lat": 39.446628,
            "lng": 114.338978
        },
        "ad_info": {
            "adcode": 140224,
            "province": "山西省",
            "city": "大同市",
            "district": "灵丘县"
        }
    },
    {
        "id": "17378754820594402641",
        "title": "公共厕所",
        "address": "山西省大同市云冈区同泉路和居大厦附近(同煤国际酒店东北)",
        "tel": "",
        "category": "基础设施:公共设施:公共厕所",
        "type": 0,
        "location": {
            "lat": 40.040844,
            "lng": 113.181707
        },
        "ad_info": {
            "adcode": 140214,
            "province": "山西省",
            "city": "大同市",
            "district": "云冈区"
        }
    },
    {
        "id": "436335506626069776",
        "title": "大同煤矿万人坑遗址纪念馆游客服务中心洗手间",
        "address": "山西省大同市云冈区大同矿务局展览馆东北侧",
        "tel": "",
        "category": "基础设施:公共设施:公共厕所",
        "type": 0,
        "location": {
            "lat": 40.02537,
            "lng": 113.141649
        },
        "ad_info": {
            "adcode": 140214,
            "province": "山西省",
            "city": "大同市",
            "district": "云冈区"
        }
    },
    {
        "id": "1656673255340086034",
        "title": "管家堡服务区公共厕所",
        "address": "山西省大同市左云县孙右高速与管家堡互通交叉口东北方向1883米左右",
        "tel": "",
        "category": "基础设施:公共设施:公共厕所",
        "type": 0,
        "location": {
            "lat": 40.182136,
            "lng": 112.916367
        },
        "ad_info": {
            "adcode": 140226,
            "province": "山西省",
            "city": "大同市",
            "district": "左云县"
        }
    },
    {
        "id": "10372116504145222385",
        "title": "李二口明长城景区公共厕所",
        "address": "山西省大同市天镇县逯家湾镇李二口村风车广场",
        "tel": "",
        "category": "基础设施:公共设施:公共厕所",
        "type": 0,
        "location": {
            "lat": 40.532023,
            "lng": 114.106518
        },
        "ad_info": {
            "adcode": 140222,
            "province": "山西省",
            "city": "大同市",
            "district": "天镇县"
        }
    },
    {
        "id": "15451523065658572874",
        "title": "古店服务区公共厕所",
        "address": "山西省大同市新荣区二广高速与大同绕城高速交叉口正北方向1198米左右",
        "tel": "",
        "category": "基础设施:公共设施:公共厕所",
        "type": 0,
        "location": {
            "lat": 40.188112,
            "lng": 113.298494
        },
        "ad_info": {
            "adcode": 140212,
            "province": "山西省",
            "city": "大同市",
            "district": "新荣区"
        }
    },
    {
        "id": "15564789916505053582",
        "title": "阳高服务区公共厕所",
        "address": "山西省大同市阳高县罗文皂镇天黎高速公路阳高服务区附近",
        "tel": "",
        "category": "基础设施:公共设施:公共厕所",
        "type": 0,
        "location": {
            "lat": 40.413683,
            "lng": 113.858236
        },
        "ad_info": {
            "adcode": 140221,
            "province": "山西省",
            "city": "大同市",
            "district": "阳高县"
        }
    },
    {
        "id": "8518392683218642422",
        "title": "峰峪服务区公共厕所",
        "address": "山西省大同市云州区天黎高速",
        "tel": "",
        "category": "基础设施:公共设施:公共厕所",
        "type": 0,
        "location": {
            "lat": 39.874708,
            "lng": 113.578409
        },
        "ad_info": {
            "adcode": 140215,
            "province": "山西省",
            "city": "大同市",
            "district": "云州区"
        }
    },
    {
        "id": "3231190706385659131",
        "title": "官堡服务区公共厕所",
        "address": "山西省大同市云州区S30孙右高速南100米",
        "tel": "",
        "category": "基础设施:公共设施:公共厕所",
        "type": 0,
        "location": {
            "lat": 40.024259,
            "lng": 113.520991
        },
        "ad_info": {
            "adcode": 140215,
            "province": "山西省",
            "city": "大同市",
            "district": "云州区"
        }
    },
    {
        "id": "16030328064031583842",
        "title": "浑源北服务区公共厕所",
        "address": "山西省大同市浑源县浑源北服务区加油站东侧210米",
        "tel": "",
        "category": "基础设施:公共设施:公共厕所",
        "type": 0,
        "location": {
            "lat": 39.784768,
            "lng": 113.759319
        },
        "ad_info": {
            "adcode": 140225,
            "province": "山西省",
            "city": "大同市",
            "district": "浑源县"
        }
    },
    {
        "id": "8534578868974364767",
        "title": "浑源服务区公共厕所",
        "address": "山西省大同市浑源县浑源枢纽与荣乌高速交叉口正东方向1188米左右",
        "tel": "",
        "category": "基础设施:公共设施:公共厕所",
        "type": 0,
        "location": {
            "lat": 39.648529,
            "lng": 113.647551
        },
        "ad_info": {
            "adcode": 140225,
            "province": "山西省",
            "city": "大同市",
            "district": "浑源县"
        }
    },
    {
        "id": "4721983863407240253",
        "title": "公共厕所",
        "address": "山西省大同市平城区东柴市角与北十府街交叉口正北方向45米左右",
        "tel": "",
        "category": "基础设施:公共设施:公共厕所",
        "type": 0,
        "location": {
            "lat": 40.096933,
            "lng": 113.309819
        },
        "ad_info": {
            "adcode": 140213,
            "province": "山西省",
            "city": "大同市",
            "district": "平城区"
        }
    },
    {
        "id": "12749478531347701923",
        "title": "公共厕所",
        "address": "山西省大同市浑源县G239与青瓷窑桥交叉口东南方向652米左右",
        "tel": "",
        "category": "基础设施:公共设施:公共厕所",
        "type": 0,
        "location": {
            "lat": 39.619884,
            "lng": 113.770916
        },
        "ad_info": {
            "adcode": 140225,
            "province": "山西省",
            "city": "大同市",
            "district": "浑源县"
        }
    },
    {
        "id": "3996662661121485064",
        "title": "广灵服务区公共厕所",
        "address": "山西省大同市广灵县广浑高速广灵服务区",
        "tel": "",
        "category": "基础设施:公共设施:公共厕所",
        "type": 0,
        "location": {
            "lat": 39.805716,
            "lng": 114.242303
        },
        "ad_info": {
            "adcode": 140223,
            "province": "山西省",
            "city": "大同市",
            "district": "广灵县"
        }
    },
    {
        "id": "18323310047008994805",
        "title": "公共厕所",
        "address": "山西省大同市云冈区平泉路与新泉路交叉口正东方向175米左右",
        "tel": "",
        "category": "基础设施:公共设施:公共厕所",
        "type": 0,
        "location": {
            "lat": 39.997933,
            "lng": 113.170331
        },
        "ad_info": {
            "adcode": 140214,
            "province": "山西省",
            "city": "大同市",
            "district": "云冈区"
        }
    },
    {
        "id": "8244736500041048274",
        "title": "公共厕所",
        "address": "山西省大同市平城区兴云街与御河北路交叉口西南方向56米左右",
        "tel": "",
        "category": "基础设施:公共设施:公共厕所",
        "type": 0,
        "location": {
            "lat": 40.096367,
            "lng": 113.314827
        },
        "ad_info": {
            "adcode": 140213,
            "province": "山西省",
            "city": "大同市",
            "district": "平城区"
        }
    },
    {
        "id": "11914728709362800986",
        "title": "公共厕所",
        "address": "山西省大同市广灵县广泰东街与广泰西街交叉口正南方向161米左右",
        "tel": "",
        "category": "基础设施:公共设施:公共厕所",
        "type": 0,
        "location": {
            "lat": 39.766961,
            "lng": 114.29497
        },
        "ad_info": {
            "adcode": 140223,
            "province": "山西省",
            "city": "大同市",
            "district": "广灵县"
        }
    },
    {
        "id": "7835897426939539955",
        "title": "公共厕所",
        "address": "山西省大同市云冈区梧桐大道与纬七路交叉口正东方向200米左右",
        "tel": "",
        "category": "基础设施:公共设施:公共厕所",
        "type": 0,
        "location": {
            "lat": 40.036394,
            "lng": 113.166227
        },
        "ad_info": {
            "adcode": 140214,
            "province": "山西省",
            "city": "大同市",
            "district": "云冈区"
        }
    },
    {
        "id": "16383644707324972576",
        "title": "公共厕所",
        "address": "山西省大同市平城区下寺坡街459号华严寺内(东南角)",
        "tel": "",
        "category": "基础设施:公共设施:公共厕所",
        "type": 0,
        "location": {
            "lat": 40.091605,
            "lng": 113.29624
        },
        "ad_info": {
            "adcode": 140213,
            "province": "山西省",
            "city": "大同市",
            "district": "平城区"
        }
    },
    {
        "id": "913828478260447069",
        "title": "公共厕所",
        "address": "山西省大同市平城区开源街与魏都大道交叉口正西方向166米左右",
        "tel": "",
        "category": "基础设施:公共设施:公共厕所",
        "type": 0,
        "location": {
            "lat": 40.048601,
            "lng": 113.287623
        },
        "ad_info": {
            "adcode": 140213,
            "province": "山西省",
            "city": "大同市",
            "district": "平城区"
        }
    },
    {
        "id": "17495369301523519505",
        "title": "公共厕所",
        "address": "山西省大同市阳高县平安巷与振华七条交叉口正西方向56米左右",
        "tel": "",
        "category": "基础设施:公共设施:公共厕所",
        "type": 0,
        "location": {
            "lat": 40.349889,
            "lng": 113.736828
        },
        "ad_info": {
            "adcode": 140221,
            "province": "山西省",
            "city": "大同市",
            "district": "阳高县"
        }
    },
    {
        "id": "6544785218578304031",
        "title": "公共厕所",
        "address": "山西省大同市云冈区峪兴苑小区北侧200米",
        "tel": "",
        "category": "基础设施:公共设施:公共厕所",
        "type": 0,
        "location": {
            "lat": 40.033854,
            "lng": 113.158257
        },
        "ad_info": {
            "adcode": 140214,
            "province": "山西省",
            "city": "大同市",
            "district": "云冈区"
        }
    },
    {
        "id": "1547340776525297991",
        "title": "公共厕所",
        "address": "山西省大同市平城区平城街与滨河路交叉口东南方向133米左右",
        "tel": "",
        "category": "基础设施:公共设施:公共厕所",
        "type": 0,
        "location": {
            "lat": 40.102337,
            "lng": 113.323672
        },
        "ad_info": {
            "adcode": 140213,
            "province": "山西省",
            "city": "大同市",
            "district": "平城区"
        }
    },
    {
        "id": "10032776641841893398",
        "title": "灵丘县沙河路公共厕所",
        "address": "山西省大同市灵丘县新华东街与沙河南路交叉口东南方向60米左右",
        "tel": "",
        "category": "基础设施:公共设施:公共厕所",
        "type": 0,
        "location": {
            "lat": 39.439595,
            "lng": 114.242284
        },
        "ad_info": {
            "adcode": 140224,
            "province": "山西省",
            "city": "大同市",
            "district": "灵丘县"
        }
    },
    {
        "id": "1939238867290216874",
        "title": "公共厕所",
        "address": "山西省大同市云州区坪邑东街与景山路交叉口正西方向179米左右",
        "tel": "",
        "category": "基础设施:公共设施:公共厕所",
        "type": 0,
        "location": {
            "lat": 40.039622,
            "lng": 113.617482
        },
        "ad_info": {
            "adcode": 140215,
            "province": "山西省",
            "city": "大同市",
            "district": "云州区"
        }
    },
    {
        "id": "5809336940281561696",
        "title": "公共厕所",
        "address": "山西省大同市天镇县G512与S201交叉口正西方向42米左右",
        "tel": "",
        "category": "基础设施:公共设施:公共厕所",
        "type": 0,
        "location": {
            "lat": 40.420728,
            "lng": 114.121667
        },
        "ad_info": {
            "adcode": 140222,
            "province": "山西省",
            "city": "大同市",
            "district": "天镇县"
        }
    },
    {
        "id": "11828291995749727170",
        "title": "公共厕所",
        "address": "山西省大同市云州区S339新建快乐幼儿园",
        "tel": "",
        "category": "基础设施:公共设施:公共厕所",
        "type": 0,
        "location": {
            "lat": 40.032734,
            "lng": 113.618798
        },
        "ad_info": {
            "adcode": 140215,
            "province": "山西省",
            "city": "大同市",
            "district": "云州区"
        }
    },
    {
        "id": "7251881796925981587",
        "title": "公共厕所",
        "address": "山西省大同市云州区胡老五羊肉馆(总部)西北侧90米",
        "tel": "",
        "category": "基础设施:公共设施:公共厕所",
        "type": 0,
        "location": {
            "lat": 40.024683,
            "lng": 113.63024
        },
        "ad_info": {
            "adcode": 140215,
            "province": "山西省",
            "city": "大同市",
            "district": "云州区"
        }
    },
    {
        "id": "7897785437268560813",
        "title": "公共厕所",
        "address": "山西省大同市阳高县天马线",
        "tel": "",
        "category": "基础设施:公共设施:公共厕所",
        "type": 0,
        "location": {
            "lat": 40.300227,
            "lng": 113.927433
        },
        "ad_info": {
            "adcode": 140221,
            "province": "山西省",
            "city": "大同市",
            "district": "阳高县"
        }
    },
    {
        "id": "12297752428161932839",
        "title": "公共厕所",
        "address": "山西省大同市阳高县",
        "tel": "",
        "category": "基础设施:公共设施:公共厕所",
        "type": 0,
        "location": {
            "lat": 40.141175,
            "lng": 113.963065
        },
        "ad_info": {
            "adcode": 140221,
            "province": "山西省",
            "city": "大同市",
            "district": "阳高县"
        }
    },
    {
        "id": "4649679670140316833",
        "title": "公共厕所",
        "address": "山西省大同市云州区S45天黎高速附近",
        "tel": "",
        "category": "基础设施:公共设施:公共厕所",
        "type": 0,
        "location": {
            "lat": 39.947996,
            "lng": 113.593579
        },
        "ad_info": {
            "adcode": 140215,
            "province": "山西省",
            "city": "大同市",
            "district": "云州区"
        }
    },
    {
        "id": "16893683669656980350",
        "title": "公共厕所",
        "address": "山西省大同市平城区教场街与迎泽街交叉口西北方向279米左右",
        "tel": "",
        "category": "基础设施:公共设施:公共厕所",
        "type": 0,
        "location": {
            "lat": 40.090989,
            "lng": 113.288144
        },
        "ad_info": {
            "adcode": 140213,
            "province": "山西省",
            "city": "大同市",
            "district": "平城区"
        }
    },
    {
        "id": "10068591835684381399",
        "title": "公共厕所",
        "address": "山西省大同市云冈区五一路与交通街交叉口东北方向36米左右",
        "tel": "",
        "category": "基础设施:公共设施:公共厕所",
        "type": 0,
        "location": {
            "lat": 40.006371,
            "lng": 113.148694
        },
        "ad_info": {
            "adcode": 140214,
            "province": "山西省",
            "city": "大同市",
            "district": "云冈区"
        }
    },
    {
        "id": "9507332130766853883",
        "title": "公共厕所",
        "address": "山西省大同市云冈区云煤路与和平商业步行街交叉口正南方向234米左右",
        "tel": "",
        "category": "基础设施:公共设施:公共厕所",
        "type": 0,
        "location": {
            "lat": 40.040088,
            "lng": 113.176147
        },
        "ad_info": {
            "adcode": 140214,
            "province": "山西省",
            "city": "大同市",
            "district": "云冈区"
        }
    },
    {
        "id": "3861599918499213495",
        "title": "公共厕所",
        "address": "山西省大同市平城区新华街21号",
        "tel": "",
        "category": "基础设施:公共设施:公共厕所",
        "type": 0,
        "location": {
            "lat": 40.123535,
            "lng": 113.294109
        },
        "ad_info": {
            "adcode": 140213,
            "province": "山西省",
            "city": "大同市",
            "district": "平城区"
        }
    },
    {
        "id": "9329263651936238781",
        "title": "公共厕所",
        "address": "山西省大同市云冈区米庄普济寺西南侧200米",
        "tel": "",
        "category": "基础设施:公共设施:公共厕所",
        "type": 0,
        "location": {
            "lat": 39.992994,
            "lng": 113.202119
        },
        "ad_info": {
            "adcode": 140214,
            "province": "山西省",
            "city": "大同市",
            "district": "云冈区"
        }
    },
    {
        "id": "17877503029256188018",
        "title": "公共厕所",
        "address": "山西省大同市灵丘县京昆线与天神线交叉口正东方向1191米左右",
        "tel": "",
        "category": "基础设施:公共设施:公共厕所",
        "type": 0,
        "location": {
            "lat": 39.299197,
            "lng": 114.418478
        },
        "ad_info": {
            "adcode": 140224,
            "province": "山西省",
            "city": "大同市",
            "district": "灵丘县"
        }
    },
    {
        "id": "6762344544487579508",
        "title": "公共厕所",
        "address": "山西省大同市左云县西城北路与靖远路交叉口正北方向230米左右",
        "tel": "",
        "category": "基础设施:公共设施:公共厕所",
        "type": 0,
        "location": {
            "lat": 40.008556,
            "lng": 112.697025
        },
        "ad_info": {
            "adcode": 140226,
            "province": "山西省",
            "city": "大同市",
            "district": "左云县"
        }
    },
    {
        "id": "14698837137885146721",
        "title": "公共厕所",
        "address": "山西省大同市云冈区口泉乡墙框堡村龙王庙东北侧70米",
        "tel": "",
        "category": "基础设施:公共设施:公共厕所",
        "type": 0,
        "location": {
            "lat": 39.965098,
            "lng": 113.182609
        },
        "ad_info": {
            "adcode": 140214,
            "province": "山西省",
            "city": "大同市",
            "district": "云冈区"
        }
    },
    {
        "id": "11406326936929665540",
        "title": "公共厕所",
        "address": "山西省大同市平城区东史宅与柴家园交叉口正北方向28米左右",
        "tel": "",
        "category": "基础设施:公共设施:公共厕所",
        "type": 0,
        "location": {
            "lat": 40.087771,
            "lng": 113.309907
        },
        "ad_info": {
            "adcode": 140213,
            "province": "山西省",
            "city": "大同市",
            "district": "平城区"
        }
    },
    {
        "id": "12825957191512483323",
        "title": "峰峪服务区公共厕所",
        "address": "山西省大同市云州区天黎高速峰峪服务区",
        "tel": "",
        "category": "基础设施:公共设施:公共厕所",
        "type": 0,
        "location": {
            "lat": 39.873175,
            "lng": 113.580242
        },
        "ad_info": {
            "adcode": 140215,
            "province": "山西省",
            "city": "大同市",
            "district": "云州区"
        }
    },
    {
        "id": "4364556810643467603",
        "title": "公共厕所",
        "address": "山西省大同市平城区X014与文兴路辅路交叉口西南方向555米",
        "tel": "",
        "category": "基础设施:公共设施:公共厕所",
        "type": 0,
        "location": {
            "lat": 40.035898,
            "lng": 113.344488
        },
        "ad_info": {
            "adcode": 140213,
            "province": "山西省",
            "city": "大同市",
            "district": "平城区"
        }
    },
    {
        "id": "7472353222935451720",
        "title": "公共厕所",
        "address": "山西省大同市平城区平安大道与开源街交叉口正北方向19米左右",
        "tel": "",
        "category": "基础设施:公共设施:公共厕所",
        "type": 0,
        "location": {
            "lat": 40.049453,
            "lng": 113.272634
        },
        "ad_info": {
            "adcode": 140213,
            "province": "山西省",
            "city": "大同市",
            "district": "平城区"
        }
    },
    {
        "id": "2320548459311800454",
        "title": "公共厕所",
        "address": "山西省大同市左云县云新东大街左云县人民医院",
        "tel": "",
        "category": "基础设施:公共设施:公共厕所",
        "type": 0,
        "location": {
            "lat": 40.01518,
            "lng": 112.712912
        },
        "ad_info": {
            "adcode": 140226,
            "province": "山西省",
            "city": "大同市",
            "district": "左云县"
        }
    },
    {
        "id": "6764746800328486769",
        "title": "公共厕所",
        "address": "山西省大同市左云县北环东路与北环西路交叉口正南方向284米左右",
        "tel": "",
        "category": "基础设施:公共设施:公共厕所",
        "type": 0,
        "location": {
            "lat": 40.017512,
            "lng": 112.706663
        },
        "ad_info": {
            "adcode": 140226,
            "province": "山西省",
            "city": "大同市",
            "district": "左云县"
        }
    },
    {
        "id": "17334963167083165746",
        "title": "公共厕所",
        "address": "山西省大同市云冈区平泉路盛秀苑小区",
        "tel": "",
        "category": "基础设施:公共设施:公共厕所",
        "type": 0,
        "location": {
            "lat": 40.014773,
            "lng": 113.167316
        },
        "ad_info": {
            "adcode": 140214,
            "province": "山西省",
            "city": "大同市",
            "district": "云冈区"
        }
    },
    {
        "id": "6476328336878547525",
        "title": "公共厕所",
        "address": "山西省大同市平城区东史宅与东门大巷交叉口正东方向101米左右",
        "tel": "",
        "category": "基础设施:公共设施:公共厕所",
        "type": 0,
        "location": {
            "lat": 40.091289,
            "lng": 113.311233
        },
        "ad_info": {
            "adcode": 140213,
            "province": "山西省",
            "city": "大同市",
            "district": "平城区"
        }
    },
    {
        "id": "2691783309311314321",
        "title": "公共厕所",
        "address": "山西省大同市平城区东史宅与柴家园交叉口正北方向128米左右",
        "tel": "",
        "category": "基础设施:公共设施:公共厕所",
        "type": 0,
        "location": {
            "lat": 40.088648,
            "lng": 113.310382
        },
        "ad_info": {
            "adcode": 140213,
            "province": "山西省",
            "city": "大同市",
            "district": "平城区"
        }
    },
    {
        "id": "2545050942847040302",
        "title": "公共厕所",
        "address": "山西省大同市平城区帝君庙街与朱衣阁街交叉口东南方向125米左右",
        "tel": "",
        "category": "基础设施:公共设施:公共厕所",
        "type": 0,
        "location": {
            "lat": 40.08859,
            "lng": 113.308639
        },
        "ad_info": {
            "adcode": 140213,
            "province": "山西省",
            "city": "大同市",
            "district": "平城区"
        }
    },
    {
        "id": "914452118581979858",
        "title": "公共厕所",
        "address": "山西省大同市平城区云路街与府学门交叉口正南方向81米左右",
        "tel": "",
        "category": "基础设施:公共设施:公共厕所",
        "type": 0,
        "location": {
            "lat": 40.086923,
            "lng": 113.306143
        },
        "ad_info": {
            "adcode": 140213,
            "province": "山西省",
            "city": "大同市",
            "district": "平城区"
        }
    },
    {
        "id": "10856078356388328760",
        "title": "公共厕所",
        "address": "山西省大同市灵丘县新建北路街心公园",
        "tel": "",
        "category": "基础设施:公共设施:公共厕所",
        "type": 0,
        "location": {
            "lat": 39.440178,
            "lng": 114.234667
        },
        "ad_info": {
            "adcode": 140224,
            "province": "山西省",
            "city": "大同市",
            "district": "灵丘县"
        }
    },
    {
        "id": "6430721310906466465",
        "title": "公共厕所",
        "address": "山西省大同市平城区G109与S203交叉口正西方向71米左右",
        "tel": "",
        "category": "基础设施:公共设施:公共厕所",
        "type": 0,
        "location": {
            "lat": 40.034131,
            "lng": 113.398474
        },
        "ad_info": {
            "adcode": 140213,
            "province": "山西省",
            "city": "大同市",
            "district": "平城区"
        }
    },
    {
        "id": "2816248871629849843",
        "title": "公共厕所",
        "address": "山西省大同市左云县云新西大街141号",
        "tel": "",
        "category": "基础设施:公共设施:公共厕所",
        "type": 0,
        "location": {
            "lat": 40.012713,
            "lng": 112.698671
        },
        "ad_info": {
            "adcode": 140226,
            "province": "山西省",
            "city": "大同市",
            "district": "左云县"
        }
    },
    {
        "id": "9560038807835146686",
        "title": "公共厕所",
        "address": "山西省大同市新荣区御河西街新荣二中",
        "tel": "",
        "category": "基础设施:公共设施:公共厕所",
        "type": 0,
        "location": {
            "lat": 40.252662,
            "lng": 113.130632
        },
        "ad_info": {
            "adcode": 140212,
            "province": "山西省",
            "city": "大同市",
            "district": "新荣区"
        }
    },
    {
        "id": "17851875448343464975",
        "title": "公共厕所",
        "address": "山西省大同市广灵县S201与Y017交叉口西南方向55米左右",
        "tel": "",
        "category": "基础设施:公共设施:公共厕所",
        "type": 0,
        "location": {
            "lat": 39.744894,
            "lng": 114.264065
        },
        "ad_info": {
            "adcode": 140223,
            "province": "山西省",
            "city": "大同市",
            "district": "广灵县"
        }
    },
    {
        "id": "13593987740281009256",
        "title": "公共厕所",
        "address": "山西省大同市云州区利民巷与坪邑西街交叉口正南方向18米左右",
        "tel": "",
        "category": "基础设施:公共设施:公共厕所",
        "type": 0,
        "location": {
            "lat": 40.039583,
            "lng": 113.606189
        },
        "ad_info": {
            "adcode": 140215,
            "province": "山西省",
            "city": "大同市",
            "district": "云州区"
        }
    },
    {
        "id": "11136141736733719701",
        "title": "公共厕所",
        "address": "山西省大同市云冈区平泉路59号",
        "tel": "",
        "category": "基础设施:公共设施:公共厕所",
        "type": 0,
        "location": {
            "lat": 40.031036,
            "lng": 113.172747
        },
        "ad_info": {
            "adcode": 140214,
            "province": "山西省",
            "city": "大同市",
            "district": "云冈区"
        }
    },
    {
        "id": "9012102686256540115",
        "title": "公共厕所",
        "address": "山西省大同市左云县南巷与御临街交叉口正北方向95米左右",
        "tel": "",
        "category": "基础设施:公共设施:公共厕所",
        "type": 0,
        "location": {
            "lat": 40.006477,
            "lng": 112.70307
        },
        "ad_info": {
            "adcode": 140226,
            "province": "山西省",
            "city": "大同市",
            "district": "左云县"
        }
    },
    {
        "id": "7323763734674029254",
        "title": "公共厕所",
        "address": "山西省大同市云州区S301与Y014交叉口东北方向105米左右",
        "tel": "",
        "category": "基础设施:公共设施:公共厕所",
        "type": 0,
        "location": {
            "lat": 40.133751,
            "lng": 113.472034
        },
        "ad_info": {
            "adcode": 140215,
            "province": "山西省",
            "city": "大同市",
            "district": "云州区"
        }
    },
    {
        "id": "9443938173735891724",
        "title": "公共厕所",
        "address": "山西省大同市平城区永平街与西苑路交叉口东南方向50米左右",
        "tel": "",
        "category": "基础设施:公共设施:公共厕所",
        "type": 0,
        "location": {
            "lat": 40.110358,
            "lng": 113.27877
        },
        "ad_info": {
            "adcode": 140213,
            "province": "山西省",
            "city": "大同市",
            "district": "平城区"
        }
    },
    {
        "id": "13517668539485802539",
        "title": "公共厕所",
        "address": "山西省大同市平城区大十字南街与西门大巷交叉口正北方向67米左右",
        "tel": "",
        "category": "基础设施:公共设施:公共厕所",
        "type": 0,
        "location": {
            "lat": 40.09563,
            "lng": 113.293582
        },
        "ad_info": {
            "adcode": 140213,
            "province": "山西省",
            "city": "大同市",
            "district": "平城区"
        }
    },
    {
        "id": "10312053325174169214",
        "title": "公共厕所",
        "address": "山西省大同市灵丘县易捷便利店(东河南加油站)东侧",
        "tel": "",
        "category": "基础设施:公共设施:公共厕所",
        "type": 0,
        "location": {
            "lat": 39.381273,
            "lng": 114.040519
        },
        "ad_info": {
            "adcode": 140224,
            "province": "山西省",
            "city": "大同市",
            "district": "灵丘县"
        }
    },
    {
        "id": "5304600241355770460",
        "title": "公共厕所",
        "address": "山西省大同市云冈区和宁街与平泉东路交叉口正南方向1697米左右",
        "tel": "",
        "category": "基础设施:公共设施:公共厕所",
        "type": 0,
        "location": {
            "lat": 39.99338,
            "lng": 113.191452
        },
        "ad_info": {
            "adcode": 140214,
            "province": "山西省",
            "city": "大同市",
            "district": "云冈区"
        }
    },
    {
        "id": "15533884040807046751",
        "title": "公共厕所",
        "address": "山西省大同市云冈区梧桐大道与纬七路交叉口正东方向176米左右",
        "tel": "",
        "category": "基础设施:公共设施:公共厕所",
        "type": 0,
        "location": {
            "lat": 40.037546,
            "lng": 113.165902
        },
        "ad_info": {
            "adcode": 140214,
            "province": "山西省",
            "city": "大同市",
            "district": "云冈区"
        }
    },
    {
        "id": "10875730023146306275",
        "title": "公共厕所",
        "address": "山西省大同市天镇县G512与新华路交叉口东南方向60米左右",
        "tel": "",
        "category": "基础设施:公共设施:公共厕所",
        "type": 0,
        "location": {
            "lat": 40.404473,
            "lng": 114.077671
        },
        "ad_info": {
            "adcode": 140222,
            "province": "山西省",
            "city": "大同市",
            "district": "天镇县"
        }
    },
    {
        "id": "1486398965582738098",
        "title": "公共厕所",
        "address": "山西省大同市左云县京拉线与燕厂线交叉口西北方向652米左右",
        "tel": "",
        "category": "基础设施:公共设施:公共厕所",
        "type": 0,
        "location": {
            "lat": 40.098158,
            "lng": 112.946839
        },
        "ad_info": {
            "adcode": 140226,
            "province": "山西省",
            "city": "大同市",
            "district": "左云县"
        }
    },
    {
        "id": "3860981208707445710",
        "title": "公共厕所",
        "address": "山西省大同市左云县云新东大街与和泰路交叉口西南方向45米左右",
        "tel": "",
        "category": "基础设施:公共设施:公共厕所",
        "type": 0,
        "location": {
            "lat": 40.013988,
            "lng": 112.719484
        },
        "ad_info": {
            "adcode": 140226,
            "province": "山西省",
            "city": "大同市",
            "district": "左云县"
        }
    },
    {
        "id": "11163004116495294571",
        "title": "肯德基(熙成店)洗手间",
        "address": "山西省大同市平城区清远西街与魏都大道交叉口西北方向60米左右",
        "tel": "",
        "category": "基础设施:公共设施:公共厕所",
        "type": 0,
        "location": {
            "lat": 40.094074,
            "lng": 113.289184
        },
        "ad_info": {
            "adcode": 140213,
            "province": "山西省",
            "city": "大同市",
            "district": "平城区"
        }
    },
    {
        "id": "9540272271629150378",
        "title": "公共厕所",
        "address": "山西省大同市云州区园平路与园荣街交叉口东北方向129米左右",
        "tel": "",
        "category": "基础设施:公共设施:公共厕所",
        "type": 0,
        "location": {
            "lat": 40.116916,
            "lng": 113.44039
        },
        "ad_info": {
            "adcode": 140215,
            "province": "山西省",
            "city": "大同市",
            "district": "云州区"
        }
    },
    {
        "id": "10528443378841501832",
        "title": "公共厕所",
        "address": "山西省大同市灵丘县新华东街中国石油加油站(宝宝贝贝幼儿园一部东)",
        "tel": "",
        "category": "基础设施:公共设施:公共厕所",
        "type": 0,
        "location": {
            "lat": 39.440699,
            "lng": 114.26162
        },
        "ad_info": {
            "adcode": 140224,
            "province": "山西省",
            "city": "大同市",
            "district": "灵丘县"
        }
    },
    {
        "id": "16565696947760000789",
        "title": "卫生间",
        "address": "山西省大同市平城区滨河路745号",
        "tel": "",
        "category": "基础设施:公共设施:公共厕所",
        "type": 0,
        "location": {
            "lat": 40.095857,
            "lng": 113.324373
        },
        "ad_info": {
            "adcode": 140213,
            "province": "山西省",
            "city": "大同市",
            "district": "平城区"
        }
    },
    {
        "id": "16954867608591474750",
        "title": "公共厕所",
        "address": "山西省大同市云冈区交通街与同泉路交叉口西北方向904米左右",
        "tel": "",
        "category": "基础设施:公共设施:公共厕所",
        "type": 0,
        "location": {
            "lat": 40.023736,
            "lng": 113.145627
        },
        "ad_info": {
            "adcode": 140214,
            "province": "山西省",
            "city": "大同市",
            "district": "云冈区"
        }
    },
    {
        "id": "8341429525979867963",
        "title": "公共厕所",
        "address": "山西省大同市云冈区纬地明珠西区西侧70米",
        "tel": "",
        "category": "基础设施:公共设施:公共厕所",
        "type": 0,
        "location": {
            "lat": 40.039091,
            "lng": 113.169638
        },
        "ad_info": {
            "adcode": 140214,
            "province": "山西省",
            "city": "大同市",
            "district": "云冈区"
        }
    },
    {
        "id": "8608260922954600217",
        "title": "公共厕所",
        "address": "山西省大同市平城区二淅线与文兴路交叉口西北方向666米左右",
        "tel": "",
        "category": "基础设施:公共设施:公共厕所",
        "type": 0,
        "location": {
            "lat": 40.033713,
            "lng": 113.345716
        },
        "ad_info": {
            "adcode": 140213,
            "province": "山西省",
            "city": "大同市",
            "district": "平城区"
        }
    },
    {
        "id": "16294179274702161460",
        "title": "公共厕所",
        "address": "山西省大同市新荣区得胜大道与迎宾路交叉口西南方向215米左右",
        "tel": "",
        "category": "基础设施:公共设施:公共厕所",
        "type": 0,
        "location": {
            "lat": 40.244635,
            "lng": 113.145271
        },
        "ad_info": {
            "adcode": 140212,
            "province": "山西省",
            "city": "大同市",
            "district": "新荣区"
        }
    },
    {
        "id": "7570745373707839726",
        "title": "公共厕所",
        "address": "山西省大同市云冈区挖金湾矿中学附近",
        "tel": "",
        "category": "基础设施:公共设施:公共厕所",
        "type": 0,
        "location": {
            "lat": 39.937419,
            "lng": 112.955625
        },
        "ad_info": {
            "adcode": 140214,
            "province": "山西省",
            "city": "大同市",
            "district": "云冈区"
        }
    },
    {
        "id": "16918982003757748986",
        "title": "公共厕所",
        "address": "山西省大同市平城区平城街与魏都大道交叉口西南方向127米左右",
        "tel": "",
        "category": "基础设施:公共设施:公共厕所",
        "type": 0,
        "location": {
            "lat": 40.102806,
            "lng": 113.288513
        },
        "ad_info": {
            "adcode": 140213,
            "province": "山西省",
            "city": "大同市",
            "district": "平城区"
        }
    },
    {
        "id": "6201518823156312175",
        "title": "公共厕所",
        "address": "山西省大同市阳高县G512与王官屯桥交叉口正北方向204米左右",
        "tel": "",
        "category": "基础设施:公共设施:公共厕所",
        "type": 0,
        "location": {
            "lat": 40.267068,
            "lng": 113.667709
        },
        "ad_info": {
            "adcode": 140221,
            "province": "山西省",
            "city": "大同市",
            "district": "阳高县"
        }
    },
    {
        "id": "3569502579043058247",
        "title": "公共厕所",
        "address": "山西省大同市云冈区新晋公路与纬五路交叉口西南方向218米左右",
        "tel": "",
        "category": "基础设施:公共设施:公共厕所",
        "type": 0,
        "location": {
            "lat": 40.034789,
            "lng": 113.168804
        },
        "ad_info": {
            "adcode": 140214,
            "province": "山西省",
            "city": "大同市",
            "district": "云冈区"
        }
    },
    {
        "id": "8855758802612593896",
        "title": "公共厕所",
        "address": "山西省大同市平城区儿童公园(迎宾街北)",
        "tel": "",
        "category": "基础设施:公共设施:公共厕所",
        "type": 0,
        "location": {
            "lat": 40.076351,
            "lng": 113.287458
        },
        "ad_info": {
            "adcode": 140213,
            "province": "山西省",
            "city": "大同市",
            "district": "平城区"
        }
    },
    {
        "id": "10528083540284435236",
        "title": "女洗手间(炫彩时尚购物广场)",
        "address": "山西省大同市平城区永泰南路西侧79号炫彩时尚购物广场F3层",
        "tel": "",
        "category": "基础设施:公共设施:公共厕所",
        "type": 0,
        "location": {
            "lat": 40.069958,
            "lng": 113.301834
        },
        "ad_info": {
            "adcode": 140213,
            "province": "山西省",
            "city": "大同市",
            "district": "平城区"
        }
    },
    {
        "id": "9765256840018781343",
        "title": "公共厕所",
        "address": "山西省大同市灵丘县津神线",
        "tel": "",
        "category": "基础设施:公共设施:公共厕所",
        "type": 0,
        "location": {
            "lat": 39.42254,
            "lng": 114.153925
        },
        "ad_info": {
            "adcode": 140224,
            "province": "山西省",
            "city": "大同市",
            "district": "灵丘县"
        }
    },
    {
        "id": "7542395847086837401",
        "title": "公共厕所",
        "address": "山西省大同市左云县东街与太平楼街交叉口正西方向47米左右",
        "tel": "",
        "category": "基础设施:公共设施:公共厕所",
        "type": 0,
        "location": {
            "lat": 40.005684,
            "lng": 112.70753
        },
        "ad_info": {
            "adcode": 140226,
            "province": "山西省",
            "city": "大同市",
            "district": "左云县"
        }
    },
    {
        "id": "14950701465887656081",
        "title": "公共厕所",
        "address": "山西省大同市左云县云新东大街与云新西大街交叉口正北方向177米左右",
        "tel": "",
        "category": "基础设施:公共设施:公共厕所",
        "type": 0,
        "location": {
            "lat": 40.014972,
            "lng": 112.706372
        },
        "ad_info": {
            "adcode": 140226,
            "province": "山西省",
            "city": "大同市",
            "district": "左云县"
        }
    },
    {
        "id": "2452400865161970559",
        "title": "公共卫生间",
        "address": "山西省大同市左云县云绣南街与云绣西街交叉口西南方向38米左右",
        "tel": "",
        "category": "基础设施:公共设施:公共厕所",
        "type": 0,
        "location": {
            "lat": 40.010847,
            "lng": 112.722066
        },
        "ad_info": {
            "adcode": 140226,
            "province": "山西省",
            "city": "大同市",
            "district": "左云县"
        }
    },
    {
        "id": "15064439837886102775",
        "title": "公共厕所",
        "address": "山西省大同市云冈区平泉路与新泉路交叉口西南方向35米左右",
        "tel": "",
        "category": "基础设施:公共设施:公共厕所",
        "type": 0,
        "location": {
            "lat": 39.997433,
            "lng": 113.168081
        },
        "ad_info": {
            "adcode": 140214,
            "province": "山西省",
            "city": "大同市",
            "district": "云冈区"
        }
    },
    {
        "id": "9270822686956213874",
        "title": "公共厕所",
        "address": "山西省大同市云冈区左鸦线",
        "tel": "",
        "category": "基础设施:公共设施:公共厕所",
        "type": 0,
        "location": {
            "lat": 39.973596,
            "lng": 113.024517
        },
        "ad_info": {
            "adcode": 140214,
            "province": "山西省",
            "city": "大同市",
            "district": "云冈区"
        }
    },
    {
        "id": "16906095350338491054",
        "title": "公共厕所",
        "address": "山西省大同市平城区中国石化祥和加油站西侧160米",
        "tel": "",
        "category": "基础设施:公共设施:公共厕所",
        "type": 0,
        "location": {
            "lat": 40.040339,
            "lng": 113.275045
        },
        "ad_info": {
            "adcode": 140213,
            "province": "山西省",
            "city": "大同市",
            "district": "平城区"
        }
    },
    {
        "id": "2835423323326437388",
        "title": "公共厕所",
        "address": "山西省大同市阳高县货场路与长青街交叉口正南方向216米左右",
        "tel": "",
        "category": "基础设施:公共设施:公共厕所",
        "type": 0,
        "location": {
            "lat": 40.362786,
            "lng": 113.740319
        },
        "ad_info": {
            "adcode": 140221,
            "province": "山西省",
            "city": "大同市",
            "district": "阳高县"
        }
    },
    {
        "id": "15356631872450559289",
        "title": "公共厕所",
        "address": "山西省大同市阳高县参合街阳高二中斜对面",
        "tel": "",
        "category": "基础设施:公共设施:公共厕所",
        "type": 0,
        "location": {
            "lat": 40.356791,
            "lng": 113.744711
        },
        "ad_info": {
            "adcode": 140221,
            "province": "山西省",
            "city": "大同市",
            "district": "阳高县"
        }
    },
    {
        "id": "14081201272512078977",
        "title": "公共厕所",
        "address": "山西省大同市平城区文瀛南路文瀛湖森林公园(西南角)",
        "tel": "",
        "category": "基础设施:公共设施:公共厕所",
        "type": 0,
        "location": {
            "lat": 40.080689,
            "lng": 113.37178
        },
        "ad_info": {
            "adcode": 140213,
            "province": "山西省",
            "city": "大同市",
            "district": "平城区"
        }
    },
    {
        "id": "11367050167516510568",
        "title": "公共厕所",
        "address": "山西省大同市云冈区新胜街道校北街锦绣华园南(同煤二中附近)",
        "tel": "",
        "category": "基础设施:公共设施:公共厕所",
        "type": 0,
        "location": {
            "lat": 40.034132,
            "lng": 113.182221
        },
        "ad_info": {
            "adcode": 140214,
            "province": "山西省",
            "city": "大同市",
            "district": "云冈区"
        }
    },
    {
        "id": "9908538580015055924",
        "title": "公共厕所",
        "address": "山西省大同市云冈区利和同均加油站西南侧160米",
        "tel": "",
        "category": "基础设施:公共设施:公共厕所",
        "type": 0,
        "location": {
            "lat": 40.013227,
            "lng": 113.267294
        },
        "ad_info": {
            "adcode": 140214,
            "province": "山西省",
            "city": "大同市",
            "district": "云冈区"
        }
    },
    {
        "id": "3730305491901791159",
        "title": "公共厕所",
        "address": "山西省大同市浑源县南关街与引翠街交叉口东南方向252米左右",
        "tel": "",
        "category": "基础设施:公共设施:公共厕所",
        "type": 0,
        "location": {
            "lat": 39.693576,
            "lng": 113.696029
        },
        "ad_info": {
            "adcode": 140225,
            "province": "山西省",
            "city": "大同市",
            "district": "浑源县"
        }
    },
    {
        "id": "6002175664398982917",
        "title": "公共厕所",
        "address": "山西省大同市新荣区G109与二淅线交叉口正南方向417米左右",
        "tel": "",
        "category": "基础设施:公共设施:公共厕所",
        "type": 0,
        "location": {
            "lat": 40.153892,
            "lng": 113.309578
        },
        "ad_info": {
            "adcode": 140212,
            "province": "山西省",
            "city": "大同市",
            "district": "新荣区"
        }
    },
    {
        "id": "14157435954688094417",
        "title": "公共厕所",
        "address": "山西省大同市新荣区府西街与绿苑南路交叉口正北方向151米左右",
        "tel": "",
        "category": "基础设施:公共设施:公共厕所",
        "type": 0,
        "location": {
            "lat": 40.25741,
            "lng": 113.141124
        },
        "ad_info": {
            "adcode": 140212,
            "province": "山西省",
            "city": "大同市",
            "district": "新荣区"
        }
    },
    {
        "id": "9324026950332678302",
        "title": "公共厕所",
        "address": "山西省大同市平城区武定门内街与清远门内街交叉口东南方向114米左右",
        "tel": "",
        "category": "基础设施:公共设施:公共厕所",
        "type": 0,
        "location": {
            "lat": 40.100999,
            "lng": 113.293457
        },
        "ad_info": {
            "adcode": 140213,
            "province": "山西省",
            "city": "大同市",
            "district": "平城区"
        }
    },
    {
        "id": "6201518823156312175",
        "title": "公共厕所",
        "address": "山西省大同市阳高县G512与王官屯桥交叉口正北方向204米左右",
        "tel": "",
        "category": "基础设施:公共设施:公共厕所",
        "type": 0,
        "location": {
            "lat": 40.267068,
            "lng": 113.667709
        },
        "ad_info": {
            "adcode": 140221,
            "province": "山西省",
            "city": "大同市",
            "district": "阳高县"
        }
    },
    {
        "id": "3569502579043058247",
        "title": "公共厕所",
        "address": "山西省大同市云冈区新晋公路与纬五路交叉口西南方向218米左右",
        "tel": "",
        "category": "基础设施:公共设施:公共厕所",
        "type": 0,
        "location": {
            "lat": 40.034789,
            "lng": 113.168804
        },
        "ad_info": {
            "adcode": 140214,
            "province": "山西省",
            "city": "大同市",
            "district": "云冈区"
        }
    },
    {
        "id": "8855758802612593896",
        "title": "公共厕所",
        "address": "山西省大同市平城区儿童公园(迎宾街北)",
        "tel": "",
        "category": "基础设施:公共设施:公共厕所",
        "type": 0,
        "location": {
            "lat": 40.076351,
            "lng": 113.287458
        },
        "ad_info": {
            "adcode": 140213,
            "province": "山西省",
            "city": "大同市",
            "district": "平城区"
        }
    },
    {
        "id": "10528083540284435236",
        "title": "女洗手间(炫彩时尚购物广场)",
        "address": "山西省大同市平城区永泰南路西侧79号炫彩时尚购物广场F3层",
        "tel": "",
        "category": "基础设施:公共设施:公共厕所",
        "type": 0,
        "location": {
            "lat": 40.069958,
            "lng": 113.301834
        },
        "ad_info": {
            "adcode": 140213,
            "province": "山西省",
            "city": "大同市",
            "district": "平城区"
        }
    },
    {
        "id": "9765256840018781343",
        "title": "公共厕所",
        "address": "山西省大同市灵丘县津神线",
        "tel": "",
        "category": "基础设施:公共设施:公共厕所",
        "type": 0,
        "location": {
            "lat": 39.42254,
            "lng": 114.153925
        },
        "ad_info": {
            "adcode": 140224,
            "province": "山西省",
            "city": "大同市",
            "district": "灵丘县"
        }
    },
    {
        "id": "7542395847086837401",
        "title": "公共厕所",
        "address": "山西省大同市左云县东街与太平楼街交叉口正西方向47米左右",
        "tel": "",
        "category": "基础设施:公共设施:公共厕所",
        "type": 0,
        "location": {
            "lat": 40.005684,
            "lng": 112.70753
        },
        "ad_info": {
            "adcode": 140226,
            "province": "山西省",
            "city": "大同市",
            "district": "左云县"
        }
    },
    {
        "id": "14950701465887656081",
        "title": "公共厕所",
        "address": "山西省大同市左云县云新东大街与云新西大街交叉口正北方向177米左右",
        "tel": "",
        "category": "基础设施:公共设施:公共厕所",
        "type": 0,
        "location": {
            "lat": 40.014972,
            "lng": 112.706372
        },
        "ad_info": {
            "adcode": 140226,
            "province": "山西省",
            "city": "大同市",
            "district": "左云县"
        }
    },
    {
        "id": "2452400865161970559",
        "title": "公共卫生间",
        "address": "山西省大同市左云县云绣南街与云绣西街交叉口西南方向38米左右",
        "tel": "",
        "category": "基础设施:公共设施:公共厕所",
        "type": 0,
        "location": {
            "lat": 40.010847,
            "lng": 112.722066
        },
        "ad_info": {
            "adcode": 140226,
            "province": "山西省",
            "city": "大同市",
            "district": "左云县"
        }
    },
    {
        "id": "15064439837886102775",
        "title": "公共厕所",
        "address": "山西省大同市云冈区平泉路与新泉路交叉口西南方向35米左右",
        "tel": "",
        "category": "基础设施:公共设施:公共厕所",
        "type": 0,
        "location": {
            "lat": 39.997433,
            "lng": 113.168081
        },
        "ad_info": {
            "adcode": 140214,
            "province": "山西省",
            "city": "大同市",
            "district": "云冈区"
        }
    },
    {
        "id": "9270822686956213874",
        "title": "公共厕所",
        "address": "山西省大同市云冈区左鸦线",
        "tel": "",
        "category": "基础设施:公共设施:公共厕所",
        "type": 0,
        "location": {
            "lat": 39.973596,
            "lng": 113.024517
        },
        "ad_info": {
            "adcode": 140214,
            "province": "山西省",
            "city": "大同市",
            "district": "云冈区"
        }
    },
    {
        "id": "16906095350338491054",
        "title": "公共厕所",
        "address": "山西省大同市平城区中国石化祥和加油站西侧160米",
        "tel": "",
        "category": "基础设施:公共设施:公共厕所",
        "type": 0,
        "location": {
            "lat": 40.040339,
            "lng": 113.275045
        },
        "ad_info": {
            "adcode": 140213,
            "province": "山西省",
            "city": "大同市",
            "district": "平城区"
        }
    },
    {
        "id": "2835423323326437388",
        "title": "公共厕所",
        "address": "山西省大同市阳高县货场路与长青街交叉口正南方向216米左右",
        "tel": "",
        "category": "基础设施:公共设施:公共厕所",
        "type": 0,
        "location": {
            "lat": 40.362786,
            "lng": 113.740319
        },
        "ad_info": {
            "adcode": 140221,
            "province": "山西省",
            "city": "大同市",
            "district": "阳高县"
        }
    },
    {
        "id": "15356631872450559289",
        "title": "公共厕所",
        "address": "山西省大同市阳高县参合街阳高二中斜对面",
        "tel": "",
        "category": "基础设施:公共设施:公共厕所",
        "type": 0,
        "location": {
            "lat": 40.356791,
            "lng": 113.744711
        },
        "ad_info": {
            "adcode": 140221,
            "province": "山西省",
            "city": "大同市",
            "district": "阳高县"
        }
    },
    {
        "id": "14081201272512078977",
        "title": "公共厕所",
        "address": "山西省大同市平城区文瀛南路文瀛湖森林公园(西南角)",
        "tel": "",
        "category": "基础设施:公共设施:公共厕所",
        "type": 0,
        "location": {
            "lat": 40.080689,
            "lng": 113.37178
        },
        "ad_info": {
            "adcode": 140213,
            "province": "山西省",
            "city": "大同市",
            "district": "平城区"
        }
    },
    {
        "id": "11367050167516510568",
        "title": "公共厕所",
        "address": "山西省大同市云冈区新胜街道校北街锦绣华园南(同煤二中附近)",
        "tel": "",
        "category": "基础设施:公共设施:公共厕所",
        "type": 0,
        "location": {
            "lat": 40.034132,
            "lng": 113.182221
        },
        "ad_info": {
            "adcode": 140214,
            "province": "山西省",
            "city": "大同市",
            "district": "云冈区"
        }
    },
    {
        "id": "9908538580015055924",
        "title": "公共厕所",
        "address": "山西省大同市云冈区利和同均加油站西南侧160米",
        "tel": "",
        "category": "基础设施:公共设施:公共厕所",
        "type": 0,
        "location": {
            "lat": 40.013227,
            "lng": 113.267294
        },
        "ad_info": {
            "adcode": 140214,
            "province": "山西省",
            "city": "大同市",
            "district": "云冈区"
        }
    },
    {
        "id": "3730305491901791159",
        "title": "公共厕所",
        "address": "山西省大同市浑源县南关街与引翠街交叉口东南方向252米左右",
        "tel": "",
        "category": "基础设施:公共设施:公共厕所",
        "type": 0,
        "location": {
            "lat": 39.693576,
            "lng": 113.696029
        },
        "ad_info": {
            "adcode": 140225,
            "province": "山西省",
            "city": "大同市",
            "district": "浑源县"
        }
    },
    {
        "id": "6002175664398982917",
        "title": "公共厕所",
        "address": "山西省大同市新荣区G109与二淅线交叉口正南方向417米左右",
        "tel": "",
        "category": "基础设施:公共设施:公共厕所",
        "type": 0,
        "location": {
            "lat": 40.153892,
            "lng": 113.309578
        },
        "ad_info": {
            "adcode": 140212,
            "province": "山西省",
            "city": "大同市",
            "district": "新荣区"
        }
    },
    {
        "id": "14157435954688094417",
        "title": "公共厕所",
        "address": "山西省大同市新荣区府西街与绿苑南路交叉口正北方向151米左右",
        "tel": "",
        "category": "基础设施:公共设施:公共厕所",
        "type": 0,
        "location": {
            "lat": 40.25741,
            "lng": 113.141124
        },
        "ad_info": {
            "adcode": 140212,
            "province": "山西省",
            "city": "大同市",
            "district": "新荣区"
        }
    },
    {
        "id": "9324026950332678302",
        "title": "公共厕所",
        "address": "山西省大同市平城区武定门内街与清远门内街交叉口东南方向114米左右",
        "tel": "",
        "category": "基础设施:公共设施:公共厕所",
        "type": 0,
        "location": {
            "lat": 40.100999,
            "lng": 113.293457
        },
        "ad_info": {
            "adcode": 140213,
            "province": "山西省",
            "city": "大同市",
            "district": "平城区"
        }
    },
    {
        "id": "6201518823156312175",
        "title": "公共厕所",
        "address": "山西省大同市阳高县G512与王官屯桥交叉口正北方向204米左右",
        "tel": "",
        "category": "基础设施:公共设施:公共厕所",
        "type": 0,
        "location": {
            "lat": 40.267068,
            "lng": 113.667709
        },
        "ad_info": {
            "adcode": 140221,
            "province": "山西省",
            "city": "大同市",
            "district": "阳高县"
        }
    },
    {
        "id": "3569502579043058247",
        "title": "公共厕所",
        "address": "山西省大同市云冈区新晋公路与纬五路交叉口西南方向218米左右",
        "tel": "",
        "category": "基础设施:公共设施:公共厕所",
        "type": 0,
        "location": {
            "lat": 40.034789,
            "lng": 113.168804
        },
        "ad_info": {
            "adcode": 140214,
            "province": "山西省",
            "city": "大同市",
            "district": "云冈区"
        }
    },
    {
        "id": "8855758802612593896",
        "title": "公共厕所",
        "address": "山西省大同市平城区儿童公园(迎宾街北)",
        "tel": "",
        "category": "基础设施:公共设施:公共厕所",
        "type": 0,
        "location": {
            "lat": 40.076351,
            "lng": 113.287458
        },
        "ad_info": {
            "adcode": 140213,
            "province": "山西省",
            "city": "大同市",
            "district": "平城区"
        }
    },
    {
        "id": "10528083540284435236",
        "title": "女洗手间(炫彩时尚购物广场)",
        "address": "山西省大同市平城区永泰南路西侧79号炫彩时尚购物广场F3层",
        "tel": "",
        "category": "基础设施:公共设施:公共厕所",
        "type": 0,
        "location": {
            "lat": 40.069958,
            "lng": 113.301834
        },
        "ad_info": {
            "adcode": 140213,
            "province": "山西省",
            "city": "大同市",
            "district": "平城区"
        }
    },
    {
        "id": "9765256840018781343",
        "title": "公共厕所",
        "address": "山西省大同市灵丘县津神线",
        "tel": "",
        "category": "基础设施:公共设施:公共厕所",
        "type": 0,
        "location": {
            "lat": 39.42254,
            "lng": 114.153925
        },
        "ad_info": {
            "adcode": 140224,
            "province": "山西省",
            "city": "大同市",
            "district": "灵丘县"
        }
    },
    {
        "id": "7542395847086837401",
        "title": "公共厕所",
        "address": "山西省大同市左云县东街与太平楼街交叉口正西方向47米左右",
        "tel": "",
        "category": "基础设施:公共设施:公共厕所",
        "type": 0,
        "location": {
            "lat": 40.005684,
            "lng": 112.70753
        },