[
    {
        "id": "3708581195999203020",
        "title": "公共厕所",
        "address": "黑龙江省大兴安岭地区漠河市育才街与阳光巷交叉口东南方向13米左右",
        "tel": "",
        "category": "基础设施:公共设施:公共厕所",
        "type": 0,
        "location": {
            "lat": 52.969697,
            "lng": 122.538531
        },
        "ad_info": {
            "adcode": 232701,
            "province": "黑龙江省",
            "city": "大兴安岭地区",
            "district": "漠河市"
        }
    },
    {
        "id": "16389616527509382965",
        "title": "公共厕所",
        "address": "黑龙江省大兴安岭地区漠河市林海路",
        "tel": "",
        "category": "基础设施:公共设施:公共厕所",
        "type": 0,
        "location": {
            "lat": 52.861258,
            "lng": 123.157377
        },
        "ad_info": {
            "adcode": 232701,
            "province": "黑龙江省",
            "city": "大兴安岭地区",
            "district": "漠河市"
        }
    },
    {
        "id": "1041553203342957692",
        "title": "公共厕所",
        "address": "黑龙江省大兴安岭地区漠河市X204",
        "tel": "",
        "category": "基础设施:公共设施:公共厕所",
        "type": 0,
        "location": {
            "lat": 53.402943,
            "lng": 124.004435
        },
        "ad_info": {
            "adcode": 232701,
            "province": "黑龙江省",
            "city": "大兴安岭地区",
            "district": "漠河市"
        }
    },
    {
        "id": "12434614714505945363",
        "title": "公共卫生间",
        "address": "黑龙江省大兴安岭地区塔河县",
        "tel": "",
        "category": "基础设施:公共设施:公共厕所",
        "type": 0,
        "location": {
            "lat": 52.950261,
            "lng": 125.699316
        },
        "ad_info": {
            "adcode": 232722,
            "province": "黑龙江省",
            "city": "大兴安岭地区",
            "district": "塔河县"
        }
    },
    {
        "id": "10478157215991128415",
        "title": "公共厕所",
        "address": "黑龙江省大兴安岭地区松岭区松岭大街35号",
        "tel": "",
        "category": "基础设施:公共设施:公共厕所",
        "type": 0,
        "location": {
            "lat": 50.794757,
            "lng": 124.293395
        },
        "ad_info": {
            "adcode": 232762,
            "province": "黑龙江省",
            "city": "大兴安岭地区",
            "district": "松岭区"
        }
    },
    {
        "id": "17928021969898858165",
        "title": "公共厕所",
        "address": "黑龙江省大兴安岭地区松岭区加漠公路与育才路交叉口正南方向609米左右",
        "tel": "",
        "category": "基础设施:公共设施:公共厕所",
        "type": 0,
        "location": {
            "lat": 50.940472,
            "lng": 124.322597
        },
        "ad_info": {
            "adcode": 232762,
            "province": "黑龙江省",
            "city": "大兴安岭地区",
            "district": "松岭区"
        }
    },
    {
        "id": "10403151691383985972",
        "title": "公共厕所",
        "address": "黑龙江省大兴安岭地区松岭区文明路与松岭大街交叉口正西方向166米左右",
        "tel": "",
        "category": "基础设施:公共设施:公共厕所",
        "type": 0,
        "location": {
            "lat": 50.795083,
            "lng": 124.293209
        },
        "ad_info": {
            "adcode": 232762,
            "province": "黑龙江省",
            "city": "大兴安岭地区",
            "district": "松岭区"
        }
    },
    {
        "id": "8260193815744820672",
        "title": "公共厕所",
        "address": "黑龙江省大兴安岭地区呼玛县中华路与长宁街交叉口正东方向200米左右",
        "tel": "",
        "category": "基础设施:公共设施:公共厕所",
        "type": 0,
        "location": {
            "lat": 51.730407,
            "lng": 126.668174
        },
        "ad_info": {
            "adcode": 232721,
            "province": "黑龙江省",
            "city": "大兴安岭地区",
            "district": "呼玛县"
        }
    },
    {
        "id": "5934300142298647085",
        "title": "公共厕所",
        "address": "黑龙江省大兴安岭地区松岭区南瓮河嫩江源景区",
        "tel": "",
        "category": "基础设施:公共设施:公共厕所",
        "type": 0,
        "location": {
            "lat": 51.105875,
            "lng": 125.338966
        },
        "ad_info": {
            "adcode": 232762,
            "province": "黑龙江省",
            "city": "大兴安岭地区",
            "district": "松岭区"
        }
    },
    {
        "id": "17710297903994172073",
        "title": "公共厕所",
        "address": "黑龙江省大兴安岭地区塔河县中央大街与永乐路交叉口东北方向127米左右",
        "tel": "",
        "category": "基础设施:公共设施:公共厕所",
        "type": 0,
        "location": {
            "lat": 52.335148,
            "lng": 124.714134
        },
        "ad_info": {
            "adcode": 232722,
            "province": "黑龙江省",
            "city": "大兴安岭地区",
            "district": "塔河县"
        }
    },
    {
        "id": "16694943675464787183",
        "title": "公共厕所",
        "address": "黑龙江省大兴安岭地区呼玛县新北二道街与新建路交叉口西北方向260米左右",
        "tel": "",
        "category": "基础设施:公共设施:公共厕所",
        "type": 0,
        "location": {
            "lat": 52.037491,
            "lng": 123.58671
        },
        "ad_info": {
            "adcode": 232721,
            "province": "黑龙江省",
            "city": "大兴安岭地区",
            "district": "呼玛县"
        }
    },
    {
        "id": "3987067173699895002",
        "title": "公共厕所",
        "address": "黑龙江省大兴安岭地区呼玛县中心大街与向阳路交叉口正南方向102米左右",
        "tel": "",
        "category": "基础设施:公共设施:公共厕所",
        "type": 0,
        "location": {
            "lat": 52.03396,
            "lng": 123.601059
        },
        "ad_info": {
            "adcode": 232721,
            "province": "黑龙江省",
            "city": "大兴安岭地区",
            "district": "呼玛县"
        }
    },
    {
        "id": "18260351466179461157",
        "title": "公共厕所",
        "address": "黑龙江省大兴安岭地区漠河市人民路与龙江街交叉口正北方向100米左右",
        "tel": "",
        "category": "基础设施:公共设施:公共厕所",
        "type": 0,
        "location": {
            "lat": 52.96824,
            "lng": 122.535899
        },
        "ad_info": {
            "adcode": 232701,
            "province": "黑龙江省",
            "city": "大兴安岭地区",
            "district": "漠河市"
        }
    },
    {
        "id": "9543977590222956977",
        "title": "公共厕所",
        "address": "黑龙江省大兴安岭地区漠河市人民路与金沟街交叉口正西方向167米左右",
        "tel": "",
        "category": "基础设施:公共设施:公共厕所",
        "type": 0,
        "location": {
            "lat": 52.974693,
            "lng": 122.529961
        },
        "ad_info": {
            "adcode": 232701,
            "province": "黑龙江省",
            "city": "大兴安岭地区",
            "district": "漠河市"
        }
    },
    {
        "id": "9455798927241089013",
        "title": "公共厕所",
        "address": "黑龙江省大兴安岭地区漠河市S209(东方红大桥)",
        "tel": "",
        "category": "基础设施:公共设施:公共厕所",
        "type": 0,
        "location": {
            "lat": 53.288967,
            "lng": 123.657329
        },
        "ad_info": {
            "adcode": 232701,
            "province": "黑龙江省",
            "city": "大兴安岭地区",
            "district": "漠河市"
        }
    },
    {
        "id": "9764457780822953233",
        "title": "公共厕所",
        "address": "黑龙江省大兴安岭地区塔河县东一条路与友谊大街交叉口东北方向35米左右",
        "tel": "",
        "category": "基础设施:公共设施:公共厕所",
        "type": 0,
        "location": {
            "lat": 52.326955,
            "lng": 124.707964
        },
        "ad_info": {
            "adcode": 232722,
            "province": "黑龙江省",
            "city": "大兴安岭地区",
            "district": "塔河县"
        }
    },
    {
        "id": "17825833672854024294",
        "title": "公共厕所",
        "address": "黑龙江省大兴安岭地区漠河市完美生活烤吧附近",
        "tel": "",
        "category": "基础设施:公共设施:公共厕所",
        "type": 0,
        "location": {
            "lat": 52.969004,
            "lng": 122.631802
        },
        "ad_info": {
            "adcode": 232701,
            "province": "黑龙江省",
            "city": "大兴安岭地区",
            "district": "漠河市"
        }
    },
    {
        "id": "3769968633700412271",
        "title": "公共厕所",
        "address": "黑龙江省大兴安岭地区呼玛县S218与Y501交叉口正南方向1089米左右",
        "tel": "",
        "category": "基础设施:公共设施:公共厕所",
        "type": 0,
        "location": {
            "lat": 51.750686,
            "lng": 123.571919
        },
        "ad_info": {
            "adcode": 232721,
            "province": "黑龙江省",
            "city": "大兴安岭地区",
            "district": "呼玛县"
        }
    },
    {
        "id": "5111171879267414245",
        "title": "公共厕所",
        "address": "黑龙江省大兴安岭地区新林区G111与S207交叉口东南方向75米",
        "tel": "",
        "category": "基础设施:公共设施:公共厕所",
        "type": 0,
        "location": {
            "lat": 51.461906,
            "lng": 124.274532
        },
        "ad_info": {
            "adcode": 232763,
            "province": "黑龙江省",
            "city": "大兴安岭地区",
            "district": "新林区"
        }
    },
    {
        "id": "15477341511946138409",
        "title": "公共厕所",
        "address": "黑龙江省大兴安岭地区呼玛县中华路与长宁街交叉口东南方向41米左右",
        "tel": "",
        "category": "基础设施:公共设施:公共厕所",
        "type": 0,
        "location": {
            "lat": 51.729568,
            "lng": 126.665981
        },
        "ad_info": {
            "adcode": 232721,
            "province": "黑龙江省",
            "city": "大兴安岭地区",
            "district": "呼玛县"
        }
    },
    {
        "id": "2649506141155912449",
        "title": "公厕",
        "address": "黑龙江省大兴安岭地区松岭区育才路",
        "tel": "",
        "category": "基础设施:公共设施:公共厕所",
        "type": 0,
        "location": {
            "lat": 50.931522,
            "lng": 124.325242
        },
        "ad_info": {
            "adcode": 232762,
            "province": "黑龙江省",
            "city": "大兴安岭地区",
            "district": "松岭区"
        }
    },
    {
        "id": "3381942775191567518",
        "title": "厕所",
        "address": "黑龙江省大兴安岭地区松岭区人民路",
        "tel": "",
        "category": "基础设施:公共设施:公共厕所",
        "type": 0,
        "location": {
            "lat": 51.0031,
            "lng": 124.187743
        },
        "ad_info": {
            "adcode": 232762,
            "province": "黑龙江省",
            "city": "大兴安岭地区",
            "district": "松岭区"
        }
    },
    {
        "id": "14269818820757542104",
        "title": "公共厕所",
        "address": "黑龙江省大兴安岭地区漠河市黑山头屯附近",
        "tel": "",
        "category": "基础设施:公共设施:公共厕所",
        "type": 0,
        "location": {
            "lat": 53.052465,
            "lng": 122.453953
        },
        "ad_info": {
            "adcode": 232701,
            "province": "黑龙江省",
            "city": "大兴安岭地区",
            "district": "漠河市"
        }
    },
    {
        "id": "2185869534375107275",
        "title": "公共厕所",
        "address": "黑龙江省大兴安岭地区漠河市大河西村村民委员会",
        "tel": "",
        "category": "基础设施:公共设施:公共厕所",
        "type": 0,
        "location": {
            "lat": 53.381236,
            "lng": 124.02664
        },
        "ad_info": {
            "adcode": 232701,
            "province": "黑龙江省",
            "city": "大兴安岭地区",
            "district": "漠河市"
        }
    },
    {
        "id": "2294735231176905140",
        "title": "公共厕所",
        "address": "黑龙江省大兴安岭地区松岭区红领巾路",
        "tel": "",
        "category": "基础设施:公共设施:公共厕所",
        "type": 0,
        "location": {
            "lat": 51.000971,
            "lng": 124.187918
        },
        "ad_info": {
            "adcode": 232762,
            "province": "黑龙江省",
            "city": "大兴安岭地区",
            "district": "松岭区"
        }
    },
    {
        "id": "1439014818594229777",
        "title": "公共厕所",
        "address": "黑龙江省大兴安岭地区松岭区人民路",
        "tel": "",
        "category": "基础设施:公共设施:公共厕所",
        "type": 0,
        "location": {
            "lat": 51.001579,
            "lng": 124.186306
        },
        "ad_info": {
            "adcode": 232762,
            "province": "黑龙江省",
            "city": "大兴安岭地区",
            "district": "松岭区"
        }
    },
    {
        "id": "1480089597024621539",
        "title": "公共厕所",
        "address": "黑龙江省大兴安岭地区松岭区人民路",
        "tel": "",
        "category": "基础设施:公共设施:公共厕所",
        "type": 0,
        "location": {
            "lat": 51.001982,
            "lng": 124.189167
        },
        "ad_info": {
            "adcode": 232762,
            "province": "黑龙江省",
            "city": "大兴安岭地区",
            "district": "松岭区"
        }
    },
    {
        "id": "1082197481823211599",
        "title": "公共厕所",
        "address": "黑龙江省大兴安岭地区松岭区人民路",
        "tel": "",
        "category": "基础设施:公共设施:公共厕所",
        "type": 0,
        "location": {
            "lat": 50.998263,
            "lng": 124.179733
        },
        "ad_info": {
            "adcode": 232762,
            "province": "黑龙江省",
            "city": "大兴安岭地区",
            "district": "松岭区"
        }
    },
    {
        "id": "2077405868710315111",
        "title": "公共厕所",
        "address": "黑龙江省大兴安岭地区漠河市西华路",
        "tel": "",
        "category": "基础设施:公共设施:公共厕所",
        "type": 0,
        "location": {
            "lat": 52.865433,
            "lng": 123.150226
        },
        "ad_info": {
            "adcode": 232701,
            "province": "黑龙江省",
            "city": "大兴安岭地区",
            "district": "漠河市"
        }
    },
    {
        "id": "2430273167276502233",
        "title": "公共厕所",
        "address": "黑龙江省大兴安岭地区松岭区人民路",
        "tel": "",
        "category": "基础设施:公共设施:公共厕所",
        "type": 0,
        "location": {
            "lat": 51.001449,
            "lng": 124.189948
        },
        "ad_info": {
            "adcode": 232762,
            "province": "黑龙江省",
            "city": "大兴安岭地区",
            "district": "松岭区"
        }
    },
    {
        "id": "17339679349615841037",
        "title": "公共厕所",
        "address": "黑龙江省大兴安岭地区加格达奇区世纪大道11号",
        "tel": "",
        "category": "基础设施:公共设施:公共厕所",
        "type": 0,
        "location": {
            "lat": 50.4204,
            "lng": 124.127866
        },
        "ad_info": {
            "adcode": 232761,
            "province": "黑龙江省",
            "city": "大兴安岭地区",
            "district": "加格达奇区"
        }
    },
    {
        "id": "17448762609077561965",
        "title": "公共厕所",
        "address": "黑龙江省大兴安岭地区呼玛县中心大街与站前路交叉口正北方向125米左右",
        "tel": "",
        "category": "基础设施:公共设施:公共厕所",
        "type": 0,
        "location": {
            "lat": 52.036451,
            "lng": 123.604877
        },
        "ad_info": {
            "adcode": 232721,
            "province": "黑龙江省",
            "city": "大兴安岭地区",
            "district": "呼玛县"
        }
    },
    {
        "id": "15771346703309034103",
        "title": "公共厕所",
        "address": "黑龙江省大兴安岭地区呼玛县四道街呼中林业局职工医院",
        "tel": "",
        "category": "基础设施:公共设施:公共厕所",
        "type": 0,
        "location": {
            "lat": 52.040708,
            "lng": 123.600585
        },
        "ad_info": {
            "adcode": 232721,
            "province": "黑龙江省",
            "city": "大兴安岭地区",
            "district": "呼玛县"
        }
    },
    {
        "id": "17249786303688413984",
        "title": "公共厕所",
        "address": "黑龙江省大兴安岭地区新林区林城路与绿化路交叉口正东方向201米左右",
        "tel": "",
        "category": "基础设施:公共设施:公共厕所",
        "type": 0,
        "location": {
            "lat": 51.672224,
            "lng": 124.401668
        },
        "ad_info": {
            "adcode": 232763,
            "province": "黑龙江省",
            "city": "大兴安岭地区",
            "district": "新林区"
        }
    },
    {
        "id": "2736223681385218673",
        "title": "公共厕所",
        "address": "黑龙江省大兴安岭地区加格达奇区步行街与胜利路交叉口正东方向32米左右",
        "tel": "",
        "category": "基础设施:公共设施:公共厕所",
        "type": 0,
        "location": {
            "lat": 50.424579,
            "lng": 124.131134
        },
        "ad_info": {
            "adcode": 232761,
            "province": "黑龙江省",
            "city": "大兴安岭地区",
            "district": "加格达奇区"
        }
    },
    {
        "id": "12288137346470499036",
        "title": "公共厕所",
        "address": "黑龙江省大兴安岭地区漠河市军民巷与爱民街交叉口东南方向39米左右",
        "tel": "",
        "category": "基础设施:公共设施:公共厕所",
        "type": 0,
        "location": {
            "lat": 52.966678,
            "lng": 122.543595
        },
        "ad_info": {
            "adcode": 232701,
            "province": "黑龙江省",
            "city": "大兴安岭地区",
            "district": "漠河市"
        }
    },
    {
        "id": "364023461886985030",
        "title": "公共厕所",
        "address": "黑龙江省大兴安岭地区新林区春明路与永安路交叉口西南方向27米左右",
        "tel": "",
        "category": "基础设施:公共设施:公共厕所",
        "type": 0,
        "location": {
            "lat": 51.668467,
            "lng": 124.39487
        },
        "ad_info": {
            "adcode": 232763,
            "province": "黑龙江省",
            "city": "大兴安岭地区",
            "district": "新林区"
        }
    },
    {
        "id": "16278739157899773426",
        "title": "公共厕所",
        "address": "黑龙江省大兴安岭地区呼玛县中华路与光辉街交叉口东北方向56米左右",
        "tel": "",
        "category": "基础设施:公共设施:公共厕所",
        "type": 0,
        "location": {
            "lat": 51.736179,
            "lng": 126.660557
        },
        "ad_info": {
            "adcode": 232721,
            "province": "黑龙江省",
            "city": "大兴安岭地区",
            "district": "呼玛县"
        }
    },
    {
        "id": "4035091910674119113",
        "title": "公共厕所",
        "address": "黑龙江省大兴安岭地区加格达奇区卫东大街与景观大道交叉口正南方向29米左右",
        "tel": "",
        "category": "基础设施:公共设施:公共厕所",
        "type": 0,
        "location": {
            "lat": 50.408416,
            "lng": 124.134722
        },
        "ad_info": {
            "adcode": 232761,
            "province": "黑龙江省",
            "city": "大兴安岭地区",
            "district": "加格达奇区"
        }
    },
    {
        "id": "14993113691509748067",
        "title": "公共卫生间",
        "address": "黑龙江省大兴安岭地区加格达奇区朝阳路12号",
        "tel": "",
        "category": "基础设施:公共设施:公共厕所",
        "type": 0,
        "location": {
            "lat": 50.424495,
            "lng": 124.135122
        },
        "ad_info": {
            "adcode": 232761,
            "province": "黑龙江省",
            "city": "大兴安岭地区",
            "district": "加格达奇区"
        }
    },
    {
        "id": "17667739978249948362",
        "title": "公共厕所",
        "address": "黑龙江省大兴安岭地区呼玛县G331与红卫路交叉口正北方向49米左右",
        "tel": "",
        "category": "基础设施:公共设施:公共厕所",
        "type": 0,
        "location": {
            "lat": 51.706863,
            "lng": 126.636179
        },
        "ad_info": {
            "adcode": 232721,
            "province": "黑龙江省",
            "city": "大兴安岭地区",
            "district": "呼玛县"
        }
    },
    {
        "id": "1039041438869030028",
        "title": "公共厕所",
        "address": "黑龙江省大兴安岭地区加格达奇区建林街与环山路交叉口东南方向37米左右",
        "tel": "",
        "category": "基础设施:公共设施:公共厕所",
        "type": 0,
        "location": {
            "lat": 50.430006,
            "lng": 124.124562
        },
        "ad_info": {
            "adcode": 232761,
            "province": "黑龙江省",
            "city": "大兴安岭地区",
            "district": "加格达奇区"
        }
    },
    {
        "id": "10549681599585082380",
        "title": "公共厕所",
        "address": "黑龙江省大兴安岭地区呼玛县005乡道与209省道交叉口东北150米",
        "tel": "",
        "category": "基础设施:公共设施:公共厕所",
        "type": 0,
        "location": {
            "lat": 51.848357,
            "lng": 126.445165
        },
        "ad_info": {
            "adcode": 232721,
            "province": "黑龙江省",
            "city": "大兴安岭地区",
            "district": "呼玛县"
        }
    },
    {
        "id": "6101611396816461647",
        "title": "公共厕所",
        "address": "黑龙江省大兴安岭地区漠河市",
        "tel": "",
        "category": "基础设施:公共设施:公共厕所",
        "type": 0,
        "location": {
            "lat": 52.786887,
            "lng": 123.528303
        },
        "ad_info": {
            "adcode": 232701,
            "province": "黑龙江省",
            "city": "大兴安岭地区",
            "district": "漠河市"
        }
    },
    {
        "id": "2224906646856824489",
        "title": "公共厕所",
        "address": "黑龙江省大兴安岭地区塔河县东一条路与新建路交叉口正北方向155米左右",
        "tel": "",
        "category": "基础设施:公共设施:公共厕所",
        "type": 0,
        "location": {
            "lat": 52.324253,
            "lng": 124.704631
        },
        "ad_info": {
            "adcode": 232722,
            "province": "黑龙江省",
            "city": "大兴安岭地区",
            "district": "塔河县"
        }
    },
    {
        "id": "11046276382539541090",
        "title": "公共厕所",
        "address": "黑龙江省大兴安岭地区呼玛县G331与X198交叉口西南方向272米左右",
        "tel": "",
        "category": "基础设施:公共设施:公共厕所",
        "type": 0,
        "location": {
            "lat": 52.416209,
            "lng": 125.923991
        },
        "ad_info": {
            "adcode": 232721,
            "province": "黑龙江省",
            "city": "大兴安岭地区",
            "district": "呼玛县"
        }
    },
    {
        "id": "490557404507757387",
        "title": "公共厕所",
        "address": "黑龙江省大兴安岭地区加格达奇区光明东路与育华街交叉口正南方向42米左右",
        "tel": "",
        "category": "基础设施:公共设施:公共厕所",
        "type": 0,
        "location": {
            "lat": 50.416397,
            "lng": 124.118345
        },
        "ad_info": {
            "adcode": 232761,
            "province": "黑龙江省",
            "city": "大兴安岭地区",
            "district": "加格达奇区"
        }
    },
    {
        "id": "5817646999072209254",
        "title": "公共厕所",
        "address": "黑龙江省大兴安岭地区加格达奇区加格达奇区公路客运分站附近(人民路)",
        "tel": "",
        "category": "基础设施:公共设施:公共厕所",
        "type": 0,
        "location": {
            "lat": 50.422961,
            "lng": 124.161822
        },
        "ad_info": {
            "adcode": 232761,
            "province": "黑龙江省",
            "city": "大兴安岭地区",
            "district": "加格达奇区"
        }
    },
    {
        "id": "3905353690959412299",
        "title": "公共厕所",
        "address": "黑龙江省大兴安岭地区加格达奇区春城路与育华街交叉口正北方向30米左右",
        "tel": "",
        "category": "基础设施:公共设施:公共厕所",
        "type": 0,
        "location": {
            "lat": 50.419049,
            "lng": 124.119739
        },
        "ad_info": {
            "adcode": 232761,
            "province": "黑龙江省",
            "city": "大兴安岭地区",
            "district": "加格达奇区"
        }
    },
    {
        "id": "13664633245570246005",
        "title": "公共厕所",
        "address": "黑龙江省大兴安岭地区塔河县古驿路与昌盛街交叉口西南方向40米左右",
        "tel": "",
        "category": "基础设施:公共设施:公共厕所",
        "type": 0,
        "location": {
            "lat": 52.427519,
            "lng": 125.39913
        },
        "ad_info": {
            "adcode": 232722,
            "province": "黑龙江省",
            "city": "大兴安岭地区",
            "district": "塔河县"
        }
    },
    {
        "id": "5996566235639692950",
        "title": "公共厕所",
        "address": "黑龙江省大兴安岭地区加格达奇区世纪大道8号(加格达奇火车站)",
        "tel": "",
        "category": "基础设施:公共设施:公共厕所",
        "type": 0,
        "location": {
            "lat": 50.420193,
            "lng": 124.127903
        },
        "ad_info": {
            "adcode": 232761,
            "province": "黑龙江省",
            "city": "大兴安岭地区",
            "district": "加格达奇区"
        }
    },
    {
        "id": "8698825120834054348",
        "title": "公共厕所",
        "address": "黑龙江省大兴安岭地区加格达奇区人民路与银波大街交叉口东南方向97米左右",
        "tel": "",
        "category": "基础设施:公共设施:公共厕所",
        "type": 0,
        "location": {
            "lat": 50.426685,
            "lng": 124.110076
        },
        "ad_info": {
            "adcode": 232761,
            "province": "黑龙江省",
            "city": "大兴安岭地区",
            "district": "加格达奇区"
        }
    },
    {
        "id": "933179044087651617",
        "title": "公共厕所",
        "address": "黑龙江省大兴安岭地区塔河县G111与加漠公路交叉口东南方向631米左右",
        "tel": "",
        "category": "基础设施:公共设施:公共厕所",
        "type": 0,
        "location": {
            "lat": 52.596238,
            "lng": 124.538644
        },
        "ad_info": {
            "adcode": 232722,
            "province": "黑龙江省",
            "city": "大兴安岭地区",
            "district": "塔河县"
        }
    },
    {
        "id": "11581404929002904470",
        "title": "公共厕所",
        "address": "黑龙江省大兴安岭地区加格达奇区中国燃气L-CNG汽车加气站东侧200米",
        "tel": "",
        "category": "基础设施:公共设施:公共厕所",
        "type": 0,
        "location": {
            "lat": 50.42791,
            "lng": 124.089423
        },
        "ad_info": {
            "adcode": 232761,
            "province": "黑龙江省",
            "city": "大兴安岭地区",
            "district": "加格达奇区"
        }
    },
    {
        "id": "11916143350309320142",
        "title": "公共厕所",
        "address": "黑龙江省大兴安岭地区加格达奇区地区前进路知青广场内(南侧)",
        "tel": "",
        "category": "基础设施:公共设施:公共厕所",
        "type": 0,
        "location": {
            "lat": 50.425722,
            "lng": 124.107567
        },
        "ad_info": {
            "adcode": 232761,
            "province": "黑龙江省",
            "city": "大兴安岭地区",
            "district": "加格达奇区"
        }
    },
    {
        "id": "1539597394995076677",
        "title": "公共厕所",
        "address": "黑龙江省大兴安岭地区加格达奇区曙光大街与机场路交叉口正南方向283米左右",
        "tel": "",
        "category": "基础设施:公共设施:公共厕所",
        "type": 0,
        "location": {
            "lat": 50.395106,
            "lng": 124.113718
        },
        "ad_info": {
            "adcode": 232761,
            "province": "黑龙江省",
            "city": "大兴安岭地区",
            "district": "加格达奇区"
        }
    },
    {
        "id": "15065532627937886592",
        "title": "公共厕所",
        "address": "黑龙江省大兴安岭地区加格达奇区长春大街与长青大街交叉口正南方向23米左右",
        "tel": "",
        "category": "基础设施:公共设施:公共厕所",
        "type": 0,
        "location": {
            "lat": 50.435482,
            "lng": 124.119529
        },
        "ad_info": {
            "adcode": 232761,
            "province": "黑龙江省",
            "city": "大兴安岭地区",
            "district": "加格达奇区"
        }
    },
    {
        "id": "7469796029785534894",
        "title": "公共厕所",
        "address": "黑龙江省大兴安岭地区加格达奇区大桥西路与长虹大街交叉口正西方向273米左右",
        "tel": "",
        "category": "基础设施:公共设施:公共厕所",
        "type": 0,
        "location": {
            "lat": 50.433948,
            "lng": 124.10516
        },
        "ad_info": {
            "adcode": 232761,
            "province": "黑龙江省",
            "city": "大兴安岭地区",
            "district": "加格达奇区"
        }
    },
    {
        "id": "11464061324618083098",
        "title": "公共厕所",
        "address": "黑龙江省大兴安岭地区加格达奇区大桥西路与长青大街交叉口正东方向97米左右",
        "tel": "",
        "category": "基础设施:公共设施:公共厕所",
        "type": 0,
        "location": {
            "lat": 50.432729,
            "lng": 124.117133
        },
        "ad_info": {
            "adcode": 232761,
            "province": "黑龙江省",
            "city": "大兴安岭地区",
            "district": "加格达奇区"
        }
    },
    {
        "id": "15238123911529279789",
        "title": "公共厕所",
        "address": "黑龙江省大兴安岭地区加格达奇区大桥西路与长青大街交叉口东南方向69米左右",
        "tel": "",
        "category": "基础设施:公共设施:公共厕所",
        "type": 0,
        "location": {
            "lat": 50.432678,
            "lng": 124.116661
        },
        "ad_info": {
            "adcode": 232761,
            "province": "黑龙江省",
            "city": "大兴安岭地区",
            "district": "加格达奇区"
        }
    },
    {
        "id": "4686557123028524800",
        "title": "公共厕所",
        "address": "黑龙江省大兴安岭地区加格达奇区曙光大街与机场路交叉口正南方向492米左右",
        "tel": "",
        "category": "基础设施:公共设施:公共厕所",
        "type": 0,
        "location": {
            "lat": 50.393275,
            "lng": 124.113011
        },
        "ad_info": {
            "adcode": 232761,
            "province": "黑龙江省",
            "city": "大兴安岭地区",
            "district": "加格达奇区"
        }
    },
    {
        "id": "7379970427614418481",
        "title": "公共厕所",
        "address": "黑龙江省大兴安岭地区加格达奇区翠岗大街与黎明路交叉口正东方向166米左右",
        "tel": "",
        "category": "基础设施:公共设施:公共厕所",
        "type": 0,
        "location": {
            "lat": 50.42638,
            "lng": 124.16207
        },
        "ad_info": {
            "adcode": 232761,
            "province": "黑龙江省",
            "city": "大兴安岭地区",
            "district": "加格达奇区"
        }
    },
    {
        "id": "6150637161611961036",
        "title": "公共厕所",
        "address": "黑龙江省大兴安岭地区加格达奇区长青大街大兴安岭实验中学(西校区)",
        "tel": "",
        "category": "基础设施:公共设施:公共厕所",
        "type": 0,
        "location": {
            "lat": 50.438713,
            "lng": 124.124611
        },
        "ad_info": {
            "adcode": 232761,
            "province": "黑龙江省",
            "city": "大兴安岭地区",
            "district": "加格达奇区"
        }
    },
    {
        "id": "7976931487953004181",
        "title": "公共厕所",
        "address": "黑龙江省大兴安岭地区漠河市加漠路与漠北公路交叉口正北方向53米左右",
        "tel": "",
        "category": "基础设施:公共设施:公共厕所",
        "type": 0,
        "location": {
            "lat": 52.971124,
            "lng": 122.529909
        },
        "ad_info": {
            "adcode": 232701,
            "province": "黑龙江省",
            "city": "大兴安岭地区",
            "district": "漠河市"
        }
    },
    {
        "id": "16300746940340525011",
        "title": "公共厕所",
        "address": "黑龙江省大兴安岭地区漠河市同心街与环城路交叉口正西方向188米左右",
        "tel": "",
        "category": "基础设施:公共设施:公共厕所",
        "type": 0,
        "location": {
            "lat": 52.97413,
            "lng": 122.545455
        },
        "ad_info": {
            "adcode": 232701,
            "province": "黑龙江省",
            "city": "大兴安岭地区",
            "district": "漠河市"
        }
    },
    {
        "id": "7801048524174242389",
        "title": "最北厕所",
        "address": "黑龙江省大兴安岭地区漠河市北极村",
        "tel": "",
        "category": "基础设施:公共设施:公共厕所",
        "type": 0,
        "location": {
            "lat": 53.428177,
            "lng": 121.991455
        },
        "ad_info": {
            "adcode": 232701,
            "province": "黑龙江省",
            "city": "大兴安岭地区",
            "district": "漠河市"
        }
    },
    {
        "id": "7833765638100990856",
        "title": "卫生院公共卫生间",
        "address": "黑龙江省大兴安岭地区新林区塔源镇",
        "tel": "",
        "category": "基础设施:公共设施:公共厕所",
        "type": 0,
        "location": {
            "lat": 51.453918,
            "lng": 124.270794
        },
        "ad_info": {
            "adcode": 232763,
            "province": "黑龙江省",
            "city": "大兴安岭地区",
            "district": "新林区"
        }
    },
    {
        "id": "6678676076898108372",
        "title": "盘古服务区公共厕所",
        "address": "黑龙江省大兴安岭地区塔河县G111与加漠公路交叉口正北方向131米左右",
        "tel": "",
        "category": "基础设施:公共设施:公共厕所",
        "type": 0,
        "location": {
            "lat": 52.684845,
            "lng": 123.865694
        },
        "ad_info": {
            "adcode": 232722,
            "province": "黑龙江省",
            "city": "大兴安岭地区",
            "district": "塔河县"
        }
    }
]