[
    {
        "id": "6464409429468198151",
        "title": "公共厕所",
        "address": "甘肃省天水市秦州区光明巷与大众中路交叉口东北方向73米左右",
        "tel": "",
        "category": "基础设施:公共设施:公共厕所",
        "type": 0,
        "location": {
            "lat": 34.578399,
            "lng": 105.721824
        },
        "ad_info": {
            "adcode": 620502,
            "province": "甘肃省",
            "city": "天水市",
            "district": "秦州区"
        }
    },
    {
        "id": "6688899885097555922",
        "title": "公共厕所",
        "address": "甘肃省天水市秦州区吕二北路与羲皇大道西路交叉口正东方向112米左右",
        "tel": "",
        "category": "基础设施:公共设施:公共厕所",
        "type": 0,
        "location": {
            "lat": 34.56942,
            "lng": 105.726984
        },
        "ad_info": {
            "adcode": 620502,
            "province": "甘肃省",
            "city": "天水市",
            "district": "秦州区"
        }
    },
    {
        "id": "6273966856570753169",
        "title": "公共厕所(桥南家居建材城)",
        "address": "甘肃省天水市麦积区埠南路江山悦对面桥南家居建材城F1层",
        "tel": "",
        "category": "基础设施:公共设施:公共厕所",
        "type": 0,
        "location": {
            "lat": 34.554053,
            "lng": 105.882474
        },
        "ad_info": {
            "adcode": 620503,
            "province": "甘肃省",
            "city": "天水市",
            "district": "麦积区"
        }
    },
    {
        "id": "1710917573415539166",
        "title": "公共厕所",
        "address": "甘肃省天水市麦积区商埠路与天河北路交叉口正南方向90米左右",
        "tel": "",
        "category": "基础设施:公共设施:公共厕所",
        "type": 0,
        "location": {
            "lat": 34.561949,
            "lng": 105.9029
        },
        "ad_info": {
            "adcode": 620503,
            "province": "甘肃省",
            "city": "天水市",
            "district": "麦积区"
        }
    },
    {
        "id": "15767867203906360044",
        "title": "公共厕所",
        "address": "甘肃省天水市麦积区天河南路与羲皇大道东路交叉口东南方向90米左右",
        "tel": "",
        "category": "基础设施:公共设施:公共厕所",
        "type": 0,
        "location": {
            "lat": 34.543043,
            "lng": 105.897748
        },
        "ad_info": {
            "adcode": 620503,
            "province": "甘肃省",
            "city": "天水市",
            "district": "麦积区"
        }
    },
    {
        "id": "12416668836050455853",
        "title": "公共厕所",
        "address": "甘肃省天水市秦州区大众北路与成纪大道西路交叉口正北方向123米左右",
        "tel": "",
        "category": "基础设施:公共设施:公共厕所",
        "type": 0,
        "location": {
            "lat": 34.5845,
            "lng": 105.72132
        },
        "ad_info": {
            "adcode": 620502,
            "province": "甘肃省",
            "city": "天水市",
            "district": "秦州区"
        }
    },
    {
        "id": "4462642510232989418",
        "title": "公共厕所",
        "address": "甘肃省天水市秦州区藉水北路与颐养路交叉口西南方向53米左右",
        "tel": "",
        "category": "基础设施:公共设施:公共厕所",
        "type": 0,
        "location": {
            "lat": 34.572692,
            "lng": 105.677164
        },
        "ad_info": {
            "adcode": 620502,
            "province": "甘肃省",
            "city": "天水市",
            "district": "秦州区"
        }
    },
    {
        "id": "9763845173756363323",
        "title": "公共厕所",
        "address": "甘肃省天水市秦州区育生巷金厦一万织锦园小区",
        "tel": "",
        "category": "基础设施:公共设施:公共厕所",
        "type": 0,
        "location": {
            "lat": 34.577525,
            "lng": 105.716771
        },
        "ad_info": {
            "adcode": 620502,
            "province": "甘肃省",
            "city": "天水市",
            "district": "秦州区"
        }
    },
    {
        "id": "15784638238040855773",
        "title": "公共厕所",
        "address": "甘肃省天水市麦积区前进路与区府东路交叉口东北方向53米左右",
        "tel": "",
        "category": "基础设施:公共设施:公共厕所",
        "type": 0,
        "location": {
            "lat": 34.56911,
            "lng": 105.896098
        },
        "ad_info": {
            "adcode": 620503,
            "province": "甘肃省",
            "city": "天水市",
            "district": "麦积区"
        }
    },
    {
        "id": "17958394282985322955",
        "title": "公共厕所",
        "address": "甘肃省天水市麦积区伯阳西路与天河南路交叉口西南方向156米左右",
        "tel": "",
        "category": "基础设施:公共设施:公共厕所",
        "type": 0,
        "location": {
            "lat": 34.552842,
            "lng": 105.899227
        },
        "ad_info": {
            "adcode": 620503,
            "province": "甘肃省",
            "city": "天水市",
            "district": "麦积区"
        }
    },
    {
        "id": "5875758314304912702",
        "title": "公共厕所",
        "address": "甘肃省天水市麦积区天河南路与中心大道中路交叉口东南180米",
        "tel": "",
        "category": "基础设施:公共设施:公共厕所",
        "type": 0,
        "location": {
            "lat": 34.549053,
            "lng": 105.900131
        },
        "ad_info": {
            "adcode": 620503,
            "province": "甘肃省",
            "city": "天水市",
            "district": "麦积区"
        }
    },
    {
        "id": "10054657175686433024",
        "title": "公共厕所",
        "address": "甘肃省天水市麦积区商埠路步行街与成纪大道东路交叉口正北方向121米左右",
        "tel": "",
        "category": "基础设施:公共设施:公共厕所",
        "type": 0,
        "location": {
            "lat": 34.563661,
            "lng": 105.896431
        },
        "ad_info": {
            "adcode": 620503,
            "province": "甘肃省",
            "city": "天水市",
            "district": "麦积区"
        }
    },
    {
        "id": "17588461089106807835",
        "title": "公共厕所",
        "address": "甘肃省天水市麦积区北车帮扶路与羲皇大道中路交叉口正西方向175米左右",
        "tel": "",
        "category": "基础设施:公共设施:公共厕所",
        "type": 0,
        "location": {
            "lat": 34.565532,
            "lng": 105.822503
        },
        "ad_info": {
            "adcode": 620503,
            "province": "甘肃省",
            "city": "天水市",
            "district": "麦积区"
        }
    },
    {
        "id": "7493259225514405247",
        "title": "公共卫生间",
        "address": "甘肃省天水市麦积区健康巷与兴陇路交叉口正南方向62米左右",
        "tel": "",
        "category": "基础设施:公共设施:公共厕所",
        "type": 0,
        "location": {
            "lat": 34.558406,
            "lng": 105.894176
        },
        "ad_info": {
            "adcode": 620503,
            "province": "甘肃省",
            "city": "天水市",
            "district": "麦积区"
        }
    },
    {
        "id": "8362007844327520281",
        "title": "公共厕所",
        "address": "甘肃省天水市秦州区靖仁巷与靖德巷交叉口正西方向493米左右",
        "tel": "",
        "category": "基础设施:公共设施:公共厕所",
        "type": 0,
        "location": {
            "lat": 34.573534,
            "lng": 105.668518
        },
        "ad_info": {
            "adcode": 620502,
            "province": "甘肃省",
            "city": "天水市",
            "district": "秦州区"
        }
    },
    {
        "id": "17741600943281679214",
        "title": "公共厕所",
        "address": "甘肃省天水市麦积区天北高速与天北高速入口交叉口东100米",
        "tel": "",
        "category": "基础设施:公共设施:公共厕所",
        "type": 0,
        "location": {
            "lat": 34.558609,
            "lng": 105.896434
        },
        "ad_info": {
            "adcode": 620503,
            "province": "甘肃省",
            "city": "天水市",
            "district": "麦积区"
        }
    },
    {
        "id": "8552327524646683438",
        "title": "公共厕所",
        "address": "甘肃省天水市秦州区合作北路与忠武巷交叉口东北方向34米左右",
        "tel": "",
        "category": "基础设施:公共设施:公共厕所",
        "type": 0,
        "location": {
            "lat": 34.583265,
            "lng": 105.733219
        },
        "ad_info": {
            "adcode": 620502,
            "province": "甘肃省",
            "city": "天水市",
            "district": "秦州区"
        }
    },
    {
        "id": "1833611724746512651",
        "title": "公共厕所",
        "address": "甘肃省天水市秦州区大众北路与奋斗巷交叉口东北方向26米左右",
        "tel": "",
        "category": "基础设施:公共设施:公共厕所",
        "type": 0,
        "location": {
            "lat": 34.58191,
            "lng": 105.72146
        },
        "ad_info": {
            "adcode": 620502,
            "province": "甘肃省",
            "city": "天水市",
            "district": "秦州区"
        }
    },
    {
        "id": "4217771855628115666",
        "title": "公共厕所",
        "address": "甘肃省天水市麦积区易捷便利店西北侧",
        "tel": "",
        "category": "基础设施:公共设施:公共厕所",
        "type": 0,
        "location": {
            "lat": 34.572662,
            "lng": 105.833341
        },
        "ad_info": {
            "adcode": 620503,
            "province": "甘肃省",
            "city": "天水市",
            "district": "麦积区"
        }
    },
    {
        "id": "1532547460399872503",
        "title": "公共厕所",
        "address": "甘肃省天水市秦州区S207与罗玉路交叉口西南方向55米左右",
        "tel": "",
        "category": "基础设施:公共设施:公共厕所",
        "type": 0,
        "location": {
            "lat": 34.58571,
            "lng": 105.730148
        },
        "ad_info": {
            "adcode": 620502,
            "province": "甘肃省",
            "city": "天水市",
            "district": "秦州区"
        }
    },
    {
        "id": "6183820245150137095",
        "title": "公共厕所",
        "address": "甘肃省天水市麦积区埠南路与马跑泉路交叉口正北方向154米左右",
        "tel": "",
        "category": "基础设施:公共设施:公共厕所",
        "type": 0,
        "location": {
            "lat": 34.549462,
            "lng": 105.89392
        },
        "ad_info": {
            "adcode": 620503,
            "province": "甘肃省",
            "city": "天水市",
            "district": "麦积区"
        }
    },
    {
        "id": "4117105144814114755",
        "title": "公共厕所",
        "address": "甘肃省天水市秦州区伏羲路与成纪大道西路交叉口东南方向156米左右",
        "tel": "",
        "category": "基础设施:公共设施:公共厕所",
        "type": 0,
        "location": {
            "lat": 34.576255,
            "lng": 105.701054
        },
        "ad_info": {
            "adcode": 620502,
            "province": "甘肃省",
            "city": "天水市",
            "district": "秦州区"
        }
    },
    {
        "id": "5687105177723292813",
        "title": "公共厕所",
        "address": "甘肃省天水市麦积区林水东路桥南小学",
        "tel": "",
        "category": "基础设施:公共设施:公共厕所",
        "type": 0,
        "location": {
            "lat": 34.554603,
            "lng": 105.897494
        },
        "ad_info": {
            "adcode": 620503,
            "province": "甘肃省",
            "city": "天水市",
            "district": "麦积区"
        }
    },
    {
        "id": "18416364163352838946",
        "title": "公共厕所",
        "address": "甘肃省天水市麦积区区府西路与影院巷交叉口正东方向23米左右",
        "tel": "",
        "category": "基础设施:公共设施:公共厕所",
        "type": 0,
        "location": {
            "lat": 34.570073,
            "lng": 105.890259
        },
        "ad_info": {
            "adcode": 620503,
            "province": "甘肃省",
            "city": "天水市",
            "district": "麦积区"
        }
    },
    {
        "id": "14093867937685594253",
        "title": "公共厕所",
        "address": "甘肃省天水市麦积区羲皇大道东路天水二中",
        "tel": "",
        "category": "基础设施:公共设施:公共厕所",
        "type": 0,
        "location": {
            "lat": 34.543809,
            "lng": 105.895738
        },
        "ad_info": {
            "adcode": 620503,
            "province": "甘肃省",
            "city": "天水市",
            "district": "麦积区"
        }
    },
    {
        "id": "9610426832398630777",
        "title": "公共厕所",
        "address": "甘肃省天水市麦积区晒经路与甘棠西路交叉口正南方向169米左右",
        "tel": "",
        "category": "基础设施:公共设施:公共厕所",
        "type": 0,
        "location": {
            "lat": 34.556437,
            "lng": 105.977419
        },
        "ad_info": {
            "adcode": 620503,
            "province": "甘肃省",
            "city": "天水市",
            "district": "麦积区"
        }
    },
    {
        "id": "16763039732172399853",
        "title": "公共厕所",
        "address": "甘肃省天水市麦积区晒经路与甘棠西路交叉口正西方向287米左右",
        "tel": "",
        "category": "基础设施:公共设施:公共厕所",
        "type": 0,
        "location": {
            "lat": 34.55752,
            "lng": 105.97472
        },
        "ad_info": {
            "adcode": 620503,
            "province": "甘肃省",
            "city": "天水市",
            "district": "麦积区"
        }
    },
    {
        "id": "13722708530800416536",
        "title": "公共厕所",
        "address": "甘肃省天水市秦安县人民街与兴国路交叉口西南方向52米左右",
        "tel": "",
        "category": "基础设施:公共设施:公共厕所",
        "type": 0,
        "location": {
            "lat": 34.856372,
            "lng": 105.670665
        },
        "ad_info": {
            "adcode": 620522,
            "province": "甘肃省",
            "city": "天水市",
            "district": "秦安县"
        }
    },
    {
        "id": "4324623355450529333",
        "title": "公共厕所",
        "address": "甘肃省天水市麦积区书苑路与林水西路交叉口西北方向18米左右",
        "tel": "",
        "category": "基础设施:公共设施:公共厕所",
        "type": 0,
        "location": {
            "lat": 34.555919,
            "lng": 105.891246
        },
        "ad_info": {
            "adcode": 620503,
            "province": "甘肃省",
            "city": "天水市",
            "district": "麦积区"
        }
    },
    {
        "id": "15243902662839205712",
        "title": "公共厕所",
        "address": "甘肃省天水市秦州区后寨与大众中路交叉口正南方向114米左右",
        "tel": "",
        "category": "基础设施:公共设施:公共厕所",
        "type": 0,
        "location": {
            "lat": 34.57454,
            "lng": 105.721765
        },
        "ad_info": {
            "adcode": 620502,
            "province": "甘肃省",
            "city": "天水市",
            "district": "秦州区"
        }
    },
    {
        "id": "8773256477696454183",
        "title": "公共厕所",
        "address": "甘肃省天水市甘谷县北滨河中路与迎宾巷交叉口正东方向195米左右",
        "tel": "",
        "category": "基础设施:公共设施:公共厕所",
        "type": 0,
        "location": {
            "lat": 34.759798,
            "lng": 105.334668
        },
        "ad_info": {
            "adcode": 620523,
            "province": "甘肃省",
            "city": "天水市",
            "district": "甘谷县"
        }
    },
    {
        "id": "10303458550139797445",
        "title": "公共厕所",
        "address": "甘肃省天水市麦积区埠南路与中心大道中路交叉口东北40米",
        "tel": "",
        "category": "基础设施:公共设施:公共厕所",
        "type": 0,
        "location": {
            "lat": 34.55154,
            "lng": 105.895608
        },
        "ad_info": {
            "adcode": 620503,
            "province": "甘肃省",
            "city": "天水市",
            "district": "麦积区"
        }
    },
    {
        "id": "3742100007012570700",
        "title": "公共厕所",
        "address": "甘肃省天水市秦州区藉水北路与天润桥交叉口东南420米",
        "tel": "",
        "category": "基础设施:公共设施:公共厕所",
        "type": 0,
        "location": {
            "lat": 34.573058,
            "lng": 105.660685
        },
        "ad_info": {
            "adcode": 620502,
            "province": "甘肃省",
            "city": "天水市",
            "district": "秦州区"
        }
    },
    {
        "id": "4852656196471941096",
        "title": "公共厕所",
        "address": "甘肃省天水市麦积区孙家坪路和谐家园",
        "tel": "",
        "category": "基础设施:公共设施:公共厕所",
        "type": 0,
        "location": {
            "lat": 34.571927,
            "lng": 105.794622
        },
        "ad_info": {
            "adcode": 620503,
            "province": "甘肃省",
            "city": "天水市",
            "district": "麦积区"
        }
    },
    {
        "id": "8432002481700231070",
        "title": "公共厕所",
        "address": "甘肃省天水市秦州区平峪路与池水路交叉口正北方向246米左右",
        "tel": "",
        "category": "基础设施:公共设施:公共厕所",
        "type": 0,
        "location": {
            "lat": 34.572006,
            "lng": 105.658111
        },
        "ad_info": {
            "adcode": 620502,
            "province": "甘肃省",
            "city": "天水市",
            "district": "秦州区"
        }
    },
    {
        "id": "17568281061662171385",
        "title": "公共厕所",
        "address": "甘肃省天水市秦州区南明路与双桥中路交叉口正南方向119米左右",
        "tel": "",
        "category": "基础设施:公共设施:公共厕所",
        "type": 0,
        "location": {
            "lat": 34.576252,
            "lng": 105.710765
        },
        "ad_info": {
            "adcode": 620502,
            "province": "甘肃省",
            "city": "天水市",
            "district": "秦州区"
        }
    },
    {
        "id": "11407404618799623163",
        "title": "无障碍公共厕所",
        "address": "甘肃省天水市秦州区尚义巷与民主东路交叉口正南方向92米左右",
        "tel": "",
        "category": "基础设施:公共设施:公共厕所",
        "type": 0,
        "location": {
            "lat": 34.579562,
            "lng": 105.73046
        },
        "ad_info": {
            "adcode": 620502,
            "province": "甘肃省",
            "city": "天水市",
            "district": "秦州区"
        }
    },
    {
        "id": "16616930469541619780",
        "title": "公共厕所",
        "address": "甘肃省天水市甘谷县像山西路与水门巷交叉口正南方向86米左右",
        "tel": "",
        "category": "基础设施:公共设施:公共厕所",
        "type": 0,
        "location": {
            "lat": 34.736477,
            "lng": 105.330315
        },
        "ad_info": {
            "adcode": 620523,
            "province": "甘肃省",
            "city": "天水市",
            "district": "甘谷县"
        }
    },
    {
        "id": "4922696684441220781",
        "title": "公共厕所",
        "address": "甘肃省天水市秦州区成纪大道西路辅路与重新街交叉口正东方向31米左右",
        "tel": "",
        "category": "基础设施:公共设施:公共厕所",
        "type": 0,
        "location": {
            "lat": 34.582972,
            "lng": 105.720415
        },
        "ad_info": {
            "adcode": 620502,
            "province": "甘肃省",
            "city": "天水市",
            "district": "秦州区"
        }
    },
    {
        "id": "10798271762291847485",
        "title": "公共厕所",
        "address": "甘肃省天水市秦州区左家场与罗玉路交叉口正北方向89米左右",
        "tel": "",
        "category": "基础设施:公共设施:公共厕所",
        "type": 0,
        "location": {
            "lat": 34.590051,
            "lng": 105.723763
        },
        "ad_info": {
            "adcode": 620502,
            "province": "甘肃省",
            "city": "天水市",
            "district": "秦州区"
        }
    },
    {
        "id": "8931680935759116592",
        "title": "公共厕所",
        "address": "甘肃省天水市秦州区尚义巷与民主东路交叉口西北方向74米左右",
        "tel": "",
        "category": "基础设施:公共设施:公共厕所",
        "type": 0,
        "location": {
            "lat": 34.580851,
            "lng": 105.729722
        },
        "ad_info": {
            "adcode": 620502,
            "province": "甘肃省",
            "city": "天水市",
            "district": "秦州区"
        }
    },
    {
        "id": "13480760268006988864",
        "title": "公共厕所",
        "address": "甘肃省天水市秦州区伏羲路与友好路交叉口西南方向107米左右",
        "tel": "",
        "category": "基础设施:公共设施:公共厕所",
        "type": 0,
        "location": {
            "lat": 34.577278,
            "lng": 105.701347
        },
        "ad_info": {
            "adcode": 620502,
            "province": "甘肃省",
            "city": "天水市",
            "district": "秦州区"
        }
    },
    {
        "id": "16270035349108397468",
        "title": "花园酒店-洗手间",
        "address": "甘肃省天水市麦积区陇昌路西1号(与埠北路交汇处)花园酒店",
        "tel": "",
        "category": "基础设施:公共设施:公共厕所",
        "type": 0,
        "location": {
            "lat": 34.564479,
            "lng": 105.897836
        },
        "ad_info": {
            "adcode": 620503,
            "province": "甘肃省",
            "city": "天水市",
            "district": "麦积区"
        }
    },
    {
        "id": "7792311843801797722",
        "title": "公共厕所",
        "address": "甘肃省天水市甘谷县像山西路与西关北巷交叉口正北方向42米左右",
        "tel": "",
        "category": "基础设施:公共设施:公共厕所",
        "type": 0,
        "location": {
            "lat": 34.737744,
            "lng": 105.326987
        },
        "ad_info": {
            "adcode": 620523,
            "province": "甘肃省",
            "city": "天水市",
            "district": "甘谷县"
        }
    },
    {
        "id": "6317188067108072569",
        "title": "公共厕所",
        "address": "甘肃省天水市秦州区平峪路与池水路交叉口正南方向155米左右",
        "tel": "",
        "category": "基础设施:公共设施:公共厕所",
        "type": 0,
        "location": {
            "lat": 34.568498,
            "lng": 105.657313
        },
        "ad_info": {
            "adcode": 620502,
            "province": "甘肃省",
            "city": "天水市",
            "district": "秦州区"
        }
    },
    {
        "id": "5860890074395430017",
        "title": "公共厕所",
        "address": "甘肃省天水市秦州区安居路与岷山路交叉口正北方向75米左右",
        "tel": "",
        "category": "基础设施:公共设施:公共厕所",
        "type": 0,
        "location": {
            "lat": 34.580711,
            "lng": 105.743625
        },
        "ad_info": {
            "adcode": 620502,
            "province": "甘肃省",
            "city": "天水市",
            "district": "秦州区"
        }
    },
    {
        "id": "17922435827931855761",
        "title": "公共厕所",
        "address": "甘肃省天水市麦积区百盛一条街与陇昌路交叉口西北方向60米左右",
        "tel": "",
        "category": "基础设施:公共设施:公共厕所",
        "type": 0,
        "location": {
            "lat": 34.564659,
            "lng": 105.900172
        },
        "ad_info": {
            "adcode": 620503,
            "province": "甘肃省",
            "city": "天水市",
            "district": "麦积区"
        }
    },
    {
        "id": "18416364163352838946",
        "title": "公共厕所",
        "address": "甘肃省天水市麦积区区府西路与影院巷交叉口正东方向23米左右",
        "tel": "",
        "category": "基础设施:公共设施:公共厕所",
        "type": 0,
        "location": {
            "lat": 34.570073,
            "lng": 105.890259
        },
        "ad_info": {
            "adcode": 620503,
            "province": "甘肃省",
            "city": "天水市",
            "district": "麦积区"
        }
    },
    {
        "id": "11407404618799623163",
        "title": "无障碍公共厕所",
        "address": "甘肃省天水市秦州区尚义巷与民主东路交叉口正南方向92米左右",
        "tel": "",
        "category": "基础设施:公共设施:公共厕所",
        "type": 0,
        "location": {
            "lat": 34.579562,
            "lng": 105.73046
        },
        "ad_info": {
            "adcode": 620502,
            "province": "甘肃省",
            "city": "天水市",
            "district": "秦州区"
        }
    },
    {
        "id": "16763039732172399853",
        "title": "公共厕所",
        "address": "甘肃省天水市麦积区晒经路与甘棠西路交叉口正西方向287米左右",
        "tel": "",
        "category": "基础设施:公共设施:公共厕所",
        "type": 0,
        "location": {
            "lat": 34.55752,
            "lng": 105.97472
        },
        "ad_info": {
            "adcode": 620503,
            "province": "甘肃省",
            "city": "天水市",
            "district": "麦积区"
        }
    },
    {
        "id": "8773256477696454183",
        "title": "公共厕所",
        "address": "甘肃省天水市甘谷县北滨河中路与迎宾巷交叉口正东方向195米左右",
        "tel": "",
        "category": "基础设施:公共设施:公共厕所",
        "type": 0,
        "location": {
            "lat": 34.759798,
            "lng": 105.334668
        },
        "ad_info": {
            "adcode": 620523,
            "province": "甘肃省",
            "city": "天水市",
            "district": "甘谷县"
        }
    },
    {
        "id": "4324623355450529333",
        "title": "公共厕所",
        "address": "甘肃省天水市麦积区书苑路与林水西路交叉口西北方向18米左右",
        "tel": "",
        "category": "基础设施:公共设施:公共厕所",
        "type": 0,
        "location": {
            "lat": 34.555919,
            "lng": 105.891246
        },
        "ad_info": {
            "adcode": 620503,
            "province": "甘肃省",
            "city": "天水市",
            "district": "麦积区"
        }
    },
    {
        "id": "14093867937685594253",
        "title": "公共厕所",
        "address": "甘肃省天水市麦积区羲皇大道东路天水二中",
        "tel": "",
        "category": "基础设施:公共设施:公共厕所",
        "type": 0,
        "location": {
            "lat": 34.543809,
            "lng": 105.895738
        },
        "ad_info": {
            "adcode": 620503,
            "province": "甘肃省",
            "city": "天水市",
            "district": "麦积区"
        }
    },
    {
        "id": "792079839223257233",
        "title": "公共厕所",
        "address": "甘肃省天水市麦积区健康巷与林水西路交叉口正西方向74米左右",
        "tel": "",
        "category": "基础设施:公共设施:公共厕所",
        "type": 0,
        "location": {
            "lat": 34.555437,
            "lng": 105.892833
        },
        "ad_info": {
            "adcode": 620503,
            "province": "甘肃省",
            "city": "天水市",
            "district": "麦积区"
        }
    },
    {
        "id": "14984793973150728455",
        "title": "公共厕所",
        "address": "甘肃省天水市秦州区新华路与青年北路交叉口正西方向80米左右",
        "tel": "",
        "category": "基础设施:公共设施:公共厕所",
        "type": 0,
        "location": {
            "lat": 34.582992,
            "lng": 105.724602
        },
        "ad_info": {
            "adcode": 620502,
            "province": "甘肃省",
            "city": "天水市",
            "district": "秦州区"
        }
    },
    {
        "id": "8432002481700231070",
        "title": "公共厕所",
        "address": "甘肃省天水市秦州区平峪路与池水路交叉口正北方向246米左右",
        "tel": "",
        "category": "基础设施:公共设施:公共厕所",
        "type": 0,
        "location": {
            "lat": 34.572006,
            "lng": 105.658111
        },
        "ad_info": {
            "adcode": 620502,
            "province": "甘肃省",
            "city": "天水市",
            "district": "秦州区"
        }
    },
    {
        "id": "68482234793874090",
        "title": "公共厕所",
        "address": "甘肃省天水市秦州区南郭寺路与羲皇大道西路交叉口东南方向47米左右",
        "tel": "",
        "category": "基础设施:公共设施:公共厕所",
        "type": 0,
        "location": {
            "lat": 34.56991,
            "lng": 105.744691
        },
        "ad_info": {
            "adcode": 620502,
            "province": "甘肃省",
            "city": "天水市",
            "district": "秦州区"
        }
    },
    {
        "id": "2098273161895573874",
        "title": "公共厕所",
        "address": "甘肃省天水市秦州区桃园路与永庆东路交叉口正北方向80米左右",
        "tel": "",
        "category": "基础设施:公共设施:公共厕所",
        "type": 0,
        "location": {
            "lat": 34.575353,
            "lng": 105.714844
        },
        "ad_info": {
            "adcode": 620502,
            "province": "甘肃省",
            "city": "天水市",
            "district": "秦州区"
        }
    },
    {
        "id": "5533398480990535381",
        "title": "公共厕所",
        "address": "甘肃省天水市秦州区平峪路与池水路交叉口东北方向835米左右",
        "tel": "",
        "category": "基础设施:公共设施:公共厕所",
        "type": 0,
        "location": {
            "lat": 34.574863,
            "lng": 105.664598
        },
        "ad_info": {
            "adcode": 620502,
            "province": "甘肃省",
            "city": "天水市",
            "district": "秦州区"
        }
    },
    {
        "id": "4748512999752573658",
        "title": "公共厕所",
        "address": "甘肃省天水市张家川回族自治县解放东路张川镇中学",
        "tel": "",
        "category": "基础设施:公共设施:公共厕所",
        "type": 0,
        "location": {
            "lat": 34.992496,
            "lng": 106.213903
        },
        "ad_info": {
            "adcode": 620525,
            "province": "甘肃省",
            "city": "天水市",
            "district": "张家川回族自治县"
        }
    },
    {
        "id": "11219611007897544963",
        "title": "公共厕所",
        "address": "甘肃省天水市麦积区五龙路1号",
        "tel": "",
        "category": "基础设施:公共设施:公共厕所",
        "type": 0,
        "location": {
            "lat": 34.555113,
            "lng": 105.90695
        },
        "ad_info": {
            "adcode": 620503,
            "province": "甘肃省",
            "city": "天水市",
            "district": "麦积区"
        }
    },
    {
        "id": "14984793973150728455",
        "title": "公共厕所",
        "address": "甘肃省天水市秦州区新华路与青年北路交叉口正西方向80米左右",
        "tel": "",
        "category": "基础设施:公共设施:公共厕所",
        "type": 0,
        "location": {
            "lat": 34.582992,
            "lng": 105.724602
        },
        "ad_info": {
            "adcode": 620502,
            "province": "甘肃省",
            "city": "天水市",
            "district": "秦州区"
        }
    },
    {
        "id": "14941600297443202302",
        "title": "公共厕所",
        "address": "甘肃省天水市麦积区为民路与育才路交叉口正南方向70米左右",
        "tel": "",
        "category": "基础设施:公共设施:公共厕所",
        "type": 0,
        "location": {
            "lat": 34.571288,
            "lng": 105.898478
        },
        "ad_info": {
            "adcode": 620503,
            "province": "甘肃省",
            "city": "天水市",
            "district": "麦积区"
        }
    },
    {
        "id": "15016047039708566987",
        "title": "公共厕所",
        "address": "甘肃省天水市张家川回族自治县公园路与广场西路交叉口西南方向61米左右",
        "tel": "",
        "category": "基础设施:公共设施:公共厕所",
        "type": 0,
        "location": {
            "lat": 34.989045,
            "lng": 106.203445
        },
        "ad_info": {
            "adcode": 620525,
            "province": "甘肃省",
            "city": "天水市",
            "district": "张家川回族自治县"
        }
    },
    {
        "id": "2098273161895573874",
        "title": "公共厕所",
        "address": "甘肃省天水市秦州区桃园路与永庆东路交叉口正北方向80米左右",
        "tel": "",
        "category": "基础设施:公共设施:公共厕所",
        "type": 0,
        "location": {
            "lat": 34.575353,
            "lng": 105.714844
        },
        "ad_info": {
            "adcode": 620502,
            "province": "甘肃省",
            "city": "天水市",
            "district": "秦州区"
        }
    },
    {
        "id": "15311776417049157220",
        "title": "公共厕所",
        "address": "甘肃省天水市甘谷县S304与冀城北路交叉口正西方向131米左右",
        "tel": "",
        "category": "基础设施:公共设施:公共厕所",
        "type": 0,
        "location": {
            "lat": 34.766592,
            "lng": 105.338903
        },
        "ad_info": {
            "adcode": 620523,
            "province": "甘肃省",
            "city": "天水市",
            "district": "甘谷县"
        }
    },
    {
        "id": "13240581436736638489",
        "title": "公共厕所",
        "address": "甘肃省天水市秦安县北坛街与环城北路交叉口正东方向79米左右",
        "tel": "",
        "category": "基础设施:公共设施:公共厕所",
        "type": 0,
        "location": {
            "lat": 34.863435,
            "lng": 105.668743
        },
        "ad_info": {
            "adcode": 620522,
            "province": "甘肃省",
            "city": "天水市",
            "district": "秦安县"
        }
    },
    {
        "id": "8400611752750067510",
        "title": "公共厕所",
        "address": "甘肃省天水市秦州区乐园路与民主东路交叉口正北方向74米左右",
        "tel": "",
        "category": "基础设施:公共设施:公共厕所",
        "type": 0,
        "location": {
            "lat": 34.581225,
            "lng": 105.727441
        },
        "ad_info": {
            "adcode": 620502,
            "province": "甘肃省",
            "city": "天水市",
            "district": "秦州区"
        }
    },
    {
        "id": "3521535318063922118",
        "title": "公共厕所",
        "address": "甘肃省天水市张家川回族自治县人民西路与西城路交叉口正东方向143米左右",
        "tel": "",
        "category": "基础设施:公共设施:公共厕所",
        "type": 0,
        "location": {
            "lat": 34.994246,
            "lng": 106.208497
        },
        "ad_info": {
            "adcode": 620525,
            "province": "甘肃省",
            "city": "天水市",
            "district": "张家川回族自治县"
        }
    },
    {
        "id": "68482234793874090",
        "title": "公共厕所",
        "address": "甘肃省天水市秦州区南郭寺路与羲皇大道西路交叉口东南方向47米左右",
        "tel": "",
        "category": "基础设施:公共设施:公共厕所",
        "type": 0,
        "location": {
            "lat": 34.56991,
            "lng": 105.744691
        },
        "ad_info": {
            "adcode": 620502,
            "province": "甘肃省",
            "city": "天水市",
            "district": "秦州区"
        }
    },
    {
        "id": "11365043223970014210",
        "title": "公共厕所",
        "address": "甘肃省天水市麦积区区府西路与铁龙路交叉口正西方向335米左右",
        "tel": "",
        "category": "基础设施:公共设施:公共厕所",
        "type": 0,
        "location": {
            "lat": 34.570827,
            "lng": 105.882533
        },
        "ad_info": {
            "adcode": 620503,
            "province": "甘肃省",
            "city": "天水市",
            "district": "麦积区"
        }
    },
    {
        "id": "14208379610658388835",
        "title": "公共厕所",
        "address": "甘肃省天水市麦积区牛北公路附近",
        "tel": "",
        "category": "基础设施:公共设施:公共厕所",
        "type": 0,
        "location": {
            "lat": 34.510695,
            "lng": 106.404703
        },
        "ad_info": {
            "adcode": 620503,
            "province": "甘肃省",
            "city": "天水市",
            "district": "麦积区"
        }
    },
    {
        "id": "1483352910903775613",
        "title": "公共厕所",
        "address": "甘肃省天水市秦州区怀德路与樱花路交叉口西北200米",
        "tel": "",
        "category": "基础设施:公共设施:公共厕所",
        "type": 0,
        "location": {
            "lat": 34.572382,
            "lng": 105.699179
        },
        "ad_info": {
            "adcode": 620502,
            "province": "甘肃省",
            "city": "天水市",
            "district": "秦州区"
        }
    },
    {
        "id": "5376290422967491099",
        "title": "公共厕所",
        "address": "甘肃省天水市秦州区岷玉路与藉河北路交叉口正西方向162米左右",
        "tel": "",
        "category": "基础设施:公共设施:公共厕所",
        "type": 0,
        "location": {
            "lat": 34.574594,
            "lng": 105.744646
        },
        "ad_info": {
            "adcode": 620502,
            "province": "甘肃省",
            "city": "天水市",
            "district": "秦州区"
        }
    },
    {
        "id": "17922435827931855761",
        "title": "公共厕所",
        "address": "甘肃省天水市麦积区百盛一条街与陇昌路交叉口西北方向60米左右",
        "tel": "",
        "category": "基础设施:公共设施:公共厕所",
        "type": 0,
        "location": {
            "lat": 34.564659,
            "lng": 105.900172
        },
        "ad_info": {
            "adcode": 620503,
            "province": "甘肃省",
            "city": "天水市",
            "district": "麦积区"
        }
    },
    {
        "id": "10629555891236035002",
        "title": "无障碍公共厕所",
        "address": "甘肃省天水市秦州区连霍高速赤峪路交界向北200米处上亿广场·台湾士林不夜城F1",
        "tel": "",
        "category": "基础设施:公共设施:公共厕所",
        "type": 0,
        "location": {
            "lat": 34.570598,
            "lng": 105.680941
        },
        "ad_info": {
            "adcode": 620502,
            "province": "甘肃省",
            "city": "天水市",
            "district": "秦州区"
        }
    },
    {
        "id": "4748512999752573658",
        "title": "公共厕所",
        "address": "甘肃省天水市张家川回族自治县解放东路张川镇中学",
        "tel": "",
        "category": "基础设施:公共设施:公共厕所",
        "type": 0,
        "location": {
            "lat": 34.992496,
            "lng": 106.213903
        },
        "ad_info": {
            "adcode": 620525,
            "province": "甘肃省",
            "city": "天水市",
            "district": "张家川回族自治县"
        }
    },
    {
        "id": "12919600472265945702",
        "title": "公共厕所",
        "address": "甘肃省天水市秦安县商业步行街与成纪大道交叉口西南方向107米左右",
        "tel": "",
        "category": "基础设施:公共设施:公共厕所",
        "type": 0,
        "location": {
            "lat": 34.860136,
            "lng": 105.664839
        },
        "ad_info": {
            "adcode": 620522,
            "province": "甘肃省",
            "city": "天水市",
            "district": "秦安县"
        }
    },
    {
        "id": "10008875880084034859",
        "title": "公共厕所",
        "address": "甘肃省天水市清水县充国路与永盛路交叉口西北方向22米左右",
        "tel": "",
        "category": "基础设施:公共设施:公共厕所",
        "type": 0,
        "location": {
            "lat": 34.753995,
            "lng": 106.132857
        },
        "ad_info": {
            "adcode": 620521,
            "province": "甘肃省",
            "city": "天水市",
            "district": "清水县"
        }
    },
    {
        "id": "7865116071346127722",
        "title": "公共厕所",
        "address": "甘肃省天水市秦州区皇城路与罗玉路交叉口西南方向106米左右",
        "tel": "",
        "category": "基础设施:公共设施:公共厕所",
        "type": 0,
        "location": {
            "lat": 34.584106,
            "lng": 105.737731
        },
        "ad_info": {
            "adcode": 620502,
            "province": "甘肃省",
            "city": "天水市",
            "district": "秦州区"
        }
    },
    {
        "id": "11353253938638188567",
        "title": "公共厕所",
        "address": "甘肃省天水市秦安县滨河南路与秦南大道交叉口正北方向826米左右",
        "tel": "",
        "category": "基础设施:公共设施:公共厕所",
        "type": 0,
        "location": {
            "lat": 34.833004,
            "lng": 105.655831
        },
        "ad_info": {
            "adcode": 620522,
            "province": "甘肃省",
            "city": "天水市",
            "district": "秦安县"
        }
    },
    {
        "id": "1793434676020469212",
        "title": "公共卫生间",
        "address": "甘肃省天水市秦安县S220与先锋街交叉口正南方向164米左右",
        "tel": "",
        "category": "基础设施:公共设施:公共厕所",
        "type": 0,
        "location": {
            "lat": 34.865012,
            "lng": 105.674194
        },
        "ad_info": {
            "adcode": 620522,
            "province": "甘肃省",
            "city": "天水市",
            "district": "秦安县"
        }
    },
    {
        "id": "6702308145823711088",
        "title": "公共厕所",
        "address": "甘肃省天水市清水县文昌路与永盛路交叉口西北方向59米左右",
        "tel": "",
        "category": "基础设施:公共设施:公共厕所",
        "type": 0,
        "location": {
            "lat": 34.751427,
            "lng": 106.14368
        },
        "ad_info": {
            "adcode": 620521,
            "province": "甘肃省",
            "city": "天水市",
            "district": "清水县"
        }
    },
    {
        "id": "9392204060121363052",
        "title": "公共厕所",
        "address": "甘肃省天水市清水县",
        "tel": "",
        "category": "基础设施:公共设施:公共厕所",
        "type": 0,
        "location": {
            "lat": 34.746121,
            "lng": 106.158778
        },
        "ad_info": {
            "adcode": 620521,
            "province": "甘肃省",
            "city": "天水市",
            "district": "清水县"
        }
    },
    {
        "id": "15588243994327540929",
        "title": "公共厕所",
        "address": "甘肃省天水市张家川回族自治县中城北路与劳动南巷交叉口正北方向26米左右",
        "tel": "",
        "category": "基础设施:公共设施:公共厕所",
        "type": 0,
        "location": {
            "lat": 34.997651,
            "lng": 106.211049
        },
        "ad_info": {
            "adcode": 620525,
            "province": "甘肃省",
            "city": "天水市",
            "district": "张家川回族自治县"
        }
    },
    {
        "id": "11363098512152218796",
        "title": "公共厕所(桥南服装小商品城东区)",
        "address": "甘肃省天水市麦积区陇林路与羲皇大道东路交叉口东南100米桥南服装小商品城东区F3层",
        "tel": "",
        "category": "基础设施:公共设施:公共厕所",
        "type": 0,
        "location": {
            "lat": 34.543786,
            "lng": 105.895255
        },
        "ad_info": {
            "adcode": 620503,
            "province": "甘肃省",
            "city": "天水市",
            "district": "麦积区"
        }
    },
    {
        "id": "15333757484088534684",
        "title": "公共厕所",
        "address": "甘肃省天水市秦安县团结巷与民主巷交叉口西北方向109米左右",
        "tel": "",
        "category": "基础设施:公共设施:公共厕所",
        "type": 0,
        "location": {
            "lat": 34.856527,
            "lng": 105.664183
        },
        "ad_info": {
            "adcode": 620522,
            "province": "甘肃省",
            "city": "天水市",
            "district": "秦安县"
        }
    },
    {
        "id": "16270035349108397468",
        "title": "花园酒店-洗手间",
        "address": "甘肃省天水市麦积区陇昌路西1号(与埠北路交汇处)花园酒店",
        "tel": "",
        "category": "基础设施:公共设施:公共厕所",
        "type": 0,
        "location": {
            "lat": 34.564479,
            "lng": 105.897836
        },
        "ad_info": {
            "adcode": 620503,
            "province": "甘肃省",
            "city": "天水市",
            "district": "麦积区"
        }
    },
    {
        "id": "10429952132256375635",
        "title": "公共厕所",
        "address": "甘肃省天水市武山县G316(福兰线)洛门中医院背面",
        "tel": "",
        "category": "基础设施:公共设施:公共厕所",
        "type": 0,
        "location": {
            "lat": 34.760334,
            "lng": 105.032367
        },
        "ad_info": {
            "adcode": 620524,
            "province": "甘肃省",
            "city": "天水市",
            "district": "武山县"
        }
    },
    {
        "id": "997151751432835492",
        "title": "公共厕所",
        "address": "甘肃省天水市武山县北滨河路与福康街交叉口正东方向76米左右",
        "tel": "",
        "category": "基础设施:公共设施:公共厕所",
        "type": 0,
        "location": {
            "lat": 34.728874,
            "lng": 104.909985
        },
        "ad_info": {
            "adcode": 620524,
            "province": "甘肃省",
            "city": "天水市",
            "district": "武山县"
        }
    },
    {
        "id": "15956789113811394825",
        "title": "公共厕所",
        "address": "甘肃省天水市张家川回族自治县解放西路与阿阳西路交叉口正北方向43米左右",
        "tel": "",
        "category": "基础设施:公共设施:公共厕所",
        "type": 0,
        "location": {
            "lat": 34.992169,
            "lng": 106.198171
        },
        "ad_info": {
            "adcode": 620525,
            "province": "甘肃省",
            "city": "天水市",
            "district": "张家川回族自治县"
        }
    },
    {
        "id": "11689852709160402556",
        "title": "厕所",
        "address": "甘肃省天水市麦积区埠北路与陇昌路交叉口正北方向90米左右",
        "tel": "",
        "category": "基础设施:公共设施:公共厕所",
        "type": 0,
        "location": {
            "lat": 34.56539,
            "lng": 105.897733
        },
        "ad_info": {
            "adcode": 620503,
            "province": "甘肃省",
            "city": "天水市",
            "district": "麦积区"
        }
    },
    {
        "id": "1630657548052339934",
        "title": "公共厕所",
        "address": "甘肃省天水市张家川回族自治县恭门镇中学西侧190米",
        "tel": "",
        "category": "基础设施:公共设施:公共厕所",
        "type": 0,
        "location": {
            "lat": 34.94135,
            "lng": 106.302394
        },
        "ad_info": {
            "adcode": 620525,
            "province": "甘肃省",
            "city": "天水市",
            "district": "张家川回族自治县"
        }
    },
    {
        "id": "13998880914642091625",
        "title": "公共厕所",
        "address": "甘肃省天水市秦安县S207与S323交叉口西南方向40米左右",
        "tel": "",
        "category": "基础设施:公共设施:公共厕所",
        "type": 0,
        "location": {
            "lat": 34.851769,
            "lng": 105.675282
        },
        "ad_info": {
            "adcode": 620522,
            "province": "甘肃省",
            "city": "天水市",
            "district": "秦安县"
        }
    },
    {
        "id": "7985166741244100802",
        "title": "公共厕所",
        "address": "甘肃省天水市秦州区羲皇大道西路紫薇苑",
        "tel": "",
        "category": "基础设施:公共设施:公共厕所",
        "type": 0,
        "location": {
            "lat": 34.567132,
            "lng": 105.70325
        },
        "ad_info": {
            "adcode": 620502,
            "province": "甘肃省",
            "city": "天水市",
            "district": "秦州区"
        }
    },
    {
        "id": "14176229051409717586",
        "title": "环保公共厕所",
        "address": "甘肃省天水市麦积区伯阳中路与天水文化旅游商业街交叉口东北方向14米左右",
        "tel": "",
        "category": "基础设施:公共设施:公共厕所",
        "type": 0,
        "location": {
            "lat": 34.552626,
            "lng": 105.908323
        },
        "ad_info": {
            "adcode": 620503,
            "province": "甘肃省",
            "city": "天水市",
            "district": "麦积区"
        }
    },
    {
        "id": "6280055178766591445",
        "title": "公共厕所",
        "address": "甘肃省天水市清水县康复路与永清中路交叉口正南方向22米左右",
        "tel": "",
        "category": "基础设施:公共设施:公共厕所",
        "type": 0,
        "location": {
            "lat": 34.752148,
            "lng": 106.134034
        },
        "ad_info": {
            "adcode": 620521,
            "province": "甘肃省",
            "city": "天水市",
            "district": "清水县"
        }
    },
    {
        "id": "1055383517912132759",
        "title": "公共厕所",
        "address": "甘肃省天水市秦州区后寨与大众中路交叉口正西方向41米左右",
        "tel": "",
        "category": "基础设施:公共设施:公共厕所",
        "type": 0,
        "location": {
            "lat": 34.575434,
            "lng": 105.721079
        },
        "ad_info": {
            "adcode": 620502,
            "province": "甘肃省",
            "city": "天水市",
            "district": "秦州区"
        }
    },
    {
        "id": "18244621395264801581",
        "title": "山水苑酒店-洗手间",
        "address": "甘肃省天水市麦积区埠南路与羲皇大道东路交叉口正北方向102米左右",
        "tel": "",
        "category": "基础设施:公共设施:公共厕所",
        "type": 0,
        "location": {
            "lat": 34.546092,
            "lng": 105.893074
        },
        "ad_info": {
            "adcode": 620503,
            "province": "甘肃省",
            "city": "天水市",
            "district": "麦积区"
        }
    },
    {
        "id": "16344564162454294309",
        "title": "公共厕所",
        "address": "甘肃省天水市武山县南滨河路武山人民医院后门对面",
        "tel": "",
        "category": "基础设施:公共设施:公共厕所",
        "type": 0,
        "location": {
            "lat": 34.723801,
            "lng": 104.891565
        },
        "ad_info": {
            "adcode": 620524,
            "province": "甘肃省",
            "city": "天水市",
            "district": "武山县"
        }
    },
    {
        "id": "8163071427186892703",
        "title": "无障碍公共厕所",
        "address": "甘肃省天水市秦州区伏羲庙东门口",
        "tel": "",
        "category": "基础设施:公共设施:公共厕所",
        "type": 0,
        "location": {
            "lat": 34.577915,
            "lng": 105.706387
        },
        "ad_info": {
            "adcode": 620502,
            "province": "甘肃省",
            "city": "天水市",
            "district": "秦州区"
        }
    },
    {
        "id": "12581214228813979442",
        "title": "公共厕所",
        "address": "甘肃省天水市秦州区光明巷与大众中路交叉口正西方向18米左右",
        "tel": "",
        "category": "基础设施:公共设施:公共厕所",
        "type": 0,
        "location": {
            "lat": 34.577971,
            "lng": 105.721069
        },
        "ad_info": {
            "adcode": 620502,
            "province": "甘肃省",
            "city": "天水市",
            "district": "秦州区"
        }
    },
    {
        "id": "16495067804991710216",
        "title": "公共厕所",
        "address": "甘肃省天水市秦州区瀛池路与秦州大道交叉口西北方向42米左右",
        "tel": "",
        "category": "基础设施:公共设施:公共厕所",
        "type": 0,
        "location": {
            "lat": 34.567369,
            "lng": 105.690084
        },
        "ad_info": {
            "adcode": 620502,
            "province": "甘肃省",
            "city": "天水市",
            "district": "秦州区"
        }
    },
    {
        "id": "3671955524079207490",
        "title": "公共厕所",
        "address": "甘肃省天水市武山县G310与S225交叉口正东方向79米左右",
        "tel": "",
        "category": "基础设施:公共设施:公共厕所",
        "type": 0,
        "location": {
            "lat": 34.723934,
            "lng": 104.88539
        },
        "ad_info": {
            "adcode": 620524,
            "province": "甘肃省",
            "city": "天水市",
            "district": "武山县"
        }
    },
    {
        "id": "16660255079315850991",
        "title": "无障碍公共厕所",
        "address": "甘肃省天水市甘谷县冀城南路与渭川中路交叉口正北方向95米左右",
        "tel": "",
        "category": "基础设施:公共设施:公共厕所",
        "type": 0,
        "location": {
            "lat": 34.740721,
            "lng": 105.339079
        },
        "ad_info": {
            "adcode": 620523,
            "province": "甘肃省",
            "city": "天水市",
            "district": "甘谷县"
        }
    },
    {
        "id": "17361725564290774323",
        "title": "公共厕所",
        "address": "甘肃省天水市秦州区泰山路一中家属院",
        "tel": "",
        "category": "基础设施:公共设施:公共厕所",
        "type": 0,
        "location": {
            "lat": 34.585537,
            "lng": 105.725687
        },
        "ad_info": {
            "adcode": 620502,
            "province": "甘肃省",
            "city": "天水市",
            "district": "秦州区"
        }
    },
    {
        "id": "17222810280815382923",
        "title": "甘谷服务区公共厕所",
        "address": "甘肃省天水市甘谷县连霍高速公路",
        "tel": "",
        "category": "基础设施:公共设施:公共厕所",
        "type": 0,
        "location": {
            "lat": 34.745683,
            "lng": 105.242272
        },
        "ad_info": {
            "adcode": 620523,
            "province": "甘肃省",
            "city": "天水市",
            "district": "甘谷县"
        }
    },
    {
        "id": "5360330128916081545",
        "title": "甘泉服务区公共厕所",
        "address": "甘肃省天水市麦积区双泉南路与麦积大道交叉口正南方向1157米左右",
        "tel": "",
        "category": "基础设施:公共设施:公共厕所",
        "type": 0,
        "location": {
            "lat": 34.468512,
            "lng": 105.915122
        },
        "ad_info": {
            "adcode": 620503,
            "province": "甘肃省",
            "city": "天水市",
            "district": "麦积区"
        }
    },
    {
        "id": "14086458655668961101",
        "title": "公共厕所",
        "address": "甘肃省天水市秦州区成纪大道西路天水西关古城",
        "tel": "",
        "category": "基础设施:公共设施:公共厕所",
        "type": 0,
        "location": {
            "lat": 34.580737,
            "lng": 105.712458
        },
        "ad_info": {
            "adcode": 620502,
            "province": "甘肃省",
            "city": "天水市",
            "district": "秦州区"
        }
    },
    {
        "id": "10158811529366379701",
        "title": "公共厕所",
        "address": "甘肃省天水市秦州区3路(宝商超市-窝驼清真寺路口)西南50米",
        "tel": "",
        "category": "基础设施:公共设施:公共厕所",
        "type": 0,
        "location": {
            "lat": 34.577035,
            "lng": 105.754119
        },
        "ad_info": {
            "adcode": 620502,
            "province": "甘肃省",
            "city": "天水市",
            "district": "秦州区"
        }
    },
    {
        "id": "3493169617635459297",
        "title": "公共厕所",
        "address": "甘肃省天水市秦安县人民街与解放南路交叉口正南方向71米左右",
        "tel": "",
        "category": "基础设施:公共设施:公共厕所",
        "type": 0,
        "location": {
            "lat": 34.853931,
            "lng": 105.674599
        },
        "ad_info": {
            "adcode": 620522,
            "province": "甘肃省",
            "city": "天水市",
            "district": "秦安县"
        }
    },
    {
        "id": "12621277716532225591",
        "title": "公共厕所",
        "address": "甘肃省天水市秦州区新华路与官墙里交叉口西北180米",
        "tel": "",
        "category": "基础设施:公共设施:公共厕所",
        "type": 0,
        "location": {
            "lat": 34.583681,
            "lng": 105.73958
        },
        "ad_info": {
            "adcode": 620502,
            "province": "甘肃省",
            "city": "天水市",
            "district": "秦州区"
        }
    },
    {
        "id": "16606999368304182436",
        "title": "无障碍公共厕所",
        "address": "甘肃省天水市秦州区自由路与重新街交叉口正北方向82米左右",
        "tel": "",
        "category": "基础设施:公共设施:公共厕所",
        "type": 0,
        "location": {
            "lat": 34.581546,
            "lng": 105.720191
        },
        "ad_info": {
            "adcode": 620502,
            "province": "甘肃省",
            "city": "天水市",
            "district": "秦州区"
        }
    },
    {
        "id": "16074840668338599313",
        "title": "秦州服务区公共厕所",
        "address": "甘肃省天水市秦州区G7011十天高速附近",
        "tel": "",
        "category": "基础设施:公共设施:公共厕所",
        "type": 0,
        "location": {
            "lat": 34.443709,
            "lng": 105.692228
        },
        "ad_info": {
            "adcode": 620502,
            "province": "甘肃省",
            "city": "天水市",
            "district": "秦州区"
        }
    },
    {
        "id": "2695671291673865870",
        "title": "环保公共厕所管理间",
        "address": "甘肃省天水市清水县永清路68号",
        "tel": "",
        "category": "基础设施:公共设施:公共厕所",
        "type": 0,
        "location": {
            "lat": 34.750497,
            "lng": 106.137622
        },
        "ad_info": {
            "adcode": 620521,
            "province": "甘肃省",
            "city": "天水市",
            "district": "清水县"
        }
    },
    {
        "id": "8425800728377782119",
        "title": "百花服务区公共厕所",
        "address": "甘肃省天水市麦积区连霍高速",
        "tel": "",
        "category": "基础设施:公共设施:公共厕所",
        "type": 0,
        "location": {
            "lat": 34.311093,
            "lng": 106.341293
        },
        "ad_info": {
            "adcode": 620503,
            "province": "甘肃省",
            "city": "天水市",
            "district": "麦积区"
        }
    },
    {
        "id": "16355191097320312526",
        "title": "鸳鸯服务区公共厕所",
        "address": "甘肃省天水市武山县连霍高速附近",
        "tel": "",
        "category": "基础设施:公共设施:公共厕所",
        "type": 0,
        "location": {
            "lat": 34.817935,
            "lng": 104.751019
        },
        "ad_info": {
            "adcode": 620524,
            "province": "甘肃省",
            "city": "天水市",
            "district": "武山县"
        }
    },
    {
        "id": "15300006282332585720",
        "title": "鸳鸯服务区公共厕所",
        "address": "甘肃省天水市武山县连霍高速附近",
        "tel": "",
        "category": "基础设施:公共设施:公共厕所",
        "type": 0,
        "location": {
            "lat": 34.817656,
            "lng": 104.748819
        },
        "ad_info": {
            "adcode": 620524,
            "province": "甘肃省",
            "city": "天水市",
            "district": "武山县"
        }
    },
    {
        "id": "2049518376884516061",
        "title": "公共厕所",
        "address": "甘肃省天水市清水县中兴街与御景路交叉口西南方向147米左右",
        "tel": "",
        "category": "基础设施:公共设施:公共厕所",
        "type": 0,
        "location": {
            "lat": 34.754213,
            "lng": 106.136482
        },
        "ad_info": {
            "adcode": 620521,
            "province": "甘肃省",
            "city": "天水市",
            "district": "清水县"
        }
    },
    {
        "id": "2729343432991304620",
        "title": "公共厕所",
        "address": "甘肃省天水市甘谷县南滨河中路与白云路交叉口正东方向399米左右",
        "tel": "",
        "category": "基础设施:公共设施:公共厕所",
        "type": 0,
        "location": {
            "lat": 34.753597,
            "lng": 105.312076
        },
        "ad_info": {
            "adcode": 620523,
            "province": "甘肃省",
            "city": "天水市",
            "district": "甘谷县"
        }
    },
    {
        "id": "2588626084710784771",
        "title": "公共厕所",
        "address": "甘肃省天水市秦州区共和巷25号",
        "tel": "",
        "category": "基础设施:公共设施:公共厕所",
        "type": 0,
        "location": {
            "lat": 34.582342,
            "lng": 105.727604
        },
        "ad_info": {
            "adcode": 620502,
            "province": "甘肃省",
            "city": "天水市",
            "district": "秦州区"
        }
    },
    {
        "id": "13923831291125203208",
        "title": "公共厕所",
        "address": "甘肃省天水市甘谷县县府街与新城南路交叉口西北方向23米左右",
        "tel": "",
        "category": "基础设施:公共设施:公共厕所",
        "type": 0,
        "location": {
            "lat": 34.738814,
            "lng": 105.331149
        },
        "ad_info": {
            "adcode": 620523,
            "province": "甘肃省",
            "city": "天水市",
            "district": "甘谷县"
        }
    },
    {
        "id": "18284460542774885380",
        "title": "公共厕所",
        "address": "甘肃省天水市秦州区大众路1号(天水大酒店1楼)",
        "tel": "",
        "category": "基础设施:公共设施:公共厕所",
        "type": 0,
        "location": {
            "lat": 34.579836,
            "lng": 105.7221
        },
        "ad_info": {
            "adcode": 620502,
            "province": "甘肃省",
            "city": "天水市",
            "district": "秦州区"
        }
    },
    {
        "id": "3733304545927741015",
        "title": "公共厕所",
        "address": "甘肃省天水市秦州区合作中路与藉河南路交叉口正西方向175米左右",
        "tel": "",
        "category": "基础设施:公共设施:公共厕所",
        "type": 0,
        "location": {
            "lat": 34.575507,
            "lng": 105.731228
        },
        "ad_info": {
            "adcode": 620502,
            "province": "甘肃省",
            "city": "天水市",
            "district": "秦州区"
        }
    },
    {
        "id": "7633218889429717498",
        "title": "公共厕所",
        "address": "甘肃省天水市武山县南滨河路与红峪巷交叉口东北方向38米左右",
        "tel": "",
        "category": "基础设施:公共设施:公共厕所",
        "type": 0,
        "location": {
            "lat": 34.725178,
            "lng": 104.897983
        },
        "ad_info": {
            "adcode": 620524,
            "province": "甘肃省",
            "city": "天水市",
            "district": "武山县"
        }
    },
    {
        "id": "6401847143397951602",
        "title": "公共厕所",
        "address": "甘肃省天水市麦积区中国石油加油站(麦积镇人民政府西北)西北侧80米",
        "tel": "",
        "category": "基础设施:公共设施:公共厕所",
        "type": 0,
        "location": {
            "lat": 34.389733,
            "lng": 105.999996
        },
        "ad_info": {
            "adcode": 620503,
            "province": "甘肃省",
            "city": "天水市",
            "district": "麦积区"
        }
    },
    {
        "id": "17364484554504675360",
        "title": "甘泉服务区公共厕所",
        "address": "甘肃省天水市麦积区G30连霍高速与甘泉服务区交叉口东北460米",
        "tel": "",
        "category": "基础设施:公共设施:公共厕所",
        "type": 0,
        "location": {
            "lat": 34.467967,
            "lng": 105.916935
        },
        "ad_info": {
            "adcode": 620503,
            "province": "甘肃省",
            "city": "天水市",
            "district": "麦积区"
        }
    },
    {
        "id": "15874836139713387036",
        "title": "公共厕所",
        "address": "甘肃省天水市甘谷县南环路与新城南路交叉口西南方向66米左右",
        "tel": "",
        "category": "基础设施:公共设施:公共厕所",
        "type": 0,
        "location": {
            "lat": 34.730852,
            "lng": 105.329706
        },
        "ad_info": {
            "adcode": 620523,
            "province": "甘肃省",
            "city": "天水市",
            "district": "甘谷县"
        }
    },
    {
        "id": "12356490768798017040",
        "title": "公共厕所",
        "address": "甘肃省天水市秦州区桥一沟与精表路交叉口正南方向403米左右",
        "tel": "",
        "category": "基础设施:公共设施:公共厕所",
        "type": 0,
        "location": {
            "lat": 34.571717,
            "lng": 105.692676
        },
        "ad_info": {
            "adcode": 620502,
            "province": "甘肃省",
            "city": "天水市",
            "district": "秦州区"
        }
    },
    {
        "id": "13857210075941228011",
        "title": "公共厕所",
        "address": "甘肃省天水市麦积区北山路与环城北路交叉口正北方向126米左右",
        "tel": "",
        "category": "基础设施:公共设施:公共厕所",
        "type": 0,
        "location": {
            "lat": 34.576094,
            "lng": 105.895034
        },
        "ad_info": {
            "adcode": 620503,
            "province": "甘肃省",
            "city": "天水市",
            "district": "麦积区"
        }
    },
    {
        "id": "10638551272139579932",
        "title": "公共厕所",
        "address": "甘肃省天水市清水县原泉巷与文庙街交叉口正西方向66米左右",
        "tel": "",
        "category": "基础设施:公共设施:公共厕所",
        "type": 0,
        "location": {
            "lat": 34.7492,
            "lng": 106.13835
        },
        "ad_info": {
            "adcode": 620521,
            "province": "甘肃省",
            "city": "天水市",
            "district": "清水县"
        }
    },
    {
        "id": "849923136882735136",
        "title": "公共厕所",
        "address": "甘肃省天水市秦州区步行街与民主西路交叉口东北方向25米左右",
        "tel": "",
        "category": "基础设施:公共设施:公共厕所",
        "type": 0,
        "location": {
            "lat": 34.580804,
            "lng": 105.72392
        },
        "ad_info": {
            "adcode": 620502,
            "province": "甘肃省",
            "city": "天水市",
            "district": "秦州区"
        }
    },
    {
        "id": "12081887595836702319",
        "title": "公共厕所",
        "address": "甘肃省天水市秦安县南河南路与文昌路交叉口正北方向16米左右",
        "tel": "",
        "category": "基础设施:公共设施:公共厕所",
        "type": 0,
        "location": {
            "lat": 34.847873,
            "lng": 105.667068
        },
        "ad_info": {
            "adcode": 620522,
            "province": "甘肃省",
            "city": "天水市",
            "district": "秦安县"
        }
    },
    {
        "id": "10000253659622015862",
        "title": "公共厕所",
        "address": "甘肃省天水市秦州区藉河北路欣和苑西(景园·水岸都市东南)",
        "tel": "",
        "category": "基础设施:公共设施:公共厕所",
        "type": 0,
        "location": {
            "lat": 34.573169,
            "lng": 105.702859
        },
        "ad_info": {
            "adcode": 620502,
            "province": "甘肃省",
            "city": "天水市",
            "district": "秦州区"
        }
    },
    {
        "id": "9346722676536977837",
        "title": "公共厕所",
        "address": "甘肃省天水市秦州区南明路与小南门交叉口正北方向162米左右",
        "tel": "",
        "category": "基础设施:公共设施:公共厕所",
        "type": 0,
        "location": {
            "lat": 34.577169,
            "lng": 105.718048
        },
        "ad_info": {
            "adcode": 620502,
            "province": "甘肃省",
            "city": "天水市",
            "district": "秦州区"
        }
    },
    {
        "id": "16408742158170747014",
        "title": "公共厕所",
        "address": "甘肃省天水市麦积区X240与牛北公路交叉口西北方向1723米左右",
        "tel": "",
        "category": "基础设施:公共设施:公共厕所",
        "type": 0,
        "location": {
            "lat": 34.47514,
            "lng": 106.566595
        },
        "ad_info": {
            "adcode": 620503,
            "province": "甘肃省",
            "city": "天水市",
            "district": "麦积区"
        }
    },
    {
        "id": "17822474505981141801",
        "title": "公共厕所",
        "address": "甘肃省天水市张家川回族自治县马家套北巷与马家套西巷交叉口西北方向169米左右",
        "tel": "",
        "category": "基础设施:公共设施:公共厕所",
        "type": 0,
        "location": {
            "lat": 35.00063,
            "lng": 106.206776
        },
        "ad_info": {
            "adcode": 620525,
            "province": "甘肃省",
            "city": "天水市",
            "district": "张家川回族自治县"
        }
    },
    {
        "id": "11486630421537944890",
        "title": "玉泉观公共厕所",
        "address": "甘肃省天水市秦州区成纪大道西路辅路与自由路交叉口西北方向53米左右",
        "tel": "",
        "category": "基础设施:公共设施:公共厕所",
        "type": 0,
        "location": {
            "lat": 34.581935,
            "lng": 105.714788
        },
        "ad_info": {
            "adcode": 620502,
            "province": "甘肃省",
            "city": "天水市",
            "district": "秦州区"
        }
    },
    {
        "id": "16028165988890117952",
        "title": "公共卫生间",
        "address": "甘肃省天水市秦州区青年北路92号",
        "tel": "",
        "category": "基础设施:公共设施:公共厕所",
        "type": 0,
        "location": {
            "lat": 34.581331,
            "lng": 105.725238
        },
        "ad_info": {
            "adcode": 620502,
            "province": "甘肃省",
            "city": "天水市",
            "district": "秦州区"
        }
    },
    {
        "id": "3076419081444832208",
        "title": "公共厕所",
        "address": "甘肃省天水市麦积区县孟路与牛北公路交叉口正西方向516米左右",
        "tel": "15536526854",
        "category": "基础设施:公共设施:公共厕所",
        "type": 0,
        "location": {
            "lat": 34.449805,
            "lng": 106.596466
        },
        "ad_info": {
            "adcode": 620503,
            "province": "甘肃省",
            "city": "天水市",
            "district": "麦积区"
        }
    },
    {
        "id": "1915661696491770160",
        "title": "公共厕所",
        "address": "甘肃省天水市甘谷县恒盛雅居东北侧150米",
        "tel": "",
        "category": "基础设施:公共设施:公共厕所",
        "type": 0,
        "location": {
            "lat": 34.7573,
            "lng": 105.33681
        },
        "ad_info": {
            "adcode": 620523,
            "province": "甘肃省",
            "city": "天水市",
            "district": "甘谷县"
        }
    },
    {
        "id": "15443699611512849736",
        "title": "公共厕所",
        "address": "甘肃省天水市武山县南滨河路与自由街交叉口正西方向61米左右",
        "tel": "",
        "category": "基础设施:公共设施:公共厕所",
        "type": 0,
        "location": {
            "lat": 34.722867,
            "lng": 104.885955
        },
        "ad_info": {
            "adcode": 620524,
            "province": "甘肃省",
            "city": "天水市",
            "district": "武山县"
        }
    },
    {
        "id": "11627372453219270876",
        "title": "秦安服务区公共厕所",
        "address": "甘肃省天水市秦安县天平高速与平绵高速交叉口正南方向494米左右",
        "tel": "",
        "category": "基础设施:公共设施:公共厕所",
        "type": 0,
        "location": {
            "lat": 34.858963,
            "lng": 105.646696
        },
        "ad_info": {
            "adcode": 620522,
            "province": "甘肃省",
            "city": "天水市",
            "district": "秦安县"
        }
    },
    {
        "id": "11186327703795444184",
        "title": "公共厕所",
        "address": "甘肃省天水市秦州区瀛池路与精表路交叉口正南方向247米左右",
        "tel": "",
        "category": "基础设施:公共设施:公共厕所",
        "type": 0,
        "location": {
            "lat": 34.573076,
            "lng": 105.693209
        },
        "ad_info": {
            "adcode": 620502,
            "province": "甘肃省",
            "city": "天水市",
            "district": "秦州区"
        }
    },
    {
        "id": "6501888502373731338",
        "title": "公共厕所",
        "address": "甘肃省天水市秦州区岷山路与枣园路交叉口正东方向292米左右",
        "tel": "",
        "category": "基础设施:公共设施:公共厕所",
        "type": 0,
        "location": {
            "lat": 34.580829,
            "lng": 105.764288
        },
        "ad_info": {
            "adcode": 620502,
            "province": "甘肃省",
            "city": "天水市",
            "district": "秦州区"
        }
    },
    {
        "id": "2120739070734431638",
        "title": "公共厕所",
        "address": "甘肃省天水市麦积区牛北公路",
        "tel": "",
        "category": "基础设施:公共设施:公共厕所",
        "type": 0,
        "location": {
            "lat": 34.514796,
            "lng": 106.404369
        },
        "ad_info": {
            "adcode": 620503,
            "province": "甘肃省",
            "city": "天水市",
            "district": "麦积区"
        }
    },
    {
        "id": "5808590016675481049",
        "title": "公共厕所",
        "address": "甘肃省天水市武山县南滨河路与景明街交叉口西北方向33米左右",
        "tel": "",
        "category": "基础设施:公共设施:公共厕所",
        "type": 0,
        "location": {
            "lat": 34.727432,
            "lng": 104.908707
        },
        "ad_info": {
            "adcode": 620524,
            "province": "甘肃省",
            "city": "天水市",
            "district": "武山县"
        }
    },
    {
        "id": "15009016477824218401",
        "title": "公共厕所",
        "address": "甘肃省天水市甘谷县北滨河中路与新城中路交叉口西南方向90米左右",
        "tel": "",
        "category": "基础设施:公共设施:公共厕所",
        "type": 0,
        "location": {
            "lat": 34.759083,
            "lng": 105.327525
        },
        "ad_info": {
            "adcode": 620523,
            "province": "甘肃省",
            "city": "天水市",
            "district": "甘谷县"
        }
    },
    {
        "id": "17978229366081426934",
        "title": "公共厕所",
        "address": "甘肃省天水市秦州区东方红路与岷玉路交叉口东南方向14米左右",
        "tel": "",
        "category": "基础设施:公共设施:公共厕所",
        "type": 0,
        "location": {
            "lat": 34.57549,
            "lng": 105.746499
        },
        "ad_info": {
            "adcode": 620502,
            "province": "甘肃省",
            "city": "天水市",
            "district": "秦州区"
        }
    },
    {
        "id": "18070064485531192277",
        "title": "公共厕所",
        "address": "甘肃省天水市秦州区天河路与羲皇大道西路交叉口西北方向374米左右",
        "tel": "",
        "category": "基础设施:公共设施:公共厕所",
        "type": 0,
        "location": {
            "lat": 34.576571,
            "lng": 105.759161
        },
        "ad_info": {
            "adcode": 620502,
            "province": "甘肃省",
            "city": "天水市",
            "district": "秦州区"
        }
    },
    {
        "id": "7422631915237816377",
        "title": "公共厕所",
        "address": "甘肃省天水市甘谷县新兴路与迎宾巷交叉口东北方向56米左右",
        "tel": "",
        "category": "基础设施:公共设施:公共厕所",
        "type": 0,
        "location": {
            "lat": 34.762686,
            "lng": 105.333006
        },
        "ad_info": {
            "adcode": 620523,
            "province": "甘肃省",
            "city": "天水市",
            "district": "甘谷县"
        }
    },
    {
        "id": "17612019688024002629",
        "title": "公共厕所",
        "address": "甘肃省天水市秦安县一中巷与秦南大道交叉口西南方向131米左右",
        "tel": "",
        "category": "基础设施:公共设施:公共厕所",
        "type": 0,
        "location": {
            "lat": 34.845144,
            "lng": 105.670318
        },
        "ad_info": {
            "adcode": 620522,
            "province": "甘肃省",
            "city": "天水市",
            "district": "秦安县"
        }
    },
    {
        "id": "467749730651692372",
        "title": "公共厕所",
        "address": "甘肃省天水市秦州区双桥中路辅路与藉河南路交叉口西南20米",
        "tel": "",
        "category": "基础设施:公共设施:公共厕所",
        "type": 0,
        "location": {
            "lat": 34.569458,
            "lng": 105.710015
        },
        "ad_info": {
            "adcode": 620502,
            "province": "甘肃省",
            "city": "天水市",
            "district": "秦州区"
        }
    },
    {
        "id": "17230903879816643469",
        "title": "公共厕所",
        "address": "甘肃省天水市麦积区宝亿隆洗车行北侧120米",
        "tel": "",
        "category": "基础设施:公共设施:公共厕所",
        "type": 0,
        "location": {
            "lat": 34.495658,
            "lng": 105.908914
        },
        "ad_info": {
            "adcode": 620503,
            "province": "甘肃省",
            "city": "天水市",
            "district": "麦积区"
        }
    },
    {
        "id": "3206622848141129938",
        "title": "公共厕所",
        "address": "甘肃省天水市秦州区",
        "tel": "",
        "category": "基础设施:公共设施:公共厕所",
        "type": 0,
        "location": {
            "lat": 34.464021,
            "lng": 105.516294
        },
        "ad_info": {
            "adcode": 620502,
            "province": "甘肃省",
            "city": "天水市",
            "district": "秦州区"
        }
    },
    {
        "id": "9714603618366312232",
        "title": "公共厕所",
        "address": "甘肃省天水市麦积区Y631与牛北公路交叉口正北方向32米左右",
        "tel": "",
        "category": "基础设施:公共设施:公共厕所",
        "type": 0,
        "location": {
            "lat": 34.535648,
            "lng": 105.959686
        },
        "ad_info": {
            "adcode": 620503,
            "province": "甘肃省",
            "city": "天水市",
            "district": "麦积区"
        }
    },
    {
        "id": "8283433601915443545",
        "title": "公共厕所",
        "address": "甘肃省天水市秦州区平南镇赵窑村卫生室东侧50米",
        "tel": "",
        "category": "基础设施:公共设施:公共厕所",
        "type": 0,
        "location": {
            "lat": 34.329023,
            "lng": 105.662454
        },
        "ad_info": {
            "adcode": 620502,
            "province": "甘肃省",
            "city": "天水市",
            "district": "秦州区"
        }
    },
    {
        "id": "16414657848155325064",
        "title": "公共厕所",
        "address": "甘肃省天水市麦积区渭滨经一路与龙园西路交叉口东北方向181米左右",
        "tel": "",
        "category": "基础设施:公共设施:公共厕所",
        "type": 0,
        "location": {
            "lat": 34.551036,
            "lng": 105.916255
        },
        "ad_info": {
            "adcode": 620503,
            "province": "甘肃省",
            "city": "天水市",
            "district": "麦积区"
        }
    },
    {
        "id": "147029993584274630",
        "title": "公共厕所",
        "address": "甘肃省天水市秦州区中华东路与进步巷交叉口正西方向33米左右",
        "tel": "",
        "category": "基础设施:公共设施:公共厕所",
        "type": 0,
        "location": {
            "lat": 34.578951,
            "lng": 105.728176
        },
        "ad_info": {
            "adcode": 620502,
            "province": "甘肃省",
            "city": "天水市",
            "district": "秦州区"
        }
    },
    {
        "id": "18186497953637042584",
        "title": "公共厕所",
        "address": "甘肃省天水市张家川回族自治县G566与幸福路交叉口东北方向114米左右",
        "tel": "",
        "category": "基础设施:公共设施:公共厕所",
        "type": 0,
        "location": {
            "lat": 35.004988,
            "lng": 106.20679
        },
        "ad_info": {
            "adcode": 620525,
            "province": "甘肃省",
            "city": "天水市",
            "district": "张家川回族自治县"
        }
    },
    {
        "id": "5173422017836417391",
        "title": "公共厕所",
        "address": "甘肃省天水市秦州区郭家庵子公益电影放映点东南侧210米",
        "tel": "",
        "category": "基础设施:公共设施:公共厕所",
        "type": 0,
        "location": {
            "lat": 34.31926,
            "lng": 105.803566
        },
        "ad_info": {
            "adcode": 620502,
            "province": "甘肃省",
            "city": "天水市",
            "district": "秦州区"
        }
    },
    {
        "id": "6008421539874209383",
        "title": "公共厕所",
        "address": "甘肃省天水市秦州区南郭寺路与羲皇大道西路交叉口东南方向1222米左右",
        "tel": "",
        "category": "基础设施:公共设施:公共厕所",
        "type": 0,
        "location": {
            "lat": 34.560293,
            "lng": 105.750283
        },
        "ad_info": {
            "adcode": 620502,
            "province": "甘肃省",
            "city": "天水市",
            "district": "秦州区"
        }
    },
    {
        "id": "1970415595616079809",
        "title": "公共厕所",
        "address": "甘肃省天水市麦积区中心大道西路与书苑路交叉口正西方向167米左右",
        "tel": "",
        "category": "基础设施:公共设施:公共厕所",
        "type": 0,
        "location": {
            "lat": 34.552717,
            "lng": 105.888325
        },
        "ad_info": {
            "adcode": 620503,
            "province": "甘肃省",
            "city": "天水市",
            "district": "麦积区"
        }
    },
    {
        "id": "11679673688884389771",
        "title": "女洗手间",
        "address": "甘肃省天水市秦州区大众路官泉1号天水兰天城市广场F4",
        "tel": "",
        "category": "基础设施:公共设施:女洗手间",
        "type": 0,
        "location": {
            "lat": 34.576642,
            "lng": 105.722722
        },
        "ad_info": {
            "adcode": 620502,
            "province": "甘肃省",
            "city": "天水市",
            "district": "秦州区"
        }
    },
    {
        "id": "14859174791696263203",
        "title": "公共厕所",
        "address": "甘肃省天水市秦州区诸如意饲料籍口运营中心东北侧130米",
        "tel": "",
        "category": "基础设施:公共设施:公共厕所",
        "type": 0,
        "location": {
            "lat": 34.539505,
            "lng": 105.461074
        },
        "ad_info": {
            "adcode": 620502,
            "province": "甘肃省",
            "city": "天水市",
            "district": "秦州区"
        }
    },
    {
        "id": "6572435466161386088",
        "title": "公共厕所",
        "address": "甘肃省天水市秦州区G8513平绵高速入口与G8513平绵高速交叉口东320米",
        "tel": "",
        "category": "基础设施:公共设施:公共厕所",
        "type": 0,
        "location": {
            "lat": 34.612975,
            "lng": 105.684484
        },
        "ad_info": {
            "adcode": 620502,
            "province": "甘肃省",
            "city": "天水市",
            "district": "秦州区"
        }
    },
    {
        "id": "13379498582442669469",
        "title": "公共厕所",
        "address": "甘肃省天水市秦州区新安驾校西侧110米",
        "tel": "",
        "category": "基础设施:公共设施:公共厕所",
        "type": 0,
        "location": {
            "lat": 34.40196,
            "lng": 105.740654
        },
        "ad_info": {
            "adcode": 620502,
            "province": "甘肃省",
            "city": "天水市",
            "district": "秦州区"
        }
    },
    {
        "id": "12095447192381891262",
        "title": "公共厕所",
        "address": "甘肃省天水市麦积区埠北路与陇昌路交叉口东北方向142米左右",
        "tel": "",
        "category": "基础设施:公共设施:公共厕所",
        "type": 0,
        "location": {
            "lat": 34.565645,
            "lng": 105.899009
        },
        "ad_info": {
            "adcode": 620503,
            "province": "甘肃省",
            "city": "天水市",
            "district": "麦积区"
        }
    },
    {
        "id": "10277365194197402631",
        "title": "公共厕所",
        "address": "甘肃省天水市秦州区",
        "tel": "",
        "category": "基础设施:公共设施:公共厕所",
        "type": 0,
        "location": {
            "lat": 34.625564,
            "lng": 105.639424
        },
        "ad_info": {
            "adcode": 620502,
            "province": "甘肃省",
            "city": "天水市",
            "district": "秦州区"
        }
    },
    {
        "id": "4282976320195474347",
        "title": "公共厕所",
        "address": "甘肃省天水市麦积区东兴家园西侧140米",
        "tel": "",
        "category": "基础设施:公共设施:公共厕所",
        "type": 0,
        "location": {
            "lat": 34.704204,
            "lng": 105.700654
        },
        "ad_info": {
            "adcode": 620503,
            "province": "甘肃省",
            "city": "天水市",
            "district": "麦积区"
        }
    },
    {
        "id": "16091572498081843993",
        "title": "公共厕所",
        "address": "甘肃省天水市秦州区",
        "tel": "",
        "category": "基础设施:公共设施:公共厕所",
        "type": 0,
        "location": {
            "lat": 34.314613,
            "lng": 105.810793
        },
        "ad_info": {
            "adcode": 620502,
            "province": "甘肃省",
            "city": "天水市",
            "district": "秦州区"
        }
    },
    {
        "id": "615565250127344057",
        "title": "公共厕所",
        "address": "甘肃省天水市麦积区甘泉中心小学西侧130米",
        "tel": "",
        "category": "基础设施:公共设施:公共厕所",
        "type": 0,
        "location": {
            "lat": 34.451281,
            "lng": 105.940088
        },
        "ad_info": {
            "adcode": 620503,
            "province": "甘肃省",
            "city": "天水市",
            "district": "麦积区"
        }
    },
    {
        "id": "6915550572739421486",
        "title": "公共厕所",
        "address": "甘肃省天水市秦州区民主东路与民主西路交叉口正北方向131米左右",
        "tel": "",
        "category": "基础设施:公共设施:公共厕所",
        "type": 0,
        "location": {
            "lat": 34.581812,
            "lng": 105.72555
        },
        "ad_info": {
            "adcode": 620502,
            "province": "甘肃省",
            "city": "天水市",
            "district": "秦州区"
        }
    },
    {
        "id": "16120927228260257532",
        "title": "公共厕所",
        "address": "甘肃省天水市秦州区秦北高速入口与秦北高速公路交叉口西北240米",
        "tel": "",
        "category": "基础设施:公共设施:公共厕所",
        "type": 0,
        "location": {
            "lat": 34.583161,
            "lng": 105.770663
        },
        "ad_info": {
            "adcode": 620502,
            "province": "甘肃省",
            "city": "天水市",
            "district": "秦州区"
        }
    },
    {
        "id": "2974052371386401876",
        "title": "公共厕所",
        "address": "甘肃省天水市秦安县S207与Y653交叉口正南方向1522米左右",
        "tel": "",
        "category": "基础设施:公共设施:公共厕所",
        "type": 0,
        "location": {
            "lat": 34.746797,
            "lng": 105.787791
        },
        "ad_info": {
            "adcode": 620522,
            "province": "甘肃省",
            "city": "天水市",
            "district": "秦安县"
        }
    },
    {
        "id": "3784111554286635464",
        "title": "公共厕所",
        "address": "甘肃省天水市秦州区南郭寺路与羲皇大道西路交叉口正南方向1671米左右",
        "tel": "",
        "category": "基础设施:公共设施:公共厕所",
        "type": 0,
        "location": {
            "lat": 34.555263,
            "lng": 105.747354
        },
        "ad_info": {
            "adcode": 620502,
            "province": "甘肃省",
            "city": "天水市",
            "district": "秦州区"
        }
    },
    {
        "id": "5997654899641765323",
        "title": "公共厕所",
        "address": "甘肃省天水市麦积区森泰田园土灶北侧",
        "tel": "",
        "category": "基础设施:公共设施:公共厕所",
        "type": 0,
        "location": {
            "lat": 34.455818,
            "lng": 105.924026
        },
        "ad_info": {
            "adcode": 620503,
            "province": "甘肃省",
            "city": "天水市",
            "district": "麦积区"
        }
    },
    {
        "id": "6330184812638316092",
        "title": "公共厕所",
        "address": "甘肃省天水市麦积区超超商店南侧70米",
        "tel": "",
        "category": "基础设施:公共设施:公共厕所",
        "type": 0,
        "location": {
            "lat": 34.531086,
            "lng": 106.123559
        },
        "ad_info": {
            "adcode": 620503,
            "province": "甘肃省",
            "city": "天水市",
            "district": "麦积区"
        }
    },
    {
        "id": "7176175467966666258",
        "title": "公共厕所",
        "address": "甘肃省天水市秦州区G7011十天高速出口与247国道交叉口东北180米",
        "tel": "",
        "category": "基础设施:公共设施:公共厕所",
        "type": 0,
        "location": {
            "lat": 34.316535,
            "lng": 105.60588
        },
        "ad_info": {
            "adcode": 620502,
            "province": "甘肃省",
            "city": "天水市",
            "district": "秦州区"
        }
    },
    {
        "id": "6282567733356208988",
        "title": "公共厕所",
        "address": "甘肃省天水市武山县G310与公园路交叉口东北方向1860米左右",
        "tel": "",
        "category": "基础设施:公共设施:公共厕所",
        "type": 0,
        "location": {
            "lat": 34.761631,
            "lng": 104.841447
        },
        "ad_info": {
            "adcode": 620524,
            "province": "甘肃省",
            "city": "天水市",
            "district": "武山县"
        }
    },
    {
        "id": "10824811701734868894",
        "title": "桃花坪停车区公共厕所",
        "address": "甘肃省天水市麦积区G30连霍高速与桃花坪停车区交叉口南160米",
        "tel": "",
        "category": "基础设施:公共设施:公共厕所",
        "type": 0,
        "location": {
            "lat": 34.339936,
            "lng": 106.620496
        },
        "ad_info": {
            "adcode": 620503,
            "province": "甘肃省",
            "city": "天水市",
            "district": "麦积区"
        }
    },
    {
        "id": "8783579191730380703",
        "title": "公共厕所",
        "address": "甘肃省天水市秦州区万达路与岷山经三路交叉口东北方向1034米左右",
        "tel": "",
        "category": "基础设施:公共设施:公共厕所",
        "type": 0,
        "location": {
            "lat": 34.590591,
            "lng": 105.758047
        },
        "ad_info": {
            "adcode": 620502,
            "province": "甘肃省",
            "city": "天水市",
            "district": "秦州区"
        }
    },
    {
        "id": "17409070082667074128",
        "title": "公共厕所",
        "address": "甘肃省天水市甘谷县杨赵路与G30连霍高速出口交叉口南240米",
        "tel": "",
        "category": "基础设施:公共设施:公共厕所",
        "type": 0,
        "location": {
            "lat": 34.740305,
            "lng": 105.302434
        },
        "ad_info": {
            "adcode": 620523,
            "province": "甘肃省",
            "city": "天水市",
            "district": "甘谷县"
        }
    },
    {
        "id": "13835522927124026334",
        "title": "公共厕所",
        "address": "甘肃省天水市麦积区劲道鲜面条店西南侧210米",
        "tel": "",
        "category": "基础设施:公共设施:公共厕所",
        "type": 0,
        "location": {
            "lat": 34.531857,
            "lng": 106.157365
        },
        "ad_info": {
            "adcode": 620503,
            "province": "甘肃省",
            "city": "天水市",
            "district": "麦积区"
        }
    },
    {
        "id": "13852320055622826626",
        "title": "公共厕所",
        "address": "甘肃省天水市秦安县南河南路与文昌路交叉口西北方向29米左右",
        "tel": "",
        "category": "基础设施:公共设施:公共厕所",
        "type": 0,
        "location": {
            "lat": 34.847845,
            "lng": 105.666781
        },
        "ad_info": {
            "adcode": 620522,
            "province": "甘肃省",
            "city": "天水市",
            "district": "秦安县"
        }
    },
    {
        "id": "12743023966580590128",
        "title": "无障碍公共厕所",
        "address": "甘肃省天水市麦积区华阳路与成纪大道东路交叉口正北方向146米左右",
        "tel": "",
        "category": "基础设施:公共设施:公共厕所",
        "type": 0,
        "location": {
            "lat": 34.561325,
            "lng": 105.90372
        },
        "ad_info": {
            "adcode": 620503,
            "province": "甘肃省",
            "city": "天水市",
            "district": "麦积区"
        }
    },
    {
        "id": "17504231001599017039",
        "title": "男洗手间",
        "address": "甘肃省天水市秦州区大众路官泉1号天水兰天城市广场F4",
        "tel": "",
        "category": "基础设施:公共设施:男洗手间",
        "type": 0,
        "location": {
            "lat": 34.575723,
            "lng": 105.722388
        },
        "ad_info": {
            "adcode": 620502,
            "province": "甘肃省",
            "city": "天水市",
            "district": "秦州区"
        }
    },
    {
        "id": "10371402631612366806",
        "title": "公共厕所",
        "address": "甘肃省天水市清水县文昌路与轩辕大道交叉口西北方向122米左右",
        "tel": "",
        "category": "基础设施:公共设施:公共厕所",
        "type": 0,
        "location": {
            "lat": 34.756462,
            "lng": 106.143984
        },
        "ad_info": {
            "adcode": 620521,
            "province": "甘肃省",
            "city": "天水市",
            "district": "清水县"
        }
    },
    {
        "id": "10023777795563825878",
        "title": "公共厕所",
        "address": "甘肃省天水市秦州区秦州农村合作银行邓家门村便民金融服务点东南侧80米",
        "tel": "",
        "category": "基础设施:公共设施:公共厕所",
        "type": 0,
        "location": {
            "lat": 34.457535,
            "lng": 105.517237
        },
        "ad_info": {
            "adcode": 620502,
            "province": "甘肃省",
            "city": "天水市",
            "district": "秦州区"
        }
    },
    {
        "id": "7264564521572762639",
        "title": "公共厕所",
        "address": "甘肃省天水市甘谷县冀城中路与富强中路交叉口东北方向448米左右",
        "tel": "",
        "category": "基础设施:公共设施:公共厕所",
        "type": 0,
        "location": {
            "lat": 34.755007,
            "lng": 105.344161
        },
        "ad_info": {
            "adcode": 620523,
            "province": "甘肃省",
            "city": "天水市",
            "district": "甘谷县"
        }
    },
    {
        "id": "1117817494642406426",
        "title": "公共厕所",
        "address": "甘肃省天水市甘谷县康庄中路与康庄西路交叉口正西方向83米左右",
        "tel": "",
        "category": "基础设施:公共设施:公共厕所",
        "type": 0,
        "location": {
            "lat": 34.748039,
            "lng": 105.330788
        },
        "ad_info": {
            "adcode": 620523,
            "province": "甘肃省",
            "city": "天水市",
            "district": "甘谷县"
        }
    },
    {
        "id": "2430413475917572379",
        "title": "公共厕所",
        "address": "甘肃省天水市麦积区渭河大桥与牛北公路交叉口正西方向499米左右",
        "tel": "",
        "category": "基础设施:公共设施:公共厕所",
        "type": 0,
        "location": {
            "lat": 34.517348,
            "lng": 106.346558
        },
        "ad_info": {
            "adcode": 620503,
            "province": "甘肃省",
            "city": "天水市",
            "district": "麦积区"
        }
    },
    {
        "id": "9035597778708445987",
        "title": "公共厕所",
        "address": "甘肃省天水市清水县中国邮政(土门邮政代办所)北侧200米",
        "tel": "",
        "category": "基础设施:公共设施:公共厕所",
        "type": 0,
        "location": {
            "lat": 34.771678,
            "lng": 105.877897
        },
        "ad_info": {
            "adcode": 620521,
            "province": "甘肃省",
            "city": "天水市",
            "district": "清水县"
        }
    },
    {
        "id": "6998856084802664398",
        "title": "男洗手间",
        "address": "甘肃省天水市秦州区大众路官泉1号天水兰天城市广场F4",
        "tel": "",
        "category": "基础设施:公共设施:女洗手间",
        "type": 0,
        "location": {
            "lat": 34.575724,
            "lng": 105.722332
        },
        "ad_info": {
            "adcode": 620502,
            "province": "甘肃省",
            "city": "天水市",
            "district": "秦州区"
        }
    },
    {
        "id": "9141205922862746996",
        "title": "公共厕所",
        "address": "甘肃省天水市秦州区新华路与红桥交叉口正北方向107米左右",
        "tel": "",
        "category": "基础设施:公共设施:公共厕所",
        "type": 0,
        "location": {
            "lat": 34.577608,
            "lng": 105.740906
        },
        "ad_info": {
            "adcode": 620502,
            "province": "甘肃省",
            "city": "天水市",
            "district": "秦州区"
        }
    },
    {
        "id": "18202572239369012054",
        "title": "公共厕所",
        "address": "甘肃省天水市秦安县南河西街与滨河南路交叉口东南方向110米左右",
        "tel": "",
        "category": "基础设施:公共设施:公共厕所",
        "type": 0,
        "location": {
            "lat": 34.848912,
            "lng": 105.664251
        },
        "ad_info": {
            "adcode": 620522,
            "province": "甘肃省",
            "city": "天水市",
            "district": "秦安县"
        }
    },
    {
        "id": "11023246255010269152",
        "title": "公共厕所",
        "address": "甘肃省天水市秦州区南郭寺路与羲皇大道西路交叉口东南方向821米左右",
        "tel": "",
        "category": "基础设施:公共设施:公共厕所",
        "type": 0,
        "location": {
            "lat": 34.563299,
            "lng": 105.747746
        },
        "ad_info": {
            "adcode": 620502,
            "province": "甘肃省",
            "city": "天水市",
            "district": "秦州区"
        }
    },
    {
        "id": "14120740849842493948",
        "title": "公共卫生间",
        "address": "甘肃省天水市麦积区渭河大桥与牛北公路交叉口正西方向534米左右",
        "tel": "",
        "category": "基础设施:公共设施:公共厕所",
        "type": 0,
        "location": {
            "lat": 34.517579,
            "lng": 106.346197
        },
        "ad_info": {
            "adcode": 620503,
            "province": "甘肃省",
            "city": "天水市",
            "district": "麦积区"
        }
    },
    {
        "id": "17227997586734965976",
        "title": "洗手间",
        "address": "甘肃省天水市麦积区埠北路与成纪大道东路交叉口正东方向68米左右",
        "tel": "",
        "category": "基础设施:公共设施:公共厕所",
        "type": 0,
        "location": {
            "lat": 34.562399,
            "lng": 105.898372
        },
        "ad_info": {
            "adcode": 620503,
            "province": "甘肃省",
            "city": "天水市",
            "district": "麦积区"
        }
    },
    {
        "id": "17454067525218074975",
        "title": "公共场所",
        "address": "甘肃省天水市秦州区师院路与羲皇大道西路交叉口东北方向35米左右",
        "tel": "",
        "category": "基础设施:公共设施:公共厕所",
        "type": 0,
        "location": {
            "lat": 34.567088,
            "lng": 105.70329
        },
        "ad_info": {
            "adcode": 620502,
            "province": "甘肃省",
            "city": "天水市",
            "district": "秦州区"
        }
    },
    {
        "id": "10824811701734868894",
        "title": "桃花坪停车区公共厕所",
        "address": "甘肃省天水市麦积区G30连霍高速与桃花坪停车区交叉口南160米",
        "tel": "",
        "category": "基础设施:公共设施:公共厕所",
        "type": 0,
        "location": {
            "lat": 34.339936,
            "lng": 106.620496
        },
        "ad_info": {
            "adcode": 620503,
            "province": "甘肃省",
            "city": "天水市",
            "district": "麦积区"
        }
    },
    {
        "id": "8783579191730380703",
        "title": "公共厕所",
        "address": "甘肃省天水市秦州区万达路与岷山经三路交叉口东北方向1034米左右",
        "tel": "",
        "category": "基础设施:公共设施:公共厕所",
        "type": 0,
        "location": {
            "lat": 34.590591,
            "lng": 105.758047
        },
        "ad_info": {
            "adcode": 620502,
            "province": "甘肃省",
            "city": "天水市",
            "district": "秦州区"
        }
    },
    {
        "id": "17409070082667074128",
        "title": "公共厕所",
        "address": "甘肃省天水市甘谷县杨赵路与G30连霍高速出口交叉口南240米",
        "tel": "",
        "category": "基础设施:公共设施:公共厕所",
        "type": 0,
        "location": {
            "lat": 34.740305,
            "lng": 105.302434
        },
        "ad_info": {
            "adcode": 620523,
            "province": "甘肃省",
            "city": "天水市",
            "district": "甘谷县"
        }
    },
    {
        "id": "13835522927124026334",
        "title": "公共厕所",
        "address": "甘肃省天水市麦积区劲道鲜面条店西南侧210米",
        "tel": "",
        "category": "基础设施:公共设施:公共厕所",
        "type": 0,
        "location": {
            "lat": 34.531857,
            "lng": 106.157365
        },
        "ad_info": {
            "adcode": 620503,
            "province": "甘肃省",
            "city": "天水市",
            "district": "麦积区"
        }
    },
    {
        "id": "13852320055622826626",
        "title": "公共厕所",
        "address": "甘肃省天水市秦安县南河南路与文昌路交叉口西北方向29米左右",
        "tel": "",
        "category": "基础设施:公共设施:公共厕所",
        "type": 0,
        "location": {
            "lat": 34.847845,
            "lng": 105.666781
        },
        "ad_info": {
            "adcode": 620522,
            "province": "甘肃省",
            "city": "天水市",
            "district": "秦安县"
        }
    },
    {
        "id": "12743023966580590128",
        "title": "无障碍公共厕所",
        "address": "甘肃省天水市麦积区华阳路与成纪大道东路交叉口正北方向146米左右",
        "tel": "",
        "category": "基础设施:公共设施:公共厕所",
        "type": 0,
        "location": {
            "lat": 34.561325,
            "lng": 105.90372
        },
        "ad_info": {
            "adcode": 620503,
            "province": "甘肃省",
            "city": "天水市",
            "district": "麦积区"
        }
    },
    {
        "id": "17504231001599017039",
        "title": "男洗手间",
        "address": "甘肃省天水市秦州区大众路官泉1号天水兰天城市广场F4",
        "tel": "",
        "category": "基础设施:公共设施:男洗手间",
        "type": 0,
        "location": {
            "lat": 34.575723,
            "lng": 105.722388
        },
        "ad_info": {
            "adcode": 620502,
            "province": "甘肃省",
            "city": "天水市",
            "district": "秦州区"
        }
    },
    {
        "id": "10371402631612366806",
        "title": "公共厕所",
        "address": "甘肃省天水市清水县文昌路与轩辕大道交叉口西北方向122米左右",
        "tel": "",
        "category": "基础设施:公共设施:公共厕所",
        "type": 0,
        "location": {
            "lat": 34.756462,
            "lng": 106.143984
        },
        "ad_info": {
            "adcode": 620521,
            "province": "甘肃省",
            "city": "天水市",
            "district": "清水县"
        }
    },
    {
        "id": "10023777795563825878",
        "title": "公共厕所",
        "address": "甘肃省天水市秦州区秦州农村合作银行邓家门村便民金融服务点东南侧80米",
        "tel": "",
        "category": "基础设施:公共设施:公共厕所",
        "type": 0,
        "location": {
            "lat": 34.457535,
            "lng": 105.517237
        },
        "ad_info": {
            "adcode": 620502,
            "province": "甘肃省",
            "city": "天水市",
            "district": "秦州区"
        }
    },
    {
        "id": "7264564521572762639",
        "title": "公共厕所",
        "address": "甘肃省天水市甘谷县冀城中路与富强中路交叉口东北方向448米左右",
        "tel": "",
        "category": "基础设施:公共设施:公共厕所",
        "type": 0,
        "location": {
            "lat": 34.755007,
            "lng": 105.344161
        },
        "ad_info": {
            "adcode": 620523,
            "province": "甘肃省",
            "city": "天水市",
            "district": "甘谷县"
        }
    },
    {
        "id": "1117817494642406426",
        "title": "公共厕所",
        "address": "甘肃省天水市甘谷县康庄中路与康庄西路交叉口正西方向83米左右",
        "tel": "",
        "category": "基础设施:公共设施:公共厕所",
        "type": 0,
        "location": {
            "lat": 34.748039,
            "lng": 105.330788
        },
        "ad_info": {
            "adcode": 620523,
            "province": "甘肃省",
            "city": "天水市",
            "district": "甘谷县"
        }
    },
    {
        "id": "2430413475917572379",
        "title": "公共厕所",
        "address": "甘肃省天水市麦积区渭河大桥与牛北公路交叉口正西方向499米左右",
        "tel": "",
        "category": "基础设施:公共设施:公共厕所",
        "type": 0,
        "location": {
            "lat": 34.517348,
            "lng": 106.346558
        },
        "ad_info": {
            "adcode": 620503,
            "province": "甘肃省",
            "city": "天水市",
            "district": "麦积区"
        }
    },
    {
        "id": "9035597778708445987",
        "title": "公共厕所",
        "address": "甘肃省天水市清水县中国邮政(土门邮政代办所)北侧200米",
        "tel": "",
        "category": "基础设施:公共设施:公共厕所",
        "type": 0,
        "location": {
            "lat": 34.771678,
            "lng": 105.877897
        },
        "ad_info": {
            "adcode": 620521,
            "province": "甘肃省",
            "city": "天水市",
            "district": "清水县"
        }
    },
    {
        "id": "6998856084802664398",
        "title": "男洗手间",
        "address": "甘肃省天水市秦州区大众路官泉1号天水兰天城市广场F4",
        "tel": "",
        "category": "基础设施:公共设施:女洗手间",
        "type": 0,
        "location": {
            "lat": 34.575724,
            "lng": 105.722332
        },
        "ad_info": {
            "adcode": 620502,
            "province": "甘肃省",
            "city": "天水市",
            "district": "秦州区"
        }
    },
    {
        "id": "9141205922862746996",
        "title": "公共厕所",
        "address": "甘肃省天水市秦州区新华路与红桥交叉口正北方向107米左右",
        "tel": "",
        "category": "基础设施:公共设施:公共厕所",
        "type": 0,
        "location": {
            "lat": 34.577608,
            "lng": 105.740906
        },
        "ad_info": {
            "adcode": 620502,
            "province": "甘肃省",
            "city": "天水市",
            "district": "秦州区"
        }
    },
    {
        "id": "18202572239369012054",
        "title": "公共厕所",
        "address": "甘肃省天水市秦安县南河西街与滨河南路交叉口东南方向110米左右",
        "tel": "",
        "category": "基础设施:公共设施:公共厕所",
        "type": 0,
        "location": {
            "lat": 34.848912,
            "lng": 105.664251
        },
        "ad_info": {
            "adcode": 620522,
            "province": "甘肃省",
            "city": "天水市",
            "district": "秦安县"
        }
    },
    {
        "id": "11023246255010269152",
        "title": "公共厕所",
        "address": "甘肃省天水市秦州区南郭寺路与羲皇大道西路交叉口东南方向821米左右",
        "tel": "",
        "category": "基础设施:公共设施:公共厕所",
        "type": 0,
        "location": {
            "lat": 34.563299,
            "lng": 105.747746
        },
        "ad_info": {
            "adcode": 620502,
            "province": "甘肃省",
            "city": "天水市",
            "district": "秦州区"
        }
    },
    {
        "id": "14120740849842493948",
        "title": "公共卫生间",
        "address": "甘肃省天水市麦积区渭河大桥与牛北公路交叉口正西方向534米左右",
        "tel": "",
        "category": "基础设施:公共设施:公共厕所",
        "type": 0,
        "location": {
            "lat": 34.517579,
            "lng": 106.346197
        },
        "ad_info": {
            "adcode": 620503,
            "province": "甘肃省",
            "city": "天水市",
            "district": "麦积区"
        }
    },
    {
        "id": "17227997586734965976",
        "title": "洗手间",
        "address": "甘肃省天水市麦积区埠北路与成纪大道东路交叉口正东方向68米左右",
        "tel": "",
        "category": "基础设施:公共设施:公共厕所",
        "type": 0,
        "location": {
            "lat": 34.562399,
            "lng": 105.898372
        },
        "ad_info": {
            "adcode": 620503,
            "province": "甘肃省",
            "city": "天水市",
            "district": "麦积区"
        }
    },
    {
        "id": "17454067525218074975",
        "title": "公共场所",
        "address": "甘肃省天水市秦州区师院路与羲皇大道西路交叉口东北方向35米左右",
        "tel": "",
        "category": "基础设施:公共设施:公共厕所",
        "type": 0,
        "location": {
            "lat": 34.567088,
            "lng": 105.70329
        },
        "ad_info": {
            "adcode": 620502,
            "province": "甘肃省",
            "city": "天水市",
            "district": "秦州区"
        }
    },
    {
        "id": "10824811701734868894",
        "title": "桃花坪停车区公共厕所",
        "address": "甘肃省天水市麦积区G30连霍高速与桃花坪停车区交叉口南160米",
        "tel": "",
        "category": "基础设施:公共设施:公共厕所",
        "type": 0,
        "location": {
            "lat": 34.339936,
            "lng": 106.620496
        },
        "ad_info": {
            "adcode": 620503,
            "province": "甘肃省",
            "city": "天水市",
            "district": "麦积区"
        }
    },
    {
        "id": "8783579191730380703",
        "title": "公共厕所",
        "address": "甘肃省天水市秦州区万达路与岷山经三路交叉口东北方向1034米左右",
        "tel": "",
        "category": "基础设施:公共设施:公共厕所",
        "type": 0,
        "location": {
            "lat": 34.590591,
            "lng": 105.758047
        },
        "ad_info": {
            "adcode": 620502,
            "province": "甘肃省",
            "city": "天水市",
            "district": "秦州区"
        }
    },
    {
        "id": "17409070082667074128",
        "title": "公共厕所",
        "address": "甘肃省天水市甘谷县杨赵路与G30连霍高速出口交叉口南240米",
        "tel": "",
        "category": "基础设施:公共设施:公共厕所",
        "type": 0,
        "location": {
            "lat": 34.740305,
            "lng": 105.302434
        },
        "ad_info": {
            "adcode": 620523,
            "province": "甘肃省",
            "city": "天水市",
            "district": "甘谷县"
        }
    },
    {
        "id": "13835522927124026334",
        "title": "公共厕所",
        "address": "甘肃省天水市麦积区劲道鲜面条店西南侧210米",
        "tel": "",
        "category": "基础设施:公共设施:公共厕所",
        "type": 0,
        "location": {
            "lat": 34.531857,
            "lng": 106.157365
        },
        "ad_info": {
            "adcode": 620503,
            "province": "甘肃省",
            "city": "天水市",
            "district": "麦积区"
        }
    },
    {
        "id": "13852320055622826626",
        "title": "公共厕所",
        "address": "甘肃省天水市秦安县南河南路与文昌路交叉口西北方向29米左右",
        "tel": "",
        "category": "基础设施:公共设施:公共厕所",
        "type": 0,
        "location": {
            "lat": 34.847845,
            "lng": 105.666781
        },
        "ad_info": {
            "adcode": 620522,
            "province": "甘肃省",
            "city": "天水市",
            "district": "秦安县"
        }
    },
    {
        "id": "12743023966580590128",
        "title": "无障碍公共厕所",
        "address": "甘肃省天水市麦积区华阳路与成纪大道东路交叉口正北方向146米左右",
        "tel": "",
        "category": "基础设施:公共设施:公共厕所",
        "type": 0,
        "location": {
            "lat": 34.561325,
            "lng": 105.90372
        },
        "ad_info": {
            "adcode": 620503,
            "province": "甘肃省",
            "city": "天水市",
            "district": "麦积区"
        }
    },
    {
        "id": "17504231001599017039",
        "title": "男洗手间",
        "address": "甘肃省天水市秦州区大众路官泉1号天水兰天城市广场F4",
        "tel": "",
        "category": "基础设施:公共设施:男洗手间",
        "type": 0,
        "location": {
            "lat": 34.575723,
            "lng": 105.722388
        },
        "ad_info": {
            "adcode": 620502,
            "province": "甘肃省",
            "city": "天水市",
            "district": "秦州区"
        }
    },
    {
        "id": "10371402631612366806",
        "title": "公共厕所",
        "address": "甘肃省天水市清水县文昌路与轩辕大道交叉口西北方向122米左右",
        "tel": "",
        "category": "基础设施:公共设施:公共厕所",
        "type": 0,
        "location": {
            "lat": 34.756462,
            "lng": 106.143984
        },
        "ad_info": {
            "adcode": 620521,
            "province": "甘肃省",
            "city": "天水市",
            "district": "清水县"
        }
    },
    {
        "id": "10023777795563825878",
        "title": "公共厕所",
        "address": "甘肃省天水市秦州区秦州农村合作银行邓家门村便民金融服务点东南侧80米",
        "tel": "",
        "category": "基础设施:公共设施:公共厕所",
        "type": 0,
        "location": {
            "lat": 34.457535,
            "lng": 105.517237
        },
        "ad_info": {
            "adcode": 620502,
            "province": "甘肃省",
            "city": "天水市",
            "district": "秦州区"
        }
    },
    {
        "id": "7264564521572762639",
        "title": "公共厕所",
        "address": "甘肃省天水市甘谷县冀城中路与富强中路交叉口东北方向448米左右",
        "tel": "",
        "category": "基础设施:公共设施:公共厕所",
        "type": 0,
        "location": {
            "lat": 34.755007,
            "lng": 105.344161
        },
        "ad_info": {
            "adcode": 620523,
            "province": "甘肃省",
            "city": "天水市",
            "district": "甘谷县"
        }
    },
    {
        "id": "1117817494642406426",
        "title": "公共厕所",
        "address": "甘肃省天水市甘谷县康庄中路与康庄西路交叉口正西方向83米左右",
        "tel": "",
        "category": "基础设施:公共设施:公共厕所",
        "type": 0,
        "location": {
            "lat": 34.748039,
            "lng": 105.330788
        },
        "ad_info": {
            "adcode": 620523,
            "province": "甘肃省",
            "city": "天水市",
            "district": "甘谷县"
        }
    },
    {
        "id": "2430413475917572379",
        "title": "公共厕所",
        "address": "甘肃省天水市麦积区渭河大桥与牛北公路交叉口正西方向499米左右",
        "tel": "",
        "category": "基础设施:公共设施:公共厕所",
        "type": 0,
        "location": {
            "lat": 34.517348,
            "lng": 106.346558
        },
        "ad_info": {
            "adcode": 620503,
            "province": "甘肃省",
            "city": "天水市",
            "district": "麦积区"
        }
    },
    {
        "id": "9035597778708445987",
        "title": "公共厕所",
        "address": "甘肃省天水市清水县中国邮政(土门邮政代办所)北侧200米",
        "tel": "",
        "category": "基础设施:公共设施:公共厕所",
        "type": 0,
        "location": {
            "lat": 34.771678,
            "lng": 105.877897
        },
        "ad_info": {
            "adcode": 620521,
            "province": "甘肃省",
            "city": "天水市",
            "district": "清水县"
        }
    },
    {
        "id": "6998856084802664398",
        "title": "男洗手间",
        "address": "甘肃省天水市秦州区大众路官泉1号天水兰天城市广场F4",
        "tel": "",
        "category": "基础设施:公共设施:女洗手间",
        "type": 0,
        "location": {
            "lat": 34.575724,
            "lng": 105.722332
        },
        "ad_info": {
            "adcode": 620502,
            "province": "甘肃省",
            "city": "天水市",
            "district": "秦州区"
        }
    },
    {
        "id": "9141205922862746996",
        "title": "公共厕所",
        "address": "甘肃省天水市秦州区新华路与红桥交叉口正北方向107米左右",
        "tel": "",
        "category": "基础设施:公共设施:公共厕所",
        "type": 0,
        "location": {
            "lat": 34.577608,
            "lng": 105.740906
        },
        "ad_info": {
            "adcode": 620502,
            "province": "甘肃省",
            "city": "天水市",
            "district": "秦州区"
        }
    },
    {
        "id": "18202572239369012054",
        "title": "公共厕所",
        "address": "甘肃省天水市秦安县南河西街与滨河南路交叉口东南方向110米左右",
        "tel": "",
        "category": "基础设施:公共设施:公共厕所",
        "type": 0,
        "location": {
            "lat": 34.848912,
            "lng": 105.664251
        },
        "ad_info": {
            "adcode": 620522,
            "province": "甘肃省",
            "city": "天水市",
            "district": "秦安县"
        }
    },
    {
        "id": "11023246255010269152",
        "title": "公共厕所",
        "address": "甘肃省天水市秦州区南郭寺路与羲皇大道西路交叉口东南方向821米左右",
        "tel": "",
        "category": "基础设施:公共设施:公共厕所",
        "type": 0,
        "location": {
            "lat": 34.563299,
            "lng": 105.747746
        },
        "ad_info": {
            "adcode": 620502,
            "province": "甘肃省",
            "city": "天水市",
            "district": "秦州区"
        }
    },
    {
        "id": "14120740849842493948",
        "title": "公共卫生间",
        "address": "甘肃省天水市麦积区渭河大桥与牛北公路交叉口正西方向534米左右",
        "tel": "",
        "category": "基础设施:公共设施:公共厕所",
        "type": 0,
        "location": {
            "lat": 34.517579,
            "lng": 106.346197
        },
        "ad_info": {
            "adcode": 620503,
            "province": "甘肃省",
            "city": "天水市",
            "district": "麦积区"
        }
    },
    {
        "id": "17227997586734965976",
        "title": "洗手间",
        "address": "甘肃省天水市麦积区埠北路与成纪大道东路交叉口正东方向68米左右",
        "tel": "",
        "category": "基础设施:公共设施:公共厕所",
        "type": 0,
        "location": {
            "lat": 34.562399,
            "lng": 105.898372
        },
        "ad_info": {
            "adcode": 620503,
            "province": "甘肃省",
            "city": "天水市",
            "district": "麦积区"
        }
    },
    {
        "id": "17454067525218074975",
        "title": "公共场所",
        "address": "甘肃省天水市秦州区师院路与羲皇大道西路交叉口东北方向35米左右",
        "tel": "",
        "category": "基础设施:公共设施:公共厕所",
        "type": 0,
        "location": {
            "lat": 34.567088,
            "lng": 105.70329
        },
        "ad_info": {
            "adcode": 620502,
            "province": "甘肃省",
            "city": "天水市",
            "district": "秦州区"
        }
    },
    {
        "id": "10824811701734868894",
        "title": "桃花坪停车区公共厕所",
        "address": "甘肃省天水市麦积区G30连霍高速与桃花坪停车区交叉口南160米",
        "tel": "",
        "category": "基础设施:公共设施:公共厕所",
        "type": 0,
        "location": {
            "lat": 34.339936,
            "lng": 106.620496
        },
        "ad_info": {
            "adcode": 620503,
            "province": "甘肃省",
            "city": "天水市",
            "district": "麦积区"
        }
    },
    {
        "id": "8783579191730380703",
        "title": "公共厕所",
        "address": "甘肃省天水市秦州区万达路与岷山经三路交叉口东北方向1034米左右",
        "tel": "",
        "category": "基础设施:公共设施:公共厕所",
        "type": 0,
        "location": {
            "lat": 34.590591,
            "lng": 105.758047
        },
        "ad_info": {
            "adcode": 620502,
            "province": "甘肃省",
            "city": "天水市",
            "district": "秦州区"
        }
    },
    {
        "id": "17409070082667074128",
        "title": "公共厕所",
        "address": "甘肃省天水市甘谷县杨赵路与G30连霍高速出口交叉口南240米",
        "tel": "",
        "category": "基础设施:公共设施:公共厕所",
        "type": 0,
        "location": {
            "lat": 34.740305,
            "lng": 105.302434
        },
        "ad_info": {
            "adcode": 620523,
            "province": "甘肃省",
            "city": "天水市",
            "district": "甘谷县"
        }
    },
    {
        "id": "13835522927124026334",
        "title": "公共厕所",
        "address": "甘肃省天水市麦积区劲道鲜面条店西南侧210米",
        "tel": "",
        "category": "基础设施:公共设施:公共厕所",
        "type": 0,
        "location": {
            "lat": 34.531857,
            "lng": 106.157365
        },
        "ad_info": {
            "adcode": 620503,
            "province": "甘肃省",
            "city": "天水市",
            "district": "麦积区"
        }
    },
    {
        "id": "13852320055622826626",
        "title": "公共厕所",
        "address": "甘肃省天水市秦安县南河南路与文昌路交叉口西北方向29米左右",
        "tel": "",
        "category": "基础设施:公共设施:公共厕所",
        "type": 0,
        "location": {
            "lat": 34.847845,
            "lng": 105.666781
        },
        "ad_info": {
            "adcode": 620522,
            "province": "甘肃省",
            "city": "天水市",
            "district": "秦安县"
        }
    },
    {
        "id": "12743023966580590128",
        "title": "无障碍公共厕所",
        "address": "甘肃省天水市麦积区华阳路与成纪大道东路交叉口正北方向146米左右",
        "tel": "",
        "category": "基础设施:公共设施:公共厕所",
        "type": 0,
        "location": {
            "lat": 34.561325,
            "lng": 105.90372
        },
        "ad_info": {
            "adcode": 620503,
            "province": "甘肃省",
            "city": "天水市",
            "district": "麦积区"
        }
    },
    {
        "id": "17504231001599017039",
        "title": "男洗手间",
        "address": "甘肃省天水市秦州区大众路官泉1号天水兰天城市广场F4",
        "tel": "",
        "category": "基础设施:公共设施:男洗手间",
        "type": 0,
        "location": {
            "lat": 34.575723,
            "lng": 105.722388
        },
        "ad_info": {
            "adcode": 620502,
            "province": "甘肃省",
            "city": "天水市",
            "district": "秦州区"
        }
    },
    {
        "id": "10371402631612366806",
        "title": "公共厕所",
        "address": "甘肃省天水市清水县文昌路与轩辕大道交叉口西北方向122米左右",
        "tel": "",
        "category": "基础设施:公共设施:公共厕所",
        "type": 0,
        "location": {
            "lat": 34.756462,
            "lng": 106.143984
        },
        "ad_info": {
            "adcode": 620521,
            "province": "甘肃省",
            "city": "天水市",
            "district": "清水县"
        }
    },
    {
        "id": "10023777795563825878",
        "title": "公共厕所",
        "address": "甘肃省天水市秦州区秦州农村合作银行邓家门村便民金融服务点东南侧80米",
        "tel": "",
        "category": "基础设施:公共设施:公共厕所",
        "type": 0,
        "location": {
            "lat": 34.457535,
            "lng": 105.517237
        },
        "ad_info": {
            "adcode": 620502,
            "province": "甘肃省",
            "city": "天水市",
            "district": "秦州区"
        }
    },
    {
        "id": "7264564521572762639",
        "title": "公共厕所",
        "address": "甘肃省天水市甘谷县冀城中路与富强中路交叉口东北方向448米左右",
        "tel": "",
        "category": "基础设施:公共设施:公共厕所",
        "type": 0,
        "location": {
            "lat": 34.755007,
            "lng": 105.344161
        },
        "ad_info": {
            "adcode": 620523,
            "province": "甘肃省",
            "city": "天水市",
            "district": "甘谷县"
        }
    },
    {
        "id": "1117817494642406426",
        "title": "公共厕所",
        "address": "甘肃省天水市甘谷县康庄中路与康庄西路交叉口正西方向83米左右",
        "tel": "",
        "category": "基础设施:公共设施:公共厕所",
        "type": 0,
        "location": {
            "lat": 34.748039,
            "lng": 105.330788
        },
        "ad_info": {
            "adcode": 620523,
            "province": "甘肃省",
            "city": "天水市",
            "district": "甘谷县"
        }
    },
    {
        "id": "2430413475917572379",
        "title": "公共厕所",
        "address": "甘肃省天水市麦积区渭河大桥与牛北公路交叉口正西方向499米左右",
        "tel": "",
        "category": "基础设施:公共设施:公共厕所",
        "type": 0,
        "location": {
            "lat": 34.517348,
            "lng": 106.346558
        },
        "ad_info": {
            "adcode": 620503,
            "province": "甘肃省",
            "city": "天水市",
            "district": "麦积区"
        }
    },
    {
        "id": "9035597778708445987",
        "title": "公共厕所",
        "address": "甘肃省天水市清水县中国邮政(土门邮政代办所)北侧200米",
        "tel": "",
        "category": "基础设施:公共设施:公共厕所",
        "type": 0,
        "location": {
            "lat": 34.771678,
            "lng": 105.877897
        },
        "ad_info": {
            "adcode": 620521,
            "province": "甘肃省",
            "city": "天水市",
            "district": "清水县"
        }
    },
    {
        "id": "6998856084802664398",
        "title": "男洗手间",
        "address": "甘肃省天水市秦州区大众路官泉1号天水兰天城市广场F4",
        "tel": "",
        "category": "基础设施:公共设施:女洗手间",
        "type": 0,
        "location": {
            "lat": 34.575724,
            "lng": 105.722332
        },
        "ad_info": {
            "adcode": 620502,
            "province": "甘肃省",
            "city": "天水市",
            "district": "秦州区"
        }
    },
    {
        "id": "9141205922862746996",
        "title": "公共厕所",
        "address": "甘肃省天水市秦州区新华路与红桥交叉口正北方向107米左右",
        "tel": "",
        "category": "基础设施:公共设施:公共厕所",
        "type": 0,
        "location": {
            "lat": 34.577608,
            "lng": 105.740906
        },
        "ad_info": {
            "adcode": 620502,
            "province": "甘肃省",
            "city": "天水市",
            "district": "秦州区"
        }
    },
    {
        "id": "18202572239369012054",
        "title": "公共厕所",
        "address": "甘肃省天水市秦安县南河西街与滨河南路交叉口东南方向110米左右",
        "tel": "",
        "category": "基础设施:公共设施:公共厕所",
        "type": 0,
        "location": {
            "lat": 34.848912,
            "lng": 105.664251
        },
        "ad_info": {
            "adcode": 620522,
            "province": "甘肃省",
            "city": "天水市",
            "district": "秦安县"
        }
    },
    {
        "id": "11023246255010269152",
        "title": "公共厕所",
        "address": "甘肃省天水市秦州区南郭寺路与羲皇大道西路交叉口东南方向821米左右",
        "tel": "",
        "category": "基础设施:公共设施:公共厕所",
        "type": 0,
        "location": {
            "lat": 34.563299,
            "lng": 105.747746
        },
        "ad_info": {
            "adcode": 620502,
            "province": "甘肃省",
            "city": "天水市",
            "district": "秦州区"
        }
    },
    {
        "id": "14120740849842493948",
        "title": "公共卫生间",
        "address": "甘肃省天水市麦积区渭河大桥与牛北公路交叉口正西方向534米左右",
        "tel": "",
        "category": "基础设施:公共设施:公共厕所",
        "type": 0,
        "location": {
            "lat": 34.517579,
            "lng": 106.346197
        },
        "ad_info": {
            "adcode": 620503,
            "province": "甘肃省",
            "city": "天水市",
            "district": "麦积区"
        }
    },
    {
        "id": "17227997586734965976",
        "title": "洗手间",
        "address": "甘肃省天水市麦积区埠北路与成纪大道东路交叉口正东方向68米左右",
        "tel": "",
        "category": "基础设施:公共设施:公共厕所",
        "type": 0,
        "location": {
            "lat": 34.562399,
            "lng": 105.898372
        },
        "ad_info": {
            "adcode": 620503,
            "province": "甘肃省",
            "city": "天水市",
            "district": "麦积区"
        }
    },
    {
        "id": "17454067525218074975",
        "title": "公共场所",
        "address": "甘肃省天水市秦州区师院路与羲皇大道西路交叉口东北方向35米左右",
        "tel": "",
        "category": "基础设施:公共设施:公共厕所",
        "type": 0,
        "location": {
            "lat": 34.567088,
            "lng": 105.70329
        },
        "ad_info": {
            "adcode": 620502,
            "province": "甘肃省",
            "city": "天水市",
            "district": "秦州区"
        }
    },
    {
        "id": "10824811701734868894",
        "title": "桃花坪停车区公共厕所",
        "address": "甘肃省天水市麦积区G30连霍高速与桃花坪停车区交叉口南160米",
        "tel": "",
        "category": "基础设施:公共设施:公共厕所",
        "type": 0,
        "location": {
            "lat": 34.339936,
            "lng": 106.620496
        },
        "ad_info": {
            "adcode": 620503,
            "province": "甘肃省",
            "city": "天水市",
            "district": "麦积区"
        }
    },
    {
        "id": "8783579191730380703",
        "title": "公共厕所",
        "address": "甘肃省天水市秦州区万达路与岷山经三路交叉口东北方向1034米左右",
        "tel": "",
        "category": "基础设施:公共设施:公共厕所",
        "type": 0,
        "location": {
            "lat": 34.590591,
            "lng": 105.758047
        },
        "ad_info": {
            "adcode": 620502,
            "province": "甘肃省",
            "city": "天水市",
            "district": "秦州区"
        }
    },
    {
        "id": "17409070082667074128",
        "title": "公共厕所",
        "address": "甘肃省天水市甘谷县杨赵路与G30连霍高速出口交叉口南240米",
        "tel": "",
        "category": "基础设施:公共设施:公共厕所",
        "type": 0,
        "location": {
            "lat": 34.740305,
            "lng": 105.302434
        },
        "ad_info": {
            "adcode": 620523,
            "province": "甘肃省",
            "city": "天水市",
            "district": "甘谷县"
        }
    },
    {
        "id": "13835522927124026334",
        "title": "公共厕所",
        "address": "甘肃省天水市麦积区劲道鲜面条店西南侧210米",
        "tel": "",
        "category": "基础设施:公共设施:公共厕所",
        "type": 0,
        "location": {
            "lat": 34.531857,
            "lng": 106.157365
        },
        "ad_info": {
            "adcode": 620503,
            "province": "甘肃省",
            "city": "天水市",
            "district": "麦积区"
        }
    },
    {
        "id": "13852320055622826626",
        "title": "公共厕所",
        "address": "甘肃省天水市秦安县南河南路与文昌路交叉口西北方向29米左右",
        "tel": "",
        "category": "基础设施:公共设施:公共厕所",
        "type": 0,
        "location": {
            "lat": 34.847845,
            "lng": 105.666781
        },
        "ad_info": {
            "adcode": 620522,
            "province": "甘肃省",
            "city": "天水市",
            "district": "秦安县"
        }
    },
    {
        "id": "12743023966580590128",
        "title": "无障碍公共厕所",
        "address": "甘肃省天水市麦积区华阳路与成纪大道东路交叉口正北方向146米左右",
        "tel": "",
        "category": "基础设施:公共设施:公共厕所",
        "type": 0,
        "location": {
            "lat": 34.561325,
            "lng": 105.90372
        },
        "ad_info": {
            "adcode": 620503,
            "province": "甘肃省",
            "city": "天水市",
            "district": "麦积区"
        }
    },
    {
        "id": "17504231001599017039",
        "title": "男洗手间",
        "address": "甘肃省天水市秦州区大众路官泉1号天水兰天城市广场F4",
        "tel": "",
        "category": "基础设施:公共设施:男洗手间",
        "type": 0,
        "location": {
            "lat": 34.575723,
            "lng": 105.722388
        },
        "ad_info": {
            "adcode": 620502,
            "province": "甘肃省",
            "city": "天水市",
            "district": "秦州区"
        }
    },
    {
        "id": "10371402631612366806",
        "title": "公共厕所",
        "address": "甘肃省天水市清水县文昌路与轩辕大道交叉口西北方向122米左右",
        "tel": "",
        "category": "基础设施:公共设施:公共厕所",
        "type": 0,
        "location": {
            "lat": 34.756462,
            "lng": 106.143984
        },
        "ad_info": {
            "adcode": 620521,
            "province": "甘肃省",
            "city": "天水市",
            "district": "清水县"
        }
    },
    {
        "id": "10023777795563825878",
        "title": "公共厕所",
        "address": "甘肃省天水市秦州区秦州农村合作银行邓家门村便民金融服务点东南侧80米",
        "tel": "",
        "category": "基础设施:公共设施:公共厕所",
        "type": 0,
        "location": {
            "lat": 34.457535,
            "lng": 105.517237
        },
        "ad_info": {
            "adcode": 620502,
            "province": "甘肃省",
            "city": "天水市",
            "district": "秦州区"
        }
    },
    {
        "id": "7264564521572762639",
        "title": "公共厕所",
        "address": "甘肃省天水市甘谷县冀城中路与富强中路交叉口东北方向448米左右",
        "tel": "",
        "category": "基础设施:公共设施:公共厕所",
        "type": 0,
        "location": {
            "lat": 34.755007,
            "lng": 105.344161
        },
        "ad_info": {
            "adcode": 620523,
            "province": "甘肃省",
            "city": "天水市",
            "district": "甘谷县"
        }
    },
    {
        "id": "1117817494642406426",
        "title": "公共厕所",
        "address": "甘肃省天水市甘谷县康庄中路与康庄西路交叉口正西方向83米左右",
        "tel": "",
        "category": "基础设施:公共设施:公共厕所",
        "type": 0,
        "location": {
            "lat": 34.748039,
            "lng": 105.330788
        },
        "ad_info": {
            "adcode": 620523,
            "province": "甘肃省",
            "city": "天水市",
            "district": "甘谷县"
        }
    },
    {
        "id": "2430413475917572379",
        "title": "公共厕所",
        "address": "甘肃省天水市麦积区渭河大桥与牛北公路交叉口正西方向499米左右",
        "tel": "",
        "category": "基础设施:公共设施:公共厕所",
        "type": 0,
        "location": {
            "lat": 34.517348,
            "lng": 106.346558
        },
        "ad_info": {
            "adcode": 620503,
            "province": "甘肃省",
            "city": "天水市",
            "district": "麦积区"
        }
    },
    {
        "id": "9035597778708445987",
        "title": "公共厕所",
        "address": "甘肃省天水市清水县中国邮政(土门邮政代办所)北侧200米",
        "tel": "",
        "category": "基础设施:公共设施:公共厕所",
        "type": 0,
        "location": {
            "lat": 34.771678,
            "lng": 105.877897
        },
        "ad_info": {
            "adcode": 620521,
            "province": "甘肃省",
            "city": "天水市",
            "district": "清水县"
        }
    },
    {
        "id": "6998856084802664398",
        "title": "男洗手间",
        "address": "甘肃省天水市秦州区大众路官泉1号天水兰天城市广场F4",
        "tel": "",
        "category": "基础设施:公共设施:女洗手间",
        "type": 0,
        "location": {
            "lat": 34.575724,
            "lng": 105.722332
        },
        "ad_info": {
            "adcode": 620502,
            "province": "甘肃省",
            "city": "天水市",
            "district": "秦州区"
        }
    },
    {
        "id": "9141205922862746996",
        "title": "公共厕所",
        "address": "甘肃省天水市秦州区新华路与红桥交叉口正北方向107米左右",
        "tel": "",
        "category": "基础设施:公共设施:公共厕所",
        "type": 0,
        "location": {
            "lat": 34.577608,
            "lng": 105.740906
        },
        "ad_info": {
            "adcode": 620502,
            "province": "甘肃省",
            "city": "天水市",
            "district": "秦州区"
        }
    },
    {
        "id": "18202572239369012054",
        "title": "公共厕所",
        "address": "甘肃省天水市秦安县南河西街与滨河南路交叉口东南方向110米左右",
        "tel": "",
        "category": "基础设施:公共设施:公共厕所",
        "type": 0,
        "location": {
            "lat": 34.848912,
            "lng": 105.664251
        },
        "ad_info": {
            "adcode": 620522,
            "province": "甘肃省",
            "city": "天水市",
            "district": "秦安县"
        }
    },
    {
        "id": "11023246255010269152",
        "title": "公共厕所",
        "address": "甘肃省天水市秦州区南郭寺路与羲皇大道西路交叉口东南方向821米左右",
        "tel": "",
        "category": "基础设施:公共设施:公共厕所",
        "type": 0,
        "location": {
            "lat": 34.563299,
            "lng": 105.747746
        },
        "ad_info": {
            "adcode": 620502,
            "province": "甘肃省",
            "city": "天水市",
            "district": "秦州区"
        }
    },
    {
        "id": "14120740849842493948",
        "title": "公共卫生间",
        "address": "甘肃省天水市麦积区渭河大桥与牛北公路交叉口正西方向534米左右",
        "tel": "",
        "category": "基础设施:公共设施:公共厕所",
        "type": 0,
        "location": {
            "lat": 34.517579,
            "lng": 106.346197
        },
        "ad_info": {
            "adcode": 620503,
            "province": "甘肃省",
            "city": "天水市",
            "district": "麦积区"
        }
    },
    {
        "id": "17227997586734965976",
        "title": "洗手间",
        "address": "甘肃省天水市麦积区埠北路与成纪大道东路交叉口正东方向68米左右",
        "tel": "",
        "category": "基础设施:公共设施:公共厕所",
        "type": 0,
        "location": {
            "lat": 34.562399,
            "lng": 105.898372
        },
        "ad_info": {
            "adcode": 620503,
            "province": "甘肃省",
            "city": "天水市",
            "district": "麦积区"
        }
    },
    {
        "id": "17454067525218074975",
        "title": "公共场所",
        "address": "甘肃省天水市秦州区师院路与羲皇大道西路交叉口东北方向35米左右",
        "tel": "",
        "category": "基础设施:公共设施:公共厕所",
        "type": 0,
        "location": {
            "lat": 34.567088,
            "lng": 105.70329
        },
        "ad_info": {
            "adcode": 620502,
            "province": "甘肃省",
            "city": "天水市",
            "district": "秦州区"
        }
    },
    {
        "id": "10824811701734868894",
        "title": "桃花坪停车区公共厕所",
        "address": "甘肃省天水市麦积区G30连霍高速与桃花坪停车区交叉口南160米",
        "tel": "",
        "category": "基础设施:公共设施:公共厕所",
        "type": 0,
        "location": {
            "lat": 34.339936,
            "lng": 106.620496
        },
        "ad_info": {
            "adcode": 620503,
            "province": "甘肃省",
            "city": "天水市",
            "district": "麦积区"
        }
    },
    {
        "id": "8783579191730380703",
        "title": "公共厕所",
        "address": "甘肃省天水市秦州区万达路与岷山经三路交叉口东北方向1034米左右",
        "tel": "",
        "category": "基础设施:公共设施:公共厕所",
        "type": 0,
        "location": {
            "lat": 34.590591,
            "lng": 105.758047
        },
        "ad_info": {
            "adcode": 620502,
            "province": "甘肃省",
            "city": "天水市",
            "district": "秦州区"
        }
    },
    {
        "id": "17409070082667074128",
        "title": "公共厕所",
        "address": "甘肃省天水市甘谷县杨赵路与G30连霍高速出口交叉口南240米",
        "tel": "",
        "category": "基础设施:公共设施:公共厕所",
        "type": 0,
        "location": {
            "lat": 34.740305,
            "lng": 105.302434
        },
        "ad_info": {
            "adcode": 620523,
            "province": "甘肃省",
            "city": "天水市",
            "district": "甘谷县"
        }
    },
    {
        "id": "13835522927124026334",
        "title": "公共厕所",
        "address": "甘肃省天水市麦积区劲道鲜面条店西南侧210米",
        "tel": "",
        "category": "基础设施:公共设施:公共厕所",
        "type": 0,
        "location": {
            "lat": 34.531857,
            "lng": 106.157365
        },
        "ad_info": {
            "adcode": 620503,
            "province": "甘肃省",
            "city": "天水市",
            "district": "麦积区"
        }
    },
    {
        "id": "13852320055622826626",
        "title": "公共厕所",
        "address": "甘肃省天水市秦安县南河南路与文昌路交叉口西北方向29米左右",
        "tel": "",
        "category": "基础设施:公共设施:公共厕所",
        "type": 0,
        "location": {
            "lat": 34.847845,
            "lng": 105.666781
        },
        "ad_info": {
            "adcode": 620522,
            "province": "甘肃省",
            "city": "天水市",
            "district": "秦安县"
        }
    },
    {
        "id": "12743023966580590128",
        "title": "无障碍公共厕所",
        "address": "甘肃省天水市麦积区华阳路与成纪大道东路交叉口正北方向146米左右",
        "tel": "",
        "category": "基础设施:公共设施:公共厕所",
        "type": 0,
        "location": {
            "lat": 34.561325,
            "lng": 105.90372
        },
        "ad_info": {
            "adcode": 620503,
            "province": "甘肃省",
            "city": "天水市",
            "district": "麦积区"
        }
    },
    {
        "id": "17504231001599017039",
        "title": "男洗手间",
        "address": "甘肃省天水市秦州区大众路官泉1号天水兰天城市广场F4",
        "tel": "",
        "category": "基础设施:公共设施:男洗手间",
        "type": 0,
        "location": {
            "lat": 34.575723,
            "lng": 105.722388
        },
        "ad_info": {
            "adcode": 620502,
            "province": "甘肃省",
            "city": "天水市",
            "district": "秦州区"
        }
    },
    {
        "id": "10371402631612366806",
        "title": "公共厕所",
        "address": "甘肃省天水市清水县文昌路与轩辕大道交叉口西北方向122米左右",
        "tel": "",
        "category": "基础设施:公共设施:公共厕所",
        "type": 0,
        "location": {
            "lat": 34.756462,
            "lng": 106.143984
        },
        "ad_info": {
            "adcode": 620521,
            "province": "甘肃省",
            "city": "天水市",
            "district": "清水县"
        }
    },
    {
        "id": "10023777795563825878",
        "title": "公共厕所",
        "address": "甘肃省天水市秦州区秦州农村合作银行邓家门村便民金融服务点东南侧80米",
        "tel": "",
        "category": "基础设施:公共设施:公共厕所",
        "type": 0,
        "location": {
            "lat": 34.457535,
            "lng": 105.517237
        },
        "ad_info": {
            "adcode": 620502,
            "province": "甘肃省",
            "city": "天水市",
            "district": "秦州区"
        }
    },
    {
        "id": "7264564521572762639",
        "title": "公共厕所",
        "address": "甘肃省天水市甘谷县冀城中路与富强中路交叉口东北方向448米左右",
        "tel": "",
        "category": "基础设施:公共设施:公共厕所",
        "type": 0,
        "location": {
            "lat": 34.755007,
            "lng": 105.344161
        },
        "ad_info": {
            "adcode": 620523,
            "province": "甘肃省",
            "city": "天水市",
            "district": "甘谷县"
        }
    },
    {
        "id": "1117817494642406426",
        "title": "公共厕所",
        "address": "甘肃省天水市甘谷县康庄中路与康庄西路交叉口正西方向83米左右",
        "tel": "",
        "category": "基础设施:公共设施:公共厕所",
        "type": 0,
        "location": {
            "lat": 34.748039,
            "lng": 105.330788
        },
        "ad_info": {
            "adcode": 620523,
            "province": "甘肃省",
            "city": "天水市",
            "district": "甘谷县"
        }
    },
    {
        "id": "2430413475917572379",
        "title": "公共厕所",
        "address": "甘肃省天水市麦积区渭河大桥与牛北公路交叉口正西方向499米左右",
        "tel": "",
        "category": "基础设施:公共设施:公共厕所",
        "type": 0,
        "location": {
            "lat": 34.517348,
            "lng": 106.346558
        },
        "ad_info": {
            "adcode": 620503,
            "province": "甘肃省",
            "city": "天水市",
            "district": "麦积区"
        }
    },
    {
        "id": "9035597778708445987",
        "title": "公共厕所",
        "address": "甘肃省天水市清水县中国邮政(土门邮政代办所)北侧200米",
        "tel": "",
        "category": "基础设施:公共设施:公共厕所",
        "type": 0,
        "location": {
            "lat": 34.771678,
            "lng": 105.877897
        },
        "ad_info": {
            "adcode": 620521,
            "province": "甘肃省",
            "city": "天水市",
            "district": "清水县"
        }
    },
    {
        "id": "6998856084802664398",
        "title": "男洗手间",
        "address": "甘肃省天水市秦州区大众路官泉1号天水兰天城市广场F4",
        "tel": "",
        "category": "基础设施:公共设施:女洗手间",
        "type": 0,
        "location": {
            "lat": 34.575724,
            "lng": 105.722332
        },
        "ad_info": {
            "adcode": 620502,
            "province": "甘肃省",
            "city": "天水市",
            "district": "秦州区"
        }
    },
    {
        "id": "9141205922862746996",
        "title": "公共厕所",
        "address": "甘肃省天水市秦州区新华路与红桥交叉口正北方向107米左右",
        "tel": "",
        "category": "基础设施:公共设施:公共厕所",
        "type": 0,
        "location": {
            "lat": 34.577608,
            "lng": 105.740906
        },
        "ad_info": {
            "adcode": 620502,
            "province": "甘肃省",
            "city": "天水市",
            "district": "秦州区"
        }
    },
    {
        "id": "18202572239369012054",
        "title": "公共厕所",
        "address": "甘肃省天水市秦安县南河西街与滨河南路交叉口东南方向110米左右",
        "tel": "",
        "category": "基础设施:公共设施:公共厕所",
        "type": 0,
        "location": {
            "lat": 34.848912,
            "lng": 105.664251
        },
        "ad_info": {
            "adcode": 620522,
            "province": "甘肃省",
            "city": "天水市",
            "district": "秦安县"
        }
    },
    {
        "id": "11023246255010269152",
        "title": "公共厕所",
        "address": "甘肃省天水市秦州区南郭寺路与羲皇大道西路交叉口东南方向821米左右",
        "tel": "",
        "category": "基础设施:公共设施:公共厕所",
        "type": 0,
        "location": {
            "lat": 34.563299,
            "lng": 105.747746
        },
        "ad_info": {
            "adcode": 620502,
            "province": "甘肃省",
            "city": "天水市",
            "district": "秦州区"
        }
    },
    {
        "id": "14120740849842493948",
        "title": "公共卫生间",
        "address": "甘肃省天水市麦积区渭河大桥与牛北公路交叉口正西方向534米左右",
        "tel": "",
        "category": "基础设施:公共设施:公共厕所",
        "type": 0,
        "location": {
            "lat": 34.517579,
            "lng": 106.346197
        },
        "ad_info": {
            "adcode": 620503,
            "province": "甘肃省",
            "city": "天水市",
            "district": "麦积区"
        }
    },
    {
        "id": "17227997586734965976",
        "title": "洗手间",
        "address": "甘肃省天水市麦积区埠北路与成纪大道东路交叉口正东方向68米左右",
        "tel": "",
        "category": "基础设施:公共设施:公共厕所",
        "type": 0,
        "location": {
            "lat": 34.562399,
            "lng": 105.898372
        },
        "ad_info": {
            "adcode": 620503,
            "province": "甘肃省",
            "city": "天水市",
            "district": "麦积区"
        }
    },
    {
        "id": "17454067525218074975",
        "title": "公共场所",
        "address": "甘肃省天水市秦州区师院路与羲皇大道西路交叉口东北方向35米左右",
        "tel": "",
        "category": "基础设施:公共设施:公共厕所",
        "type": 0,
        "location": {
            "lat": 34.567088,
            "lng": 105.70329
        },
        "ad_info": {
            "adcode": 620502,
            "province": "甘肃省",
            "city": "天水市",
            "district": "秦州区"
        }
    },
    {
        "id": "10824811701734868894",
        "title": "桃花坪停车区公共厕所",
        "address": "甘肃省天水市麦积区G30连霍高速与桃花坪停车区交叉口南160米",
        "tel": "",
        "category": "基础设施:公共设施:公共厕所",
        "type": 0,
        "location": {
            "lat": 34.339936,
            "lng": 106.620496
        },
        "ad_info": {
            "adcode": 620503,
            "province": "甘肃省",
            "city": "天水市",
            "district": "麦积区"
        }
    },
    {
        "id": "8783579191730380703",
        "title": "公共厕所",
        "address": "甘肃省天水市秦州区万达路与岷山经三路交叉口东北方向1034米左右",
        "tel": "",
        "category": "基础设施:公共设施:公共厕所",
        "type": 0,
        "location": {
            "lat": 34.590591,
            "lng": 105.758047
        },
        "ad_info": {
            "adcode": 620502,
            "province": "甘肃省",
            "city": "天水市",
            "district": "秦州区"
        }
    },
    {
        "id": "17409070082667074128",
        "title": "公共厕所",
        "address": "甘肃省天水市甘谷县杨赵路与G30连霍高速出口交叉口南240米",
        "tel": "",
        "category": "基础设施:公共设施:公共厕所",
        "type": 0,
        "location": {
            "lat": 34.740305,
            "lng": 105.302434
        },
        "ad_info": {
            "adcode": 620523,
            "province": "甘肃省",
            "city": "天水市",
            "district": "甘谷县"
        }
    },
    {
        "id": "13835522927124026334",
        "title": "公共厕所",
        "address": "甘肃省天水市麦积区劲道鲜面条店西南侧210米",
        "tel": "",
        "category": "基础设施:公共设施:公共厕所",
        "type": 0,
        "location": {
            "lat": 34.531857,
            "lng": 106.157365
        },
        "ad_info": {
            "adcode": 620503,
            "province": "甘肃省",
            "city": "天水市",
            "district": "麦积区"
        }
    },
    {
        "id": "13852320055622826626",
        "title": "公共厕所",
        "address": "甘肃省天水市秦安县南河南路与文昌路交叉口西北方向29米左右",
        "tel": "",
        "category": "基础设施:公共设施:公共厕所",
        "type": 0,
        "location": {
            "lat": 34.847845,
            "lng": 105.666781
        },
        "ad_info": {
            "adcode": 620522,
            "province": "甘肃省",
            "city": "天水市",
            "district": "秦安县"
        }
    },
    {
        "id": "12743023966580590128",
        "title": "无障碍公共厕所",
        "address": "甘肃省天水市麦积区华阳路与成纪大道东路交叉口正北方向146米左右",
        "tel": "",
        "category": "基础设施:公共设施:公共厕所",
        "type": 0,
        "location": {
            "lat": 34.561325,
            "lng": 105.90372
        },
        "ad_info": {
            "adcode": 620503,
            "province": "甘肃省",
            "city": "天水市",
            "district": "麦积区"
        }
    },
    {
        "id": "17504231001599017039",
        "title": "男洗手间",
        "address": "甘肃省天水市秦州区大众路官泉1号天水兰天城市广场F4",
        "tel": "",
        "category": "基础设施:公共设施:男洗手间",
        "type": 0,
        "location": {
            "lat": 34.575723,
            "lng": 105.722388
        },
        "ad_info": {
            "adcode": 620502,
            "province": "甘肃省",
            "city": "天水市",
            "district": "秦州区"
        }
    },
    {
        "id": "10371402631612366806",
        "title": "公共厕所",
        "address": "甘肃省天水市清水县文昌路与轩辕大道交叉口西北方向122米左右",
        "tel": "",
        "category": "基础设施:公共设施:公共厕所",
        "type": 0,
        "location": {
            "lat": 34.756462,
            "lng": 106.143984
        },
        "ad_info": {
            "adcode": 620521,
            "province": "甘肃省",
            "city": "天水市",
            "district": "清水县"
        }
    },
    {
        "id": "10023777795563825878",
        "title": "公共厕所",
        "address": "甘肃省天水市秦州区秦州农村合作银行邓家门村便民金融服务点东南侧80米",
        "tel": "",
        "category": "基础设施:公共设施:公共厕所",
        "type": 0,
        "location": {
            "lat": 34.457535,
            "lng": 105.517237
        },
        "ad_info": {
            "adcode": 620502,
            "province": "甘肃省",
            "city": "天水市",
            "district": "秦州区"
        }
    },
    {
        "id": "7264564521572762639",
        "title": "公共厕所",
        "address": "甘肃省天水市甘谷县冀城中路与富强中路交叉口东北方向448米左右",
        "tel": "",
        "category": "基础设施:公共设施:公共厕所",
        "type": 0,
        "location": {
            "lat": 34.755007,
            "lng": 105.344161
        },
        "ad_info": {
            "adcode": 620523,
            "province": "甘肃省",
            "city": "天水市",
            "district": "甘谷县"
        }
    },
    {
        "id": "1117817494642406426",
        "title": "公共厕所",
        "address": "甘肃省天水市甘谷县康庄中路与康庄西路交叉口正西方向83米左右",
        "tel": "",
        "category": "基础设施:公共设施:公共厕所",
        "type": 0,
        "location": {
            "lat": 34.748039,
            "lng": 105.330788
        },
        "ad_info": {
            "adcode": 620523,
            "province": "甘肃省",
            "city": "天水市",
            "district": "甘谷县"
        }
    },
    {
        "id": "2430413475917572379",
        "title": "公共厕所",
        "address": "甘肃省天水市麦积区渭河大桥与牛北公路交叉口正西方向499米左右",
        "tel": "",
        "category": "基础设施:公共设施:公共厕所",
        "type": 0,
        "location": {
            "lat": 34.517348,
            "lng": 106.346558
        },
        "ad_info": {
            "adcode": 620503,
            "province": "甘肃省",
            "city": "天水市",
            "district": "麦积区"
        }
    },
    {
        "id": "9035597778708445987",
        "title": "公共厕所",
        "address": "甘肃省天水市清水县中国邮政(土门邮政代办所)北侧200米",
        "tel": "",
        "category": "基础设施:公共设施:公共厕所",
        "type": 0,
        "location": {
            "lat": 34.771678,
            "lng": 105.877897
        },
        "ad_info": {
            "adcode": 620521,
            "province": "甘肃省",
            "city": "天水市",
            "district": "清水县"
        }
    },
    {
        "id": "6998856084802664398",
        "title": "男洗手间",
        "address": "甘肃省天水市秦州区大众路官泉1号天水兰天城市广场F4",
        "tel": "",
        "category": "基础设施:公共设施:女洗手间",
        "type": 0,
        "location": {
            "lat": 34.575724,
            "lng": 105.722332
        },
        "ad_info": {
            "adcode": 620502,
            "province": "甘肃省",
            "city": "天水市",
            "district": "秦州区"
        }
    },
    {
        "id": "9141205922862746996",
        "title": "公共厕所",
        "address": "甘肃省天水市秦州区新华路与红桥交叉口正北方向107米左右",
        "tel": "",
        "category": "基础设施:公共设施:公共厕所",
        "type": 0,
        "location": {
            "lat": 34.577608,
            "lng": 105.740906
        },
        "ad_info": {
            "adcode": 620502,
            "province": "甘肃省",
            "city": "天水市",
            "district": "秦州区"
        }
    },
    {
        "id": "18202572239369012054",
        "title": "公共厕所",
        "address": "甘肃省天水市秦安县南河西街与滨河南路交叉口东南方向110米左右",
        "tel": "",
        "category": "基础设施:公共设施:公共厕所",
        "type": 0,
        "location": {
            "lat": 34.848912,
            "lng": 105.664251
        },
        "ad_info": {
            "adcode": 620522,
            "province": "甘肃省",
            "city": "天水市",
            "district": "秦安县"
        }
    },
    {
        "id": "11023246255010269152",
        "title": "公共厕所",
        "address": "甘肃省天水市秦州区南郭寺路与羲皇大道西路交叉口东南方向821米左右",
        "tel": "",
        "category": "基础设施:公共设施:公共厕所",
        "type": 0,
        "location": {
            "lat": 34.563299,
            "lng": 105.747746
        },
        "ad_info": {
            "adcode": 620502,
            "province": "甘肃省",
            "city": "天水市",
            "district": "秦州区"
        }
    },
    {
        "id": "14120740849842493948",
        "title": "公共卫生间",
        "address": "甘肃省天水市麦积区渭河大桥与牛北公路交叉口正西方向534米左右",
        "tel": "",
        "category": "基础设施:公共设施:公共厕所",
        "type": 0,
        "location": {
            "lat": 34.517579,
            "lng": 106.346197
        },
        "ad_info": {
            "adcode": 620503,
            "province": "甘肃省",
            "city": "天水市",
            "district": "麦积区"
        }
    },
    {
        "id": "17227997586734965976",
        "title": "洗手间",
        "address": "甘肃省天水市麦积区埠北路与成纪大道东路交叉口正东方向68米左右",
        "tel": "",
        "category": "基础设施:公共设施:公共厕所",
        "type": 0,
        "location": {
            "lat": 34.562399,
            "lng": 105.898372
        },
        "ad_info": {
            "adcode": 620503,
            "province": "甘肃省",
            "city": "天水市",
            "district": "麦积区"
        }
    },
    {
        "id": "17454067525218074975",
        "title": "公共场所",
        "address": "甘肃省天水市秦州区师院路与羲皇大道西路交叉口东北方向35米左右",
        "tel": "",
        "category": "基础设施:公共设施:公共厕所",
        "type": 0,
        "location": {
            "lat": 34.567088,
            "lng": 105.70329
        },
        "ad_info": {
            "adcode": 620502,
            "province": "甘肃省",
            "city": "天水市",
            "district": "秦州区"
        }
    },
    {
        "id": "10824811701734868894",
        "title": "桃花坪停车区公共厕所",
        "address": "甘肃省天水市麦积区G30连霍高速与桃花坪停车区交叉口南160米",
        "tel": "",
        "category": "基础设施:公共设施:公共厕所",
        "type": 0,
        "location": {
            "lat": 34.339936,
            "lng": 106.620496
        },
        "ad_info": {
            "adcode": 620503,
            "province": "甘肃省",
            "city": "天水市",
            "district": "麦积区"
        }
    },
    {
        "id": "8783579191730380703",
        "title": "公共厕所",
        "address": "甘肃省天水市秦州区万达路与岷山经三路交叉口东北方向1034米左右",
        "tel": "",
        "category": "基础设施:公共设施:公共厕所",
        "type": 0,
        "location": {
            "lat": 34.590591,
            "lng": 105.758047
        },
        "ad_info": {
            "adcode": 620502,
            "province": "甘肃省",
            "city": "天水市",
            "district": "秦州区"
        }
    },
    {
        "id": "17409070082667074128",
        "title": "公共厕所",
        "address": "甘肃省天水市甘谷县杨赵路与G30连霍高速出口交叉口南240米",
        "tel": "",
        "category": "基础设施:公共设施:公共厕所",
        "type": 0,
        "location": {
            "lat": 34.740305,
            "lng": 105.302434
        },
        "ad_info": {
            "adcode": 620523,
            "province": "甘肃省",
            "city": "天水市",
            "district": "甘谷县"
        }
    },
    {
        "id": "13835522927124026334",
        "title": "公共厕所",
        "address": "甘肃省天水市麦积区劲道鲜面条店西南侧210米",
        "tel": "",
        "category": "基础设施:公共设施:公共厕所",
        "type": 0,
        "location": {
            "lat": 34.531857,
            "lng": 106.157365
        },
        "ad_info": {
            "adcode": 620503,
            "province": "甘肃省",
            "city": "天水市",
            "district": "麦积区"
        }
    },
    {
        "id": "13852320055622826626",
        "title": "公共厕所",
        "address": "甘肃省天水市秦安县南河南路与文昌路交叉口西北方向29米左右",
        "tel": "",
        "category": "基础设施:公共设施:公共厕所",
        "type": 0,
        "location": {
            "lat": 34.847845,
            "lng": 105.666781
        },
        "ad_info": {
            "adcode": 620522,
            "province": "甘肃省",
            "city": "天水市",
            "district": "秦安县"
        }
    },
    {
        "id": "12743023966580590128",
        "title": "无障碍公共厕所",
        "address": "甘肃省天水市麦积区华阳路与成纪大道东路交叉口正北方向146米左右",
        "tel": "",
        "category": "基础设施:公共设施:公共厕所",
        "type": 0,
        "location": {
            "lat": 34.561325,
            "lng": 105.90372
        },
        "ad_info": {
            "adcode": 620503,
            "province": "甘肃省",
            "city": "天水市",
            "district": "麦积区"
        }
    },
    {
        "id": "17504231001599017039",
        "title": "男洗手间",
        "address": "甘肃省天水市秦州区大众路官泉1号天水兰天城市广场F4",
        "tel": "",
        "category": "基础设施:公共设施:男洗手间",
        "type": 0,
        "location": {
            "lat": 34.575723,
            "lng": 105.722388
        },
        "ad_info": {
            "adcode": 620502,
            "province": "甘肃省",
            "city": "天水市",
            "district": "秦州区"
        }
    },
    {
        "id": "10371402631612366806",
        "title": "公共厕所",
        "address": "甘肃省天水市清水县文昌路与轩辕大道交叉口西北方向122米左右",
        "tel": "",
        "category": "基础设施:公共设施:公共厕所",
        "type": 0,
        "location": {
            "lat": 34.756462,
            "lng": 106.143984
        },
        "ad_info": {
            "adcode": 620521,
            "province": "甘肃省",
            "city": "天水市",
            "district": "清水县"
        }
    },
    {
        "id": "10023777795563825878",
        "title": "公共厕所",
        "address": "甘肃省天水市秦州区秦州农村合作银行邓家门村便民金融服务点东南侧80米",
        "tel": "",
        "category": "基础设施:公共设施:公共厕所",
        "type": 0,
        "location": {
            "lat": 34.457535,
            "lng": 105.517237
        },
        "ad_info": {
            "adcode": 620502,
            "province": "甘肃省",
            "city": "天水市",
            "district": "秦州区"
        }
    },
    {
        "id": "7264564521572762639",
        "title": "公共厕所",
        "address": "甘肃省天水市甘谷县冀城中路与富强中路交叉口东北方向448米左右",
        "tel": "",
        "category": "基础设施:公共设施:公共厕所",
        "type": 0,
        "location": {
            "lat": 34.755007,
            "lng": 105.344161
        },
        "ad_info": {
            "adcode": 620523,
            "province": "甘肃省",
            "city": "天水市",
            "district": "甘谷县"
        }
    },
    {
        "id": "1117817494642406426",
        "title": "公共厕所",
        "address": "甘肃省天水市甘谷县康庄中路与康庄西路交叉口正西方向83米左右",
        "tel": "",
        "category": "基础设施:公共设施:公共厕所",
        "type": 0,
        "location": {
            "lat": 34.748039,
            "lng": 105.330788
        },
        "ad_info": {
            "adcode": 620523,
            "province": "甘肃省",
            "city": "天水市",
            "district": "甘谷县"
        }
    },
    {
        "id": "2430413475917572379",
        "title": "公共厕所",
        "address": "甘肃省天水市麦积区渭河大桥与牛北公路交叉口正西方向499米左右",
        "tel": "",
        "category": "基础设施:公共设施:公共厕所",
        "type": 0,
        "location": {
            "lat": 34.517348,
            "lng": 106.346558
        },
        "ad_info": {
            "adcode": 620503,
            "province": "甘肃省",
            "city": "天水市",
            "district": "麦积区"
        }
    },
    {
        "id": "9035597778708445987",
        "title": "公共厕所",
        "address": "甘肃省天水市清水县中国邮政(土门邮政代办所)北侧200米",
        "tel": "",
        "category": "基础设施:公共设施:公共厕所",
        "type": 0,
        "location": {
            "lat": 34.771678,
            "lng": 105.877897
        },
        "ad_info": {
            "adcode": 620521,
            "province": "甘肃省",
            "city": "天水市",
            "district": "清水县"
        }
    },
    {
        "id": "6998856084802664398",
        "title": "男洗手间",
        "address": "甘肃省天水市秦州区大众路官泉1号天水兰天城市广场F4",
        "tel": "",
        "category": "基础设施:公共设施:女洗手间",
        "type": 0,
        "location": {
            "lat": 34.575724,
            "lng": 105.722332
        },
        "ad_info": {
            "adcode": 620502,
            "province": "甘肃省",
            "city": "天水市",
            "district": "秦州区"
        }
    },
    {
        "id": "9141205922862746996",
        "title": "公共厕所",
        "address": "甘肃省天水市秦州区新华路与红桥交叉口正北方向107米左右",
        "tel": "",
        "category": "基础设施:公共设施:公共厕所",
        "type": 0,
        "location": {
            "lat": 34.577608,
            "lng": 105.740906
        },
        "ad_info": {
            "adcode": 620502,
            "province": "甘肃省",
            "city": "天水市",
            "district": "秦州区"
        }
    },
    {
        "id": "18202572239369012054",
        "title": "公共厕所",
        "address": "甘肃省天水市秦安县南河西街与滨河南路交叉口东南方向110米左右",
        "tel": "",
        "category": "基础设施:公共设施:公共厕所",
        "type": 0,
        "location": {
            "lat": 34.848912,
            "lng": 105.664251
        },
        "ad_info": {
            "adcode": 620522,
            "province": "甘肃省",
            "city": "天水市",
            "district": "秦安县"
        }
    },
    {
        "id": "11023246255010269152",
        "title": "公共厕所",
        "address": "甘肃省天水市秦州区南郭寺路与羲皇大道西路交叉口东南方向821米左右",
        "tel": "",
        "category": "基础设施:公共设施:公共厕所",
        "type": 0,
        "location": {
            "lat": 34.563299,
            "lng": 105.747746
        },
        "ad_info": {
            "adcode": 620502,
            "province": "甘肃省",
            "city": "天水市",
            "district": "秦州区"
        }
    },
    {
        "id": "14120740849842493948",
        "title": "公共卫生间",
        "address": "甘肃省天水市麦积区渭河大桥与牛北公路交叉口正西方向534米左右",
        "tel": "",
        "category": "基础设施:公共设施:公共厕所",
        "type": 0,
        "location": {
            "lat": 34.517579,
            "lng": 106.346197
        },
        "ad_info": {
            "adcode": 620503,
            "province": "甘肃省",
            "city": "天水市",
            "district": "麦积区"
        }
    },
    {
        "id": "17227997586734965976",
        "title": "洗手间",
        "address": "甘肃省天水市麦积区埠北路与成纪大道东路交叉口正东方向68米左右",
        "tel": "",
        "category": "基础设施:公共设施:公共厕所",
        "type": 0,
        "location": {
            "lat": 34.562399,
            "lng": 105.898372
        },
        "ad_info": {
            "adcode": 620503,
            "province": "甘肃省",
            "city": "天水市",
            "district": "麦积区"
        }
    },
    {
        "id": "17454067525218074975",
        "title": "公共场所",
        "address": "甘肃省天水市秦州区师院路与羲皇大道西路交叉口东北方向35米左右",
        "tel": "",
        "category": "基础设施:公共设施:公共厕所",
        "type": 0,
        "location": {
            "lat": 34.567088,
            "lng": 105.70329
        },
        "ad_info": {
            "adcode": 620502,
            "province": "甘肃省",
            "city": "天水市",
            "district": "秦州区"
        }
    },
    {
        "id": "10824811701734868894",
        "title": "桃花坪停车区公共厕所",
        "address": "甘肃省天水市麦积区G30连霍高速与桃花坪停车区交叉口南160米",
        "tel": "",
        "category": "基础设施:公共设施:公共厕所",
        "type": 0,
        "location": {
            "lat": 34.339936,
            "lng": 106.620496
        },
        "ad_info": {
            "adcode": 620503,
            "province": "甘肃省",
            "city": "天水市",
            "district": "麦积区"
        }
    },
    {
        "id": "8783579191730380703",
        "title": "公共厕所",
        "address": "甘肃省天水市秦州区万达路与岷山经三路交叉口东北方向1034米左右",
        "tel": "",
        "category": "基础设施:公共设施:公共厕所",
        "type": 0,
        "location": {
            "lat": 34.590591,
            "lng": 105.758047
        },
        "ad_info": {
            "adcode": 620502,
            "province": "甘肃省",
            "city": "天水市",
            "district": "秦州区"
        }
    },
    {
        "id": "17409070082667074128",
        "title": "公共厕所",
        "address": "甘肃省天水市甘谷县杨赵路与G30连霍高速出口交叉口南240米",
        "tel": "",
        "category": "基础设施:公共设施:公共厕所",
        "type": 0,
        "location": {
            "lat": 34.740305,
            "lng": 105.302434
        },
        "ad_info": {
            "adcode": 620523,
            "province": "甘肃省",
            "city": "天水市",
            "district": "甘谷县"
        }
    },
    {
        "id": "13835522927124026334",
        "title": "公共厕所",
        "address": "甘肃省天水市麦积区劲道鲜面条店西南侧210米",
        "tel": "",
        "category": "基础设施:公共设施:公共厕所",
        "type": 0,
        "location": {
            "lat": 34.531857,
            "lng": 106.157365
        },
        "ad_info": {
            "adcode": 620503,
            "province": "甘肃省",
            "city": "天水市",
            "district": "麦积区"
        }
    },
    {
        "id": "13852320055622826626",
        "title": "公共厕所",
        "address": "甘肃省天水市秦安县南河南路与文昌路交叉口西北方向29米左右",
        "tel": "",
        "category": "基础设施:公共设施:公共厕所",
        "type": 0,
        "location": {
            "lat": 34.847845,
            "lng": 105.666781
        },
        "ad_info": {
            "adcode": 620522,
            "province": "甘肃省",
            "city": "天水市",
            "district": "秦安县"
        }
    },
    {
        "id": "12743023966580590128",
        "title": "无障碍公共厕所",
        "address": "甘肃省天水市麦积区华阳路与成纪大道东路交叉口正北方向146米左右",
        "tel": "",
        "category": "基础设施:公共设施:公共厕所",
        "type": 0,
        "location": {
            "lat": 34.561325,
            "lng": 105.90372
        },
        "ad_info": {
            "adcode": 620503,
            "province": "甘肃省",
            "city": "天水市",
            "district": "麦积区"
        }
    },
    {
        "id": "17504231001599017039",
        "title": "男洗手间",
        "address": "甘肃省天水市秦州区大众路官泉1号天水兰天城市广场F4",
        "tel": "",
        "category": "基础设施:公共设施:男洗手间",
        "type": 0,
        "location": {
            "lat": 34.575723,
            "lng": 105.722388
        },
        "ad_info": {
            "adcode": 620502,
            "province": "甘肃省",
            "city": "天水市",
            "district": "秦州区"
        }
    },
    {
        "id": "10371402631612366806",
        "title": "公共厕所",
        "address": "甘肃省天水市清水县文昌路与轩辕大道交叉口西北方向122米左右",
        "tel": "",
        "category": "基础设施:公共设施:公共厕所",
        "type": 0,
        "location": {
            "lat": 34.756462,
            "lng": 106.143984
        },
        "ad_info": {
            "adcode": 620521,
            "province": "甘肃省",
            "city": "天水市",
            "district": "清水县"
        }
    },
    {
        "id": "10023777795563825878",
        "title": "公共厕所",
        "address": "甘肃省天水市秦州区秦州农村合作银行邓家门村便民金融服务点东南侧80米",
        "tel": "",
        "category": "基础设施:公共设施:公共厕所",
        "type": 0,
        "location": {
            "lat": 34.457535,
            "lng": 105.517237
        },
        "ad_info": {
            "adcode": 620502,
            "province": "甘肃省",
            "city": "天水市",
            "district": "秦州区"
        }
    },
    {
        "id": "7264564521572762639",
        "title": "公共厕所",
        "address": "甘肃省天水市甘谷县冀城中路与富强中路交叉口东北方向448米左右",
        "tel": "",
        "category": "基础设施:公共设施:公共厕所",
        "type": 0,
        "location": {
            "lat": 34.755007,
            "lng": 105.344161
        },
        "ad_info": {
            "adcode": 620523,
            "province": "甘肃省",
            "city": "天水市",
            "district": "甘谷县"
        }
    },
    {
        "id": "1117817494642406426",
        "title": "公共厕所",
        "address": "甘肃省天水市甘谷县康庄中路与康庄西路交叉口正西方向83米左右",
        "tel": "",
        "category": "基础设施:公共设施:公共厕所",
        "type": 0,
        "location": {
            "lat": 34.748039,
            "lng": 105.330788
        },
        "ad_info": {
            "adcode": 620523,
            "province": "甘肃省",
            "city": "天水市",
            "district": "甘谷县"
        }
    },
    {
        "id": "2430413475917572379",
        "title": "公共厕所",
        "address": "甘肃省天水市麦积区渭河大桥与牛北公路交叉口正西方向499米左右",
        "tel": "",
        "category": "基础设施:公共设施:公共厕所",
        "type": 0,
        "location": {
            "lat": 34.517348,
            "lng": 106.346558
        },
        "ad_info": {
            "adcode": 620503,
            "province": "甘肃省",
            "city": "天水市",
            "district": "麦积区"
        }
    },
    {
        "id": "9035597778708445987",
        "title": "公共厕所",
        "address": "甘肃省天水市清水县中国邮政(土门邮政代办所)北侧200米",
        "tel": "",
        "category": "基础设施:公共设施:公共厕所",
        "type": 0,
        "location": {
            "lat": 34.771678,
            "lng": 105.877897
        },
        "ad_info": {
            "adcode": 620521,
            "province": "甘肃省",
            "city": "天水市",
            "district": "清水县"
        }
    },
    {
        "id": "6998856084802664398",
        "title": "男洗手间",
        "address": "甘肃省天水市秦州区大众路官泉1号天水兰天城市广场F4",
        "tel": "",
        "category": "基础设施:公共设施:女洗手间",
        "type": 0,
        "location": {
            "lat": 34.575724,
            "lng": 105.722332
        },
        "ad_info": {
            "adcode": 620502,
            "province": "甘肃省",
            "city": "天水市",
            "district": "秦州区"
        }
    },
    {
        "id": "9141205922862746996",
        "title": "公共厕所",
        "address": "甘肃省天水市秦州区新华路与红桥交叉口正北方向107米左右",
        "tel": "",
        "category": "基础设施:公共设施:公共厕所",
        "type": 0,
        "location": {
            "lat": 34.577608,
            "lng": 105.740906
        },
        "ad_info": {
            "adcode": 620502,
            "province": "甘肃省",
            "city": "天水市",
            "district": "秦州区"
        }
    },
    {
        "id": "18202572239369012054",
        "title": "公共厕所",
        "address": "甘肃省天水市秦安县南河西街与滨河南路交叉口东南方向110米左右",
        "tel": "",
        "category": "基础设施:公共设施:公共厕所",
        "type": 0,
        "location": {
            "lat": 34.848912,
            "lng": 105.664251
        },
        "ad_info": {
            "adcode": 620522,
            "province": "甘肃省",
            "city": "天水市",
            "district": "秦安县"
        }
    },
    {
        "id": "11023246255010269152",
        "title": "公共厕所",
        "address": "甘肃省天水市秦州区南郭寺路与羲皇大道西路交叉口东南方向821米左右",
        "tel": "",
        "category": "基础设施:公共设施:公共厕所",
        "type": 0,
        "location": {
            "lat": 34.563299,
            "lng": 105.747746
        },
        "ad_info": {
            "adcode": 620502,
            "province": "甘肃省",
            "city": "天水市",
            "district": "秦州区"
        }
    },
    {
        "id": "14120740849842493948",
        "title": "公共卫生间",
        "address": "甘肃省天水市麦积区渭河大桥与牛北公路交叉口正西方向534米左右",
        "tel": "",
        "category": "基础设施:公共设施:公共厕所",
        "type": 0,
        "location": {
            "lat": 34.517579,
            "lng": 106.346197
        },
        "ad_info": {
            "adcode": 620503,
            "province": "甘肃省",
            "city": "天水市",
            "district": "麦积区"
        }
    },
    {
        "id": "17227997586734965976",
        "title": "洗手间",
        "address": "甘肃省天水市麦积区埠北路与成纪大道东路交叉口正东方向68米左右",
        "tel": "",
        "category": "基础设施:公共设施:公共厕所",
        "type": 0,
        "location": {
            "lat": 34.562399,
            "lng": 105.898372
        },
        "ad_info": {
            "adcode": 620503,
            "province": "甘肃省",
            "city": "天水市",
            "district": "麦积区"
        }
    },
    {
        "id": "17454067525218074975",
        "title": "公共场所",
        "address": "甘肃省天水市秦州区师院路与羲皇大道西路交叉口东北方向35米左右",
        "tel": "",
        "category": "基础设施:公共设施:公共厕所",
        "type": 0,
        "location": {
            "lat": 34.567088,
            "lng": 105.70329
        },
        "ad_info": {
            "adcode": 620502,
            "province": "甘肃省",
            "city": "天水市",
            "district": "秦州区"
        }
    },
    {
        "id": "10824811701734868894",
        "title": "桃花坪停车区公共厕所",
        "address": "甘肃省天水市麦积区G30连霍高速与桃花坪停车区交叉口南160米",
        "tel": "",
        "category": "基础设施:公共设施:公共厕所",
        "type": 0,
        "location": {
            "lat": 34.339936,
            "lng": 106.620496
        },
        "ad_info": {
            "adcode": 620503,
            "province": "甘肃省",
            "city": "天水市",
            "district": "麦积区"
        }
    },
    {
        "id": "8783579191730380703",
        "title": "公共厕所",
        "address": "甘肃省天水市秦州区万达路与岷山经三路交叉口东北方向1034米左右",
        "tel": "",
        "category": "基础设施:公共设施:公共厕所",
        "type": 0,
        "location": {
            "lat": 34.590591,
            "lng": 105.758047
        },
        "ad_info": {
            "adcode": 620502,
            "province": "甘肃省",
            "city": "天水市",
            "district": "秦州区"
        }
    },
    {
        "id": "17409070082667074128",
        "title": "公共厕所",
        "address": "甘肃省天水市甘谷县杨赵路与G30连霍高速出口交叉口南240米",
        "tel": "",
        "category": "基础设施:公共设施:公共厕所",
        "type": 0,
        "location": {
            "lat": 34.740305,
            "lng": 105.302434
        },
        "ad_info": {
            "adcode": 620523,
            "province": "甘肃省",
            "city": "天水市",
            "district": "甘谷县"
        }
    },
    {
        "id": "13835522927124026334",
        "title": "公共厕所",
        "address": "甘肃省天水市麦积区劲道鲜面条店西南侧210米",
        "tel": "",
        "category": "基础设施:公共设施:公共厕所",
        "type": 0,
        "location": {
            "lat": 34.531857,
            "lng": 106.157365
        },
        "ad_info": {
            "adcode": 620503,
            "province": "甘肃省",
            "city": "天水市",
            "district": "麦积区"
        }
    },
    {
        "id": "13852320055622826626",
        "title": "公共厕所",
        "address": "甘肃省天水市秦安县南河南路与文昌路交叉口西北方向29米左右",
        "tel": "",
        "category": "基础设施:公共设施:公共厕所",
        "type": 0,
        "location": {
            "lat": 34.847845,
            "lng": 105.666781
        },
        "ad_info": {
            "adcode": 620522,
            "province": "甘肃省",
            "city": "天水市",
            "district": "秦安县"
        }
    },
    {
        "id": "12743023966580590128",
        "title": "无障碍公共厕所",
        "address": "甘肃省天水市麦积区华阳路与成纪大道东路交叉口正北方向146米左右",
        "tel": "",
        "category": "基础设施:公共设施:公共厕所",
        "type": 0,
        "location": {
            "lat": 34.561325,
            "lng": 105.90372
        },
        "ad_info": {
            "adcode": 620503,
            "province": "甘肃省",
            "city": "天水市",
            "district": "麦积区"
        }
    },
    {
        "id": "17504231001599017039",
        "title": "男洗手间",
        "address": "甘肃省天水市秦州区大众路官泉1号天水兰天城市广场F4",
        "tel": "",
        "category": "基础设施:公共设施:男洗手间",
        "type": 0,
        "location": {
            "lat": 34.575723,
            "lng": 105.722388
        },
        "ad_info": {
            "adcode": 620502,
            "province": "甘肃省",
            "city": "天水市",
            "district": "秦州区"
        }
    },
    {
        "id": "10371402631612366806",
        "title": "公共厕所",
        "address": "甘肃省天水市清水县文昌路与轩辕大道交叉口西北方向122米左右",
        "tel": "",
        "category": "基础设施:公共设施:公共厕所",
        "type": 0,
        "location": {
            "lat": 34.756462,
            "lng": 106.143984
        },
        "ad_info": {
            "adcode": 620521,
            "province": "甘肃省",
            "city": "天水市",
            "district": "清水县"
        }
    },
    {
        "id": "10023777795563825878",
        "title": "公共厕所",
        "address": "甘肃省天水市秦州区秦州农村合作银行邓家门村便民金融服务点东南侧80米",
        "tel": "",
        "category": "基础设施:公共设施:公共厕所",
        "type": 0,
        "location": {
            "lat": 34.457535,
            "lng": 105.517237
        },
        "ad_info": {
            "adcode": 620502,
            "province": "甘肃省",
            "city": "天水市",
            "district": "秦州区"
        }
    },
    {
        "id": "7264564521572762639",
        "title": "公共厕所",
        "address": "甘肃省天水市甘谷县冀城中路与富强中路交叉口东北方向448米左右",
        "tel": "",
        "category": "基础设施:公共设施:公共厕所",
        "type": 0,
        "location": {
            "lat": 34.755007,
            "lng": 105.344161
        },
        "ad_info": {
            "adcode": 620523,
            "province": "甘肃省",
            "city": "天水市",
            "district": "甘谷县"
        }
    },
    {
        "id": "1117817494642406426",
        "title": "公共厕所",
        "address": "甘肃省天水市甘谷县康庄中路与康庄西路交叉口正西方向83米左右",
        "tel": "",
        "category": "基础设施:公共设施:公共厕所",
        "type": 0,
        "location": {
            "lat": 34.748039,
            "lng": 105.330788
        },
        "ad_info": {
            "adcode": 620523,
            "province": "甘肃省",
            "city": "天水市",
            "district": "甘谷县"
        }
    },
    {
        "id": "2430413475917572379",
        "title": "公共厕所",
        "address": "甘肃省天水市麦积区渭河大桥与牛北公路交叉口正西方向499米左右",
        "tel": "",
        "category": "基础设施:公共设施:公共厕所",
        "type": 0,
        "location": {
            "lat": 34.517348,
            "lng": 106.346558
        },
        "ad_info": {
            "adcode": 620503,
            "province": "甘肃省",
            "city": "天水市",
            "district": "麦积区"
        }
    },
    {
        "id": "9035597778708445987",
        "title": "公共厕所",
        "address": "甘肃省天水市清水县中国邮政(土门邮政代办所)北侧200米",
        "tel": "",
        "category": "基础设施:公共设施:公共厕所",
        "type": 0,
        "location": {
            "lat": 34.771678,
            "lng": 105.877897
        },
        "ad_info": {
            "adcode": 620521,
            "province": "甘肃省",
            "city": "天水市",
            "district": "清水县"
        }
    },
    {
        "id": "6998856084802664398",
        "title": "男洗手间",
        "address": "甘肃省天水市秦州区大众路官泉1号天水兰天城市广场F4",
        "tel": "",
        "category": "基础设施:公共设施:女洗手间",
        "type": 0,
        "location": {
            "lat": 34.575724,
            "lng": 105.722332
        },
        "ad_info": {
            "adcode": 620502,
            "province": "甘肃省",
            "city": "天水市",
            "district": "秦州区"
        }
    },
    {
        "id": "9141205922862746996",
        "title": "公共厕所",
        "address": "甘肃省天水市秦州区新华路与红桥交叉口正北方向107米左右",
        "tel": "",
        "category": "基础设施:公共设施:公共厕所",
        "type": 0,
        "location": {
            "lat": 34.577608,
            "lng": 105.740906
        },
        "ad_info": {
            "adcode": 620502,
            "province": "甘肃省",
            "city": "天水市",
            "district": "秦州区"
        }
    },
    {
        "id": "18202572239369012054",
        "title": "公共厕所",
        "address": "甘肃省天水市秦安县南河西街与滨河南路交叉口东南方向110米左右",
        "tel": "",
        "category": "基础设施:公共设施:公共厕所",
        "type": 0,
        "location": {
            "lat": 34.848912,
            "lng": 105.664251
        },
        "ad_info": {
            "adcode": 620522,
            "province": "甘肃省",
            "city": "天水市",
            "district": "秦安县"
        }
    },
    {
        "id": "11023246255010269152",
        "title": "公共厕所",
        "address": "甘肃省天水市秦州区南郭寺路与羲皇大道西路交叉口东南方向821米左右",
        "tel": "",
        "category": "基础设施:公共设施:公共厕所",
        "type": 0,
        "location": {
            "lat": 34.563299,
            "lng": 105.747746
        },
        "ad_info": {
            "adcode": 620502,
            "province": "甘肃省",
            "city": "天水市",
            "district": "秦州区"
        }
    },
    {
        "id": "14120740849842493948",
        "title": "公共卫生间",
        "address": "甘肃省天水市麦积区渭河大桥与牛北公路交叉口正西方向534米左右",
        "tel": "",
        "category": "基础设施:公共设施:公共厕所",
        "type": 0,
        "location": {
            "lat": 34.517579,
            "lng": 106.346197
        },
        "ad_info": {
            "adcode": 620503,
            "province": "甘肃省",
            "city": "天水市",
            "district": "麦积区"
        }
    },
    {
        "id": "17227997586734965976",
        "title": "洗手间",
        "address": "甘肃省天水市麦积区埠北路与成纪大道东路交叉口正东方向68米左右",
        "tel": "",
        "category": "基础设施:公共设施:公共厕所",
        "type": 0,
        "location": {
            "lat": 34.562399,
            "lng": 105.898372
        },
        "ad_info": {
            "adcode": 620503,
            "province": "甘肃省",
            "city": "天水市",
            "district": "麦积区"
        }
    },
    {
        "id": "17454067525218074975",
        "title": "公共场所",
        "address": "甘肃省天水市秦州区师院路与羲皇大道西路交叉口东北方向35米左右",
        "tel": "",
        "category": "基础设施:公共设施:公共厕所",
        "type": 0,
        "location": {
            "lat": 34.567088,
            "lng": 105.70329
        },
        "ad_info": {
            "adcode": 620502,
            "province": "甘肃省",
            "city": "天水市",
            "district": "秦州区"
        }
    },
    {
        "id": "10824811701734868894",
        "title": "桃花坪停车区公共厕所",
        "address": "甘肃省天水市麦积区G30连霍高速与桃花坪停车区交叉口南160米",
        "tel": "",
        "category": "基础设施:公共设施:公共厕所",
        "type": 0,
        "location": {
            "lat": 34.339936,
            "lng": 106.620496
        },
        "ad_info": {
            "adcode": 620503,
            "province": "甘肃省",
            "city": "天水市",
            "district": "麦积区"
        }
    },
    {
        "id": "8783579191730380703",
        "title": "公共厕所",
        "address": "甘肃省天水市秦州区万达路与岷山经三路交叉口东北方向1034米左右",
        "tel": "",
        "category": "基础设施:公共设施:公共厕所",
        "type": 0,
        "location": {
            "lat": 34.590591,
            "lng": 105.758047
        },
        "ad_info": {
            "adcode": 620502,
            "province": "甘肃省",
            "city": "天水市",
            "district": "秦州区"
        }
    },
    {
        "id": "17409070082667074128",
        "title": "公共厕所",
        "address": "甘肃省天水市甘谷县杨赵路与G30连霍高速出口交叉口南240米",
        "tel": "",
        "category": "基础设施:公共设施:公共厕所",
        "type": 0,
        "location": {
            "lat": 34.740305,
            "lng": 105.302434
        },
        "ad_info": {
            "adcode": 620523,
            "province": "甘肃省",
            "city": "天水市",
            "district": "甘谷县"
        }
    },
    {
        "id": "13835522927124026334",
        "title": "公共厕所",
        "address": "甘肃省天水市麦积区劲道鲜面条店西南侧210米",
        "tel": "",
        "category": "基础设施:公共设施:公共厕所",
        "type": 0,
        "location": {
            "lat": 34.531857,
            "lng": 106.157365
        },
        "ad_info": {
            "adcode": 620503,
            "province": "甘肃省",
            "city": "天水市",
            "district": "麦积区"
        }
    },
    {
        "id": "13852320055622826626",
        "title": "公共厕所",
        "address": "甘肃省天水市秦安县南河南路与文昌路交叉口西北方向29米左右",
        "tel": "",
        "category": "基础设施:公共设施:公共厕所",
        "type": 0,
        "location": {
            "lat": 34.847845,
            "lng": 105.666781
        },
        "ad_info": {
            "adcode": 620522,
            "province": "甘肃省",
            "city": "天水市",
            "district": "秦安县"
        }
    },
    {
        "id": "12743023966580590128",
        "title": "无障碍公共厕所",
        "address": "甘肃省天水市麦积区华阳路与成纪大道东路交叉口正北方向146米左右",
        "tel": "",
        "category": "基础设施:公共设施:公共厕所",
        "type": 0,
        "location": {
            "lat": 34.561325,
            "lng": 105.90372
        },
        "ad_info": {
            "adcode": 620503,
            "province": "甘肃省",
            "city": "天水市",
            "district": "麦积区"
        }
    },
    {
        "id": "17504231001599017039",
        "title": "男洗手间",
        "address": "甘肃省天水市秦州区大众路官泉1号天水兰天城市广场F4",
        "tel": "",
        "category": "基础设施:公共设施:男洗手间",
        "type": 0,
        "location": {
            "lat": 34.575723,
            "lng": 105.722388
        },
        "ad_info": {
            "adcode": 620502,
            "province": "甘肃省",
            "city": "天水市",
            "district": "秦州区"
        }
    },
    {
        "id": "10371402631612366806",
        "title": "公共厕所",
        "address": "甘肃省天水市清水县文昌路与轩辕大道交叉口西北方向122米左右",
        "tel": "",
        "category": "基础设施:公共设施:公共厕所",
        "type": 0,
        "location": {
            "lat": 34.756462,
            "lng": 106.143984
        },
        "ad_info": {
            "adcode": 620521,
            "province": "甘肃省",
            "city": "天水市",
            "district": "清水县"
        }
    },
    {
        "id": "10023777795563825878",
        "title": "公共厕所",
        "address": "甘肃省天水市秦州区秦州农村合作银行邓家门村便民金融服务点东南侧80米",
        "tel": "",
        "category": "基础设施:公共设施:公共厕所",
        "type": 0,
        "location": {
            "lat": 34.457535,
            "lng": 105.517237
        },
        "ad_info": {
            "adcode": 620502,
            "province": "甘肃省",
            "city": "天水市",
            "district": "秦州区"
        }
    },
    {
        "id": "7264564521572762639",
        "title": "公共厕所",
        "address": "甘肃省天水市甘谷县冀城中路与富强中路交叉口东北方向448米左右",
        "tel": "",
        "category": "基础设施:公共设施:公共厕所",
        "type": 0,
        "location": {
            "lat": 34.755007,
            "lng": 105.344161
        },
        "ad_info": {
            "adcode": 620523,
            "province": "甘肃省",
            "city": "天水市",
            "district": "甘谷县"
        }
    },
    {
        "id": "1117817494642406426",
        "title": "公共厕所",
        "address": "甘肃省天水市甘谷县康庄中路与康庄西路交叉口正西方向83米左右",
        "tel": "",
        "category": "基础设施:公共设施:公共厕所",
        "type": 0,
        "location": {
            "lat": 34.748039,
            "lng": 105.330788
        },
        "ad_info": {
            "adcode": 620523,
            "province": "甘肃省",
            "city": "天水市",
            "district": "甘谷县"
        }
    },
    {
        "id": "2430413475917572379",
        "title": "公共厕所",
        "address": "甘肃省天水市麦积区渭河大桥与牛北公路交叉口正西方向499米左右",
        "tel": "",
        "category": "基础设施:公共设施:公共厕所",
        "type": 0,
        "location": {
            "lat": 34.517348,
            "lng": 106.346558
        },
        "ad_info": {
            "adcode": 620503,
            "province": "甘肃省",
            "city": "天水市",
            "district": "麦积区"
        }
    },
    {
        "id": "9035597778708445987",
        "title": "公共厕所",
        "address": "甘肃省天水市清水县中国邮政(土门邮政代办所)北侧200米",
        "tel": "",
        "category": "基础设施:公共设施:公共厕所",
        "type": 0,
        "location": {
            "lat": 34.771678,
            "lng": 105.877897
        },
        "ad_info": {
            "adcode": 620521,
            "province": "甘肃省",
            "city": "天水市",
            "district": "清水县"
        }
    },
    {
        "id": "6998856084802664398",
        "title": "男洗手间",
        "address": "甘肃省天水市秦州区大众路官泉1号天水兰天城市广场F4",
        "tel": "",
        "category": "基础设施:公共设施:女洗手间",
        "type": 0,
        "location": {
            "lat": 34.575724,
            "lng": 105.722332
        },
        "ad_info": {
            "adcode": 620502,
            "province": "甘肃省",
            "city": "天水市",
            "district": "秦州区"
        }
    },
    {
        "id": "9141205922862746996",
        "title": "公共厕所",
        "address": "甘肃省天水市秦州区新华路与红桥交叉口正北方向107米左右",
        "tel": "",
        "category": "基础设施:公共设施:公共厕所",
        "type": 0,
        "location": {
            "lat": 34.577608,
            "lng": 105.740906
        },
        "ad_info": {
            "adcode": 620502,
            "province": "甘肃省",
            "city": "天水市",
            "district": "秦州区"
        }
    },
    {
        "id": "18202572239369012054",
        "title": "公共厕所",
        "address": "甘肃省天水市秦安县南河西街与滨河南路交叉口东南方向110米左右",
        "tel": "",
        "category": "基础设施:公共设施:公共厕所",
        "type": 0,
        "location": {
            "lat": 34.848912,
            "lng": 105.664251
        },
        "ad_info": {
            "adcode": 620522,
            "province": "甘肃省",
            "city": "天水市",
            "district": "秦安县"
        }
    },
    {
        "id": "11023246255010269152",
        "title": "公共厕所",
        "address": "甘肃省天水市秦州区南郭寺路与羲皇大道西路交叉口东南方向821米左右",
        "tel": "",
        "category": "基础设施:公共设施:公共厕所",
        "type": 0,
        "location": {
            "lat": 34.563299,
            "lng": 105.747746
        },
        "ad_info": {
            "adcode": 620502,
            "province": "甘肃省",
            "city": "天水市",
            "district": "秦州区"
        }
    },
    {
        "id": "14120740849842493948",
        "title": "公共卫生间",
        "address": "甘肃省天水市麦积区渭河大桥与牛北公路交叉口正西方向534米左右",
        "tel": "",
        "category": "基础设施:公共设施:公共厕所",
        "type": 0,
        "location": {
            "lat": 34.517579,
            "lng": 106.346197
        },
        "ad_info": {
            "adcode": 620503,
            "province": "甘肃省",
            "city": "天水市",
            "district": "麦积区"
        }
    },
    {
        "id": "17227997586734965976",
        "title": "洗手间",
        "address": "甘肃省天水市麦积区埠北路与成纪大道东路交叉口正东方向68米左右",
        "tel": "",
        "category": "基础设施:公共设施:公共厕所",
        "type": 0,
        "location": {
            "lat": 34.562399,
            "lng": 105.898372
        },
        "ad_info": {
            "adcode": 620503,
            "province": "甘肃省",
            "city": "天水市",
            "district": "麦积区"
        }
    },
    {
        "id": "17454067525218074975",
        "title": "公共场所",
        "address": "甘肃省天水市秦州区师院路与羲皇大道西路交叉口东北方向35米左右",
        "tel": "",
        "category": "基础设施:公共设施:公共厕所",
        "type": 0,
        "location": {
            "lat": 34.567088,
            "lng": 105.70329
        },
        "ad_info": {
            "adcode": 620502,
            "province": "甘肃省",
            "city": "天水市",
            "district": "秦州区"
        }
    },
    {
        "id": "10824811701734868894",
        "title": "桃花坪停车区公共厕所",
        "address": "甘肃省天水市麦积区G30连霍高速与桃花坪停车区交叉口南160米",
        "tel": "",
        "category": "基础设施:公共设施:公共厕所",
        "type": 0,
        "location": {
            "lat": 34.339936,
            "lng": 106.620496
        },
        "ad_info": {
            "adcode": 620503,
            "province": "甘肃省",
            "city": "天水市",
            "district": "麦积区"
        }
    },
    {
        "id": "8783579191730380703",
        "title": "公共厕所",
        "address": "甘肃省天水市秦州区万达路与岷山经三路交叉口东北方向1034米左右",
        "tel": "",
        "category": "基础设施:公共设施:公共厕所",
        "type": 0,
        "location": {
            "lat": 34.590591,
            "lng": 105.758047
        },
        "ad_info": {
            "adcode": 620502,
            "province": "甘肃省",
            "city": "天水市",
            "district": "秦州区"
        }
    },
    {
        "id": "17409070082667074128",
        "title": "公共厕所",
        "address": "甘肃省天水市甘谷县杨赵路与G30连霍高速出口交叉口南240米",
        "tel": "",
        "category": "基础设施:公共设施:公共厕所",
        "type": 0,
        "location": {
            "lat": 34.740305,
            "lng": 105.302434
        },
        "ad_info": {
            "adcode": 620523,
            "province": "甘肃省",
            "city": "天水市",
            "district": "甘谷县"
        }
    },
    {
        "id": "13835522927124026334",
        "title": "公共厕所",
        "address": "甘肃省天水市麦积区劲道鲜面条店西南侧210米",
        "tel": "",
        "category": "基础设施:公共设施:公共厕所",
        "type": 0,
        "location": {
            "lat": 34.531857,
            "lng": 106.157365
        },
        "ad_info": {
            "adcode": 620503,
            "province": "甘肃省",
            "city": "天水市",
            "district": "麦积区"
        }
    },
    {
        "id": "13852320055622826626",
        "title": "公共厕所",
        "address": "甘肃省天水市秦安县南河南路与文昌路交叉口西北方向29米左右",
        "tel": "",
        "category": "基础设施:公共设施:公共厕所",
        "type": 0,
        "location": {
            "lat": 34.847845,
            "lng": 105.666781
        },
        "ad_info": {
            "adcode": 620522,
            "province": "甘肃省",
            "city": "天水市",
            "district": "秦安县"
        }
    },
    {
        "id": "12743023966580590128",
        "title": "无障碍公共厕所",
        "address": "甘肃省天水市麦积区华阳路与成纪大道东路交叉口正北方向146米左右",
        "tel": "",
        "category": "基础设施:公共设施:公共厕所",
        "type": 0,
        "location": {
            "lat": 34.561325,
            "lng": 105.90372
        },
        "ad_info": {
            "adcode": 620503,
            "province": "甘肃省",
            "city": "天水市",
            "district": "麦积区"
        }
    },
    {
        "id": "17504231001599017039",
        "title": "男洗手间",
        "address": "甘肃省天水市秦州区大众路官泉1号天水兰天城市广场F4",
        "tel": "",
        "category": "基础设施:公共设施:男洗手间",
        "type": 0,
        "location": {
            "lat": 34.575723,
            "lng": 105.722388
        },
        "ad_info": {
            "adcode": 620502,
            "province": "甘肃省",
            "city": "天水市",
            "district": "秦州区"
        }
    },
    {
        "id": "10371402631612366806",
        "title": "公共厕所",
        "address": "甘肃省天水市清水县文昌路与轩辕大道交叉口西北方向122米左右",
        "tel": "",
        "category": "基础设施:公共设施:公共厕所",
        "type": 0,
        "location": {
            "lat": 34.756462,
            "lng": 106.143984
        },
        "ad_info": {
            "adcode": 620521,
            "province": "甘肃省",
            "city": "天水市",
            "district": "清水县"
        }
    },
    {
        "id": "10023777795563825878",
        "title": "公共厕所",
        "address": "甘肃省天水市秦州区秦州农村合作银行邓家门村便民金融服务点东南侧80米",
        "tel": "",
        "category": "基础设施:公共设施:公共厕所",
        "type": 0,
        "location": {
            "lat": 34.457535,
            "lng": 105.517237
        },
        "ad_info": {
            "adcode": 620502,
            "province": "甘肃省",
            "city": "天水市",
            "district": "秦州区"
        }
    },
    {
        "id": "7264564521572762639",
        "title": "公共厕所",
        "address": "甘肃省天水市甘谷县冀城中路与富强中路交叉口东北方向448米左右",
        "tel": "",
        "category": "基础设施:公共设施:公共厕所",
        "type": 0,
        "location": {
            "lat": 34.755007,
            "lng": 105.344161
        },
        "ad_info": {
            "adcode": 620523,
            "province": "甘肃省",
            "city": "天水市",
            "district": "甘谷县"
        }
    },
    {
        "id": "1117817494642406426",
        "title": "公共厕所",
        "address": "甘肃省天水市甘谷县康庄中路与康庄西路交叉口正西方向83米左右",
        "tel": "",
        "category": "基础设施:公共设施:公共厕所",
        "type": 0,
        "location": {
            "lat": 34.748039,
            "lng": 105.330788
        },
        "ad_info": {
            "adcode": 620523,
            "province": "甘肃省",
            "city": "天水市",
            "district": "甘谷县"
        }
    },
    {
        "id": "2430413475917572379",
        "title": "公共厕所",
        "address": "甘肃省天水市麦积区渭河大桥与牛北公路交叉口正西方向499米左右",
        "tel": "",
        "category": "基础设施:公共设施:公共厕所",
        "type": 0,
        "location": {
            "lat": 34.517348,
            "lng": 106.346558
        },
        "ad_info": {
            "adcode": 620503,
            "province": "甘肃省",
            "city": "天水市",
            "district": "麦积区"
        }
    },
    {
        "id": "9035597778708445987",
        "title": "公共厕所",
        "address": "甘肃省天水市清水县中国邮政(土门邮政代办所)北侧200米",
        "tel": "",
        "category": "基础设施:公共设施:公共厕所",
        "type": 0,
        "location": {
            "lat": 34.771678,
            "lng": 105.877897
        },
        "ad_info": {
            "adcode": 620521,
            "province": "甘肃省",
            "city": "天水市",
            "district": "清水县"
        }
    },
    {
        "id": "6998856084802664398",
        "title": "男洗手间",
        "address": "甘肃省天水市秦州区大众路官泉1号天水兰天城市广场F4",
        "tel": "",
        "category": "基础设施:公共设施:女洗手间",
        "type": 0,
        "location": {
            "lat": 34.575724,
            "lng": 105.722332
        },
        "ad_info": {
            "adcode": 620502,
            "province": "甘肃省",
            "city": "天水市",
            "district": "秦州区"
        }
    },
    {
        "id": "9141205922862746996",
        "title": "公共厕所",
        "address": "甘肃省天水市秦州区新华路与红桥交叉口正北方向107米左右",
        "tel": "",
        "category": "基础设施:公共设施:公共厕所",
        "type": 0,
        "location": {
            "lat": 34.577608,
            "lng": 105.740906
        },
        "ad_info": {
            "adcode": 620502,
            "province": "甘肃省",
            "city": "天水市",
            "district": "秦州区"
        }
    },
    {
        "id": "18202572239369012054",
        "title": "公共厕所",
        "address": "甘肃省天水市秦安县南河西街与滨河南路交叉口东南方向110米左右",
        "tel": "",
        "category": "基础设施:公共设施:公共厕所",
        "type": 0,
        "location": {
            "lat": 34.848912,
            "lng": 105.664251
        },
        "ad_info": {
            "adcode": 620522,
            "province": "甘肃省",
            "city": "天水市",
            "district": "秦安县"
        }
    },
    {
        "id": "11023246255010269152",
        "title": "公共厕所",
        "address": "甘肃省天水市秦州区南郭寺路与羲皇大道西路交叉口东南方向821米左右",
        "tel": "",
        "category": "基础设施:公共设施:公共厕所",
        "type": 0,
        "location": {
            "lat": 34.563299,
            "lng": 105.747746
        },
        "ad_info": {
            "adcode": 620502,
            "province": "甘肃省",
            "city": "天水市",
            "district": "秦州区"
        }
    },
    {
        "id": "14120740849842493948",
        "title": "公共卫生间",
        "address": "甘肃省天水市麦积区渭河大桥与牛北公路交叉口正西方向534米左右",
        "tel": "",
        "category": "基础设施:公共设施:公共厕所",
        "type": 0,
        "location": {
            "lat": 34.517579,
            "lng": 106.346197
        },
        "ad_info": {
            "adcode": 620503,
            "province": "甘肃省",
            "city": "天水市",
            "district": "麦积区"
        }
    },
    {
        "id": "17227997586734965976",
        "title": "洗手间",
        "address": "甘肃省天水市麦积区埠北路与成纪大道东路交叉口正东方向68米左右",
        "tel": "",
        "category": "基础设施:公共设施:公共厕所",
        "type": 0,
        "location": {
            "lat": 34.562399,
            "lng": 105.898372
        },
        "ad_info": {
            "adcode": 620503,
            "province": "甘肃省",
            "city": "天水市",
            "district": "麦积区"
        }
    },
    {
        "id": "17454067525218074975",
        "title": "公共场所",
        "address": "甘肃省天水市秦州区师院路与羲皇大道西路交叉口东北方向35米左右",
        "tel": "",
        "category": "基础设施:公共设施:公共厕所",
        "type": 0,
        "location": {
            "lat": 34.567088,
            "lng": 105.70329
        },
        "ad_info": {
            "adcode": 620502,
            "province": "甘肃省",
            "city": "天水市",
            "district": "秦州区"
        }
    }
]