[
    {
        "id": "13049416958101262732",
        "title": "公共厕所",
        "address": "湖北省天门市侨乡路与致富路交叉口东南方向15米左右",
        "tel": "",
        "category": "基础设施:公共设施:公共厕所",
        "type": 0,
        "location": {
            "lat": 30.570079,
            "lng": 113.332214
        },
        "ad_info": {
            "adcode": 429006,
            "province": "湖北省",
            "city": "",
            "district": "天门市"
        }
    },
    {
        "id": "15713340789977745920",
        "title": "公共厕所",
        "address": "湖北省天门市交通路与幸福路交叉口西南方向91米左右",
        "tel": "",
        "category": "基础设施:公共设施:公共厕所",
        "type": 0,
        "location": {
            "lat": 30.450042,
            "lng": 113.187707
        },
        "ad_info": {
            "adcode": 429006,
            "province": "湖北省",
            "city": "",
            "district": "天门市"
        }
    },
    {
        "id": "500898539307984790",
        "title": "公共厕所",
        "address": "湖北省天门市二龙大道与幸福路交叉口正西方向18米左右",
        "tel": "",
        "category": "基础设施:公共设施:公共厕所",
        "type": 0,
        "location": {
            "lat": 30.856904,
            "lng": 113.348844
        },
        "ad_info": {
            "adcode": 429006,
            "province": "湖北省",
            "city": "",
            "district": "天门市"
        }
    },
    {
        "id": "1096058486465927705",
        "title": "公共厕所",
        "address": "湖北省天门市石河大道与石河街交叉口正南方向131米左右",
        "tel": "",
        "category": "基础设施:公共设施:公共厕所",
        "type": 0,
        "location": {
            "lat": 30.759868,
            "lng": 113.090377
        },
        "ad_info": {
            "adcode": 429006,
            "province": "湖北省",
            "city": "",
            "district": "天门市"
        }
    },
    {
        "id": "11872640428290556843",
        "title": "公共厕所",
        "address": "湖北省天门市博学路与钟惺大道交叉口东北方向183米左右",
        "tel": "",
        "category": "基础设施:公共设施:公共厕所",
        "type": 0,
        "location": {
            "lat": 30.648799,
            "lng": 113.137526
        },
        "ad_info": {
            "adcode": 429006,
            "province": "湖北省",
            "city": "",
            "district": "天门市"
        }
    },
    {
        "id": "15165250007820037910",
        "title": "公共厕所",
        "address": "湖北省天门市君安纸管北侧70米",
        "tel": "",
        "category": "基础设施:公共设施:公共厕所",
        "type": 0,
        "location": {
            "lat": 30.494257,
            "lng": 113.078862
        },
        "ad_info": {
            "adcode": 429006,
            "province": "湖北省",
            "city": "",
            "district": "天门市"
        }
    },
    {
        "id": "9159828326077393914",
        "title": "公共厕所",
        "address": "湖北省天门市西湖路与钟惺大道交叉口西南方向163米左右",
        "tel": "",
        "category": "基础设施:公共设施:公共厕所",
        "type": 0,
        "location": {
            "lat": 30.643362,
            "lng": 113.147846
        },
        "ad_info": {
            "adcode": 429006,
            "province": "湖北省",
            "city": "",
            "district": "天门市"
        }
    },
    {
        "id": "14669934742322174545",
        "title": "公共厕所",
        "address": "湖北省天门市东环路与人民大道交叉口西北方向73米左右",
        "tel": "",
        "category": "基础设施:公共设施:公共厕所",
        "type": 0,
        "location": {
            "lat": 30.645434,
            "lng": 113.187937
        },
        "ad_info": {
            "adcode": 429006,
            "province": "湖北省",
            "city": "",
            "district": "天门市"
        }
    },
    {
        "id": "389357208415790058",
        "title": "公共厕所",
        "address": "湖北省天门市东湖路(南)与官西巷交叉口西北160米",
        "tel": "",
        "category": "基础设施:公共设施:公共厕所",
        "type": 0,
        "location": {
            "lat": 30.644674,
            "lng": 113.169658
        },
        "ad_info": {
            "adcode": 429006,
            "province": "湖北省",
            "city": "",
            "district": "天门市"
        }
    },
    {
        "id": "11662550130869057729",
        "title": "公共厕所",
        "address": "湖北省天门市东风大道与解放大道交叉口东南方向56米左右",
        "tel": "",
        "category": "基础设施:公共设施:公共厕所",
        "type": 0,
        "location": {
            "lat": 30.510121,
            "lng": 113.08231
        },
        "ad_info": {
            "adcode": 429006,
            "province": "湖北省",
            "city": "",
            "district": "天门市"
        }
    },
    {
        "id": "3652079375439985769",
        "title": "公共厕所",
        "address": "湖北省天门市星星大街与西湖路交叉口西北方向55米左右",
        "tel": "",
        "category": "基础设施:公共设施:公共厕所",
        "type": 0,
        "location": {
            "lat": 30.651587,
            "lng": 113.151615
        },
        "ad_info": {
            "adcode": 429006,
            "province": "湖北省",
            "city": "",
            "district": "天门市"
        }
    },
    {
        "id": "11721591168770157790",
        "title": "公共厕所",
        "address": "湖北省天门市接官路164号",
        "tel": "",
        "category": "基础设施:公共设施:公共厕所",
        "type": 0,
        "location": {
            "lat": 30.624745,
            "lng": 113.149414
        },
        "ad_info": {
            "adcode": 429006,
            "province": "湖北省",
            "city": "",
            "district": "天门市"
        }
    },
    {
        "id": "3303138157738169388",
        "title": "公共厕所",
        "address": "湖北省天门市春风河巷与东湖路(南)交叉口东北140米",
        "tel": "",
        "category": "基础设施:公共设施:公共厕所",
        "type": 0,
        "location": {
            "lat": 30.636766,
            "lng": 113.172392
        },
        "ad_info": {
            "adcode": 429006,
            "province": "湖北省",
            "city": "",
            "district": "天门市"
        }
    },
    {
        "id": "5639559405322019974",
        "title": "公共厕所",
        "address": "湖北省天门市彭岳路与青汉大道交叉口正西方向113米左右",
        "tel": "",
        "category": "基础设施:公共设施:公共厕所",
        "type": 0,
        "location": {
            "lat": 30.501958,
            "lng": 113.087476
        },
        "ad_info": {
            "adcode": 429006,
            "province": "湖北省",
            "city": "",
            "district": "天门市"
        }
    },
    {
        "id": "3716936096956540872",
        "title": "公共厕所",
        "address": "湖北省天门市彭市镇上刘小游园",
        "tel": "",
        "category": "基础设施:公共设施:公共厕所",
        "type": 0,
        "location": {
            "lat": 30.453713,
            "lng": 113.194831
        },
        "ad_info": {
            "adcode": 429006,
            "province": "湖北省",
            "city": "",
            "district": "天门市"
        }
    },
    {
        "id": "8948233327668029476",
        "title": "公共厕所",
        "address": "湖北省天门市公旺大街天门CBD购物广场(西南角)",
        "tel": "",
        "category": "基础设施:公共设施:公共厕所",
        "type": 0,
        "location": {
            "lat": 30.647926,
            "lng": 113.148917
        },
        "ad_info": {
            "adcode": 429006,
            "province": "湖北省",
            "city": "",
            "district": "天门市"
        }
    },
    {
        "id": "15979566794384023638",
        "title": "公共厕所",
        "address": "湖北省天门市干一新城小区北侧290米",
        "tel": "",
        "category": "基础设施:公共设施:公共厕所",
        "type": 0,
        "location": {
            "lat": 30.546257,
            "lng": 113.395596
        },
        "ad_info": {
            "adcode": 429006,
            "province": "湖北省",
            "city": "",
            "district": "天门市"
        }
    },
    {
        "id": "4563795461246313460",
        "title": "公共厕所",
        "address": "湖北省天门市大桥路与将军路交叉口正东方向286米左右",
        "tel": "",
        "category": "基础设施:公共设施:公共厕所",
        "type": 0,
        "location": {
            "lat": 30.661025,
            "lng": 113.087352
        },
        "ad_info": {
            "adcode": 429006,
            "province": "湖北省",
            "city": "",
            "district": "天门市"
        }
    },
    {
        "id": "3178454476491307183",
        "title": "公共厕所",
        "address": "湖北省天门市大河村社区公园",
        "tel": "",
        "category": "基础设施:公共设施:公共厕所",
        "type": 0,
        "location": {
            "lat": 30.637709,
            "lng": 113.187995
        },
        "ad_info": {
            "adcode": 429006,
            "province": "湖北省",
            "city": "",
            "district": "天门市"
        }
    },
    {
        "id": "745551503180650454",
        "title": "公共厕所",
        "address": "湖北省天门市北湖大道与西寺路交叉口正东方向133米左右",
        "tel": "",
        "category": "基础设施:公共设施:公共厕所",
        "type": 0,
        "location": {
            "lat": 30.667755,
            "lng": 113.167669
        },
        "ad_info": {
            "adcode": 429006,
            "province": "湖北省",
            "city": "",
            "district": "天门市"
        }
    },
    {
        "id": "11556345970606351680",
        "title": "公共厕所",
        "address": "湖北省天门市皂市镇天门北站",
        "tel": "",
        "category": "基础设施:公共设施:公共厕所",
        "type": 0,
        "location": {
            "lat": 30.865133,
            "lng": 113.315978
        },
        "ad_info": {
            "adcode": 429006,
            "province": "湖北省",
            "city": "",
            "district": "天门市"
        }
    },
    {
        "id": "2088024102823635853",
        "title": "公共厕所",
        "address": "湖北省天门市东江道与纺织路交叉口正北方向144米左右",
        "tel": "",
        "category": "基础设施:公共设施:公共厕所",
        "type": 0,
        "location": {
            "lat": 30.651549,
            "lng": 113.180474
        },
        "ad_info": {
            "adcode": 429006,
            "province": "湖北省",
            "city": "",
            "district": "天门市"
        }
    },
    {
        "id": "15054767328104692877",
        "title": "公共厕所",
        "address": "湖北省天门市渡口街与荷沙公路交叉口东南方向28米左右",
        "tel": "",
        "category": "基础设施:公共设施:公共厕所",
        "type": 0,
        "location": {
            "lat": 30.606248,
            "lng": 113.22368
        },
        "ad_info": {
            "adcode": 429006,
            "province": "湖北省",
            "city": "",
            "district": "天门市"
        }
    },
    {
        "id": "1161095204992378859",
        "title": "公共厕所",
        "address": "湖北省天门市商贸大道与蒋湖大道交叉口西南方向99米左右",
        "tel": "",
        "category": "基础设施:公共设施:公共厕所",
        "type": 0,
        "location": {
            "lat": 30.633953,
            "lng": 112.85635
        },
        "ad_info": {
            "adcode": 429006,
            "province": "湖北省",
            "city": "",
            "district": "天门市"
        }
    },
    {
        "id": "1848016847425991442",
        "title": "公共厕所",
        "address": "湖北省天门市",
        "tel": "",
        "category": "基础设施:公共设施:公共厕所",
        "type": 0,
        "location": {
            "lat": 30.681672,
            "lng": 113.039572
        },
        "ad_info": {
            "adcode": 429006,
            "province": "湖北省",
            "city": "",
            "district": "天门市"
        }
    },
    {
        "id": "13305802358181112148",
        "title": "公共厕所",
        "address": "湖北省天门市东环路与北湖大道交叉口西南方向72米左右",
        "tel": "",
        "category": "基础设施:公共设施:公共厕所",
        "type": 0,
        "location": {
            "lat": 30.66228,
            "lng": 113.190724
        },
        "ad_info": {
            "adcode": 429006,
            "province": "湖北省",
            "city": "",
            "district": "天门市"
        }
    },
    {
        "id": "6171790896412729425",
        "title": "公共厕所",
        "address": "湖北省天门市G42沪蓉高速入口与G42沪蓉高速交叉口北460米",
        "tel": "",
        "category": "基础设施:公共设施:公共厕所",
        "type": 0,
        "location": {
            "lat": 30.829507,
            "lng": 113.284156
        },
        "ad_info": {
            "adcode": 429006,
            "province": "湖北省",
            "city": "",
            "district": "天门市"
        }
    },
    {
        "id": "1248041834800512976",
        "title": "公共厕所",
        "address": "湖北省天门市西寺路天门市体育中心",
        "tel": "",
        "category": "基础设施:公共设施:公共厕所",
        "type": 0,
        "location": {
            "lat": 30.661359,
            "lng": 113.164425
        },
        "ad_info": {
            "adcode": 429006,
            "province": "湖北省",
            "city": "",
            "district": "天门市"
        }
    },
    {
        "id": "5638905041043957856",
        "title": "公共厕所",
        "address": "湖北省天门市G240与保安桥北路交叉口东北方向275米左右",
        "tel": "",
        "category": "基础设施:公共设施:公共厕所",
        "type": 0,
        "location": {
            "lat": 30.523437,
            "lng": 113.097981
        },
        "ad_info": {
            "adcode": 429006,
            "province": "湖北省",
            "city": "",
            "district": "天门市"
        }
    },
    {
        "id": "12600574410977540821",
        "title": "公共厕所",
        "address": "湖北省天门市人民大道与城东路交叉口正西方向82米左右",
        "tel": "",
        "category": "基础设施:公共设施:公共厕所",
        "type": 0,
        "location": {
            "lat": 30.644656,
            "lng": 113.181384
        },
        "ad_info": {
            "adcode": 429006,
            "province": "湖北省",
            "city": "",
            "district": "天门市"
        }
    },
    {
        "id": "10741350129332765437",
        "title": "公共厕所",
        "address": "湖北省天门市义乌路与创业大道交叉口西南方向334米左右",
        "tel": "",
        "category": "基础设施:公共设施:公共厕所",
        "type": 0,
        "location": {
            "lat": 30.621316,
            "lng": 113.15953
        },
        "ad_info": {
            "adcode": 429006,
            "province": "湖北省",
            "city": "",
            "district": "天门市"
        }
    },
    {
        "id": "5028811338248727094",
        "title": "公共厕所",
        "address": "湖北省天门市侨兴街与接官路交叉口东北方向63米左右",
        "tel": "",
        "category": "基础设施:公共设施:公共厕所",
        "type": 0,
        "location": {
            "lat": 30.635628,
            "lng": 113.1549
        },
        "ad_info": {
            "adcode": 429006,
            "province": "湖北省",
            "city": "",
            "district": "天门市"
        }
    },
    {
        "id": "755861348430562957",
        "title": "公共厕所",
        "address": "湖北省天门市三乡路与创业大道交叉口正北方向254米左右",
        "tel": "",
        "category": "基础设施:公共设施:公共厕所",
        "type": 0,
        "location": {
            "lat": 30.623498,
            "lng": 113.175306
        },
        "ad_info": {
            "adcode": 429006,
            "province": "湖北省",
            "city": "",
            "district": "天门市"
        }
    },
    {
        "id": "3591005482793222140",
        "title": "公共厕所",
        "address": "湖北省天门市东壕堤与东湖路交叉口东北方向168米左右",
        "tel": "",
        "category": "基础设施:公共设施:公共厕所",
        "type": 0,
        "location": {
            "lat": 30.655975,
            "lng": 113.172173
        },
        "ad_info": {
            "adcode": 429006,
            "province": "湖北省",
            "city": "",
            "district": "天门市"
        }
    },
    {
        "id": "7744417644574770290",
        "title": "公共厕所",
        "address": "湖北省天门市熊河路与状元路交叉口东北方向152米左右",
        "tel": "",
        "category": "基础设施:公共设施:公共厕所",
        "type": 0,
        "location": {
            "lat": 30.643284,
            "lng": 113.142369
        },
        "ad_info": {
            "adcode": 429006,
            "province": "湖北省",
            "city": "",
            "district": "天门市"
        }
    },
    {
        "id": "47749351692022815",
        "title": "公共厕所",
        "address": "湖北省天门市保安桥北路与新岳大道交叉口东北方向92米左右",
        "tel": "",
        "category": "基础设施:公共设施:公共厕所",
        "type": 0,
        "location": {
            "lat": 30.518803,
            "lng": 113.094306
        },
        "ad_info": {
            "adcode": 429006,
            "province": "湖北省",
            "city": "",
            "district": "天门市"
        }
    },
    {
        "id": "9309029681580174428",
        "title": "公共厕所",
        "address": "湖北省天门市四巷子与竟陵西街交叉口东北方向28米左右",
        "tel": "",
        "category": "基础设施:公共设施:公共厕所",
        "type": 0,
        "location": {
            "lat": 30.65103,
            "lng": 113.156598
        },
        "ad_info": {
            "adcode": 429006,
            "province": "湖北省",
            "city": "",
            "district": "天门市"
        }
    },
    {
        "id": "8301610927774811602",
        "title": "公共厕所",
        "address": "湖北省天门市官侨路与迎才路交叉口东北方向191米左右",
        "tel": "",
        "category": "基础设施:公共设施:公共厕所",
        "type": 0,
        "location": {
            "lat": 30.626213,
            "lng": 113.157481
        },
        "ad_info": {
            "adcode": 429006,
            "province": "湖北省",
            "city": "",
            "district": "天门市"
        }
    },
    {
        "id": "4543010095876218666",
        "title": "公共厕所",
        "address": "湖北省天门市Y036与天北路交叉口正南方向165米左右",
        "tel": "",
        "category": "基础设施:公共设施:公共厕所",
        "type": 0,
        "location": {
            "lat": 30.746162,
            "lng": 113.219856
        },
        "ad_info": {
            "adcode": 429006,
            "province": "湖北省",
            "city": "",
            "district": "天门市"
        }
    },
    {
        "id": "2241201617397322140",
        "title": "公共厕所",
        "address": "湖北省天门市接官路与汇侨大道交叉口正西方向153米左右",
        "tel": "",
        "category": "基础设施:公共设施:公共厕所",
        "type": 0,
        "location": {
            "lat": 30.633631,
            "lng": 113.152201
        },
        "ad_info": {
            "adcode": 429006,
            "province": "湖北省",
            "city": "",
            "district": "天门市"
        }
    },
    {
        "id": "3821608145235313644",
        "title": "公共厕所",
        "address": "湖北省天门市S107与皂市河大桥交叉口正西方向1781米左右",
        "tel": "",
        "category": "基础设施:公共设施:公共厕所",
        "type": 0,
        "location": {
            "lat": 30.865362,
            "lng": 113.316093
        },
        "ad_info": {
            "adcode": 429006,
            "province": "湖北省",
            "city": "",
            "district": "天门市"
        }
    },
    {
        "id": "4905669513356097109",
        "title": "公共厕所",
        "address": "湖北省天门市G240与张洪线交叉口西南方向53米左右",
        "tel": "",
        "category": "基础设施:公共设施:公共厕所",
        "type": 0,
        "location": {
            "lat": 30.603303,
            "lng": 113.139846
        },
        "ad_info": {
            "adcode": 429006,
            "province": "湖北省",
            "city": "",
            "district": "天门市"
        }
    },
    {
        "id": "7109991282156550131",
        "title": "公共厕所",
        "address": "湖北省天门市S213与李毛路交叉口西南方向388米左右",
        "tel": "",
        "category": "基础设施:公共设施:公共厕所",
        "type": 0,
        "location": {
            "lat": 30.838706,
            "lng": 113.287438
        },
        "ad_info": {
            "adcode": 429006,
            "province": "湖北省",
            "city": "",
            "district": "天门市"
        }
    },
    {
        "id": "16488126187492341330",
        "title": "公共厕所",
        "address": "湖北省天门市孝义路与青汉大道交叉口正西方向104米左右",
        "tel": "",
        "category": "基础设施:公共设施:公共厕所",
        "type": 0,
        "location": {
            "lat": 30.506913,
            "lng": 113.089647
        },
        "ad_info": {
            "adcode": 429006,
            "province": "湖北省",
            "city": "",
            "district": "天门市"
        }
    },
    {
        "id": "7757179732826991663",
        "title": "公共厕所",
        "address": "湖北省天门市创业大道与西湖路交叉口西南方向217米左右",
        "tel": "",
        "category": "基础设施:公共设施:公共厕所",
        "type": 0,
        "location": {
            "lat": 30.623312,
            "lng": 113.140639
        },
        "ad_info": {
            "adcode": 429006,
            "province": "湖北省",
            "city": "",
            "district": "天门市"
        }
    },
    {
        "id": "378284753603412910",
        "title": "公共厕所",
        "address": "湖北省天门市创业大道与状元路交叉口西南方向184米左右",
        "tel": "",
        "category": "基础设施:公共设施:公共厕所",
        "type": 0,
        "location": {
            "lat": 30.625447,
            "lng": 113.133928
        },
        "ad_info": {
            "adcode": 429006,
            "province": "湖北省",
            "city": "",
            "district": "天门市"
        }
    },
    {
        "id": "2499612881979956863",
        "title": "公共厕所",
        "address": "湖北省天门市汇侨大道与西湖路交叉口正南方向238米左右",
        "tel": "",
        "category": "基础设施:公共设施:公共厕所",
        "type": 0,
        "location": {
            "lat": 30.633427,
            "lng": 113.145692
        },
        "ad_info": {
            "adcode": 429006,
            "province": "湖北省",
            "city": "",
            "district": "天门市"
        }
    },
    {
        "id": "4818928247030946015",
        "title": "公共厕所",
        "address": "湖北省天门市九真大道与教育路交叉口正南方向356米左右",
        "tel": "",
        "category": "基础设施:公共设施:公共厕所",
        "type": 0,
        "location": {
            "lat": 30.73313,
            "lng": 113.217334
        },
        "ad_info": {
            "adcode": 429006,
            "province": "湖北省",
            "city": "",
            "district": "天门市"
        }
    },
    {
        "id": "1956780022673297055",
        "title": "公共厕所",
        "address": "湖北省天门市汇侨大道与状元路交叉口东北方向182米左右",
        "tel": "",
        "category": "基础设施:公共设施:公共厕所",
        "type": 0,
        "location": {
            "lat": 30.637849,
            "lng": 113.140537
        },
        "ad_info": {
            "adcode": 429006,
            "province": "湖北省",
            "city": "",
            "district": "天门市"
        }
    },
    {
        "id": "17981272006672775191",
        "title": "公共厕所",
        "address": "湖北省天门市南洋大道与西湖路交叉口东北方向224米左右",
        "tel": "",
        "category": "基础设施:公共设施:公共厕所",
        "type": 0,
        "location": {
            "lat": 30.633234,
            "lng": 113.145445
        },
        "ad_info": {
            "adcode": 429006,
            "province": "湖北省",
            "city": "",
            "district": "天门市"
        }
    },
    {
        "id": "8446182192235023709",
        "title": "公共厕所",
        "address": "湖北省天门市沿河路与稳健路交叉口正北方向128米左右",
        "tel": "",
        "category": "基础设施:公共设施:公共厕所",
        "type": 0,
        "location": {
            "lat": 30.501465,
            "lng": 113.079094
        },
        "ad_info": {
            "adcode": 429006,
            "province": "湖北省",
            "city": "",
            "district": "天门市"
        }
    },
    {
        "id": "8636947976821731503",
        "title": "公共厕所",
        "address": "湖北省天门市天仙大道与接官路交叉口东北方向124米左右",
        "tel": "",
        "category": "基础设施:公共设施:公共厕所",
        "type": 0,
        "location": {
            "lat": 30.615314,
            "lng": 113.145617
        },
        "ad_info": {
            "adcode": 429006,
            "province": "湖北省",
            "city": "",
            "district": "天门市"
        }
    },
    {
        "id": "17439573099240512210",
        "title": "公共厕所",
        "address": "湖北省天门市永镇路与蒋场老街交叉口正北方向318米左右",
        "tel": "",
        "category": "基础设施:公共设施:公共厕所",
        "type": 0,
        "location": {
            "lat": 30.611093,
            "lng": 112.945263
        },
        "ad_info": {
            "adcode": 429006,
            "province": "湖北省",
            "city": "",
            "district": "天门市"
        }
    },
    {
        "id": "17230135651973788094",
        "title": "公共厕所",
        "address": "湖北省天门市侯官口大街与接官路交叉口东南方向170米左右",
        "tel": "",
        "category": "基础设施:公共设施:公共厕所",
        "type": 0,
        "location": {
            "lat": 30.619166,
            "lng": 113.148859
        },
        "ad_info": {
            "adcode": 429006,
            "province": "湖北省",
            "city": "",
            "district": "天门市"
        }
    },
    {
        "id": "11170518044689158984",
        "title": "公共厕所",
        "address": "湖北省天门市天仙大道辅路与龙腾大道交叉口正东方向406米左右",
        "tel": "",
        "category": "基础设施:公共设施:公共厕所",
        "type": 0,
        "location": {
            "lat": 30.435459,
            "lng": 113.426478
        },
        "ad_info": {
            "adcode": 429006,
            "province": "湖北省",
            "city": "",
            "district": "天门市"
        }
    },
    {
        "id": "2130279682345774540",
        "title": "公共厕所",
        "address": "湖北省天门市四牌楼街与鄢家巷交叉口东北方向72米左右",
        "tel": "",
        "category": "基础设施:公共设施:公共厕所",
        "type": 0,
        "location": {
            "lat": 30.65217,
            "lng": 113.166476
        },
        "ad_info": {
            "adcode": 429006,
            "province": "湖北省",
            "city": "",
            "district": "天门市"
        }
    },
    {
        "id": "2168323291844025979",
        "title": "公共厕所",
        "address": "湖北省天门市汇侨大道与涂台路交叉口正南方向131米左右",
        "tel": "",
        "category": "基础设施:公共设施:公共厕所",
        "type": 0,
        "location": {
            "lat": 30.63015,
            "lng": 113.168722
        },
        "ad_info": {
            "adcode": 429006,
            "province": "湖北省",
            "city": "",
            "district": "天门市"
        }
    },
    {
        "id": "17838757475111290287",
        "title": "公共厕所",
        "address": "湖北省天门市横林中学北侧100米",
        "tel": "",
        "category": "基础设施:公共设施:公共厕所",
        "type": 0,
        "location": {
            "lat": 30.542378,
            "lng": 113.189556
        },
        "ad_info": {
            "adcode": 429006,
            "province": "湖北省",
            "city": "",
            "district": "天门市"
        }
    },
    {
        "id": "7592452698280080350",
        "title": "公共厕所",
        "address": "湖北省天门市钟惺大道与东湖路(南)交叉口西100米",
        "tel": "",
        "category": "基础设施:公共设施:公共厕所",
        "type": 0,
        "location": {
            "lat": 30.634245,
            "lng": 113.171337
        },
        "ad_info": {
            "adcode": 429006,
            "province": "湖北省",
            "city": "",
            "district": "天门市"
        }
    },
    {
        "id": "6145997114833017428",
        "title": "公共厕所",
        "address": "湖北省天门市石北路与石家巷交叉口正北方向66米左右",
        "tel": "",
        "category": "基础设施:公共设施:公共厕所",
        "type": 0,
        "location": {
            "lat": 30.759208,
            "lng": 113.093844
        },
        "ad_info": {
            "adcode": 429006,
            "province": "湖北省",
            "city": "",
            "district": "天门市"
        }
    },
    {
        "id": "13009719496906175150",
        "title": "公共厕所",
        "address": "湖北省天门市孝义路与岳飞大道交叉口东南方向319米左右",
        "tel": "",
        "category": "基础设施:公共设施:公共厕所",
        "type": 0,
        "location": {
            "lat": 30.50505,
            "lng": 113.095864
        },
        "ad_info": {
            "adcode": 429006,
            "province": "湖北省",
            "city": "",
            "district": "天门市"
        }
    },
    {
        "id": "15595637192458039730",
        "title": "公共厕所",
        "address": "湖北省天门市周柳公路与天北路交叉口西南方向1295米左右",
        "tel": "",
        "category": "基础设施:公共设施:公共厕所",
        "type": 0,
        "location": {
            "lat": 30.768999,
            "lng": 113.235073
        },
        "ad_info": {
            "adcode": 429006,
            "province": "湖北省",
            "city": "",
            "district": "天门市"
        }
    },
    {
        "id": "12181560969815782892",
        "title": "公共厕所",
        "address": "湖北省天门市公旺大街与友谊路交叉口正东方向164米左右",
        "tel": "",
        "category": "基础设施:公共设施:公共厕所",
        "type": 0,
        "location": {
            "lat": 30.645702,
            "lng": 113.154982
        },
        "ad_info": {
            "adcode": 429006,
            "province": "湖北省",
            "city": "",
            "district": "天门市"
        }
    },
    {
        "id": "12111599558249346656",
        "title": "公共厕所",
        "address": "湖北省天门市南坝堤路与官渡巷交叉口东北方向38米左右",
        "tel": "",
        "category": "基础设施:公共设施:公共厕所",
        "type": 0,
        "location": {
            "lat": 30.642919,
            "lng": 113.160196
        },
        "ad_info": {
            "adcode": 429006,
            "province": "湖北省",
            "city": "",
            "district": "天门市"
        }
    },
    {
        "id": "18115615757160461941",
        "title": "公共厕所",
        "address": "湖北省天门市滨江大道与锦江大道交叉口正北方向258米左右",
        "tel": "",
        "category": "基础设施:公共设施:公共厕所",
        "type": 0,
        "location": {
            "lat": 30.398168,
            "lng": 113.446356
        },
        "ad_info": {
            "adcode": 429006,
            "province": "湖北省",
            "city": "",
            "district": "天门市"
        }
    },
    {
        "id": "14293854532228277547",
        "title": "公共厕所",
        "address": "湖北省天门市人民大道与状元路交叉口东北方向215米左右",
        "tel": "",
        "category": "基础设施:公共设施:公共厕所",
        "type": 0,
        "location": {
            "lat": 30.6599,
            "lng": 113.146396
        },
        "ad_info": {
            "adcode": 429006,
            "province": "湖北省",
            "city": "",
            "district": "天门市"
        }
    },
    {
        "id": "4036076314073628733",
        "title": "公共厕所",
        "address": "湖北省天门市天仙大道与科实路交叉口正南方向276米左右",
        "tel": "",
        "category": "基础设施:公共设施:公共厕所",
        "type": 0,
        "location": {
            "lat": 30.598725,
            "lng": 113.161759
        },
        "ad_info": {
            "adcode": 429006,
            "province": "湖北省",
            "city": "",
            "district": "天门市"
        }
    },
    {
        "id": "6189551777897475322",
        "title": "公共厕所",
        "address": "湖北省天门市工农路与沿河路交叉口正南方向64米左右",
        "tel": "",
        "category": "基础设施:公共设施:公共厕所",
        "type": 0,
        "location": {
            "lat": 30.504697,
            "lng": 113.079655
        },
        "ad_info": {
            "adcode": 429006,
            "province": "湖北省",
            "city": "",
            "district": "天门市"
        }
    },
    {
        "id": "7948529038403512658",
        "title": "公共厕所",
        "address": "湖北省天门市官西巷与马家湾巷交叉口正南方向38米左右",
        "tel": "",
        "category": "基础设施:公共设施:公共厕所",
        "type": 0,
        "location": {
            "lat": 30.642152,
            "lng": 113.16605
        },
        "ad_info": {
            "adcode": 429006,
            "province": "湖北省",
            "city": "",
            "district": "天门市"
        }
    },
    {
        "id": "12033003976463509191",
        "title": "公共厕所",
        "address": "湖北省天门市星星大街与状元路辅路交叉口正北方向69米",
        "tel": "",
        "category": "基础设施:公共设施:公共厕所",
        "type": 0,
        "location": {
            "lat": 30.653332,
            "lng": 113.142258
        },
        "ad_info": {
            "adcode": 429006,
            "province": "湖北省",
            "city": "",
            "district": "天门市"
        }
    },
    {
        "id": "14880231776312957357",
        "title": "公共厕所",
        "address": "湖北省天门市三乡路辅路与汇侨大道辅路交叉口西南方向144米左右",
        "tel": "",
        "category": "基础设施:公共设施:公共厕所",
        "type": 0,
        "location": {
            "lat": 30.6305,
            "lng": 113.172448
        },
        "ad_info": {
            "adcode": 429006,
            "province": "湖北省",
            "city": "",
            "district": "天门市"
        }
    },
    {
        "id": "11742291951288714391",
        "title": "公共厕所",
        "address": "湖北省天门市东湖路与竟陵东街交叉口正东方向101米左右",
        "tel": "",
        "category": "基础设施:公共设施:公共厕所",
        "type": 0,
        "location": {
            "lat": 30.64736,
            "lng": 113.17177
        },
        "ad_info": {
            "adcode": 429006,
            "province": "湖北省",
            "city": "",
            "district": "天门市"
        }
    },
    {
        "id": "17299797271240780784",
        "title": "公共厕所",
        "address": "湖北省天门市超元彩钢瓦南侧260米",
        "tel": "",
        "category": "基础设施:公共设施:公共厕所",
        "type": 0,
        "location": {
            "lat": 30.565385,
            "lng": 113.124047
        },
        "ad_info": {
            "adcode": 429006,
            "province": "湖北省",
            "city": "",
            "district": "天门市"
        }
    },
    {
        "id": "16321816774837919885",
        "title": "公共厕所",
        "address": "湖北省天门市天门市高新园花湖村卫生室西侧",
        "tel": "",
        "category": "基础设施:公共设施:公共厕所",
        "type": 0,
        "location": {
            "lat": 30.607343,
            "lng": 113.1072
        },
        "ad_info": {
            "adcode": 429006,
            "province": "湖北省",
            "city": "",
            "district": "天门市"
        }
    },
    {
        "id": "8905739810426516857",
        "title": "公共厕所",
        "address": "湖北省天门市人民大道江家河游园(西南角)",
        "tel": "",
        "category": "基础设施:公共设施:公共厕所",
        "type": 0,
        "location": {
            "lat": 30.659056,
            "lng": 113.142248
        },
        "ad_info": {
            "adcode": 429006,
            "province": "湖北省",
            "city": "",
            "district": "天门市"
        }
    },
    {
        "id": "5869161114628857522",
        "title": "公共厕所",
        "address": "湖北省天门市人民大道与雁叫关巷交叉口正西方向14米左右",
        "tel": "",
        "category": "基础设施:公共设施:公共厕所",
        "type": 0,
        "location": {
            "lat": 30.649598,
            "lng": 113.161932
        },
        "ad_info": {
            "adcode": 429006,
            "province": "湖北省",
            "city": "",
            "district": "天门市"
        }
    },
    {
        "id": "1367265213419475670",
        "title": "公共厕所",
        "address": "湖北省天门市古雁桥巷与胜利二路交叉口正东方向26米左右",
        "tel": "",
        "category": "基础设施:公共设施:公共厕所",
        "type": 0,
        "location": {
            "lat": 30.650026,
            "lng": 113.162871
        },
        "ad_info": {
            "adcode": 429006,
            "province": "湖北省",
            "city": "",
            "district": "天门市"
        }
    },
    {
        "id": "13364763447291199458",
        "title": "公共厕所",
        "address": "湖北省天门市武大线与白马路交叉口正北方向23米左右",
        "tel": "",
        "category": "基础设施:公共设施:公共厕所",
        "type": 0,
        "location": {
            "lat": 30.543121,
            "lng": 113.378556
        },
        "ad_info": {
            "adcode": 429006,
            "province": "湖北省",
            "city": "",
            "district": "天门市"
        }
    },
    {
        "id": "2217048651264813000",
        "title": "公共厕所",
        "address": "湖北省天门市S213与天北路交叉口西南方向917米左右",
        "tel": "",
        "category": "基础设施:公共设施:公共厕所",
        "type": 0,
        "location": {
            "lat": 30.814648,
            "lng": 113.272107
        },
        "ad_info": {
            "adcode": 429006,
            "province": "湖北省",
            "city": "",
            "district": "天门市"
        }
    },
    {
        "id": "8732737460456147356",
        "title": "公共厕所",
        "address": "湖北省天门市义乌路与天仙大道交叉口西北方向225米左右",
        "tel": "",
        "category": "基础设施:公共设施:公共厕所",
        "type": 0,
        "location": {
            "lat": 30.609762,
            "lng": 113.150401
        },
        "ad_info": {
            "adcode": 429006,
            "province": "湖北省",
            "city": "",
            "district": "天门市"
        }
    },
    {
        "id": "14821461995589239651",
        "title": "公共厕所",
        "address": "湖北省天门市S213与三乡路交叉口西北方向78米左右",
        "tel": "",
        "category": "基础设施:公共设施:公共厕所",
        "type": 0,
        "location": {
            "lat": 30.58494,
            "lng": 113.188274
        },
        "ad_info": {
            "adcode": 429006,
            "province": "湖北省",
            "city": "",
            "district": "天门市"
        }
    },
    {
        "id": "9917460272541280759",
        "title": "公共厕所",
        "address": "湖北省天门市X003与天仙大道交叉口西北方向313米左右",
        "tel": "",
        "category": "基础设施:公共设施:公共厕所",
        "type": 0,
        "location": {
            "lat": 30.513427,
            "lng": 113.272763
        },
        "ad_info": {
            "adcode": 429006,
            "province": "湖北省",
            "city": "",
            "district": "天门市"
        }
    },
    {
        "id": "18271083531915215389",
        "title": "公共厕所",
        "address": "湖北省天门市关羽大道与马跃北路交叉口正北方向642米左右",
        "tel": "",
        "category": "基础设施:公共设施:公共厕所",
        "type": 0,
        "location": {
            "lat": 30.447056,
            "lng": 113.275028
        },
        "ad_info": {
            "adcode": 429006,
            "province": "湖北省",
            "city": "",
            "district": "天门市"
        }
    },
    {
        "id": "11326154390581352573",
        "title": "公共厕所",
        "address": "湖北省天门市S107与Y026交叉口东北方向133米左右",
        "tel": "",
        "category": "基础设施:公共设施:公共厕所",
        "type": 0,
        "location": {
            "lat": 30.825596,
            "lng": 112.797859
        },
        "ad_info": {
            "adcode": 429006,
            "province": "湖北省",
            "city": "",
            "district": "天门市"
        }
    },
    {
        "id": "1112056136411831673",
        "title": "公共厕所",
        "address": "湖北省天门市多祥大道与天仙大道交叉口正南方向175米左右",
        "tel": "",
        "category": "基础设施:公共设施:公共厕所",
        "type": 0,
        "location": {
            "lat": 30.409213,
            "lng": 113.442488
        },
        "ad_info": {
            "adcode": 429006,
            "province": "湖北省",
            "city": "",
            "district": "天门市"
        }
    },
    {
        "id": "3180841235874390865",
        "title": "公共厕所",
        "address": "湖北省天门市S213与天北路交叉口西南方向564米左右",
        "tel": "",
        "category": "基础设施:公共设施:公共厕所",
        "type": 0,
        "location": {
            "lat": 30.817253,
            "lng": 113.274299
        },
        "ad_info": {
            "adcode": 429006,
            "province": "湖北省",
            "city": "",
            "district": "天门市"
        }
    },
    {
        "id": "1437793876556999158",
        "title": "公共厕所",
        "address": "湖北省天门市五七大道与渡口街交叉口正西方向92米左右",
        "tel": "",
        "category": "基础设施:公共设施:公共厕所",
        "type": 0,
        "location": {
            "lat": 30.608681,
            "lng": 113.222404
        },
        "ad_info": {
            "adcode": 429006,
            "province": "湖北省",
            "city": "",
            "district": "天门市"
        }
    },
    {
        "id": "408500634084216746",
        "title": "公共厕所",
        "address": "湖北省天门市G347与S311交叉口正东方向69米左右",
        "tel": "",
        "category": "基础设施:公共设施:公共厕所",
        "type": 0,
        "location": {
            "lat": 30.844151,
            "lng": 113.35414
        },
        "ad_info": {
            "adcode": 429006,
            "province": "湖北省",
            "city": "",
            "district": "天门市"
        }
    },
    {
        "id": "4874642312966207431",
        "title": "公共厕所",
        "address": "湖北省天门市G234与G348交叉口正东方向477米左右",
        "tel": "",
        "category": "基础设施:公共设施:公共厕所",
        "type": 0,
        "location": {
            "lat": 30.702544,
            "lng": 112.62426
        },
        "ad_info": {
            "adcode": 429006,
            "province": "湖北省",
            "city": "",
            "district": "天门市"
        }
    },
    {
        "id": "11152683310297036890",
        "title": "公共厕所",
        "address": "湖北省天门市Y010与Y033交叉口西南方向903米左右",
        "tel": "",
        "category": "基础设施:公共设施:公共厕所",
        "type": 0,
        "location": {
            "lat": 30.662803,
            "lng": 113.241181
        },
        "ad_info": {
            "adcode": 429006,
            "province": "湖北省",
            "city": "",
            "district": "天门市"
        }
    },
    {
        "id": "18140601669187693689",
        "title": "公共厕所",
        "address": "湖北省天门市将军大道与花园街交叉口东南方向748米左右",
        "tel": "",
        "category": "基础设施:公共设施:公共厕所",
        "type": 0,
        "location": {
            "lat": 30.602119,
            "lng": 112.952975
        },
        "ad_info": {
            "adcode": 429006,
            "province": "湖北省",
            "city": "",
            "district": "天门市"
        }
    },
    {
        "id": "15989623319416894698",
        "title": "公共厕所",
        "address": "湖北省天门市寿合街与荷沙公路交叉口东北方向195米左右",
        "tel": "",
        "category": "基础设施:公共设施:公共厕所",
        "type": 0,
        "location": {
            "lat": 30.60924,
            "lng": 113.231427
        },
        "ad_info": {
            "adcode": 429006,
            "province": "湖北省",
            "city": "",
            "district": "天门市"
        }
    },
    {
        "id": "5777433249481428621",
        "title": "公共厕所",
        "address": "湖北省天门市四巷子与竟陵西街交叉口西北方向145米左右",
        "tel": "",
        "category": "基础设施:公共设施:公共厕所",
        "type": 0,
        "location": {
            "lat": 30.651919,
            "lng": 113.155678
        },
        "ad_info": {
            "adcode": 429006,
            "province": "湖北省",
            "city": "",
            "district": "天门市"
        }
    },
    {
        "id": "14706891753078559688",
        "title": "公共厕所",
        "address": "湖北省天门市城东路与车湾巷交叉口正南方向206米左右",
        "tel": "",
        "category": "基础设施:公共设施:公共厕所",
        "type": 0,
        "location": {
            "lat": 30.641755,
            "lng": 113.176312
        },
        "ad_info": {
            "adcode": 429006,
            "province": "湖北省",
            "city": "",
            "district": "天门市"
        }
    },
    {
        "id": "9160257920460772821",
        "title": "公共厕所",
        "address": "湖北省天门市人民大道与汉北路交叉口东北方向148米左右",
        "tel": "",
        "category": "基础设施:公共设施:公共厕所",
        "type": 0,
        "location": {
            "lat": 30.659503,
            "lng": 113.14274
        },
        "ad_info": {
            "adcode": 429006,
            "province": "湖北省",
            "city": "",
            "district": "天门市"
        }
    },
    {
        "id": "14346071106916644263",
        "title": "公共厕所",
        "address": "湖北省天门市S107与新黄路交叉口正东方向738米左右",
        "tel": "",
        "category": "基础设施:公共设施:公共厕所",
        "type": 0,
        "location": {
            "lat": 30.848975,
            "lng": 113.30147
        },
        "ad_info": {
            "adcode": 429006,
            "province": "湖北省",
            "city": "",
            "district": "天门市"
        }
    },
    {
        "id": "1922724674710480936",
        "title": "公共厕所",
        "address": "湖北省天门市汉北路与草鞋店街交叉口正南方向137米左右",
        "tel": "",
        "category": "基础设施:公共设施:公共厕所",
        "type": 0,
        "location": {
            "lat": 30.663488,
            "lng": 113.143592
        },
        "ad_info": {
            "adcode": 429006,
            "province": "湖北省",
            "city": "",
            "district": "天门市"
        }
    },
    {
        "id": "15803436182130814030",
        "title": "公共厕所",
        "address": "湖北省天门市龙潭巷与官渡巷交叉口东北140米",
        "tel": "",
        "category": "基础设施:公共设施:公共厕所",
        "type": 0,
        "location": {
            "lat": 30.643726,
            "lng": 113.160878
        },
        "ad_info": {
            "adcode": 429006,
            "province": "湖北省",
            "city": "",
            "district": "天门市"
        }
    },
    {
        "id": "4666360605690022568",
        "title": "公共厕所",
        "address": "湖北省天门市人民大道与城东路交叉口正东方向96米左右",
        "tel": "",
        "category": "基础设施:公共设施:公共厕所",
        "type": 0,
        "location": {
            "lat": 30.645719,
            "lng": 113.177949
        },
        "ad_info": {
            "adcode": 429006,
            "province": "湖北省",
            "city": "",
            "district": "天门市"
        }
    },
    {
        "id": "16412857653167509367",
        "title": "公共厕所",
        "address": "湖北省天门市义乌路与竟陵中街交叉口西北方向161米左右",
        "tel": "",
        "category": "基础设施:公共设施:公共厕所",
        "type": 0,
        "location": {
            "lat": 30.646181,
            "lng": 113.16272
        },
        "ad_info": {
            "adcode": 429006,
            "province": "湖北省",
            "city": "",
            "district": "天门市"
        }
    },
    {
        "id": "7540932972695664424",
        "title": "公共厕所",
        "address": "湖北省天门市水府庙路与长汀河南路交叉口西北方向41米左右",
        "tel": "",
        "category": "基础设施:公共设施:公共厕所",
        "type": 0,
        "location": {
            "lat": 30.851944,
            "lng": 113.347224
        },
        "ad_info": {
            "adcode": 429006,
            "province": "湖北省",
            "city": "",
            "district": "天门市"
        }
    },
    {
        "id": "3718892392542622784",
        "title": "公共厕所",
        "address": "湖北省天门市南潭东巷与孝子里交叉口正南方向80米左右",
        "tel": "",
        "category": "基础设施:公共设施:公共厕所",
        "type": 0,
        "location": {
            "lat": 30.64691,
            "lng": 113.166574
        },
        "ad_info": {
            "adcode": 429006,
            "province": "湖北省",
            "city": "",
            "district": "天门市"
        }
    },
    {
        "id": "9985138175014292957",
        "title": "公共厕所",
        "address": "湖北省天门市陆羽大道(东)与纺织路交叉口东140米",
        "tel": "",
        "category": "基础设施:公共设施:公共厕所",
        "type": 0,
        "location": {
            "lat": 30.659216,
            "lng": 113.182756
        },
        "ad_info": {
            "adcode": 429006,
            "province": "湖北省",
            "city": "",
            "district": "天门市"
        }
    },
    {
        "id": "9144992295364383609",
        "title": "公共厕所",
        "address": "湖北省天门市西寺路与金龙道交叉口正南方向42米左右",
        "tel": "",
        "category": "基础设施:公共设施:公共厕所",
        "type": 0,
        "location": {
            "lat": 30.665,
            "lng": 113.165757
        },
        "ad_info": {
            "adcode": 429006,
            "province": "湖北省",
            "city": "",
            "district": "天门市"
        }
    },
    {
        "id": "10224288744378506508",
        "title": "公共厕所",
        "address": "湖北省天门市四牌楼街与鸿渐路交叉口东南方向84米左右",
        "tel": "",
        "category": "基础设施:公共设施:公共厕所",
        "type": 0,
        "location": {
            "lat": 30.651037,
            "lng": 113.169537
        },
        "ad_info": {
            "adcode": 429006,
            "province": "湖北省",
            "city": "",
            "district": "天门市"
        }
    },
    {
        "id": "15212211141759755074",
        "title": "无障碍公共厕所",
        "address": "湖北省天门市东江道与东湖路(北)交叉口东40米",
        "tel": "",
        "category": "基础设施:公共设施:公共厕所",
        "type": 0,
        "location": {
            "lat": 30.651151,
            "lng": 113.171241
        },
        "ad_info": {
            "adcode": 429006,
            "province": "湖北省",
            "city": "",
            "district": "天门市"
        }
    },
    {
        "id": "15630686950668223998",
        "title": "无障碍公共厕所",
        "address": "湖北省天门市孝义路与青汉大道交叉口正西方向70米左右",
        "tel": "",
        "category": "基础设施:公共设施:公共厕所",
        "type": 0,
        "location": {
            "lat": 30.506977,
            "lng": 113.089995
        },
        "ad_info": {
            "adcode": 429006,
            "province": "湖北省",
            "city": "",
            "district": "天门市"
        }
    },
    {
        "id": "11014661640632776680",
        "title": "无障碍公共厕所",
        "address": "湖北省天门市天门市加油站东南侧280米",
        "tel": "",
        "category": "基础设施:公共设施:公共厕所",
        "type": 0,
        "location": {
            "lat": 30.682181,
            "lng": 112.804895
        },
        "ad_info": {
            "adcode": 429006,
            "province": "湖北省",
            "city": "",
            "district": "天门市"
        }
    },
    {
        "id": "17323967861515094446",
        "title": "男洗手间(天门世贸中心)",
        "address": "湖北省天门市钟惺大道88号天门世贸中心B1层",
        "tel": "",
        "category": "基础设施:公共设施:公共厕所",
        "type": 0,
        "location": {
            "lat": 30.64252,
            "lng": 113.15808
        },
        "ad_info": {
            "adcode": 429006,
            "province": "湖北省",
            "city": "",
            "district": "天门市"
        }
    },
    {
        "id": "9472117183159376270",
        "title": "无障碍公共厕所",
        "address": "湖北省天门市白龙寺南路与白龙寺西路交叉口东南方向23米左右",
        "tel": "",
        "category": "基础设施:公共设施:公共厕所",
        "type": 0,
        "location": {
            "lat": 30.856121,
            "lng": 113.346157
        },
        "ad_info": {
            "adcode": 429006,
            "province": "湖北省",
            "city": "",
            "district": "天门市"
        }
    },
    {
        "id": "2224388806089890433",
        "title": "公路公共厕所",
        "address": "湖北省天门市周柳公路与天北路交叉口东北方向1793米左右",
        "tel": "",
        "category": "基础设施:公共设施:公共厕所",
        "type": 0,
        "location": {
            "lat": 30.790447,
            "lng": 113.255612
        },
        "ad_info": {
            "adcode": 429006,
            "province": "湖北省",
            "city": "",
            "district": "天门市"
        }
    },
    {
        "id": "7974072375555452996",
        "title": "男洗手间(天门世贸中心)",
        "address": "湖北省天门市钟惺大道88号天门世贸中心F5层",
        "tel": "",
        "category": "基础设施:公共设施:公共厕所",
        "type": 0,
        "location": {
            "lat": 30.642576,
            "lng": 113.158075
        },
        "ad_info": {
            "adcode": 429006,
            "province": "湖北省",
            "city": "",
            "district": "天门市"
        }
    },
    {
        "id": "1093209353803389498",
        "title": "男洗手间(天门世贸中心)",
        "address": "湖北省天门市钟惺大道88号天门世贸中心F2层",
        "tel": "",
        "category": "基础设施:公共设施:公共厕所",
        "type": 0,
        "location": {
            "lat": 30.642543,
            "lng": 113.158204
        },
        "ad_info": {
            "adcode": 429006,
            "province": "湖北省",
            "city": "",
            "district": "天门市"
        }
    },
    {
        "id": "10527724403745438119",
        "title": "天门服务区公共厕所",
        "address": "湖北省天门市G0421许广高速与天门服务区交叉口南500米",
        "tel": "",
        "category": "基础设施:公共设施:公共厕所",
        "type": 0,
        "location": {
            "lat": 30.668165,
            "lng": 113.118755
        },
        "ad_info": {
            "adcode": 429006,
            "province": "湖北省",
            "city": "",
            "district": "天门市"
        }
    },
    {
        "id": "17412032082226858149",
        "title": "女洗手间(天门世贸中心)",
        "address": "湖北省天门市钟惺大道88号天门世贸中心F3层",
        "tel": "",
        "category": "基础设施:公共设施:公共厕所",
        "type": 0,
        "location": {
            "lat": 30.642579,
            "lng": 113.158116
        },
        "ad_info": {
            "adcode": 429006,
            "province": "湖北省",
            "city": "",
            "district": "天门市"
        }
    },
    {
        "id": "16300725097375122306",
        "title": "天门服务区公共厕所",
        "address": "湖北省天门市G240与G348交叉口西北方向1464米左右",
        "tel": "",
        "category": "基础设施:公共设施:公共厕所",
        "type": 0,
        "location": {
            "lat": 30.668704,
            "lng": 113.116052
        },
        "ad_info": {
            "adcode": 429006,
            "province": "湖北省",
            "city": "",
            "district": "天门市"
        }
    },
    {
        "id": "6881640589694153943",
        "title": "天门服务区第二公共厕所",
        "address": "湖北省天门市天门服务区与G0421许广高速交叉口南340米",
        "tel": "",
        "category": "基础设施:公共设施:公共厕所",
        "type": 0,
        "location": {
            "lat": 30.669631,
            "lng": 113.118804
        },
        "ad_info": {
            "adcode": 429006,
            "province": "湖北省",
            "city": "",
            "district": "天门市"
        }
    },
    {
        "id": "1289040586704109676",
        "title": "男洗手间(天门世贸中心)",
        "address": "湖北省天门市钟惺大道88号天门世贸中心F3层",
        "tel": "",
        "category": "基础设施:公共设施:公共厕所",
        "type": 0,
        "location": {
            "lat": 30.642619,
            "lng": 113.158114
        },
        "ad_info": {
            "adcode": 429006,
            "province": "湖北省",
            "city": "",
            "district": "天门市"
        }
    },
    {
        "id": "6577964280665515681",
        "title": "无障碍公共厕所",
        "address": "湖北省天门市人民大道与城东路交叉口正西方向37米左右",
        "tel": "",
        "category": "基础设施:公共设施:公共厕所",
        "type": 0,
        "location": {
            "lat": 30.645616,
            "lng": 113.176574
        },
        "ad_info": {
            "adcode": 429006,
            "province": "湖北省",
            "city": "",
            "district": "天门市"
        }
    },
    {
        "id": "1575716660772798492",
        "title": "肯德基(鸿渐路餐厅)-洗手间",
        "address": "湖北省天门市人民大道与鸿渐路交叉口正东方向80米左右",
        "tel": "",
        "category": "基础设施:公共设施:公共厕所",
        "type": 0,
        "location": {
            "lat": 30.648185,
            "lng": 113.168781
        },
        "ad_info": {
            "adcode": 429006,
            "province": "湖北省",
            "city": "",
            "district": "天门市"
        }
    },
    {
        "id": "11769206124549438036",
        "title": "男洗手间(天门世贸中心)",
        "address": "湖北省天门市钟惺大道88号天门世贸中心F4层",
        "tel": "",
        "category": "基础设施:公共设施:公共厕所",
        "type": 0,
        "location": {
            "lat": 30.642578,
            "lng": 113.158116
        },
        "ad_info": {
            "adcode": 429006,
            "province": "湖北省",
            "city": "",
            "district": "天门市"
        }
    },
    {
        "id": "16626044104325174955",
        "title": "公共厕所",
        "address": "湖北省天门市张彭公路与彭庙二组路交叉口西北方向1434米左右",
        "tel": "",
        "category": "基础设施:公共设施:公共厕所",
        "type": 0,
        "location": {
            "lat": 30.722103,
            "lng": 113.238462
        },
        "ad_info": {
            "adcode": 429006,
            "province": "湖北省",
            "city": "",
            "district": "天门市"
        }
    },
    {
        "id": "397698991907457142",
        "title": "公共厕所",
        "address": "湖北省天门市公园路与博学路交叉口正南方向270米左右",
        "tel": "",
        "category": "基础设施:公共设施:公共厕所",
        "type": 0,
        "location": {
            "lat": 30.650301,
            "lng": 113.137215
        },
        "ad_info": {
            "adcode": 429006,
            "province": "湖北省",
            "city": "",
            "district": "天门市"
        }
    },
    {
        "id": "4158870392816864462",
        "title": "公共厕所",
        "address": "湖北省天门市尚城路与涂台路交叉口东南方向118米左右",
        "tel": "",
        "category": "基础设施:公共设施:公共厕所",
        "type": 0,
        "location": {
            "lat": 30.633342,
            "lng": 113.168931
        },
        "ad_info": {
            "adcode": 429006,
            "province": "湖北省",
            "city": "",
            "district": "天门市"
        }
    },
    {
        "id": "10896830596443050211",
        "title": "公共厕所",
        "address": "湖北省天门市创业路与皮日休路交叉口正东方向25米左右",
        "tel": "",
        "category": "基础设施:公共设施:公共厕所",
        "type": 0,
        "location": {
            "lat": 30.56313,
            "lng": 113.11839
        },
        "ad_info": {
            "adcode": 429006,
            "province": "湖北省",
            "city": "",
            "district": "天门市"
        }
    },
    {
        "id": "1966212761372841435",
        "title": "公共厕所",
        "address": "湖北省天门市福仙大道与襄江路交叉口正北方向677米左右",
        "tel": "",
        "category": "基础设施:公共设施:公共厕所",
        "type": 0,
        "location": {
            "lat": 30.426582,
            "lng": 113.455252
        },
        "ad_info": {
            "adcode": 429006,
            "province": "湖北省",
            "city": "",
            "district": "天门市"
        }
    },
    {
        "id": "9657495123514329538",
        "title": "公共厕所",
        "address": "湖北省天门市石家河文化遗址北侧290米",
        "tel": "",
        "category": "基础设施:公共设施:公共厕所",
        "type": 0,
        "location": {
            "lat": 30.765229,
            "lng": 113.088865
        },
        "ad_info": {
            "adcode": 429006,
            "province": "湖北省",
            "city": "",
            "district": "天门市"
        }
    },
    {
        "id": "16304808054999544922",
        "title": "公共厕所",
        "address": "湖北省天门市官庙街与汉江大道交叉口正东方向131米左右",
        "tel": "",
        "category": "基础设施:公共设施:公共厕所",
        "type": 0,
        "location": {
            "lat": 30.668647,
            "lng": 112.69728
        },
        "ad_info": {
            "adcode": 429006,
            "province": "湖北省",
            "city": "",
            "district": "天门市"
        }
    },
    {
        "id": "6485225913520863441",
        "title": "公共厕所",
        "address": "湖北省天门市友谊路与熊河路交叉口正东方向35米左右",
        "tel": "",
        "category": "基础设施:公共设施:公共厕所",
        "type": 0,
        "location": {
            "lat": 30.64164,
            "lng": 113.151891
        },
        "ad_info": {
            "adcode": 429006,
            "province": "湖北省",
            "city": "",
            "district": "天门市"
        }
    },
    {
        "id": "11444918151422229948",
        "title": "公共厕所",
        "address": "湖北省天门市人民大道(中)与闸北路交叉口西北60米",
        "tel": "",
        "category": "基础设施:公共设施:公共厕所",
        "type": 0,
        "location": {
            "lat": 30.649377,
            "lng": 113.162841
        },
        "ad_info": {
            "adcode": 429006,
            "province": "湖北省",
            "city": "",
            "district": "天门市"
        }
    },
    {
        "id": "2619994117115523445",
        "title": "公共厕所",
        "address": "湖北省天门市建设北路与跃进路交叉口北200米",
        "tel": "",
        "category": "基础设施:公共设施:公共厕所",
        "type": 0,
        "location": {
            "lat": 30.515028,
            "lng": 113.081815
        },
        "ad_info": {
            "adcode": 429006,
            "province": "湖北省",
            "city": "",
            "district": "天门市"
        }
    },
    {
        "id": "5904475305698726509",
        "title": "公共厕所",
        "address": "湖北省天门市二龙大道与皂京路交叉口西北方向52米左右",
        "tel": "",
        "category": "基础设施:公共设施:公共厕所",
        "type": 0,
        "location": {
            "lat": 30.860552,
            "lng": 113.34819
        },
        "ad_info": {
            "adcode": 429006,
            "province": "湖北省",
            "city": "",
            "district": "天门市"
        }
    },
    {
        "id": "6187115893296194909",
        "title": "公共厕所",
        "address": "湖北省天门市G240与汉北堤路交叉口东南方向26米左右",
        "tel": "",
        "category": "基础设施:公共设施:公共厕所",
        "type": 0,
        "location": {
            "lat": 30.657964,
            "lng": 113.13915
        },
        "ad_info": {
            "adcode": 429006,
            "province": "湖北省",
            "city": "",
            "district": "天门市"
        }
    },
    {
        "id": "7914773112848226352",
        "title": "公共厕所",
        "address": "湖北省天门市三乡路与发展大道交叉口正北方向84米左右",
        "tel": "",
        "category": "基础设施:公共设施:公共厕所",
        "type": 0,
        "location": {
            "lat": 30.606963,
            "lng": 113.18145
        },
        "ad_info": {
            "adcode": 429006,
            "province": "湖北省",
            "city": "",
            "district": "天门市"
        }
    },
    {
        "id": "603534346904048002",
        "title": "公共厕所",
        "address": "湖北省天门市勇健路与岳飞大道交叉口正北方向93米左右",
        "tel": "",
        "category": "基础设施:公共设施:公共厕所",
        "type": 0,
        "location": {
            "lat": 30.514847,
            "lng": 113.094706
        },
        "ad_info": {
            "adcode": 429006,
            "province": "湖北省",
            "city": "",
            "district": "天门市"
        }
    },
    {
        "id": "5541839057252413450",
        "title": "公共厕所",
        "address": "湖北省天门市广沟路与田家台路交叉口西南方向87米左右",
        "tel": "",
        "category": "基础设施:公共设施:公共厕所",
        "type": 0,
        "location": {
            "lat": 30.653892,
            "lng": 113.175438
        },
        "ad_info": {
            "adcode": 429006,
            "province": "湖北省",
            "city": "",
            "district": "天门市"
        }
    },
    {
        "id": "3605028548598777201",
        "title": "公共厕所",
        "address": "湖北省天门市文昌路与竟陵东街交叉口正南方向131米左右",
        "tel": "",
        "category": "基础设施:公共设施:公共厕所",
        "type": 0,
        "location": {
            "lat": 30.645165,
            "lng": 113.174101
        },
        "ad_info": {
            "adcode": 429006,
            "province": "湖北省",
            "city": "",
            "district": "天门市"
        }
    },
    {
        "id": "14982634841548188988",
        "title": "公共厕所",
        "address": "湖北省天门市G240与保安桥北路交叉口东南方向44米左右",
        "tel": "",
        "category": "基础设施:公共设施:公共厕所",
        "type": 0,
        "location": {
            "lat": 30.521685,
            "lng": 113.095842
        },
        "ad_info": {
            "adcode": 429006,
            "province": "湖北省",
            "city": "",
            "district": "天门市"
        }
    },
    {
        "id": "6679132773590157550",
        "title": "公共厕所",
        "address": "湖北省天门市竟西路与陆羽大道辅路交叉口西南200米",
        "tel": "",
        "category": "基础设施:公共设施:公共厕所",
        "type": 0,
        "location": {
            "lat": 30.663812,
            "lng": 113.153089
        },
        "ad_info": {
            "adcode": 429006,
            "province": "湖北省",
            "city": "",
            "district": "天门市"
        }
    },
    {
        "id": "14574364261265343148",
        "title": "公共厕所",
        "address": "湖北省天门市X009与人民大道交叉口正西方向803米左右",
        "tel": "",
        "category": "基础设施:公共设施:公共厕所",
        "type": 0,
        "location": {
            "lat": 30.675708,
            "lng": 112.9896
        },
        "ad_info": {
            "adcode": 429006,
            "province": "湖北省",
            "city": "",
            "district": "天门市"
        }
    },
    {
        "id": "1717078620186007902",
        "title": "公共厕所",
        "address": "湖北省天门市四牌楼街85号",
        "tel": "",
        "category": "基础设施:公共设施:公共厕所",
        "type": 0,
        "location": {
            "lat": 30.653407,
            "lng": 113.162813
        },
        "ad_info": {
            "adcode": 429006,
            "province": "湖北省",
            "city": "",
            "district": "天门市"
        }
    },
    {
        "id": "6091383996922116211",
        "title": "公共厕所",
        "address": "湖北省天门市排灌河路与文卫路交叉口西北方向24米左右",
        "tel": "",
        "category": "基础设施:公共设施:公共厕所",
        "type": 0,
        "location": {
            "lat": 30.436771,
            "lng": 113.269606
        },
        "ad_info": {
            "adcode": 429006,
            "province": "湖北省",
            "city": "",
            "district": "天门市"
        }
    },
    {
        "id": "5856040310896728075",
        "title": "公共厕所",
        "address": "湖北省天门市友谊路与钟惺大道交叉口东北方向146米左右",
        "tel": "",
        "category": "基础设施:公共设施:公共厕所",
        "type": 0,
        "location": {
            "lat": 30.64439,
            "lng": 113.152507
        },
        "ad_info": {
            "adcode": 429006,
            "province": "湖北省",
            "city": "",
            "district": "天门市"
        }
    },
    {
        "id": "10513338251338670301",
        "title": "公共厕所",
        "address": "湖北省天门市X003与董湾桥交叉口正西方向1835米左右",
        "tel": "",
        "category": "基础设施:公共设施:公共厕所",
        "type": 0,
        "location": {
            "lat": 30.574655,
            "lng": 113.212724
        },
        "ad_info": {
            "adcode": 429006,
            "province": "湖北省",
            "city": "",
            "district": "天门市"
        }
    },
    {
        "id": "7196793656455718367",
        "title": "公共厕所",
        "address": "湖北省天门市人民大道东竟陵第二小学",
        "tel": "",
        "category": "基础设施:公共设施:公共厕所",
        "type": 0,
        "location": {
            "lat": 30.646549,
            "lng": 113.174717
        },
        "ad_info": {
            "adcode": 429006,
            "province": "湖北省",
            "city": "",
            "district": "天门市"
        }
    },
    {
        "id": "14185255689380759983",
        "title": "公共厕所",
        "address": "湖北省天门市S213与天北路交叉口正南方向241米左右",
        "tel": "",
        "category": "基础设施:公共设施:公共厕所",
        "type": 0,
        "location": {
            "lat": 30.686044,
            "lng": 113.191567
        },
        "ad_info": {
            "adcode": 429006,
            "province": "湖北省",
            "city": "",
            "district": "天门市"
        }
    },
    {
        "id": "6453665550916460001",
        "title": "公共厕所",
        "address": "湖北省天门市襄江路与锦江大道交叉口东南方向253米左右",
        "tel": "",
        "category": "基础设施:公共设施:公共厕所",
        "type": 0,
        "location": {
            "lat": 30.399922,
            "lng": 113.447186
        },
        "ad_info": {
            "adcode": 429006,
            "province": "湖北省",
            "city": "",
            "district": "天门市"
        }
    },
    {
        "id": "13501657342308624550",
        "title": "天门北服务区公共厕所",
        "address": "湖北省天门市S107与古堤路交叉口正南方向489米左右",
        "tel": "",
        "category": "基础设施:公共设施:公共厕所",
        "type": 0,
        "location": {
            "lat": 30.841078,
            "lng": 113.244605
        },
        "ad_info": {
            "adcode": 429006,
            "province": "湖北省",
            "city": "",
            "district": "天门市"
        }
    },
    {
        "id": "14084334349888199579",
        "title": "公共厕所",
        "address": "湖北省天门市净沙路与状元大道交叉口东北方向208米左右",
        "tel": "",
        "category": "基础设施:公共设施:公共厕所",
        "type": 0,
        "location": {
            "lat": 30.65762,
            "lng": 113.398454
        },
        "ad_info": {
            "adcode": 429006,
            "province": "湖北省",
            "city": "",
            "district": "天门市"
        }
    },
    {
        "id": "734089402670525993",
        "title": "公共厕所",
        "address": "湖北省天门市G348与荷沙公路交叉口正东方向262米左右",
        "tel": "",
        "category": "基础设施:公共设施:公共厕所",
        "type": 0,
        "location": {
            "lat": 30.611631,
            "lng": 113.252864
        },
        "ad_info": {
            "adcode": 429006,
            "province": "湖北省",
            "city": "",
            "district": "天门市"
        }
    },
    {
        "id": "1110114003154533612",
        "title": "公共厕所",
        "address": "湖北省天门市S311与四化路交叉口正南方向60米左右",
        "tel": "",
        "category": "基础设施:公共设施:公共厕所",
        "type": 0,
        "location": {
            "lat": 30.786127,
            "lng": 113.388159
        },
        "ad_info": {
            "adcode": 429006,
            "province": "湖北省",
            "city": "",
            "district": "天门市"
        }
    },
    {
        "id": "9798753965869911512",
        "title": "公共厕所",
        "address": "湖北省天门市S213与天北路交叉口正北方向1196米左右",
        "tel": "",
        "category": "基础设施:公共设施:公共厕所",
        "type": 0,
        "location": {
            "lat": 30.832385,
            "lng": 113.279555
        },
        "ad_info": {
            "adcode": 429006,
            "province": "湖北省",
            "city": "",
            "district": "天门市"
        }
    },
    {
        "id": "8687224921287445797",
        "title": "公共厕所",
        "address": "湖北省天门市义河南街与接官路交叉口正西方向20米左右",
        "tel": "",
        "category": "基础设施:公共设施:公共厕所",
        "type": 0,
        "location": {
            "lat": 30.646518,
            "lng": 113.15985
        },
        "ad_info": {
            "adcode": 429006,
            "province": "湖北省",
            "city": "",
            "district": "天门市"
        }
    },
    {
        "id": "14453494048578446805",
        "title": "公共厕所",
        "address": "湖北省天门市九真大道与天北路交叉口正南方向154米左右",
        "tel": "",
        "category": "基础设施:公共设施:公共厕所",
        "type": 0,
        "location": {
            "lat": 30.735938,
            "lng": 113.214505
        },
        "ad_info": {
            "adcode": 429006,
            "province": "湖北省",
            "city": "",
            "district": "天门市"
        }
    },
    {
        "id": "15581480665814652662",
        "title": "公共厕所",
        "address": "湖北省天门市友谊路与熊河路交叉口东北方向40米左右",
        "tel": "",
        "category": "基础设施:公共设施:公共厕所",
        "type": 0,
        "location": {
            "lat": 30.641885,
            "lng": 113.151758
        },
        "ad_info": {
            "adcode": 429006,
            "province": "湖北省",
            "city": "",
            "district": "天门市"
        }
    },
    {
        "id": "17526068521905555106",
        "title": "公共厕所",
        "address": "湖北省天门市状元大道与高教路交叉口正东方向707米左右",
        "tel": "",
        "category": "基础设施:公共设施:公共厕所",
        "type": 0,
        "location": {
            "lat": 30.658576,
            "lng": 113.385821
        },
        "ad_info": {
            "adcode": 429006,
            "province": "湖北省",
            "city": "",
            "district": "天门市"
        }
    },
    {
        "id": "3491988474008017810",
        "title": "公共厕所",
        "address": "湖北省天门市张洪线与汪场大道交叉口正西方向124米左右",
        "tel": "",
        "category": "基础设施:公共设施:公共厕所",
        "type": 0,
        "location": {
            "lat": 30.609672,
            "lng": 113.049672
        },
        "ad_info": {
            "adcode": 429006,
            "province": "湖北省",
            "city": "",
            "district": "天门市"
        }
    },
    {
        "id": "6015534575233632816",
        "title": "天门北服务区公共厕所",
        "address": "湖北省天门市天门北服务区",
        "tel": "",
        "category": "基础设施:公共设施:公共厕所",
        "type": 0,
        "location": {
            "lat": 30.839411,
            "lng": 113.241669
        },
        "ad_info": {
            "adcode": 429006,
            "province": "湖北省",
            "city": "",
            "district": "天门市"
        }
    },
    {
        "id": "3644855653883251875",
        "title": "公共厕所",
        "address": "湖北省天门市古城堤街与状元路交叉口东北方向73米左右",
        "tel": "",
        "category": "基础设施:公共设施:公共厕所",
        "type": 0,
        "location": {
            "lat": 30.66461,
            "lng": 113.149724
        },
        "ad_info": {
            "adcode": 429006,
            "province": "湖北省",
            "city": "",
            "district": "天门市"
        }
    },
    {
        "id": "4380292070612560804",
        "title": "公共厕所",
        "address": "湖北省天门市交通路与幸福路交叉口西南方向67米左右",
        "tel": "0728-5223102",
        "category": "基础设施:公共设施:公共厕所",
        "type": 0,
        "location": {
            "lat": 30.450159,
            "lng": 113.187988
        },
        "ad_info": {
            "adcode": 429006,
            "province": "湖北省",
            "city": "",
            "district": "天门市"
        }
    },
    {
        "id": "6767544044581449815",
        "title": "公共厕所",
        "address": "湖北省天门市G240与东河中桥交叉口正北方向807米左右",
        "tel": "",
        "category": "基础设施:公共设施:公共厕所",
        "type": 0,
        "location": {
            "lat": 30.683904,
            "lng": 113.137559
        },
        "ad_info": {
            "adcode": 429006,
            "province": "湖北省",
            "city": "",
            "district": "天门市"
        }
    },
    {
        "id": "10075639564627811215",
        "title": "公共厕所",
        "address": "湖北省天门市南洋大道与振兴路交叉口东北方向259米左右",
        "tel": "",
        "category": "基础设施:公共设施:公共厕所",
        "type": 0,
        "location": {
            "lat": 30.628385,
            "lng": 113.17186
        },
        "ad_info": {
            "adcode": 429006,
            "province": "湖北省",
            "city": "",
            "district": "天门市"
        }
    },
    {
        "id": "14007840567031607411",
        "title": "公共厕所",
        "address": "湖北省天门市多祥大道与天仙大道交叉口西北方向443米左右",
        "tel": "",
        "category": "基础设施:公共设施:公共厕所",
        "type": 0,
        "location": {
            "lat": 30.414195,
            "lng": 113.439607
        },
        "ad_info": {
            "adcode": 429006,
            "province": "湖北省",
            "city": "",
            "district": "天门市"
        }
    },
    {
        "id": "2564084524630005697",
        "title": "公共厕所",
        "address": "湖北省天门市导航巷与接官路交叉口正西方向186米左右",
        "tel": "",
        "category": "基础设施:公共设施:公共厕所",
        "type": 0,
        "location": {
            "lat": 30.645604,
            "lng": 113.156194
        },
        "ad_info": {
            "adcode": 429006,
            "province": "湖北省",
            "city": "",
            "district": "天门市"
        }
    },
    {
        "id": "12682993947914653973",
        "title": "公共厕所",
        "address": "湖北省天门市四牌楼街与沙嘴路交叉口西南方向137米左右",
        "tel": "",
        "category": "基础设施:公共设施:公共厕所",
        "type": 0,
        "location": {
            "lat": 30.651978,
            "lng": 113.161383
        },
        "ad_info": {
            "adcode": 429006,
            "province": "湖北省",
            "city": "",
            "district": "天门市"
        }
    },
    {
        "id": "17650521154505778238",
        "title": "公共厕所",
        "address": "湖北省天门市孝义路与青汉大道交叉口正北方向314米左右",
        "tel": "",
        "category": "基础设施:公共设施:公共厕所",
        "type": 0,
        "location": {
            "lat": 30.509852,
            "lng": 113.09094
        },
        "ad_info": {
            "adcode": 429006,
            "province": "湖北省",
            "city": "",
            "district": "天门市"
        }
    },
    {
        "id": "957664638505545193",
        "title": "公共厕所",
        "address": "湖北省天门市G240与华丰大道交叉口正北方向38米左右",
        "tel": "",
        "category": "基础设施:公共设施:公共厕所",
        "type": 0,
        "location": {
            "lat": 30.741849,
            "lng": 113.104602
        },
        "ad_info": {
            "adcode": 429006,
            "province": "湖北省",
            "city": "",
            "district": "天门市"
        }
    },
    {
        "id": "11062111802544445885",
        "title": "女洗手间(天门世贸中心)",
        "address": "湖北省天门市钟惺大道88号天门世贸中心F5层",
        "tel": "",
        "category": "基础设施:公共设施:公共厕所",
        "type": 0,
        "location": {
            "lat": 30.642615,
            "lng": 113.158073
        },
        "ad_info": {
            "adcode": 429006,
            "province": "湖北省",
            "city": "",
            "district": "天门市"
        }
    },
    {
        "id": "12012008042658731605",
        "title": "公共厕所",
        "address": "湖北省天门市大桥路与将军路交叉口东北方向214米左右",
        "tel": "",
        "category": "基础设施:公共设施:公共厕所",
        "type": 0,
        "location": {
            "lat": 30.661237,
            "lng": 113.086427
        },
        "ad_info": {
            "adcode": 429006,
            "province": "湖北省",
            "city": "",
            "district": "天门市"
        }
    },
    {
        "id": "891796305630618603",
        "title": "公共厕所",
        "address": "湖北省天门市创业大道与西环路交叉口正西方向477米左右",
        "tel": "",
        "category": "基础设施:公共设施:公共厕所",
        "type": 0,
        "location": {
            "lat": 30.629066,
            "lng": 113.119009
        },
        "ad_info": {
            "adcode": 429006,
            "province": "湖北省",
            "city": "",
            "district": "天门市"
        }
    },
    {
        "id": "8147979838275320631",
        "title": "公共厕所",
        "address": "湖北省天门市文学泉道与鸿渐路交叉口西南方向33米左右",
        "tel": "",
        "category": "基础设施:公共设施:公共厕所",
        "type": 0,
        "location": {
            "lat": 30.654078,
            "lng": 113.169075
        },
        "ad_info": {
            "adcode": 429006,
            "province": "湖北省",
            "city": "",
            "district": "天门市"
        }
    },
    {
        "id": "11975483953415855952",
        "title": "公共厕所",
        "address": "湖北省天门市东江道与东湖路交叉口东北方向29米左右",
        "tel": "",
        "category": "基础设施:公共设施:公共厕所",
        "type": 0,
        "location": {
            "lat": 30.651241,
            "lng": 113.17096
        },
        "ad_info": {
            "adcode": 429006,
            "province": "湖北省",
            "city": "",
            "district": "天门市"
        }
    }
]