[
    {
        "id": "1566386010281012608",
        "title": "公共厕所",
        "address": "湖南省娄底市双峰县园艺路与蔡和森大道交叉口正北方向154米左右",
        "tel": "",
        "category": "基础设施:公共设施:公共厕所",
        "type": 0,
        "location": {
            "lat": 27.464385,
            "lng": 112.189286
        },
        "ad_info": {
            "adcode": 431321,
            "province": "湖南省",
            "city": "娄底市",
            "district": "双峰县"
        }
    },
    {
        "id": "13163921351289412709",
        "title": "公共厕所",
        "address": "湖南省娄底市双峰县锁石镇群山村锁石花之缘景区清峻亭东100米",
        "tel": "",
        "category": "基础设施:公共设施:公共厕所",
        "type": 0,
        "location": {
            "lat": 27.304251,
            "lng": 112.154209
        },
        "ad_info": {
            "adcode": 431321,
            "province": "湖南省",
            "city": "娄底市",
            "district": "双峰县"
        }
    },
    {
        "id": "7885702126414326381",
        "title": "公共厕所",
        "address": "湖南省娄底市双峰县锁石镇群山村锁石花之缘景区(S71华常高速公路西)",
        "tel": "",
        "category": "基础设施:公共设施:公共厕所",
        "type": 0,
        "location": {
            "lat": 27.301244,
            "lng": 112.134693
        },
        "ad_info": {
            "adcode": 431321,
            "province": "湖南省",
            "city": "娄底市",
            "district": "双峰县"
        }
    },
    {
        "id": "404953063382507080",
        "title": "公共厕所",
        "address": "湖南省娄底市双峰县忠洲路与蔡和森大道交叉口正北方向65米左右",
        "tel": "",
        "category": "基础设施:公共设施:公共厕所",
        "type": 0,
        "location": {
            "lat": 27.465011,
            "lng": 112.195581
        },
        "ad_info": {
            "adcode": 431321,
            "province": "湖南省",
            "city": "娄底市",
            "district": "双峰县"
        }
    },
    {
        "id": "14817887050270031102",
        "title": "公共厕所",
        "address": "湖南省娄底市双峰县复兴街与经二路交叉口正北方向75米左右",
        "tel": "",
        "category": "基础设施:公共设施:公共厕所",
        "type": 0,
        "location": {
            "lat": 27.443426,
            "lng": 112.165641
        },
        "ad_info": {
            "adcode": 431321,
            "province": "湖南省",
            "city": "娄底市",
            "district": "双峰县"
        }
    },
    {
        "id": "10446789907372863092",
        "title": "公共厕所",
        "address": "湖南省娄底市双峰县书院路与天青街交叉口正西方向59米左右",
        "tel": "",
        "category": "基础设施:公共设施:公共厕所",
        "type": 0,
        "location": {
            "lat": 27.455223,
            "lng": 112.202658
        },
        "ad_info": {
            "adcode": 431321,
            "province": "湖南省",
            "city": "娄底市",
            "district": "双峰县"
        }
    },
    {
        "id": "6706254471921052303",
        "title": "公共厕所",
        "address": "湖南省娄底市双峰县书院路与天青街交叉口西北方向58米左右",
        "tel": "",
        "category": "基础设施:公共设施:公共厕所",
        "type": 0,
        "location": {
            "lat": 27.455487,
            "lng": 112.202771
        },
        "ad_info": {
            "adcode": 431321,
            "province": "湖南省",
            "city": "娄底市",
            "district": "双峰县"
        }
    },
    {
        "id": "9680764915293021686",
        "title": "公共厕所",
        "address": "湖南省娄底市双峰县复兴街与曾国藩大道南交叉口西40米",
        "tel": "",
        "category": "基础设施:公共设施:公共厕所",
        "type": 0,
        "location": {
            "lat": 27.449583,
            "lng": 112.184967
        },
        "ad_info": {
            "adcode": 431321,
            "province": "湖南省",
            "city": "娄底市",
            "district": "双峰县"
        }
    },
    {
        "id": "14628473167746113270",
        "title": "公共厕所",
        "address": "湖南省娄底市双峰县复兴街与大托巷交叉口正北方向38米左右",
        "tel": "",
        "category": "基础设施:公共设施:公共厕所",
        "type": 0,
        "location": {
            "lat": 27.447164,
            "lng": 112.171348
        },
        "ad_info": {
            "adcode": 431321,
            "province": "湖南省",
            "city": "娄底市",
            "district": "双峰县"
        }
    },
    {
        "id": "3115157682963819620",
        "title": "公共厕所",
        "address": "湖南省娄底市双峰县界牌加油站西北侧90米",
        "tel": "",
        "category": "基础设施:公共设施:公共厕所",
        "type": 0,
        "location": {
            "lat": 27.363856,
            "lng": 111.957275
        },
        "ad_info": {
            "adcode": 431321,
            "province": "湖南省",
            "city": "娄底市",
            "district": "双峰县"
        }
    },
    {
        "id": "15924748215364898357",
        "title": "公共厕所",
        "address": "湖南省娄底市新化县天华南路与建新路交叉口西南方向166米左右",
        "tel": "",
        "category": "基础设施:公共设施:公共厕所",
        "type": 0,
        "location": {
            "lat": 27.727278,
            "lng": 111.303314
        },
        "ad_info": {
            "adcode": 431322,
            "province": "湖南省",
            "city": "娄底市",
            "district": "新化县"
        }
    },
    {
        "id": "16607044473831833486",
        "title": "公共厕所",
        "address": "湖南省娄底市双峰县工农路与星火街交叉口正北方向24米左右",
        "tel": "",
        "category": "基础设施:公共设施:公共厕所",
        "type": 0,
        "location": {
            "lat": 27.458929,
            "lng": 112.197409
        },
        "ad_info": {
            "adcode": 431321,
            "province": "湖南省",
            "city": "娄底市",
            "district": "双峰县"
        }
    },
    {
        "id": "9652579329931878591",
        "title": "公共厕所",
        "address": "湖南省娄底市双峰县文塔街与泽南路交叉口正西方向34米左右",
        "tel": "",
        "category": "基础设施:公共设施:公共厕所",
        "type": 0,
        "location": {
            "lat": 27.45212,
            "lng": 112.204968
        },
        "ad_info": {
            "adcode": 431321,
            "province": "湖南省",
            "city": "娄底市",
            "district": "双峰县"
        }
    },
    {
        "id": "16814608862611812421",
        "title": "公共厕所",
        "address": "湖南省娄底市双峰县K15县道东50米",
        "tel": "",
        "category": "基础设施:公共设施:公共厕所",
        "type": 0,
        "location": {
            "lat": 27.247276,
            "lng": 112.082482
        },
        "ad_info": {
            "adcode": 431321,
            "province": "湖南省",
            "city": "娄底市",
            "district": "双峰县"
        }
    },
    {
        "id": "12289393531203595671",
        "title": "公共厕所",
        "address": "湖南省娄底市新化县上梅东路与新化资江大桥北辅道交叉口正南方向25米左右",
        "tel": "",
        "category": "基础设施:公共设施:公共厕所",
        "type": 0,
        "location": {
            "lat": 27.731963,
            "lng": 111.317976
        },
        "ad_info": {
            "adcode": 431322,
            "province": "湖南省",
            "city": "娄底市",
            "district": "新化县"
        }
    },
    {
        "id": "12606078182837663235",
        "title": "公共厕所",
        "address": "湖南省娄底市娄星区仙桥街与娄星北路交叉口西北方向47米左右",
        "tel": "",
        "category": "基础设施:公共设施:公共厕所",
        "type": 0,
        "location": {
            "lat": 27.758852,
            "lng": 111.991342
        },
        "ad_info": {
            "adcode": 431302,
            "province": "湖南省",
            "city": "娄底市",
            "district": "娄星区"
        }
    },
    {
        "id": "14644559935722706851",
        "title": "公共厕所",
        "address": "湖南省娄底市双峰县S331与XK03交叉口西北方向78米左右",
        "tel": "",
        "category": "基础设施:公共设施:公共厕所",
        "type": 0,
        "location": {
            "lat": 27.406192,
            "lng": 112.447268
        },
        "ad_info": {
            "adcode": 431321,
            "province": "湖南省",
            "city": "娄底市",
            "district": "双峰县"
        }
    },
    {
        "id": "8768165595946489606",
        "title": "公共厕所",
        "address": "湖南省娄底市娄星区娄底火车站兄妹饭店喜乐万家超市下",
        "tel": "",
        "category": "基础设施:公共设施:公共厕所",
        "type": 0,
        "location": {
            "lat": 27.739884,
            "lng": 112.00748
        },
        "ad_info": {
            "adcode": 431302,
            "province": "湖南省",
            "city": "娄底市",
            "district": "娄星区"
        }
    },
    {
        "id": "9452220523216776195",
        "title": "公共厕所",
        "address": "湖南省娄底市双峰县S227与Y024交叉口西北方向359米左右",
        "tel": "",
        "category": "基础设施:公共设施:公共厕所",
        "type": 0,
        "location": {
            "lat": 27.40678,
            "lng": 111.986495
        },
        "ad_info": {
            "adcode": 431321,
            "province": "湖南省",
            "city": "娄底市",
            "district": "双峰县"
        }
    },
    {
        "id": "5480824731324430629",
        "title": "公共厕所",
        "address": "湖南省娄底市娄星区吉星南路",
        "tel": "",
        "category": "基础设施:公共设施:公共厕所",
        "type": 0,
        "location": {
            "lat": 27.698486,
            "lng": 112.01148
        },
        "ad_info": {
            "adcode": 431302,
            "province": "湖南省",
            "city": "娄底市",
            "district": "娄星区"
        }
    },
    {
        "id": "9784316071380108231",
        "title": "公共厕所",
        "address": "湖南省娄底市新化县望城路与梅苑北路交叉口正北方向458米左右",
        "tel": "",
        "category": "基础设施:公共设施:公共厕所",
        "type": 0,
        "location": {
            "lat": 27.746005,
            "lng": 111.326071
        },
        "ad_info": {
            "adcode": 431322,
            "province": "湖南省",
            "city": "娄底市",
            "district": "新化县"
        }
    },
    {
        "id": "13428775560319032801",
        "title": "公共厕所",
        "address": "湖南省娄底市娄星区桑塘路与钢城东路交叉口正西方向250米左右",
        "tel": "",
        "category": "基础设施:公共设施:公共厕所",
        "type": 0,
        "location": {
            "lat": 27.75138,
            "lng": 111.980906
        },
        "ad_info": {
            "adcode": 431302,
            "province": "湖南省",
            "city": "娄底市",
            "district": "娄星区"
        }
    },
    {
        "id": "647945056810751377",
        "title": "公共厕所",
        "address": "湖南省娄底市娄星区东西十一街与南北三路交叉口正东方向94米左右",
        "tel": "",
        "category": "基础设施:公共设施:公共厕所",
        "type": 0,
        "location": {
            "lat": 27.746297,
            "lng": 111.985378
        },
        "ad_info": {
            "adcode": 431302,
            "province": "湖南省",
            "city": "娄底市",
            "district": "娄星区"
        }
    },
    {
        "id": "635685632928065444",
        "title": "公共厕所",
        "address": "湖南省娄底市新化县城西路与迎宾路交叉口正南方向41米左右",
        "tel": "",
        "category": "基础设施:公共设施:公共厕所",
        "type": 0,
        "location": {
            "lat": 27.741631,
            "lng": 111.299923
        },
        "ad_info": {
            "adcode": 431322,
            "province": "湖南省",
            "city": "娄底市",
            "district": "新化县"
        }
    },
    {
        "id": "14150912297647801341",
        "title": "公共厕所",
        "address": "湖南省娄底市涟源市市场街与梅子街交叉口西北方向28米左右",
        "tel": "",
        "category": "基础设施:公共设施:公共厕所",
        "type": 0,
        "location": {
            "lat": 27.688394,
            "lng": 111.692108
        },
        "ad_info": {
            "adcode": 431382,
            "province": "湖南省",
            "city": "娄底市",
            "district": "涟源市"
        }
    },
    {
        "id": "10280133894625813501",
        "title": "公共厕所",
        "address": "湖南省娄底市娄星区文艺路与秀石街交叉口西南方向164米左右",
        "tel": "",
        "category": "基础设施:公共设施:公共厕所",
        "type": 0,
        "location": {
            "lat": 27.74312,
            "lng": 112.03585
        },
        "ad_info": {
            "adcode": 431302,
            "province": "湖南省",
            "city": "娄底市",
            "district": "娄星区"
        }
    },
    {
        "id": "8042083557383465363",
        "title": "公共厕所",
        "address": "湖南省娄底市娄星区乐坪大道西957号",
        "tel": "",
        "category": "基础设施:公共设施:公共厕所",
        "type": 0,
        "location": {
            "lat": 27.722032,
            "lng": 111.977848
        },
        "ad_info": {
            "adcode": 431302,
            "province": "湖南省",
            "city": "娄底市",
            "district": "娄星区"
        }
    },
    {
        "id": "9086590513986599490",
        "title": "公共厕所",
        "address": "湖南省娄底市娄星区氐星路与长青街交叉口正东方向146米左右",
        "tel": "",
        "category": "基础设施:公共设施:公共厕所",
        "type": 0,
        "location": {
            "lat": 27.729968,
            "lng": 112.008305
        },
        "ad_info": {
            "adcode": 431302,
            "province": "湖南省",
            "city": "娄底市",
            "district": "娄星区"
        }
    },
    {
        "id": "18401371189696453793",
        "title": "公共厕所",
        "address": "湖南省娄底市娄星区春园商业步行街银街维也纳酒店(娄底春园步行街店)",
        "tel": "",
        "category": "基础设施:公共设施:公共厕所",
        "type": 0,
        "location": {
            "lat": 27.727214,
            "lng": 112.007899
        },
        "ad_info": {
            "adcode": 431302,
            "province": "湖南省",
            "city": "娄底市",
            "district": "娄星区"
        }
    },
    {
        "id": "16561737975767756153",
        "title": "公共厕所",
        "address": "湖南省娄底市娄星区氐星路868号",
        "tel": "",
        "category": "基础设施:公共设施:公共厕所",
        "type": 0,
        "location": {
            "lat": 27.718327,
            "lng": 112.007172
        },
        "ad_info": {
            "adcode": 431302,
            "province": "湖南省",
            "city": "娄底市",
            "district": "娄星区"
        }
    },
    {
        "id": "9231580941725030152",
        "title": "公共厕所",
        "address": "湖南省娄底市娄星区旁冲路与金星路交叉口正南方向489米左右",
        "tel": "",
        "category": "基础设施:公共设施:公共厕所",
        "type": 0,
        "location": {
            "lat": 27.73758,
            "lng": 111.98081
        },
        "ad_info": {
            "adcode": 431302,
            "province": "湖南省",
            "city": "娄底市",
            "district": "娄星区"
        }
    },
    {
        "id": "15357348691658553810",
        "title": "公共厕所",
        "address": "湖南省娄底市娄星区吉星南路204号",
        "tel": "",
        "category": "基础设施:公共设施:公共厕所",
        "type": 0,
        "location": {
            "lat": 27.747068,
            "lng": 112.029087
        },
        "ad_info": {
            "adcode": 431302,
            "province": "湖南省",
            "city": "娄底市",
            "district": "娄星区"
        }
    },
    {
        "id": "10339317453674735553",
        "title": "公共厕所",
        "address": "湖南省娄底市娄星区农商银行(西阳支行)北侧80米",
        "tel": "",
        "category": "基础设施:公共设施:公共厕所",
        "type": 0,
        "location": {
            "lat": 27.771716,
            "lng": 112.080978
        },
        "ad_info": {
            "adcode": 431302,
            "province": "湖南省",
            "city": "娄底市",
            "district": "娄星区"
        }
    },
    {
        "id": "5110714102929003815",
        "title": "公共厕所",
        "address": "湖南省娄底市冷水江市文印巷与新城路交叉口正南方向43米左右",
        "tel": "",
        "category": "基础设施:公共设施:公共厕所",
        "type": 0,
        "location": {
            "lat": 27.6835,
            "lng": 111.438468
        },
        "ad_info": {
            "adcode": 431381,
            "province": "湖南省",
            "city": "娄底市",
            "district": "冷水江市"
        }
    },
    {
        "id": "1152539793646586605",
        "title": "公共厕所",
        "address": "湖南省娄底市冷水江市江北路与锑都南路辅路交叉口正西方向22米左右",
        "tel": "",
        "category": "基础设施:公共设施:公共厕所",
        "type": 0,
        "location": {
            "lat": 27.680302,
            "lng": 111.431817
        },
        "ad_info": {
            "adcode": 431381,
            "province": "湖南省",
            "city": "娄底市",
            "district": "冷水江市"
        }
    },
    {
        "id": "8749329181382990281",
        "title": "公共厕所",
        "address": "湖南省娄底市娄星区万宝大道与娄星南路交叉口东北方向366米左右",
        "tel": "",
        "category": "基础设施:公共设施:公共厕所",
        "type": 0,
        "location": {
            "lat": 27.664406,
            "lng": 112.012366
        },
        "ad_info": {
            "adcode": 431302,
            "province": "湖南省",
            "city": "娄底市",
            "district": "娄星区"
        }
    },
    {
        "id": "11642947930547115198",
        "title": "公共厕所",
        "address": "湖南省娄底市娄星区吉星南路与湘阳街交叉口正西方向99米左右",
        "tel": "",
        "category": "基础设施:公共设施:公共厕所",
        "type": 0,
        "location": {
            "lat": 27.734518,
            "lng": 112.026424
        },
        "ad_info": {
            "adcode": 431302,
            "province": "湖南省",
            "city": "娄底市",
            "district": "娄星区"
        }
    },
    {
        "id": "10684198129518341388",
        "title": "公共厕所",
        "address": "湖南省娄底市娄星区氐星路487湖南人文科技学院",
        "tel": "",
        "category": "基础设施:公共设施:公共厕所",
        "type": 0,
        "location": {
            "lat": 27.711015,
            "lng": 112.003211
        },
        "ad_info": {
            "adcode": 431302,
            "province": "湖南省",
            "city": "娄底市",
            "district": "娄星区"
        }
    },
    {
        "id": "10438400766365106260",
        "title": "公共厕所",
        "address": "湖南省娄底市娄星区月塘街与月秀巷交叉口正东方向122米左右",
        "tel": "",
        "category": "基础设施:公共设施:公共厕所",
        "type": 0,
        "location": {
            "lat": 27.738681,
            "lng": 112.013923
        },
        "ad_info": {
            "adcode": 431302,
            "province": "湖南省",
            "city": "娄底市",
            "district": "娄星区"
        }
    },
    {
        "id": "9249498825798949297",
        "title": "公共厕所",
        "address": "湖南省娄底市新化县上梅东路与新化资江大桥交叉口西南方向236米左右",
        "tel": "",
        "category": "基础设施:公共设施:公共厕所",
        "type": 0,
        "location": {
            "lat": 27.731364,
            "lng": 111.31389
        },
        "ad_info": {
            "adcode": 431322,
            "province": "湖南省",
            "city": "娄底市",
            "district": "新化县"
        }
    },
    {
        "id": "17595855568727184017",
        "title": "公共厕所",
        "address": "湖南省娄底市娄星区涟滨街与清潭路交叉口正北方向66米左右",
        "tel": "",
        "category": "基础设施:公共设施:公共厕所",
        "type": 0,
        "location": {
            "lat": 27.745124,
            "lng": 112.002807
        },
        "ad_info": {
            "adcode": 431302,
            "province": "湖南省",
            "city": "娄底市",
            "district": "娄星区"
        }
    },
    {
        "id": "8232147352100412823",
        "title": "公共厕所",
        "address": "湖南省娄底市娄星区鸿星·新天地东北侧120米",
        "tel": "",
        "category": "基础设施:公共设施:公共厕所",
        "type": 0,
        "location": {
            "lat": 27.739395,
            "lng": 112.032586
        },
        "ad_info": {
            "adcode": 431302,
            "province": "湖南省",
            "city": "娄底市",
            "district": "娄星区"
        }
    },
    {
        "id": "15528401057492450682",
        "title": "公共厕所",
        "address": "湖南省娄底市娄星区文艺路与月塘街交叉口正西方向176米左右",
        "tel": "",
        "category": "基础设施:公共设施:公共厕所",
        "type": 0,
        "location": {
            "lat": 27.73952,
            "lng": 112.035678
        },
        "ad_info": {
            "adcode": 431302,
            "province": "湖南省",
            "city": "娄底市",
            "district": "娄星区"
        }
    },
    {
        "id": "17451430606929242388",
        "title": "公共厕所",
        "address": "湖南省娄底市娄星区三元街与庆余堂巷交叉口东北方向169米左右",
        "tel": "",
        "category": "基础设施:公共设施:公共厕所",
        "type": 0,
        "location": {
            "lat": 27.701717,
            "lng": 111.986845
        },
        "ad_info": {
            "adcode": 431302,
            "province": "湖南省",
            "city": "娄底市",
            "district": "娄星区"
        }
    },
    {
        "id": "12775112152655640739",
        "title": "公共厕所",
        "address": "湖南省娄底市娄星区湖南湘中输变电建设公司西南侧120米",
        "tel": "",
        "category": "基础设施:公共设施:公共厕所",
        "type": 0,
        "location": {
            "lat": 27.761229,
            "lng": 112.083456
        },
        "ad_info": {
            "adcode": 431302,
            "province": "湖南省",
            "city": "娄底市",
            "district": "娄星区"
        }
    },
    {
        "id": "3619263848604555527",
        "title": "公共厕所",
        "address": "湖南省娄底市新化县横江水蜜桃基地西南侧90米",
        "tel": "",
        "category": "基础设施:公共设施:公共厕所",
        "type": 0,
        "location": {
            "lat": 27.82514,
            "lng": 110.877171
        },
        "ad_info": {
            "adcode": 431322,
            "province": "湖南省",
            "city": "娄底市",
            "district": "新化县"
        }
    },
    {
        "id": "8719001036015172221",
        "title": "公共厕所",
        "address": "湖南省娄底市娄星区吉星南路与向阳街交叉口正东方向66米左右",
        "tel": "",
        "category": "基础设施:公共设施:公共厕所",
        "type": 0,
        "location": {
            "lat": 27.703781,
            "lng": 112.016024
        },
        "ad_info": {
            "adcode": 431302,
            "province": "湖南省",
            "city": "娄底市",
            "district": "娄星区"
        }
    },
    {
        "id": "3012427175154682768",
        "title": "公共厕所",
        "address": "湖南省娄底市娄星区白塘路与长青街交叉口正西方向123米左右",
        "tel": "",
        "category": "基础设施:公共设施:公共厕所",
        "type": 0,
        "location": {
            "lat": 27.729829,
            "lng": 112.022038
        },
        "ad_info": {
            "adcode": 431302,
            "province": "湖南省",
            "city": "娄底市",
            "district": "娄星区"
        }
    },
    {
        "id": "12238115660765203757",
        "title": "公共厕所",
        "address": "湖南省娄底市涟源市中山后街与文艺南路交叉口东南方向24米左右",
        "tel": "",
        "category": "基础设施:公共设施:公共厕所",
        "type": 0,
        "location": {
            "lat": 27.68698,
            "lng": 111.670273
        },
        "ad_info": {
            "adcode": 431382,
            "province": "湖南省",
            "city": "娄底市",
            "district": "涟源市"
        }
    },
    {
        "id": "3792246639723982653",
        "title": "公共厕所",
        "address": "湖南省娄底市娄星区扶青路1272号",
        "tel": "",
        "category": "基础设施:公共设施:公共厕所",
        "type": 0,
        "location": {
            "lat": 27.708172,
            "lng": 111.99132
        },
        "ad_info": {
            "adcode": 431302,
            "province": "湖南省",
            "city": "娄底市",
            "district": "娄星区"
        }
    },
    {
        "id": "8592308090736086755",
        "title": "公共厕所",
        "address": "湖南省娄底市娄星区长青街与王家巷交叉口南200米",
        "tel": "",
        "category": "基础设施:公共设施:公共厕所",
        "type": 0,
        "location": {
            "lat": 27.7283,
            "lng": 112.016839
        },
        "ad_info": {
            "adcode": 431302,
            "province": "湖南省",
            "city": "娄底市",
            "district": "娄星区"
        }
    },
    {
        "id": "5221110632241618805",
        "title": "公共厕所",
        "address": "湖南省娄底市娄星区氐星路与育星街交叉口西南方向193米左右",
        "tel": "",
        "category": "基础设施:公共设施:公共厕所",
        "type": 0,
        "location": {
            "lat": 27.710121,
            "lng": 112.004943
        },
        "ad_info": {
            "adcode": 431302,
            "province": "湖南省",
            "city": "娄底市",
            "district": "娄星区"
        }
    },
    {
        "id": "6965133201300018794",
        "title": "公共厕所",
        "address": "湖南省娄底市冷水江市",
        "tel": "",
        "category": "基础设施:公共设施:公共厕所",
        "type": 0,
        "location": {
            "lat": 27.691513,
            "lng": 111.563882
        },
        "ad_info": {
            "adcode": 431381,
            "province": "湖南省",
            "city": "娄底市",
            "district": "冷水江市"
        }
    },
    {
        "id": "2351162812623294742",
        "title": "公共厕所",
        "address": "湖南省娄底市娄星区娄星北路725号",
        "tel": "",
        "category": "基础设施:公共设施:公共厕所",
        "type": 0,
        "location": {
            "lat": 27.754564,
            "lng": 111.991225
        },
        "ad_info": {
            "adcode": 431302,
            "province": "湖南省",
            "city": "娄底市",
            "district": "娄星区"
        }
    },
    {
        "id": "11761216025519892961",
        "title": "公共厕所",
        "address": "湖南省娄底市娄星区湘中大道与福星路交叉口正西方向205米左右",
        "tel": "",
        "category": "基础设施:公共设施:公共厕所",
        "type": 0,
        "location": {
            "lat": 27.697273,
            "lng": 111.988347
        },
        "ad_info": {
            "adcode": 431302,
            "province": "湖南省",
            "city": "娄底市",
            "district": "娄星区"
        }
    },
    {
        "id": "8443102009829662059",
        "title": "公共厕所",
        "address": "湖南省娄底市冷水江市新城路与民政路交叉口正南方向41米左右",
        "tel": "",
        "category": "基础设施:公共设施:公共厕所",
        "type": 0,
        "location": {
            "lat": 27.685098,
            "lng": 111.431152
        },
        "ad_info": {
            "adcode": 431381,
            "province": "湖南省",
            "city": "娄底市",
            "district": "冷水江市"
        }
    },
    {
        "id": "4461463669750859963",
        "title": "公共厕所",
        "address": "湖南省娄底市涟源市人民中路与双拥路交叉口正南方向39米左右",
        "tel": "",
        "category": "基础设施:公共设施:公共厕所",
        "type": 0,
        "location": {
            "lat": 27.692977,
            "lng": 111.685256
        },
        "ad_info": {
            "adcode": 431382,
            "province": "湖南省",
            "city": "娄底市",
            "district": "涟源市"
        }
    },
    {
        "id": "9286012693039838061",
        "title": "公共厕所",
        "address": "湖南省娄底市冷水江市冷水江步行街与金竹西路交叉口正西方向42米左右",
        "tel": "",
        "category": "基础设施:公共设施:公共厕所",
        "type": 0,
        "location": {
            "lat": 27.68742,
            "lng": 111.437046
        },
        "ad_info": {
            "adcode": 431381,
            "province": "湖南省",
            "city": "娄底市",
            "district": "冷水江市"
        }
    },
    {
        "id": "13719812626906643613",
        "title": "公共厕所",
        "address": "湖南省娄底市娄星区大汉大道与石冲路交叉口西140米",
        "tel": "",
        "category": "基础设施:公共设施:公共厕所",
        "type": 0,
        "location": {
            "lat": 27.750547,
            "lng": 111.997556
        },
        "ad_info": {
            "adcode": 431302,
            "province": "湖南省",
            "city": "娄底市",
            "district": "娄星区"
        }
    },
    {
        "id": "1954089985011089336",
        "title": "公共厕所",
        "address": "湖南省娄底市娄星区娄底火车站兄妹饭店",
        "tel": "",
        "category": "基础设施:公共设施:公共厕所",
        "type": 0,
        "location": {
            "lat": 27.738504,
            "lng": 112.005854
        },
        "ad_info": {
            "adcode": 431302,
            "province": "湖南省",
            "city": "娄底市",
            "district": "娄星区"
        }
    },
    {
        "id": "3164419198374499591",
        "title": "公共厕所",
        "address": "湖南省娄底市娄星区娄星南路与西贸街交叉口正北方向66米左右",
        "tel": "",
        "category": "基础设施:公共设施:公共厕所",
        "type": 0,
        "location": {
            "lat": 27.726132,
            "lng": 112.000237
        },
        "ad_info": {
            "adcode": 431302,
            "province": "湖南省",
            "city": "娄底市",
            "district": "娄星区"
        }
    },
    {
        "id": "9996763614071044656",
        "title": "公共厕所",
        "address": "湖南省娄底市涟源市东风路与福涟路交叉口东北方向48米左右",
        "tel": "",
        "category": "基础设施:公共设施:公共厕所",
        "type": 0,
        "location": {
            "lat": 27.695981,
            "lng": 111.71968
        },
        "ad_info": {
            "adcode": 431382,
            "province": "湖南省",
            "city": "娄底市",
            "district": "涟源市"
        }
    },
    {
        "id": "3945157980040769714",
        "title": "公共厕所",
        "address": "湖南省娄底市娄星区新星南路1033号",
        "tel": "",
        "category": "基础设施:公共设施:公共厕所",
        "type": 0,
        "location": {
            "lat": 27.733308,
            "lng": 112.014907
        },
        "ad_info": {
            "adcode": 431302,
            "province": "湖南省",
            "city": "娄底市",
            "district": "娄星区"
        }
    },
    {
        "id": "5343533706341306926",
        "title": "公共厕所",
        "address": "湖南省娄底市娄星区湘阳街28号",
        "tel": "",
        "category": "基础设施:公共设施:公共厕所",
        "type": 0,
        "location": {
            "lat": 27.73328,
            "lng": 112.001178
        },
        "ad_info": {
            "adcode": 431302,
            "province": "湖南省",
            "city": "娄底市",
            "district": "娄星区"
        }
    },
    {
        "id": "5749329191153458727",
        "title": "公共厕所",
        "address": "湖南省娄底市娄星区娄星南路与福星路交叉口正南方向122米左右",
        "tel": "",
        "category": "基础设施:公共设施:公共厕所",
        "type": 0,
        "location": {
            "lat": 27.719775,
            "lng": 111.9962
        },
        "ad_info": {
            "adcode": 431302,
            "province": "湖南省",
            "city": "娄底市",
            "district": "娄星区"
        }
    },
    {
        "id": "16989208783337451040",
        "title": "公共厕所",
        "address": "湖南省娄底市娄星区早元街228号",
        "tel": "",
        "category": "基础设施:公共设施:公共厕所",
        "type": 0,
        "location": {
            "lat": 27.702884,
            "lng": 112.003646
        },
        "ad_info": {
            "adcode": 431302,
            "province": "湖南省",
            "city": "娄底市",
            "district": "娄星区"
        }
    },
    {
        "id": "7432291220992769729",
        "title": "公共厕所",
        "address": "湖南省娄底市娄星区桑塘路与碧溪路交叉口西北方向112米左右",
        "tel": "",
        "category": "基础设施:公共设施:公共厕所",
        "type": 0,
        "location": {
            "lat": 27.756319,
            "lng": 111.977069
        },
        "ad_info": {
            "adcode": 431302,
            "province": "湖南省",
            "city": "娄底市",
            "district": "娄星区"
        }
    },
    {
        "id": "815416532181285777",
        "title": "公共厕所",
        "address": "湖南省娄底市娄星区乐坪大道与新星南路交叉口正北方向205米左右",
        "tel": "",
        "category": "基础设施:公共设施:公共厕所",
        "type": 0,
        "location": {
            "lat": 27.725038,
            "lng": 112.015354
        },
        "ad_info": {
            "adcode": 431302,
            "province": "湖南省",
            "city": "娄底市",
            "district": "娄星区"
        }
    },
    {
        "id": "15450212594447669344",
        "title": "公共厕所",
        "address": "湖南省娄底市娄星区扶青路923号",
        "tel": "",
        "category": "基础设施:公共设施:公共厕所",
        "type": 0,
        "location": {
            "lat": 27.711521,
            "lng": 111.992564
        },
        "ad_info": {
            "adcode": 431302,
            "province": "湖南省",
            "city": "娄底市",
            "district": "娄星区"
        }
    },
    {
        "id": "8481584515417948368",
        "title": "公共厕所",
        "address": "湖南省娄底市娄星区桑塘路与碧溪路交叉口正北方向123米左右",
        "tel": "",
        "category": "基础设施:公共设施:公共厕所",
        "type": 0,
        "location": {
            "lat": 27.756652,
            "lng": 111.977668
        },
        "ad_info": {
            "adcode": 431302,
            "province": "湖南省",
            "city": "娄底市",
            "district": "娄星区"
        }
    },
    {
        "id": "2414393000555148010",
        "title": "公共厕所",
        "address": "湖南省娄底市冷水江市兴农巷与江南路交叉口正东方向37米左右",
        "tel": "",
        "category": "基础设施:公共设施:公共厕所",
        "type": 0,
        "location": {
            "lat": 27.678212,
            "lng": 111.4302
        },
        "ad_info": {
            "adcode": 431381,
            "province": "湖南省",
            "city": "娄底市",
            "district": "冷水江市"
        }
    },
    {
        "id": "13535276177430979243",
        "title": "公共厕所",
        "address": "湖南省娄底市娄星区和平街与富元路交叉口西南方向20米左右",
        "tel": "",
        "category": "基础设施:公共设施:公共厕所",
        "type": 0,
        "location": {
            "lat": 27.69913,
            "lng": 111.987598
        },
        "ad_info": {
            "adcode": 431302,
            "province": "湖南省",
            "city": "娄底市",
            "district": "娄星区"
        }
    },
    {
        "id": "14459054679016910762",
        "title": "公共厕所",
        "address": "湖南省娄底市娄星区G354与湘阳街交叉口正西方向1720米左右",
        "tel": "",
        "category": "基础设施:公共设施:公共厕所",
        "type": 0,
        "location": {
            "lat": 27.744988,
            "lng": 112.116546
        },
        "ad_info": {
            "adcode": 431302,
            "province": "湖南省",
            "city": "娄底市",
            "district": "娄星区"
        }
    },
    {
        "id": "15717943207916462508",
        "title": "公共厕所",
        "address": "湖南省娄底市娄星区娄星南路556号2层",
        "tel": "",
        "category": "基础设施:公共设施:公共厕所",
        "type": 0,
        "location": {
            "lat": 27.728477,
            "lng": 112.003679
        },
        "ad_info": {
            "adcode": 431302,
            "province": "湖南省",
            "city": "娄底市",
            "district": "娄星区"
        }
    },
    {
        "id": "16406907088290936913",
        "title": "公共厕所",
        "address": "湖南省娄底市涟源市涟源东互通与福涟路交叉口正西方向46米左右",
        "tel": "",
        "category": "基础设施:公共设施:公共厕所",
        "type": 0,
        "location": {
            "lat": 27.696327,
            "lng": 111.719841
        },
        "ad_info": {
            "adcode": 431382,
            "province": "湖南省",
            "city": "娄底市",
            "district": "涟源市"
        }
    },
    {
        "id": "14152579091643160411",
        "title": "公共厕所",
        "address": "湖南省娄底市娄星区乐坪大道957号",
        "tel": "",
        "category": "基础设施:公共设施:公共厕所",
        "type": 0,
        "location": {
            "lat": 27.722354,
            "lng": 111.979853
        },
        "ad_info": {
            "adcode": 431302,
            "province": "湖南省",
            "city": "娄底市",
            "district": "娄星区"
        }
    },
    {
        "id": "12440756410989419834",
        "title": "公共厕所",
        "address": "湖南省娄底市娄星区新星北路与湘豪巷交叉口正南方向80米左右",
        "tel": "",
        "category": "基础设施:公共设施:公共厕所",
        "type": 0,
        "location": {
            "lat": 27.775234,
            "lng": 112.000248
        },
        "ad_info": {
            "adcode": 431302,
            "province": "湖南省",
            "city": "娄底市",
            "district": "娄星区"
        }
    },
    {
        "id": "9097471094929421557",
        "title": "公共厕所",
        "address": "湖南省娄底市娄星区兴铁巷与沿铁巷交叉口正东方向84米左右",
        "tel": "",
        "category": "基础设施:公共设施:公共厕所",
        "type": 0,
        "location": {
            "lat": 27.742187,
            "lng": 112.00517
        },
        "ad_info": {
            "adcode": 431302,
            "province": "湖南省",
            "city": "娄底市",
            "district": "娄星区"
        }
    },
    {
        "id": "15746860955987974829",
        "title": "公共厕所",
        "address": "湖南省娄底市娄星区学院路湖南人文科技学院田径场旁",
        "tel": "",
        "category": "基础设施:公共设施:公共厕所",
        "type": 0,
        "location": {
            "lat": 27.709966,
            "lng": 112.000217
        },
        "ad_info": {
            "adcode": 431302,
            "province": "湖南省",
            "city": "娄底市",
            "district": "娄星区"
        }
    },
    {
        "id": "13897796659244705961",
        "title": "公共厕所",
        "address": "湖南省娄底市娄星区三角坪巷与振兴街交叉口东南方向210米左右",
        "tel": "",
        "category": "基础设施:公共设施:公共厕所",
        "type": 0,
        "location": {
            "lat": 27.75785,
            "lng": 111.9734
        },
        "ad_info": {
            "adcode": 431302,
            "province": "湖南省",
            "city": "娄底市",
            "district": "娄星区"
        }
    },
    {
        "id": "980899375360415293",
        "title": "公共厕所",
        "address": "湖南省娄底市冷水江市波月路与环城东路交叉口正东方向158米左右",
        "tel": "",
        "category": "基础设施:公共设施:公共厕所",
        "type": 0,
        "location": {
            "lat": 27.694763,
            "lng": 111.449677
        },
        "ad_info": {
            "adcode": 431381,
            "province": "湖南省",
            "city": "娄底市",
            "district": "冷水江市"
        }
    },
    {
        "id": "4908848694810174600",
        "title": "公共厕所",
        "address": "湖南省娄底市涟源市人民中路与文艺北路交叉口正东方向118米左右",
        "tel": "",
        "category": "基础设施:公共设施:公共厕所",
        "type": 0,
        "location": {
            "lat": 27.693185,
            "lng": 111.67111
        },
        "ad_info": {
            "adcode": 431382,
            "province": "湖南省",
            "city": "娄底市",
            "district": "涟源市"
        }
    },
    {
        "id": "4167970175679813772",
        "title": "公共厕所",
        "address": "湖南省娄底市冷水江市354国道与044乡道交叉口西120米",
        "tel": "",
        "category": "基础设施:公共设施:公共厕所",
        "type": 0,
        "location": {
            "lat": 27.633675,
            "lng": 111.532136
        },
        "ad_info": {
            "adcode": 431381,
            "province": "湖南省",
            "city": "娄底市",
            "district": "冷水江市"
        }
    },
    {
        "id": "10531640106608505363",
        "title": "公共厕所",
        "address": "湖南省娄底市娄星区广源巷与涟滨街交叉口正北方向267米左右",
        "tel": "",
        "category": "基础设施:公共设施:公共厕所",
        "type": 0,
        "location": {
            "lat": 27.748426,
            "lng": 112.003957
        },
        "ad_info": {
            "adcode": 431302,
            "province": "湖南省",
            "city": "娄底市",
            "district": "娄星区"
        }
    },
    {
        "id": "15653768541871063148",
        "title": "公共厕所",
        "address": "湖南省娄底市新化县城西路与迎宾路交叉口西北方向1070米左右",
        "tel": "",
        "category": "基础设施:公共设施:公共厕所",
        "type": 0,
        "location": {
            "lat": 27.748845,
            "lng": 111.29213
        },
        "ad_info": {
            "adcode": 431322,
            "province": "湖南省",
            "city": "娄底市",
            "district": "新化县"
        }
    },
    {
        "id": "16660063010510442311",
        "title": "公共厕所",
        "address": "湖南省娄底市涟源市龙山森林公园检查站",
        "tel": "",
        "category": "基础设施:公共设施:公共厕所",
        "type": 0,
        "location": {
            "lat": 27.546742,
            "lng": 111.768998
        },
        "ad_info": {
            "adcode": 431382,
            "province": "湖南省",
            "city": "娄底市",
            "district": "涟源市"
        }
    },
    {
        "id": "14921753197234127168",
        "title": "公共厕所",
        "address": "湖南省娄底市涟源市车站路1号涟源站F1",
        "tel": "",
        "category": "基础设施:公共设施:公共厕所",
        "type": 0,
        "location": {
            "lat": 27.684752,
            "lng": 111.675526
        },
        "ad_info": {
            "adcode": 431382,
            "province": "湖南省",
            "city": "娄底市",
            "district": "涟源市"
        }
    },
    {
        "id": "2853837345992530842",
        "title": "公共厕所",
        "address": "湖南省娄底市涟源市人民中路与大园街交叉口东北方向107米左右",
        "tel": "",
        "category": "基础设施:公共设施:公共厕所",
        "type": 0,
        "location": {
            "lat": 27.690581,
            "lng": 111.65726
        },
        "ad_info": {
            "adcode": 431382,
            "province": "湖南省",
            "city": "娄底市",
            "district": "涟源市"
        }
    },
    {
        "id": "4420429118200820413",
        "title": "公共厕所",
        "address": "湖南省娄底市冷水江市广场东路与广场西路交叉口东北方向180米左右",
        "tel": "",
        "category": "基础设施:公共设施:公共厕所",
        "type": 0,
        "location": {
            "lat": 27.6835,
            "lng": 111.433955
        },
        "ad_info": {
            "adcode": 431381,
            "province": "湖南省",
            "city": "娄底市",
            "district": "冷水江市"
        }
    },
    {
        "id": "3250552737544368153",
        "title": "公共厕所",
        "address": "湖南省娄底市娄星区新星北路433号",
        "tel": "",
        "category": "基础设施:公共设施:公共厕所",
        "type": 0,
        "location": {
            "lat": 27.759459,
            "lng": 111.999639
        },
        "ad_info": {
            "adcode": 431302,
            "province": "湖南省",
            "city": "娄底市",
            "district": "娄星区"
        }
    },
    {
        "id": "5788184215565734014",
        "title": "公共厕所",
        "address": "湖南省娄底市涟源市幸福路与福源路交叉口正北方向201米左右",
        "tel": "",
        "category": "基础设施:公共设施:公共厕所",
        "type": 0,
        "location": {
            "lat": 27.700475,
            "lng": 111.677769
        },
        "ad_info": {
            "adcode": 431382,
            "province": "湖南省",
            "city": "娄底市",
            "district": "涟源市"
        }
    },
    {
        "id": "3933559247335661432",
        "title": "公共厕所",
        "address": "湖南省娄底市娄星区X020与振兴街交叉口东南方向226米左右",
        "tel": "",
        "category": "基础设施:公共设施:公共厕所",
        "type": 0,
        "location": {
            "lat": 27.761611,
            "lng": 111.975013
        },
        "ad_info": {
            "adcode": 431302,
            "province": "湖南省",
            "city": "娄底市",
            "district": "娄星区"
        }
    },
    {
        "id": "185696448916173209",
        "title": "公共厕所",
        "address": "湖南省娄底市新化县S323与X049交叉口正北方向1046米左右",
        "tel": "",
        "category": "基础设施:公共设施:公共厕所",
        "type": 0,
        "location": {
            "lat": 27.936997,
            "lng": 111.464816
        },
        "ad_info": {
            "adcode": 431322,
            "province": "湖南省",
            "city": "娄底市",
            "district": "新化县"
        }
    },
    {
        "id": "2240929102536423349",
        "title": "公共厕所",
        "address": "湖南省娄底市涟源市杨市镇宇城蓝莓",
        "tel": "",
        "category": "基础设施:公共设施:公共厕所",
        "type": 0,
        "location": {
            "lat": 27.582216,
            "lng": 111.815597
        },
        "ad_info": {
            "adcode": 431382,
            "province": "湖南省",
            "city": "娄底市",
            "district": "涟源市"
        }
    },
    {
        "id": "6844191068515113538",
        "title": "公共厕所",
        "address": "湖南省娄底市新化县217省道西50米",
        "tel": "",
        "category": "基础设施:公共设施:公共厕所",
        "type": 0,
        "location": {
            "lat": 27.800178,
            "lng": 111.333556
        },
        "ad_info": {
            "adcode": 431322,
            "province": "湖南省",
            "city": "娄底市",
            "district": "新化县"
        }
    },
    {
        "id": "11915463459169084377",
        "title": "公共厕所",
        "address": "湖南省娄底市新化县上梅东路与青峰路交叉口东北方向193米左右",
        "tel": "",
        "category": "基础设施:公共设施:公共厕所",
        "type": 0,
        "location": {
            "lat": 27.736833,
            "lng": 111.337056
        },
        "ad_info": {
            "adcode": 431322,
            "province": "湖南省",
            "city": "娄底市",
            "district": "新化县"
        }
    },
    {
        "id": "3666325062712790632",
        "title": "公共厕所",
        "address": "湖南省娄底市涟源市小水学校东南侧140米",
        "tel": "",
        "category": "基础设施:公共设施:公共厕所",
        "type": 0,
        "location": {
            "lat": 27.796789,
            "lng": 111.785524
        },
        "ad_info": {
            "adcode": 431382,
            "province": "湖南省",
            "city": "娄底市",
            "district": "涟源市"
        }
    },
    {
        "id": "1654806114557980352",
        "title": "公共厕所",
        "address": "湖南省娄底市涟源市G207与XK36交叉口正北方向138米左右",
        "tel": "",
        "category": "基础设施:公共设施:公共厕所",
        "type": 0,
        "location": {
            "lat": 27.771073,
            "lng": 111.714706
        },
        "ad_info": {
            "adcode": 431382,
            "province": "湖南省",
            "city": "娄底市",
            "district": "涟源市"
        }
    },
    {
        "id": "5519342819176737741",
        "title": "公共厕所",
        "address": "湖南省娄底市娄星区景屏路与西贸街交叉口正东方向53米左右",
        "tel": "",
        "category": "基础设施:公共设施:公共厕所",
        "type": 0,
        "location": {
            "lat": 27.725523,
            "lng": 112.004072
        },
        "ad_info": {
            "adcode": 431302,
            "province": "湖南省",
            "city": "娄底市",
            "district": "娄星区"
        }
    },
    {
        "id": "17246448919447843883",
        "title": "双峰服务区公共厕所",
        "address": "湖南省娄底市双峰县双峰服务区东30米",
        "tel": "",
        "category": "基础设施:公共设施:公共厕所",
        "type": 0,
        "location": {
            "lat": 27.398189,
            "lng": 112.137168
        },
        "ad_info": {
            "adcode": 431321,
            "province": "湖南省",
            "city": "娄底市",
            "district": "双峰县"
        }
    },
    {
        "id": "14428200333400815929",
        "title": "公共厕所",
        "address": "湖南省娄底市娄星区长青街东461号",
        "tel": "",
        "category": "基础设施:公共设施:公共厕所",
        "type": 0,
        "location": {
            "lat": 27.72968,
            "lng": 112.015977
        },
        "ad_info": {
            "adcode": 431302,
            "province": "湖南省",
            "city": "娄底市",
            "district": "娄星区"
        }
    },
    {
        "id": "6016196709532861238",
        "title": "公共厕所",
        "address": "湖南省娄底市娄星区娄星南路与湘阳街交叉口正西方向218米左右",
        "tel": "",
        "category": "基础设施:公共设施:公共厕所",
        "type": 0,
        "location": {
            "lat": 27.733478,
            "lng": 111.99808
        },
        "ad_info": {
            "adcode": 431302,
            "province": "湖南省",
            "city": "娄底市",
            "district": "娄星区"
        }
    },
    {
        "id": "2923196055185058939",
        "title": "无障碍公共厕所",
        "address": "湖南省娄底市娄星区红星巷与金谷路交叉口正东方向94米左右",
        "tel": "",
        "category": "基础设施:公共设施:公共厕所",
        "type": 0,
        "location": {
            "lat": 27.735982,
            "lng": 112.020073
        },
        "ad_info": {
            "adcode": 431302,
            "province": "湖南省",
            "city": "娄底市",
            "district": "娄星区"
        }
    },
    {
        "id": "661291321119318866",
        "title": "无障碍公共厕所",
        "address": "湖南省娄底市娄星区红星巷与金谷路交叉口正南方向57米左右",
        "tel": "",
        "category": "基础设施:公共设施:公共厕所",
        "type": 0,
        "location": {
            "lat": 27.735787,
            "lng": 112.019135
        },
        "ad_info": {
            "adcode": 431302,
            "province": "湖南省",
            "city": "娄底市",
            "district": "娄星区"
        }
    },
    {
        "id": "6034484593508763135",
        "title": "板桥社区公共厕所",
        "address": "湖南省娄底市涟源市S331与XK34交叉口西南方向1195米左右",
        "tel": "",
        "category": "基础设施:公共设施:公共厕所",
        "type": 0,
        "location": {
            "lat": 27.598592,
            "lng": 111.813448
        },
        "ad_info": {
            "adcode": 431382,
            "province": "湖南省",
            "city": "娄底市",
            "district": "涟源市"
        }
    },
    {
        "id": "17282485309489240327",
        "title": "吉庆服务区公共厕所",
        "address": "湖南省娄底市新化县S50长芷高速与吉庆服务区交叉口西340米",
        "tel": "",
        "category": "基础设施:公共设施:公共厕所",
        "type": 0,
        "location": {
            "lat": 27.912969,
            "lng": 111.377095
        },
        "ad_info": {
            "adcode": 431322,
            "province": "湖南省",
            "city": "娄底市",
            "district": "新化县"
        }
    },
    {
        "id": "16245232411838801505",
        "title": "城市驿站(月塘街店)",
        "address": "湖南省娄底市娄星区月塘街与檀香路交叉口西北方向30米左右",
        "tel": "",
        "category": "基础设施:公共设施:公共厕所",
        "type": 0,
        "location": {
            "lat": 27.739438,
            "lng": 112.032685
        },
        "ad_info": {
            "adcode": 431302,
            "province": "湖南省",
            "city": "娄底市",
            "district": "娄星区"
        }
    },
    {
        "id": "14111818371526663929",
        "title": "高盛顶贯国际大酒店-洗手间",
        "address": "湖南省娄底市娄星区金谷路高盛顶贯国际大酒店",
        "tel": "",
        "category": "基础设施:公共设施:公共厕所",
        "type": 0,
        "location": {
            "lat": 27.733666,
            "lng": 112.019337
        },
        "ad_info": {
            "adcode": 431302,
            "province": "湖南省",
            "city": "娄底市",
            "district": "娄星区"
        }
    },
    {
        "id": "18295441840992034402",
        "title": "顺航方廷国际酒店-洗手间",
        "address": "湖南省娄底市娄星区建设街与吉星路交叉口西北140米",
        "tel": "",
        "category": "基础设施:公共设施:公共厕所",
        "type": 0,
        "location": {
            "lat": 27.703252,
            "lng": 112.012476
        },
        "ad_info": {
            "adcode": 431302,
            "province": "湖南省",
            "city": "娄底市",
            "district": "娄星区"
        }
    },
    {
        "id": "6551022878214496512",
        "title": "桥头河服务区公共厕所",
        "address": "湖南省娄底市涟源市中国石化桥头河服务区B加油站西侧110米",
        "tel": "",
        "category": "基础设施:公共设施:公共厕所",
        "type": 0,
        "location": {
            "lat": 27.815464,
            "lng": 111.879127
        },
        "ad_info": {
            "adcode": 431382,
            "province": "湖南省",
            "city": "娄底市",
            "district": "涟源市"
        }
    },
    {
        "id": "11066004076019206893",
        "title": "文艺南路公共厕所",
        "address": "湖南省娄底市涟源市工农路与文艺南路交叉口正北方向105米左右",
        "tel": "",
        "category": "基础设施:公共设施:公共厕所",
        "type": 0,
        "location": {
            "lat": 27.689665,
            "lng": 111.670195
        },
        "ad_info": {
            "adcode": 431382,
            "province": "湖南省",
            "city": "娄底市",
            "district": "涟源市"
        }
    },
    {
        "id": "1951465205648230217",
        "title": "桥头河服务区第二公共厕所",
        "address": "湖南省娄底市涟源市中国石化桥头河服务区B加油站西南侧",
        "tel": "",
        "category": "基础设施:公共设施:公共厕所",
        "type": 0,
        "location": {
            "lat": 27.815632,
            "lng": 111.880225
        },
        "ad_info": {
            "adcode": 431382,
            "province": "湖南省",
            "city": "娄底市",
            "district": "涟源市"
        }
    },
    {
        "id": "13781744471549077293",
        "title": "娄星服务区第一公共厕所",
        "address": "湖南省娄底市娄星区X023与Y088交叉口正西方向534米左右",
        "tel": "",
        "category": "基础设施:公共设施:公共厕所",
        "type": 0,
        "location": {
            "lat": 27.659061,
            "lng": 111.915074
        },
        "ad_info": {
            "adcode": 431302,
            "province": "湖南省",
            "city": "娄底市",
            "district": "娄星区"
        }
    },
    {
        "id": "11398493755768646483",
        "title": "新化服务区公共厕所",
        "address": "湖南省娄底市新化县S70娄新高速与新化服务区交叉口北340米",
        "tel": "",
        "category": "基础设施:公共设施:公共厕所",
        "type": 0,
        "location": {
            "lat": 27.91844,
            "lng": 111.142544
        },
        "ad_info": {
            "adcode": 431322,
            "province": "湖南省",
            "city": "娄底市",
            "district": "新化县"
        }
    },
    {
        "id": "10531986759569981787",
        "title": "娄星服务区第二公共厕所",
        "address": "湖南省娄底市娄星区X023与Y088交叉口正西方向471米左右",
        "tel": "",
        "category": "基础设施:公共设施:公共厕所",
        "type": 0,
        "location": {
            "lat": 27.659076,
            "lng": 111.915734
        },
        "ad_info": {
            "adcode": 431302,
            "province": "湖南省",
            "city": "娄底市",
            "district": "娄星区"
        }
    },
    {
        "id": "16566615572921420723",
        "title": "白马服务区公共厕所",
        "address": "湖南省娄底市涟源市二广高速白马服务区",
        "tel": "",
        "category": "基础设施:公共设施:公共厕所",
        "type": 0,
        "location": {
            "lat": 27.568441,
            "lng": 111.647586
        },
        "ad_info": {
            "adcode": 431382,
            "province": "湖南省",
            "city": "娄底市",
            "district": "涟源市"
        }
    },
    {
        "id": "4287961977813409298",
        "title": "桥头河服务区公共厕所",
        "address": "湖南省娄底市涟源市桥东路与桥头河大道交叉口东南方向1513米左右",
        "tel": "",
        "category": "基础设施:公共设施:公共厕所",
        "type": 0,
        "location": {
            "lat": 27.816727,
            "lng": 111.879542
        },
        "ad_info": {
            "adcode": 431382,
            "province": "湖南省",
            "city": "娄底市",
            "district": "涟源市"
        }
    },
    {
        "id": "4181469784789187504",
        "title": "白马服务区第二公共厕所",
        "address": "湖南省娄底市涟源市G55二广高速与白马服务区交叉口东南140米",
        "tel": "",
        "category": "基础设施:公共设施:公共厕所",
        "type": 0,
        "location": {
            "lat": 27.570512,
            "lng": 111.650472
        },
        "ad_info": {
            "adcode": 431382,
            "province": "湖南省",
            "city": "娄底市",
            "district": "涟源市"
        }
    },
    {
        "id": "417309930771492414",
        "title": "重庆路公共厕所",
        "address": "湖南省娄底市新化县重庆路辉映江岸北门(新化县人民医院南)",
        "tel": "",
        "category": "基础设施:公共设施:公共厕所",
        "type": 0,
        "location": {
            "lat": 27.736046,
            "lng": 111.323778
        },
        "ad_info": {
            "adcode": 431322,
            "province": "湖南省",
            "city": "娄底市",
            "district": "新化县"
        }
    },
    {
        "id": "3092392299369542454",
        "title": "新化服务区公共厕所",
        "address": "湖南省娄底市新化县娄怀高速附近",
        "tel": "",
        "category": "基础设施:公共设施:公共厕所",
        "type": 0,
        "location": {
            "lat": 27.917792,
            "lng": 111.140322
        },
        "ad_info": {
            "adcode": 431322,
            "province": "湖南省",
            "city": "娄底市",
            "district": "新化县"
        }
    },
    {
        "id": "6402609045273680729",
        "title": "公共厕所",
        "address": "湖南省娄底市双峰县G234与Y262交叉口西南方向269米左右",
        "tel": "",
        "category": "基础设施:公共设施:公共厕所",
        "type": 0,
        "location": {
            "lat": 27.318741,
            "lng": 112.116143
        },
        "ad_info": {
            "adcode": 431321,
            "province": "湖南省",
            "city": "娄底市",
            "district": "双峰县"
        }
    },
    {
        "id": "4200899621484031913",
        "title": "公共厕所",
        "address": "湖南省娄底市娄星区孙水北街龙泉花园",
        "tel": "",
        "category": "基础设施:公共设施:公共厕所",
        "type": 0,
        "location": {
            "lat": 27.694588,
            "lng": 111.987972
        },
        "ad_info": {
            "adcode": 431302,
            "province": "湖南省",
            "city": "娄底市",
            "district": "娄星区"
        }
    },
    {
        "id": "12896106743358452851",
        "title": "白马服务区公共厕所",
        "address": "湖南省娄底市涟源市白马服务区B区(二广高速公路东)",
        "tel": "",
        "category": "基础设施:公共设施:公共厕所",
        "type": 0,
        "location": {
            "lat": 27.569378,
            "lng": 111.649866
        },
        "ad_info": {
            "adcode": 431382,
            "province": "湖南省",
            "city": "娄底市",
            "district": "涟源市"
        }
    },
    {
        "id": "14063836906199110685",
        "title": "公共厕所",
        "address": "湖南省娄底市娄星区文艺路与月塘街交叉口东南方向222米左右",
        "tel": "",
        "category": "基础设施:公共设施:公共厕所",
        "type": 0,
        "location": {
            "lat": 27.737992,
            "lng": 112.039036
        },
        "ad_info": {
            "adcode": 431302,
            "province": "湖南省",
            "city": "娄底市",
            "district": "娄星区"
        }
    },
    {
        "id": "8528155156549206378",
        "title": "娄底富士国际酒店洗手间",
        "address": "湖南省娄底市娄星区湘中大道187号",
        "tel": "",
        "category": "基础设施:公共设施:公共厕所",
        "type": 0,
        "location": {
            "lat": 27.696902,
            "lng": 112.002484
        },
        "ad_info": {
            "adcode": 431302,
            "province": "湖南省",
            "city": "娄底市",
            "district": "娄星区"
        }
    },
    {
        "id": "14178767893494858657",
        "title": "车田江服务区公共厕所",
        "address": "湖南省娄底市新化县S50长芷高速与车田江服务区交叉口东北80米",
        "tel": "",
        "category": "基础设施:公共设施:公共厕所",
        "type": 0,
        "location": {
            "lat": 27.849821,
            "lng": 111.618026
        },
        "ad_info": {
            "adcode": 431322,
            "province": "湖南省",
            "city": "娄底市",
            "district": "新化县"
        }
    },
    {
        "id": "2647188818623454005",
        "title": "疏通厕所",
        "address": "湖南省娄底市涟源市XK34与Y126交叉口正北方向638米左右",
        "tel": "",
        "category": "基础设施:公共设施:公共厕所",
        "type": 0,
        "location": {
            "lat": 27.577275,
            "lng": 111.767694
        },
        "ad_info": {
            "adcode": 431382,
            "province": "湖南省",
            "city": "娄底市",
            "district": "涟源市"
        }
    },
    {
        "id": "13530551382485790372",
        "title": "公共厕所",
        "address": "湖南省娄底市娄星区月塘街与白塘路交叉口正东方向81米左右",
        "tel": "",
        "category": "基础设施:公共设施:公共厕所",
        "type": 0,
        "location": {
            "lat": 27.738917,
            "lng": 112.024143
        },
        "ad_info": {
            "adcode": 431302,
            "province": "湖南省",
            "city": "娄底市",
            "district": "娄星区"
        }
    },
    {
        "id": "2331888789880417948",
        "title": "体育路公共厕所",
        "address": "湖南省娄底市涟源市人民中路与双拥路交叉口正北方向350米左右",
        "tel": "",
        "category": "基础设施:公共设施:公共厕所",
        "type": 0,
        "location": {
            "lat": 27.696478,
            "lng": 111.685099
        },
        "ad_info": {
            "adcode": 431382,
            "province": "湖南省",
            "city": "娄底市",
            "district": "涟源市"
        }
    },
    {
        "id": "4966547037155890502",
        "title": "吉庆服务区公共厕所",
        "address": "湖南省娄底市新化县S50长芷高速与吉庆服务区交叉口东320米",
        "tel": "",
        "category": "基础设施:公共设施:公共厕所",
        "type": 0,
        "location": {
            "lat": 27.911194,
            "lng": 111.37759
        },
        "ad_info": {
            "adcode": 431322,
            "province": "湖南省",
            "city": "娄底市",
            "district": "新化县"
        }
    },
    {
        "id": "11023527622579010321",
        "title": "公共厕所",
        "address": "湖南省娄底市双峰县香山旅游区",
        "tel": "",
        "category": "基础设施:公共设施:公共厕所",
        "type": 0,
        "location": {
            "lat": 27.458356,
            "lng": 112.302893
        },
        "ad_info": {
            "adcode": 431321,
            "province": "湖南省",
            "city": "娄底市",
            "district": "双峰县"
        }
    },
    {
        "id": "5047658887458196222",
        "title": "公共厕所",
        "address": "湖南省娄底市新化县S312与X061交叉口东南方向1435米左右",
        "tel": "",
        "category": "基础设施:公共设施:公共厕所",
        "type": 0,
        "location": {
            "lat": 27.630935,
            "lng": 111.150592
        },
        "ad_info": {
            "adcode": 431322,
            "province": "湖南省",
            "city": "娄底市",
            "district": "新化县"
        }
    },
    {
        "id": "17030537832884676397",
        "title": "公共厕所",
        "address": "湖南省娄底市新化县天华南路与金穗街交叉口正西方向123米左右",
        "tel": "",
        "category": "基础设施:公共设施:公共厕所",
        "type": 0,
        "location": {
            "lat": 27.73181,
            "lng": 111.303928
        },
        "ad_info": {
            "adcode": 431322,
            "province": "湖南省",
            "city": "娄底市",
            "district": "新化县"
        }
    },
    {
        "id": "334559378024384509",
        "title": "公共厕所",
        "address": "湖南省娄底市娄星区万富街娄底大市场",
        "tel": "",
        "category": "基础设施:公共设施:公共厕所",
        "type": 0,
        "location": {
            "lat": 27.733242,
            "lng": 111.998251
        },
        "ad_info": {
            "adcode": 431302,
            "province": "湖南省",
            "city": "娄底市",
            "district": "娄星区"
        }
    },
    {
        "id": "17329415438713161264",
        "title": "车田江服务区公共厕所",
        "address": "湖南省娄底市新化县S50长芷高速与车田江服务区交叉口西380米",
        "tel": "",
        "category": "基础设施:公共设施:公共厕所",
        "type": 0,
        "location": {
            "lat": 27.850551,
            "lng": 111.613766
        },
        "ad_info": {
            "adcode": 431322,
            "province": "湖南省",
            "city": "娄底市",
            "district": "新化县"
        }
    },
    {
        "id": "1588802004265517692",
        "title": "公共厕所",
        "address": "湖南省娄底市双峰县如意街与杏林路交叉口西南方向69米左右",
        "tel": "",
        "category": "基础设施:公共设施:公共厕所",
        "type": 0,
        "location": {
            "lat": 27.460104,
            "lng": 112.201334
        },
        "ad_info": {
            "adcode": 431321,
            "province": "湖南省",
            "city": "娄底市",
            "district": "双峰县"
        }
    },
    {
        "id": "7890310453477362728",
        "title": "娄星服务区第一公共厕所",
        "address": "湖南省娄底市娄星区涟源服务区与S70娄怀高速交汇处东北150米",
        "tel": "",
        "category": "基础设施:公共设施:公共厕所",
        "type": 0,
        "location": {
            "lat": 27.659669,
            "lng": 111.918156
        },
        "ad_info": {
            "adcode": 431302,
            "province": "湖南省",
            "city": "娄底市",
            "district": "娄星区"
        }
    },
    {
        "id": "9504445252252895096",
        "title": "疏通厕所",
        "address": "湖南省娄底市涟源市石门超市西南侧",
        "tel": "",
        "category": "基础设施:公共设施:公共厕所",
        "type": 0,
        "location": {
            "lat": 27.577517,
            "lng": 111.767774
        },
        "ad_info": {
            "adcode": 431382,
            "province": "湖南省",
            "city": "娄底市",
            "district": "涟源市"
        }
    },
    {
        "id": "6867081063351329709",
        "title": "公共厕所",
        "address": "湖南省娄底市双峰县莲香山庄酒店东南侧",
        "tel": "",
        "category": "基础设施:公共设施:公共厕所",
        "type": 0,
        "location": {
            "lat": 27.426615,
            "lng": 112.429174
        },
        "ad_info": {
            "adcode": 431321,
            "province": "湖南省",
            "city": "娄底市",
            "district": "双峰县"
        }
    },
    {
        "id": "398385288163521524",
        "title": "公共厕所",
        "address": "湖南省娄底市新化县G354与Y345交叉口正西方向89米左右",
        "tel": "",
        "category": "基础设施:公共设施:公共厕所",
        "type": 0,
        "location": {
            "lat": 27.757078,
            "lng": 111.266632
        },
        "ad_info": {
            "adcode": 431322,
            "province": "湖南省",
            "city": "娄底市",
            "district": "新化县"
        }
    },
    {
        "id": "17120715546560181224",
        "title": "公共厕所",
        "address": "湖南省娄底市娄星区仙桥街与新星北路交叉口东南方向105米左右",
        "tel": "",
        "category": "基础设施:公共设施:公共厕所",
        "type": 0,
        "location": {
            "lat": 27.758213,
            "lng": 112.001783
        },
        "ad_info": {
            "adcode": 431302,
            "province": "湖南省",
            "city": "娄底市",
            "district": "娄星区"
        }
    },
    {
        "id": "12972601505224861520",
        "title": "公共厕所",
        "address": "湖南省娄底市双峰县工农路与怡心街交叉口正东方向15米左右",
        "tel": "",
        "category": "基础设施:公共设施:公共厕所",
        "type": 0,
        "location": {
            "lat": 27.451939,
            "lng": 112.202124
        },
        "ad_info": {
            "adcode": 431321,
            "province": "湖南省",
            "city": "娄底市",
            "district": "双峰县"
        }
    },
    {
        "id": "8959701195492659025",
        "title": "公共厕所",
        "address": "湖南省娄底市娄星区福星路中国石化(湖南娄底关家脑加油站)",
        "tel": "",
        "category": "基础设施:公共设施:公共厕所",
        "type": 0,
        "location": {
            "lat": 27.716427,
            "lng": 111.995477
        },
        "ad_info": {
            "adcode": 431302,
            "province": "湖南省",
            "city": "娄底市",
            "district": "娄星区"
        }
    },
    {
        "id": "16919878304815292820",
        "title": "公共厕所",
        "address": "湖南省娄底市娄星区将军台巷与涟滨街交叉口西北方向197米左右",
        "tel": "",
        "category": "基础设施:公共设施:公共厕所",
        "type": 0,
        "location": {
            "lat": 27.75034,
            "lng": 112.007422
        },
        "ad_info": {
            "adcode": 431302,
            "province": "湖南省",
            "city": "娄底市",
            "district": "娄星区"
        }
    },
    {
        "id": "15983341717063133343",
        "title": "公共厕所",
        "address": "湖南省娄底市新化县S242与Y380交叉口西北方向130米左右",
        "tel": "",
        "category": "基础设施:公共设施:公共厕所",
        "type": 0,
        "location": {
            "lat": 27.677291,
            "lng": 111.006912
        },
        "ad_info": {
            "adcode": 431322,
            "province": "湖南省",
            "city": "娄底市",
            "district": "新化县"
        }
    },
    {
        "id": "15361512004046775846",
        "title": "公共厕所",
        "address": "湖南省娄底市新化县G354与上梅东路交叉口东南方向453米左右",
        "tel": "",
        "category": "基础设施:公共设施:公共厕所",
        "type": 0,
        "location": {
            "lat": 27.735256,
            "lng": 111.34979
        },
        "ad_info": {
            "adcode": 431322,
            "province": "湖南省",
            "city": "娄底市",
            "district": "新化县"
        }
    },
    {
        "id": "9762615253090802843",
        "title": "公共厕所",
        "address": "湖南省娄底市娄星区新星北路辅路与石冲路交叉口东南方向223米左右",
        "tel": "",
        "category": "基础设施:公共设施:公共厕所",
        "type": 0,
        "location": {
            "lat": 27.760887,
            "lng": 112.000457
        },
        "ad_info": {
            "adcode": 431302,
            "province": "湖南省",
            "city": "娄底市",
            "district": "娄星区"
        }
    },
    {
        "id": "18323018198268890503",
        "title": "公共厕所",
        "address": "湖南省娄底市冷水江市富民路与江南路交叉口正南方向385米左右",
        "tel": "",
        "category": "基础设施:公共设施:公共厕所",
        "type": 0,
        "location": {
            "lat": 27.672169,
            "lng": 111.420631
        },
        "ad_info": {
            "adcode": 431381,
            "province": "湖南省",
            "city": "娄底市",
            "district": "冷水江市"
        }
    },
    {
        "id": "9923829450287040490",
        "title": "公共厕所",
        "address": "湖南省娄底市娄星区贤童街娄底市第一中学附属实验学校",
        "tel": "",
        "category": "基础设施:公共设施:公共厕所",
        "type": 0,
        "location": {
            "lat": 27.72065,
            "lng": 112.00956
        },
        "ad_info": {
            "adcode": 431302,
            "province": "湖南省",
            "city": "娄底市",
            "district": "娄星区"
        }
    },
    {
        "id": "8652878351737124738",
        "title": "双峰服务区公共厕所",
        "address": "湖南省娄底市双峰县双峰服务区西侧",
        "tel": "",
        "category": "基础设施:公共设施:公共厕所",
        "type": 0,
        "location": {
            "lat": 27.398602,
            "lng": 112.133993
        },
        "ad_info": {
            "adcode": 431321,
            "province": "湖南省",
            "city": "娄底市",
            "district": "双峰县"
        }
    },
    {
        "id": "3561625161438670393",
        "title": "公共厕所",
        "address": "湖南省娄底市新化县学府南路与白沙洲东路交叉口正西方向126米左右",
        "tel": "",
        "category": "基础设施:公共设施:公共厕所",
        "type": 0,
        "location": {
            "lat": 27.718001,
            "lng": 111.318913
        },
        "ad_info": {
            "adcode": 431322,
            "province": "湖南省",
            "city": "娄底市",
            "district": "新化县"
        }
    },
    {
        "id": "4717398666729774085",
        "title": "公共厕所",
        "address": "湖南省娄底市娄星区桑塘路与赞山巷交叉口东南方向236米左右",
        "tel": "",
        "category": "基础设施:公共设施:公共厕所",
        "type": 0,
        "location": {
            "lat": 27.753835,
            "lng": 111.979822
        },
        "ad_info": {
            "adcode": 431302,
            "province": "湖南省",
            "city": "娄底市",
            "district": "娄星区"
        }
    },
    {
        "id": "1507862468996629985",
        "title": "公共厕所",
        "address": "湖南省娄底市娄星区娄涟大道与湘阳街交叉口西南方向134米左右",
        "tel": "",
        "category": "基础设施:公共设施:公共厕所",
        "type": 0,
        "location": {
            "lat": 27.745175,
            "lng": 112.082941
        },
        "ad_info": {
            "adcode": 431302,
            "province": "湖南省",
            "city": "娄底市",
            "district": "娄星区"
        }
    },
    {
        "id": "9714179585467655228",
        "title": "公共厕所",
        "address": "湖南省娄底市涟源市人民中路与人民西路交叉口正北方向41米左右",
        "tel": "",
        "category": "基础设施:公共设施:公共厕所",
        "type": 0,
        "location": {
            "lat": 27.689979,
            "lng": 111.656028
        },
        "ad_info": {
            "adcode": 431382,
            "province": "湖南省",
            "city": "娄底市",
            "district": "涟源市"
        }
    },
    {
        "id": "17333633201161459877",
        "title": "公共厕所",
        "address": "湖南省娄底市娄星区娄星北路与柒佳巷交叉口正西方向45米左右",
        "tel": "",
        "category": "基础设施:公共设施:公共厕所",
        "type": 0,
        "location": {
            "lat": 27.746753,
            "lng": 111.991342
        },
        "ad_info": {
            "adcode": 431302,
            "province": "湖南省",
            "city": "娄底市",
            "district": "娄星区"
        }
    },
    {
        "id": "3089959326305911655",
        "title": "公共厕所",
        "address": "湖南省娄底市新化县人民路与崇阳岭路交叉口东南方向285米左右",
        "tel": "",
        "category": "基础设施:公共设施:公共厕所",
        "type": 0,
        "location": {
            "lat": 27.73707,
            "lng": 111.311078
        },
        "ad_info": {
            "adcode": 431322,
            "province": "湖南省",
            "city": "娄底市",
            "district": "新化县"
        }
    },
    {
        "id": "9039982385391557037",
        "title": "公共厕所",
        "address": "湖南省娄底市涟源市创业路与娄涟公路交叉口正东方向1977米左右",
        "tel": "",
        "category": "基础设施:公共设施:公共厕所",
        "type": 0,
        "location": {
            "lat": 27.716356,
            "lng": 111.771737
        },
        "ad_info": {
            "adcode": 431382,
            "province": "湖南省",
            "city": "娄底市",
            "district": "涟源市"
        }
    },
    {
        "id": "13549170941025976040",
        "title": "公共厕所",
        "address": "湖南省娄底市涟源市娄怀高速与杨市互通交叉口正西方向906米左右",
        "tel": "",
        "category": "基础设施:公共设施:公共厕所",
        "type": 0,
        "location": {
            "lat": 27.6266,
            "lng": 111.813243
        },
        "ad_info": {
            "adcode": 431382,
            "province": "湖南省",
            "city": "娄底市",
            "district": "涟源市"
        }
    },
    {
        "id": "7345548993966277728",
        "title": "公共厕所",
        "address": "湖南省娄底市涟源市G207与秀溪中桥交叉口正西方向1095米左右",
        "tel": "",
        "category": "基础设施:公共设施:公共厕所",
        "type": 0,
        "location": {
            "lat": 27.674068,
            "lng": 111.622097
        },
        "ad_info": {
            "adcode": 431382,
            "province": "湖南省",
            "city": "娄底市",
            "district": "涟源市"
        }
    },
    {
        "id": "10105888939572368282",
        "title": "公共厕所",
        "address": "湖南省娄底市娄星区娄涟公路与西坪路交叉口正东方向277米左右",
        "tel": "",
        "category": "基础设施:公共设施:公共厕所",
        "type": 0,
        "location": {
            "lat": 27.764424,
            "lng": 112.011861
        },
        "ad_info": {
            "adcode": 431302,
            "province": "湖南省",
            "city": "娄底市",
            "district": "娄星区"
        }
    },
    {
        "id": "579167170872905127",
        "title": "公共厕所",
        "address": "湖南省娄底市新化县G354与X059交叉口正南方向107米左右",
        "tel": "",
        "category": "基础设施:公共设施:公共厕所",
        "type": 0,
        "location": {
            "lat": 27.878452,
            "lng": 111.172898
        },
        "ad_info": {
            "adcode": 431322,
            "province": "湖南省",
            "city": "娄底市",
            "district": "新化县"
        }
    },
    {
        "id": "7173262020175205671",
        "title": "公共厕所",
        "address": "湖南省娄底市双峰县234国道与227乡道交叉口西北180米",
        "tel": "",
        "category": "基础设施:公共设施:公共厕所",
        "type": 0,
        "location": {
            "lat": 27.463831,
            "lng": 112.141994
        },
        "ad_info": {
            "adcode": 431321,
            "province": "湖南省",
            "city": "娄底市",
            "district": "双峰县"
        }
    },
    {
        "id": "7922138979303711071",
        "title": "公共厕所",
        "address": "湖南省娄底市娄星区新星南路与静安街交叉口正南方向356米左右",
        "tel": "",
        "category": "基础设施:公共设施:公共厕所",
        "type": 0,
        "location": {
            "lat": 27.680656,
            "lng": 112.011356
        },
        "ad_info": {
            "adcode": 431302,
            "province": "湖南省",
            "city": "娄底市",
            "district": "娄星区"
        }
    },
    {
        "id": "8815956311140483099",
        "title": "公共厕所",
        "address": "湖南省娄底市涟源市S331与X023交叉口西北方向606米左右",
        "tel": "",
        "category": "基础设施:公共设施:公共厕所",
        "type": 0,
        "location": {
            "lat": 27.589865,
            "lng": 111.892148
        },
        "ad_info": {
            "adcode": 431382,
            "province": "湖南省",
            "city": "娄底市",
            "district": "涟源市"
        }
    },
    {
        "id": "5179521754542779307",
        "title": "公共厕所",
        "address": "湖南省娄底市双峰县XK09与泽南路交叉口正东方向105米左右",
        "tel": "",
        "category": "基础设施:公共设施:公共厕所",
        "type": 0,
        "location": {
            "lat": 27.447916,
            "lng": 112.207778
        },
        "ad_info": {
            "adcode": 431321,
            "province": "湖南省",
            "city": "娄底市",
            "district": "双峰县"
        }
    },
    {
        "id": "1406408022598357071",
        "title": "公共厕所",
        "address": "湖南省娄底市涟源市G207与G354交叉口东北方向108米左右",
        "tel": "",
        "category": "基础设施:公共设施:公共厕所",
        "type": 0,
        "location": {
            "lat": 27.681719,
            "lng": 111.634169
        },
        "ad_info": {
            "adcode": 431382,
            "province": "湖南省",
            "city": "娄底市",
            "district": "涟源市"
        }
    },
    {
        "id": "5265809852156313887",
        "title": "公共厕所",
        "address": "湖南省娄底市冷水江市G354与冷新路交叉口东南方向81米左右",
        "tel": "",
        "category": "基础设施:公共设施:公共厕所",
        "type": 0,
        "location": {
            "lat": 27.698871,
            "lng": 111.425899
        },
        "ad_info": {
            "adcode": 431381,
            "province": "湖南省",
            "city": "娄底市",
            "district": "冷水江市"
        }
    },
    {
        "id": "18143638666186108042",
        "title": "公共厕所",
        "address": "湖南省娄底市娄星区万富街与娄星南路交叉口西北方向134米左右",
        "tel": "",
        "category": "基础设施:公共设施:公共厕所",
        "type": 0,
        "location": {
            "lat": 27.736108,
            "lng": 111.999138
        },
        "ad_info": {
            "adcode": 431302,
            "province": "湖南省",
            "city": "娄底市",
            "district": "娄星区"
        }
    },
    {
        "id": "508489303300758573",
        "title": "公共厕所",
        "address": "湖南省娄底市冷水江市富民路与江南路交叉口正西方向35米左右",
        "tel": "",
        "category": "基础设施:公共设施:公共厕所",
        "type": 0,
        "location": {
            "lat": 27.675318,
            "lng": 111.421715
        },
        "ad_info": {
            "adcode": 431381,
            "province": "湖南省",
            "city": "娄底市",
            "district": "冷水江市"
        }
    },
    {
        "id": "2824580903857690998",
        "title": "公共厕所",
        "address": "湖南省娄底市娄星区春园商业步行街银街与氐星路交叉口东北100米",
        "tel": "",
        "category": "基础设施:公共设施:公共厕所",
        "type": 0,
        "location": {
            "lat": 27.727468,
            "lng": 112.007797
        },
        "ad_info": {
            "adcode": 431302,
            "province": "湖南省",
            "city": "娄底市",
            "district": "娄星区"
        }
    },
    {
        "id": "14977005469622138989",
        "title": "公共厕所",
        "address": "湖南省娄底市娄星区谭家山巷与金星北路交叉口正北方向110米左右",
        "tel": "",
        "category": "基础设施:公共设施:公共厕所",
        "type": 0,
        "location": {
            "lat": 27.754212,
            "lng": 111.975348
        },
        "ad_info": {
            "adcode": 431302,
            "province": "湖南省",
            "city": "娄底市",
            "district": "娄星区"
        }
    },
    {
        "id": "6772795025032540898",
        "title": "公共厕所",
        "address": "湖南省娄底市娄星区万富街申通快递旁(希望大厦西北)",
        "tel": "",
        "category": "基础设施:公共设施:公共厕所",
        "type": 0,
        "location": {
            "lat": 27.731091,
            "lng": 111.998201
        },
        "ad_info": {
            "adcode": 431302,
            "province": "湖南省",
            "city": "娄底市",
            "district": "娄星区"
        }
    },
    {
        "id": "11621733453536968717",
        "title": "公共厕所",
        "address": "湖南省娄底市娄星区钢城东路与钢城街交叉口西南方向127米左右",
        "tel": "",
        "category": "基础设施:公共设施:公共厕所",
        "type": 0,
        "location": {
            "lat": 27.75447,
            "lng": 111.987899
        },
        "ad_info": {
            "adcode": 431302,
            "province": "湖南省",
            "city": "娄底市",
            "district": "娄星区"
        }
    },
    {
        "id": "17484501394169340352",
        "title": "公共厕所",
        "address": "湖南省娄底市娄星区仙桥街34号",
        "tel": "",
        "category": "基础设施:公共设施:公共厕所",
        "type": 0,
        "location": {
            "lat": 27.758472,
            "lng": 111.999183
        },
        "ad_info": {
            "adcode": 431302,
            "province": "湖南省",
            "city": "娄底市",
            "district": "娄星区"
        }
    },
    {
        "id": "16944807671006986561",
        "title": "公共厕所",
        "address": "湖南省娄底市冷水江市施塘路与锑都中路交叉口正南方向44米左右",
        "tel": "",
        "category": "基础设施:公共设施:公共厕所",
        "type": 0,
        "location": {
            "lat": 27.693681,
            "lng": 111.440658
        },
        "ad_info": {
            "adcode": 431381,
            "province": "湖南省",
            "city": "娄底市",
            "district": "冷水江市"
        }
    },
    {
        "id": "6299203018553817325",
        "title": "公共厕所",
        "address": "湖南省娄底市娄星区栗山路与沿铁巷交叉口东南方向19米左右",
        "tel": "",
        "category": "基础设施:公共设施:公共厕所",
        "type": 0,
        "location": {
            "lat": 27.744296,
            "lng": 112.006838
        },
        "ad_info": {
            "adcode": 431302,
            "province": "湖南省",
            "city": "娄底市",
            "district": "娄星区"
        }
    },
    {
        "id": "2440455931920474071",
        "title": "公共厕所",
        "address": "湖南省娄底市娄星区桑塘路与赞山巷交叉口西南方向18米左右",
        "tel": "",
        "category": "基础设施:公共设施:公共厕所",
        "type": 0,
        "location": {
            "lat": 27.755359,
            "lng": 111.978147
        },
        "ad_info": {
            "adcode": 431302,
            "province": "湖南省",
            "city": "娄底市",
            "district": "娄星区"
        }
    },
    {
        "id": "6678114504761186029",
        "title": "公共厕所",
        "address": "湖南省娄底市娄星区春园路151号",
        "tel": "",
        "category": "基础设施:公共设施:公共厕所",
        "type": 0,
        "location": {
            "lat": 27.724544,
            "lng": 112.010508
        },
        "ad_info": {
            "adcode": 431302,
            "province": "湖南省",
            "city": "娄底市",
            "district": "娄星区"
        }
    },
    {
        "id": "17910530869184104104",
        "title": "公共厕所",
        "address": "湖南省娄底市新化县X062与新新高速交叉口西南方向1832米左右",
        "tel": "",
        "category": "基础设施:公共设施:公共厕所",
        "type": 0,
        "location": {
            "lat": 27.634578,
            "lng": 111.007837
        },
        "ad_info": {
            "adcode": 431322,
            "province": "湖南省",
            "city": "娄底市",
            "district": "新化县"
        }
    },
    {
        "id": "13128900657674207623",
        "title": "公共厕所",
        "address": "湖南省娄底市新化县咏梅街与梅枝路交叉口正东方向111米左右",
        "tel": "",
        "category": "基础设施:公共设施:公共厕所",
        "type": 0,
        "location": {
            "lat": 27.72627,
            "lng": 111.324298
        },
        "ad_info": {
            "adcode": 431322,
            "province": "湖南省",
            "city": "娄底市",
            "district": "新化县"
        }
    },
    {
        "id": "14710552764735862016",
        "title": "公共厕所",
        "address": "湖南省娄底市双峰县书院路与复兴街交叉口东南方向110米左右",
        "tel": "",
        "category": "基础设施:公共设施:公共厕所",
        "type": 0,
        "location": {
            "lat": 27.456258,
            "lng": 112.202529
        },
        "ad_info": {
            "adcode": 431321,
            "province": "湖南省",
            "city": "娄底市",
            "district": "双峰县"
        }
    },
    {
        "id": "13853199001051536611",
        "title": "公共厕所",
        "address": "湖南省娄底市涟源市人民中路与兴教巷交叉口西北方向91米左右",
        "tel": "",
        "category": "基础设施:公共设施:公共厕所",
        "type": 0,
        "location": {
            "lat": 27.693184,
            "lng": 111.668015
        },
        "ad_info": {
            "adcode": 431382,
            "province": "湖南省",
            "city": "娄底市",
            "district": "涟源市"
        }
    },
    {
        "id": "580086502980071938",
        "title": "公共厕所",
        "address": "湖南省娄底市娄星区湘中大道784号",
        "tel": "",
        "category": "基础设施:公共设施:公共厕所",
        "type": 0,
        "location": {
            "lat": 27.697126,
            "lng": 111.989191
        },
        "ad_info": {
            "adcode": 431302,
            "province": "湖南省",
            "city": "娄底市",
            "district": "娄星区"
        }
    },
    {
        "id": "7948060387819920717",
        "title": "公共厕所",
        "address": "湖南省娄底市双峰县S227与S331交叉口正北方向1958米左右",
        "tel": "",
        "category": "基础设施:公共设施:公共厕所",
        "type": 0,
        "location": {
            "lat": 27.55817,
            "lng": 112.015482
        },
        "ad_info": {
            "adcode": 431321,
            "province": "湖南省",
            "city": "娄底市",
            "district": "双峰县"
        }
    }
]