[
    {
        "id": "7703096198080350237",
        "title": "公共厕所",
        "address": "湖北省孝感市汉川市长兴路帝景豪庭",
        "tel": "",
        "category": "基础设施:公共设施:公共厕所",
        "type": 0,
        "location": {
            "lat": 30.651405,
            "lng": 113.818021
        },
        "ad_info": {
            "adcode": 420984,
            "province": "湖北省",
            "city": "孝感市",
            "district": "汉川市"
        }
    },
    {
        "id": "15577342585533764457",
        "title": "公共厕所",
        "address": "湖北省孝感市应城市化工大道与滕西街交叉口正南方向106米左右",
        "tel": "",
        "category": "基础设施:公共设施:公共厕所",
        "type": 0,
        "location": {
            "lat": 30.913311,
            "lng": 113.704746
        },
        "ad_info": {
            "adcode": 420981,
            "province": "湖北省",
            "city": "孝感市",
            "district": "应城市"
        }
    },
    {
        "id": "1497476438769261647",
        "title": "公共厕所",
        "address": "湖北省孝感市应城市建设街4号",
        "tel": "",
        "category": "基础设施:公共设施:公共厕所",
        "type": 0,
        "location": {
            "lat": 30.952347,
            "lng": 113.569774
        },
        "ad_info": {
            "adcode": 420981,
            "province": "湖北省",
            "city": "孝感市",
            "district": "应城市"
        }
    },
    {
        "id": "14255888978897931318",
        "title": "公共厕所",
        "address": "湖北省孝感市应城市城南路与蒲阳大道交叉口正西方向108米左右",
        "tel": "",
        "category": "基础设施:公共设施:公共厕所",
        "type": 0,
        "location": {
            "lat": 30.940655,
            "lng": 113.570327
        },
        "ad_info": {
            "adcode": 420981,
            "province": "湖北省",
            "city": "孝感市",
            "district": "应城市"
        }
    },
    {
        "id": "465267375774395519",
        "title": "公共厕所",
        "address": "湖北省孝感市汉川市联合渠南路霍城游园(西侧)",
        "tel": "",
        "category": "基础设施:公共设施:公共厕所",
        "type": 0,
        "location": {
            "lat": 30.66448,
            "lng": 113.835897
        },
        "ad_info": {
            "adcode": 420984,
            "province": "湖北省",
            "city": "孝感市",
            "district": "汉川市"
        }
    },
    {
        "id": "10306029238818612052",
        "title": "公共厕所",
        "address": "湖北省孝感市汉川市福星三路与福星四路交叉口东北方向77米左右",
        "tel": "",
        "category": "基础设施:公共设施:公共厕所",
        "type": 0,
        "location": {
            "lat": 30.490403,
            "lng": 113.531247
        },
        "ad_info": {
            "adcode": 420984,
            "province": "湖北省",
            "city": "孝感市",
            "district": "汉川市"
        }
    },
    {
        "id": "8335840688175490792",
        "title": "公共厕所",
        "address": "湖北省孝感市汉川市毛家堤路77号",
        "tel": "",
        "category": "基础设施:公共设施:公共厕所",
        "type": 0,
        "location": {
            "lat": 30.640911,
            "lng": 113.832409
        },
        "ad_info": {
            "adcode": 420984,
            "province": "湖北省",
            "city": "孝感市",
            "district": "汉川市"
        }
    },
    {
        "id": "5234057054609772146",
        "title": "公共厕所",
        "address": "湖北省孝感市应城市汉宜大道33号",
        "tel": "",
        "category": "基础设施:公共设施:公共厕所",
        "type": 0,
        "location": {
            "lat": 30.93594,
            "lng": 113.576236
        },
        "ad_info": {
            "adcode": 420981,
            "province": "湖北省",
            "city": "孝感市",
            "district": "应城市"
        }
    },
    {
        "id": "6665713562082537913",
        "title": "公共厕所",
        "address": "湖北省孝感市应城市解放街211-1号",
        "tel": "",
        "category": "基础设施:公共设施:公共厕所",
        "type": 0,
        "location": {
            "lat": 30.944365,
            "lng": 113.568908
        },
        "ad_info": {
            "adcode": 420981,
            "province": "湖北省",
            "city": "孝感市",
            "district": "应城市"
        }
    },
    {
        "id": "12892402577403419876",
        "title": "公共厕所",
        "address": "湖北省孝感市应城市体育场路与蒲阳大道交叉口正东方向297米左右",
        "tel": "",
        "category": "基础设施:公共设施:公共厕所",
        "type": 0,
        "location": {
            "lat": 30.941382,
            "lng": 113.587658
        },
        "ad_info": {
            "adcode": 420981,
            "province": "湖北省",
            "city": "孝感市",
            "district": "应城市"
        }
    },
    {
        "id": "17525168302365465869",
        "title": "公共厕所",
        "address": "湖北省孝感市汉川市长丰大道与高新大道交叉口东北方向138米左右",
        "tel": "",
        "category": "基础设施:公共设施:公共厕所",
        "type": 0,
        "location": {
            "lat": 30.682552,
            "lng": 113.918893
        },
        "ad_info": {
            "adcode": 420984,
            "province": "湖北省",
            "city": "孝感市",
            "district": "汉川市"
        }
    },
    {
        "id": "5791788968246339259",
        "title": "公共厕所",
        "address": "湖北省孝感市应城市体育场路应城体育馆",
        "tel": "",
        "category": "基础设施:公共设施:公共厕所",
        "type": 0,
        "location": {
            "lat": 30.94294,
            "lng": 113.585317
        },
        "ad_info": {
            "adcode": 420981,
            "province": "湖北省",
            "city": "孝感市",
            "district": "应城市"
        }
    },
    {
        "id": "6341273285536400037",
        "title": "公共厕所",
        "address": "湖北省孝感市汉川市川东四路与高新大道交叉口东北方向896米左右",
        "tel": "",
        "category": "基础设施:公共设施:公共厕所",
        "type": 0,
        "location": {
            "lat": 30.679969,
            "lng": 113.931621
        },
        "ad_info": {
            "adcode": 420984,
            "province": "湖北省",
            "city": "孝感市",
            "district": "汉川市"
        }
    },
    {
        "id": "8600291271899030157",
        "title": "公共厕所",
        "address": "湖北省孝感市应城市东大街与粮贸街交叉口正南方向81米左右",
        "tel": "",
        "category": "基础设施:公共设施:公共厕所",
        "type": 0,
        "location": {
            "lat": 30.941845,
            "lng": 113.577137
        },
        "ad_info": {
            "adcode": 420981,
            "province": "湖北省",
            "city": "孝感市",
            "district": "应城市"
        }
    },
    {
        "id": "7628657546627038220",
        "title": "公共厕所",
        "address": "湖北省孝感市应城市大智路与建设街交叉口正西方向43米左右",
        "tel": "",
        "category": "基础设施:公共设施:公共厕所",
        "type": 0,
        "location": {
            "lat": 30.948159,
            "lng": 113.567827
        },
        "ad_info": {
            "adcode": 420981,
            "province": "湖北省",
            "city": "孝感市",
            "district": "应城市"
        }
    },
    {
        "id": "18047775553764724271",
        "title": "公共厕所",
        "address": "湖北省孝感市应城市体育场路与蒲阳大道交叉口东南方向44米左右",
        "tel": "",
        "category": "基础设施:公共设施:公共厕所",
        "type": 0,
        "location": {
            "lat": 30.940876,
            "lng": 113.584873
        },
        "ad_info": {
            "adcode": 420981,
            "province": "湖北省",
            "city": "孝感市",
            "district": "应城市"
        }
    },
    {
        "id": "5777628955086795270",
        "title": "公共厕所",
        "address": "湖北省孝感市汉川市G348与滨湖大道交叉口西南方向326米左右",
        "tel": "",
        "category": "基础设施:公共设施:公共厕所",
        "type": 0,
        "location": {
            "lat": 30.664809,
            "lng": 113.817742
        },
        "ad_info": {
            "adcode": 420984,
            "province": "湖北省",
            "city": "孝感市",
            "district": "汉川市"
        }
    },
    {
        "id": "5500383831955200253",
        "title": "公共厕所",
        "address": "湖北省孝感市孝南区宇济商贸街宇济商贸城",
        "tel": "",
        "category": "基础设施:公共设施:公共厕所",
        "type": 0,
        "location": {
            "lat": 30.927353,
            "lng": 113.923191
        },
        "ad_info": {
            "adcode": 420902,
            "province": "湖北省",
            "city": "孝感市",
            "district": "孝南区"
        }
    },
    {
        "id": "1482359167206041126",
        "title": "公共厕所",
        "address": "湖北省孝感市孝南区体育大道与分丝路交叉口西北方向66米左右",
        "tel": "",
        "category": "基础设施:公共设施:公共厕所",
        "type": 0,
        "location": {
            "lat": 30.941996,
            "lng": 113.919684
        },
        "ad_info": {
            "adcode": 420902,
            "province": "湖北省",
            "city": "孝感市",
            "district": "孝南区"
        }
    },
    {
        "id": "1172423284062646729",
        "title": "公共厕所",
        "address": "湖北省孝感市孝南区东闸路与尚德路交叉口正北方向124米左右",
        "tel": "",
        "category": "基础设施:公共设施:公共厕所",
        "type": 0,
        "location": {
            "lat": 30.902106,
            "lng": 113.961405
        },
        "ad_info": {
            "adcode": 420902,
            "province": "湖北省",
            "city": "孝感市",
            "district": "孝南区"
        }
    },
    {
        "id": "13819885439684211939",
        "title": "公共厕所",
        "address": "湖北省孝感市汉川市辉宇苑小区东北侧260米",
        "tel": "",
        "category": "基础设施:公共设施:公共厕所",
        "type": 0,
        "location": {
            "lat": 30.691287,
            "lng": 113.834307
        },
        "ad_info": {
            "adcode": 420984,
            "province": "湖北省",
            "city": "孝感市",
            "district": "汉川市"
        }
    },
    {
        "id": "12626792797238606105",
        "title": "公共厕所",
        "address": "湖北省孝感市汉川市西正街29号",
        "tel": "",
        "category": "基础设施:公共设施:公共厕所",
        "type": 0,
        "location": {
            "lat": 30.644801,
            "lng": 113.837665
        },
        "ad_info": {
            "adcode": 420984,
            "province": "湖北省",
            "city": "孝感市",
            "district": "汉川市"
        }
    },
    {
        "id": "9379166361125299151",
        "title": "公共厕所",
        "address": "湖北省孝感市孝南区北京二路与香澳步行街交叉口东北方向118米左右",
        "tel": "",
        "category": "基础设施:公共设施:公共厕所",
        "type": 0,
        "location": {
            "lat": 30.914789,
            "lng": 113.935921
        },
        "ad_info": {
            "adcode": 420902,
            "province": "湖北省",
            "city": "孝感市",
            "district": "孝南区"
        }
    },
    {
        "id": "3130392337411462512",
        "title": "公共厕所",
        "address": "湖北省孝感市孝南区孝汉大道与福源路交叉口西北方向83米左右",
        "tel": "",
        "category": "基础设施:公共设施:公共厕所",
        "type": 0,
        "location": {
            "lat": 30.934485,
            "lng": 113.976939
        },
        "ad_info": {
            "adcode": 420902,
            "province": "湖北省",
            "city": "孝感市",
            "district": "孝南区"
        }
    },
    {
        "id": "5901684230221474345",
        "title": "公共厕所",
        "address": "湖北省孝感市汉川市蔷薇紫陌二路",
        "tel": "",
        "category": "基础设施:公共设施:公共厕所",
        "type": 0,
        "location": {
            "lat": 30.43445,
            "lng": 113.753432
        },
        "ad_info": {
            "adcode": 420984,
            "province": "湖北省",
            "city": "孝感市",
            "district": "汉川市"
        }
    },
    {
        "id": "12524898972722209288",
        "title": "公共卫生间",
        "address": "湖北省孝感市孝南区体育大道辅路与城站路交叉口正东方向158米左右",
        "tel": "",
        "category": "基础设施:公共设施:公共厕所",
        "type": 0,
        "location": {
            "lat": 30.940502,
            "lng": 113.928936
        },
        "ad_info": {
            "adcode": 420902,
            "province": "湖北省",
            "city": "孝感市",
            "district": "孝南区"
        }
    },
    {
        "id": "7089520777255246790",
        "title": "公共厕所",
        "address": "湖北省孝感市应城市山洋街与田汪路交叉口正东方向76米左右",
        "tel": "",
        "category": "基础设施:公共设施:公共厕所",
        "type": 0,
        "location": {
            "lat": 31.02519,
            "lng": 113.458942
        },
        "ad_info": {
            "adcode": 420981,
            "province": "湖北省",
            "city": "孝感市",
            "district": "应城市"
        }
    },
    {
        "id": "6006273710027256638",
        "title": "公共厕所",
        "address": "湖北省孝感市孝南区城站路与礼堂巷交叉口西北方向118米左右",
        "tel": "",
        "category": "基础设施:公共设施:公共厕所",
        "type": 0,
        "location": {
            "lat": 30.923779,
            "lng": 113.913835
        },
        "ad_info": {
            "adcode": 420902,
            "province": "湖北省",
            "city": "孝感市",
            "district": "孝南区"
        }
    },
    {
        "id": "11429129910620192134",
        "title": "公共厕所",
        "address": "湖北省孝感市孝南区九真三路与槐荫大道交叉口西南方向72米左右",
        "tel": "",
        "category": "基础设施:公共设施:公共厕所",
        "type": 0,
        "location": {
            "lat": 30.90918,
            "lng": 113.931778
        },
        "ad_info": {
            "adcode": 420902,
            "province": "湖北省",
            "city": "孝感市",
            "district": "孝南区"
        }
    },
    {
        "id": "3831928620533676528",
        "title": "公共厕所",
        "address": "湖北省孝感市孝南区交通大道与航空路交叉口西南方向162米左右",
        "tel": "",
        "category": "基础设施:公共设施:公共厕所",
        "type": 0,
        "location": {
            "lat": 30.93859,
            "lng": 113.904567
        },
        "ad_info": {
            "adcode": 420902,
            "province": "湖北省",
            "city": "孝感市",
            "district": "孝南区"
        }
    },
    {
        "id": "3803624349012735840",
        "title": "公共厕所",
        "address": "湖北省孝感市汉川市七一桥北巷与仙女大道交叉口西南方向480米左右",
        "tel": "",
        "category": "基础设施:公共设施:公共厕所",
        "type": 0,
        "location": {
            "lat": 30.634205,
            "lng": 113.811166
        },
        "ad_info": {
            "adcode": 420984,
            "province": "湖北省",
            "city": "孝感市",
            "district": "汉川市"
        }
    },
    {
        "id": "10666257493115915765",
        "title": "公共厕所",
        "address": "湖北省孝感市孝南区城东北巷与城东南巷交叉口西南方向24米左右",
        "tel": "",
        "category": "基础设施:公共设施:公共厕所",
        "type": 0,
        "location": {
            "lat": 30.919223,
            "lng": 113.927431
        },
        "ad_info": {
            "adcode": 420902,
            "province": "湖北省",
            "city": "孝感市",
            "district": "孝南区"
        }
    },
    {
        "id": "6965482804220732564",
        "title": "公共厕所",
        "address": "湖北省孝感市汉川市北桥路与北街交叉口正北方向115米左右",
        "tel": "",
        "category": "基础设施:公共设施:公共厕所",
        "type": 0,
        "location": {
            "lat": 30.651631,
            "lng": 113.841031
        },
        "ad_info": {
            "adcode": 420984,
            "province": "湖北省",
            "city": "孝感市",
            "district": "汉川市"
        }
    },
    {
        "id": "1680160501800426847",
        "title": "公共厕所",
        "address": "湖北省孝感市孝南区体育大道189号",
        "tel": "",
        "category": "基础设施:公共设施:公共厕所",
        "type": 0,
        "location": {
            "lat": 30.940082,
            "lng": 113.931102
        },
        "ad_info": {
            "adcode": 420902,
            "province": "湖北省",
            "city": "孝感市",
            "district": "孝南区"
        }
    },
    {
        "id": "13998062657594609843",
        "title": "公共厕所",
        "address": "湖北省孝感市孝南区东李咀路与孝天路交叉口正南方向48米左右",
        "tel": "",
        "category": "基础设施:公共设施:公共厕所",
        "type": 0,
        "location": {
            "lat": 30.927311,
            "lng": 113.955223
        },
        "ad_info": {
            "adcode": 420902,
            "province": "湖北省",
            "city": "孝感市",
            "district": "孝南区"
        }
    },
    {
        "id": "10418057210489101388",
        "title": "公共厕所",
        "address": "湖北省孝感市孝南区园林一路与园林路交叉口西南方向43米左右",
        "tel": "",
        "category": "基础设施:公共设施:公共厕所",
        "type": 0,
        "location": {
            "lat": 30.920562,
            "lng": 113.920276
        },
        "ad_info": {
            "adcode": 420902,
            "province": "湖北省",
            "city": "孝感市",
            "district": "孝南区"
        }
    },
    {
        "id": "8266804290887513290",
        "title": "公共厕所",
        "address": "湖北省孝感市汉川市欢乐街与欢乐街西二巷交叉口东南方向133米左右",
        "tel": "",
        "category": "基础设施:公共设施:公共厕所",
        "type": 0,
        "location": {
            "lat": 30.640607,
            "lng": 113.833231
        },
        "ad_info": {
            "adcode": 420984,
            "province": "湖北省",
            "city": "孝感市",
            "district": "汉川市"
        }
    },
    {
        "id": "10793730783851369970",
        "title": "公共厕所",
        "address": "湖北省孝感市安陆市德安中路与德安南路交叉口正西方向201米左右",
        "tel": "",
        "category": "基础设施:公共设施:公共厕所",
        "type": 0,
        "location": {
            "lat": 31.256755,
            "lng": 113.685442
        },
        "ad_info": {
            "adcode": 420982,
            "province": "湖北省",
            "city": "孝感市",
            "district": "安陆市"
        }
    },
    {
        "id": "13633733302738659556",
        "title": "公共厕所",
        "address": "湖北省孝感市孝南区南门桥新桥与澴河大道交叉口往西200米长征南路清洁楼",
        "tel": "",
        "category": "基础设施:公共设施:公共厕所",
        "type": 0,
        "location": {
            "lat": 30.90872,
            "lng": 113.913392
        },
        "ad_info": {
            "adcode": 420902,
            "province": "湖北省",
            "city": "孝感市",
            "district": "孝南区"
        }
    },
    {
        "id": "186711789438132478",
        "title": "公共厕所",
        "address": "湖北省孝感市孝南区新华路国家级南大水产批发市场",
        "tel": "",
        "category": "基础设施:公共设施:公共厕所",
        "type": 0,
        "location": {
            "lat": 30.895602,
            "lng": 113.962897
        },
        "ad_info": {
            "adcode": 420902,
            "province": "湖北省",
            "city": "孝感市",
            "district": "孝南区"
        }
    },
    {
        "id": "9980976806719227774",
        "title": "公共厕所",
        "address": "湖北省孝感市孝昌县S115与文慧路交叉口东北方向499米左右",
        "tel": "",
        "category": "基础设施:公共设施:公共厕所",
        "type": 0,
        "location": {
            "lat": 31.266235,
            "lng": 114.019136
        },
        "ad_info": {
            "adcode": 420921,
            "province": "湖北省",
            "city": "孝感市",
            "district": "孝昌县"
        }
    },
    {
        "id": "2946995151149545340",
        "title": "公共厕所",
        "address": "湖北省孝感市孝南区城站路与工人街交叉口正北方向90米左右",
        "tel": "",
        "category": "基础设施:公共设施:公共厕所",
        "type": 0,
        "location": {
            "lat": 30.95429,
            "lng": 113.929359
        },
        "ad_info": {
            "adcode": 420902,
            "province": "湖北省",
            "city": "孝感市",
            "district": "孝南区"
        }
    },
    {
        "id": "10618201925813704692",
        "title": "公共厕所",
        "address": "湖北省孝感市孝南区广化寺路与玉泉南路交叉口东南方向313米左右",
        "tel": "",
        "category": "基础设施:公共设施:公共厕所",
        "type": 0,
        "location": {
            "lat": 30.907504,
            "lng": 113.927051
        },
        "ad_info": {
            "adcode": 420902,
            "province": "湖北省",
            "city": "孝感市",
            "district": "孝南区"
        }
    },
    {
        "id": "17344543945183481674",
        "title": "公共厕所",
        "address": "湖北省孝感市孝南区交通大道51号",
        "tel": "",
        "category": "基础设施:公共设施:公共厕所",
        "type": 0,
        "location": {
            "lat": 30.931932,
            "lng": 113.937109
        },
        "ad_info": {
            "adcode": 420902,
            "province": "湖北省",
            "city": "孝感市",
            "district": "孝南区"
        }
    },
    {
        "id": "12895228295422118535",
        "title": "公共厕所",
        "address": "湖北省孝感市云梦县黄香大道与龙岗路交叉口东南方向125米左右",
        "tel": "",
        "category": "基础设施:公共设施:公共厕所",
        "type": 0,
        "location": {
            "lat": 31.018661,
            "lng": 113.776277
        },
        "ad_info": {
            "adcode": 420923,
            "province": "湖北省",
            "city": "孝感市",
            "district": "云梦县"
        }
    },
    {
        "id": "13023473929720623203",
        "title": "公共厕所",
        "address": "湖北省孝感市孝南区体育大道与徐湾巷交叉口正南方向216米左右",
        "tel": "",
        "category": "基础设施:公共设施:公共厕所",
        "type": 0,
        "location": {
            "lat": 30.936927,
            "lng": 113.937263
        },
        "ad_info": {
            "adcode": 420902,
            "province": "湖北省",
            "city": "孝感市",
            "district": "孝南区"
        }
    },
    {
        "id": "2663388952438490545",
        "title": "公共厕所",
        "address": "湖北省孝感市孝南区严桥三街与北京路交叉口西南方向21米左右",
        "tel": "",
        "category": "基础设施:公共设施:公共厕所",
        "type": 0,
        "location": {
            "lat": 30.932194,
            "lng": 113.939632
        },
        "ad_info": {
            "adcode": 420902,
            "province": "湖北省",
            "city": "孝感市",
            "district": "孝南区"
        }
    },
    {
        "id": "16083359388831502441",
        "title": "公共厕所",
        "address": "湖北省孝感市云梦县太平街与建设路交叉口西南方向82米左右",
        "tel": "",
        "category": "基础设施:公共设施:公共厕所",
        "type": 0,
        "location": {
            "lat": 31.021954,
            "lng": 113.742763
        },
        "ad_info": {
            "adcode": 420923,
            "province": "湖北省",
            "city": "孝感市",
            "district": "云梦县"
        }
    },
    {
        "id": "10758246067535102296",
        "title": "公共厕所",
        "address": "湖北省孝感市孝南区付冲街与文化路交叉口西北方向88米左右",
        "tel": "",
        "category": "基础设施:公共设施:公共厕所",
        "type": 0,
        "location": {
            "lat": 30.924215,
            "lng": 113.92224
        },
        "ad_info": {
            "adcode": 420902,
            "province": "湖北省",
            "city": "孝感市",
            "district": "孝南区"
        }
    },
    {
        "id": "6623412136907418146",
        "title": "公共厕所",
        "address": "湖北省孝感市云梦县幸福巷与西大路交叉口正南方向106米左右",
        "tel": "",
        "category": "基础设施:公共设施:公共厕所",
        "type": 0,
        "location": {
            "lat": 31.023646,
            "lng": 113.741666
        },
        "ad_info": {
            "adcode": 420923,
            "province": "湖北省",
            "city": "孝感市",
            "district": "云梦县"
        }
    },
    {
        "id": "2073819092982675417",
        "title": "公共厕所",
        "address": "湖北省孝感市汉川市人民大道汉川高中",
        "tel": "",
        "category": "基础设施:公共设施:公共厕所",
        "type": 0,
        "location": {
            "lat": 30.659455,
            "lng": 113.829629
        },
        "ad_info": {
            "adcode": 420984,
            "province": "湖北省",
            "city": "孝感市",
            "district": "汉川市"
        }
    },
    {
        "id": "3395988049667088439",
        "title": "公共厕所",
        "address": "湖北省孝感市孝昌县政通路与金福路交叉口正东方向507米左右",
        "tel": "",
        "category": "基础设施:公共设施:公共厕所",
        "type": 0,
        "location": {
            "lat": 31.25224,
            "lng": 113.966545
        },
        "ad_info": {
            "adcode": 420921,
            "province": "湖北省",
            "city": "孝感市",
            "district": "孝昌县"
        }
    },
    {
        "id": "9606978350771847019",
        "title": "公共厕所",
        "address": "湖北省孝感市云梦县梦泽大道与祖师殿巷交叉口西北方向60米左右",
        "tel": "",
        "category": "基础设施:公共设施:公共厕所",
        "type": 0,
        "location": {
            "lat": 31.027885,
            "lng": 113.747062
        },
        "ad_info": {
            "adcode": 420923,
            "province": "湖北省",
            "city": "孝感市",
            "district": "云梦县"
        }
    },
    {
        "id": "11551541831527336938",
        "title": "公共厕所",
        "address": "湖北省孝感市孝南区桂花北路与长兴路交叉口东北方向32米左右",
        "tel": "",
        "category": "基础设施:公共设施:公共厕所",
        "type": 0,
        "location": {
            "lat": 30.958431,
            "lng": 113.935729
        },
        "ad_info": {
            "adcode": 420902,
            "province": "湖北省",
            "city": "孝感市",
            "district": "孝南区"
        }
    },
    {
        "id": "10506274074357232625",
        "title": "公共厕所",
        "address": "湖北省孝感市汉川市仙女大道与体育馆路交叉口正东方向74米左右",
        "tel": "",
        "category": "基础设施:公共设施:公共厕所",
        "type": 0,
        "location": {
            "lat": 30.656196,
            "lng": 113.830451
        },
        "ad_info": {
            "adcode": 420984,
            "province": "湖北省",
            "city": "孝感市",
            "district": "汉川市"
        }
    },
    {
        "id": "7848647845833201339",
        "title": "公共厕所",
        "address": "湖北省孝感市孝南区董永路中国石化绿岛加油站",
        "tel": "",
        "category": "基础设施:公共设施:公共厕所",
        "type": 0,
        "location": {
            "lat": 30.927598,
            "lng": 113.951641
        },
        "ad_info": {
            "adcode": 420902,
            "province": "湖北省",
            "city": "孝感市",
            "district": "孝南区"
        }
    },
    {
        "id": "6441304223542202578",
        "title": "公共厕所",
        "address": "湖北省孝感市孝南区花园巷40号",
        "tel": "",
        "category": "基础设施:公共设施:公共厕所",
        "type": 0,
        "location": {
            "lat": 30.916627,
            "lng": 113.912935
        },
        "ad_info": {
            "adcode": 420902,
            "province": "湖北省",
            "city": "孝感市",
            "district": "孝南区"
        }
    },
    {
        "id": "6895170762522186222",
        "title": "公共厕所",
        "address": "湖北省孝感市孝南区孝花线与金神线交叉口正北方向1143米左右",
        "tel": "",
        "category": "基础设施:公共设施:公共厕所",
        "type": 0,
        "location": {
            "lat": 31.058938,
            "lng": 113.938169
        },
        "ad_info": {
            "adcode": 420902,
            "province": "湖北省",
            "city": "孝感市",
            "district": "孝南区"
        }
    },
    {
        "id": "15025983777671225452",
        "title": "公共厕所",
        "address": "湖北省孝感市云梦县北正街与曲阳路交叉口正北方向89米左右",
        "tel": "",
        "category": "基础设施:公共设施:公共厕所",
        "type": 0,
        "location": {
            "lat": 31.021602,
            "lng": 113.744896
        },
        "ad_info": {
            "adcode": 420923,
            "province": "湖北省",
            "city": "孝感市",
            "district": "云梦县"
        }
    },
    {
        "id": "14812226577003702853",
        "title": "公共厕所",
        "address": "湖北省孝感市云梦县建设西路与建设路交叉口西北方向29米左右",
        "tel": "",
        "category": "基础设施:公共设施:公共厕所",
        "type": 0,
        "location": {
            "lat": 31.022553,
            "lng": 113.738609
        },
        "ad_info": {
            "adcode": 420923,
            "province": "湖北省",
            "city": "孝感市",
            "district": "云梦县"
        }
    },
    {
        "id": "13409815961460077328",
        "title": "公共厕所",
        "address": "湖北省孝感市云梦县北环路与梦泽大道交叉口正东方向118米左右",
        "tel": "",
        "category": "基础设施:公共设施:公共厕所",
        "type": 0,
        "location": {
            "lat": 31.031594,
            "lng": 113.746941
        },
        "ad_info": {
            "adcode": 420923,
            "province": "湖北省",
            "city": "孝感市",
            "district": "云梦县"
        }
    },
    {
        "id": "14284675570468560617",
        "title": "公共厕所",
        "address": "湖北省孝感市孝南区后湖西路与师专路交叉口正南方向124米左右",
        "tel": "",
        "category": "基础设施:公共设施:公共厕所",
        "type": 0,
        "location": {
            "lat": 30.926001,
            "lng": 113.912884
        },
        "ad_info": {
            "adcode": 420902,
            "province": "湖北省",
            "city": "孝感市",
            "district": "孝南区"
        }
    },
    {
        "id": "17451093281046400823",
        "title": "公共厕所",
        "address": "湖北省孝感市孝南区八里街148-146号",
        "tel": "",
        "category": "基础设施:公共设施:公共厕所",
        "type": 0,
        "location": {
            "lat": 30.938257,
            "lng": 113.929762
        },
        "ad_info": {
            "adcode": 420902,
            "province": "湖北省",
            "city": "孝感市",
            "district": "孝南区"
        }
    },
    {
        "id": "18434750404893651385",
        "title": "公共厕所",
        "address": "湖北省孝感市孝南区槐荫大道与永新路交叉口正东方向95米左右",
        "tel": "",
        "category": "基础设施:公共设施:公共厕所",
        "type": 0,
        "location": {
            "lat": 30.920434,
            "lng": 113.907031
        },
        "ad_info": {
            "adcode": 420902,
            "province": "湖北省",
            "city": "孝感市",
            "district": "孝南区"
        }
    },
    {
        "id": "7893317864687758553",
        "title": "公共厕所",
        "address": "湖北省孝感市孝南区孝柴中街与建设路交叉口正西方向105米左右",
        "tel": "",
        "category": "基础设施:公共设施:公共厕所",
        "type": 0,
        "location": {
            "lat": 30.930248,
            "lng": 113.924416
        },
        "ad_info": {
            "adcode": 420902,
            "province": "湖北省",
            "city": "孝感市",
            "district": "孝南区"
        }
    },
    {
        "id": "3452586554851528759",
        "title": "公共厕所",
        "address": "湖北省孝感市安陆市富康街与楚涢路交叉口东北方向79米左右",
        "tel": "",
        "category": "基础设施:公共设施:公共厕所",
        "type": 0,
        "location": {
            "lat": 31.252423,
            "lng": 113.708504
        },
        "ad_info": {
            "adcode": 420982,
            "province": "湖北省",
            "city": "孝感市",
            "district": "安陆市"
        }
    },
    {
        "id": "10755902381803838374",
        "title": "董永公园公共厕所",
        "address": "湖北省孝感市孝南区园林路8号",
        "tel": "",
        "category": "基础设施:公共设施:公共厕所",
        "type": 0,
        "location": {
            "lat": 30.918445,
            "lng": 113.91867
        },
        "ad_info": {
            "adcode": 420902,
            "province": "湖北省",
            "city": "孝感市",
            "district": "孝南区"
        }
    },
    {
        "id": "13036303721886500848",
        "title": "公共厕所",
        "address": "湖北省孝感市应城市月圆路月圆幼儿园",
        "tel": "",
        "category": "基础设施:公共设施:公共厕所",
        "type": 0,
        "location": {
            "lat": 30.933479,
            "lng": 113.570362
        },
        "ad_info": {
            "adcode": 420981,
            "province": "湖北省",
            "city": "孝感市",
            "district": "应城市"
        }
    },
    {
        "id": "16218158942052998949",
        "title": "公共厕所",
        "address": "湖北省孝感市安陆市儒学路与龙门路交叉口东南方向61米左右",
        "tel": "",
        "category": "基础设施:公共设施:公共厕所",
        "type": 0,
        "location": {
            "lat": 31.259533,
            "lng": 113.690564
        },
        "ad_info": {
            "adcode": 420982,
            "province": "湖北省",
            "city": "孝感市",
            "district": "安陆市"
        }
    },
    {
        "id": "17547962692128264090",
        "title": "公共厕所",
        "address": "湖北省孝感市孝昌县S243与张店桥交叉口正西方向1642米左右",
        "tel": "",
        "category": "基础设施:公共设施:公共厕所",
        "type": 0,
        "location": {
            "lat": 31.260642,
            "lng": 113.849648
        },
        "ad_info": {
            "adcode": 420921,
            "province": "湖北省",
            "city": "孝感市",
            "district": "孝昌县"
        }
    },
    {
        "id": "6449927034737317457",
        "title": "槐荫公园公共厕所",
        "address": "湖北省孝感市孝南区乾坤名城北街与天仙路交叉口东南方向55米左右",
        "tel": "",
        "category": "基础设施:公共设施:公共厕所",
        "type": 0,
        "location": {
            "lat": 30.920064,
            "lng": 113.94766
        },
        "ad_info": {
            "adcode": 420902,
            "province": "湖北省",
            "city": "孝感市",
            "district": "孝南区"
        }
    },
    {
        "id": "11773395892001836106",
        "title": "公共厕所",
        "address": "湖北省孝感市孝昌县孝花线与孟宗大道交叉口正西方向454米左右",
        "tel": "",
        "category": "基础设施:公共设施:公共厕所",
        "type": 0,
        "location": {
            "lat": 31.250512,
            "lng": 114.00524
        },
        "ad_info": {
            "adcode": 420921,
            "province": "湖北省",
            "city": "孝感市",
            "district": "孝昌县"
        }
    },
    {
        "id": "16061683808391904965",
        "title": "公共厕所",
        "address": "湖北省孝感市孝南区广化寺路与玉泉南路交叉口西北方向111米左右",
        "tel": "",
        "category": "基础设施:公共设施:公共厕所",
        "type": 0,
        "location": {
            "lat": 30.909663,
            "lng": 113.923413
        },
        "ad_info": {
            "adcode": 420902,
            "province": "湖北省",
            "city": "孝感市",
            "district": "孝南区"
        }
    },
    {
        "id": "927272316248912250",
        "title": "公共厕所",
        "address": "湖北省孝感市安陆市中国石油(叉路口)东50米",
        "tel": "",
        "category": "基础设施:公共设施:公共厕所",
        "type": 0,
        "location": {
            "lat": 31.317874,
            "lng": 113.69742
        },
        "ad_info": {
            "adcode": 420982,
            "province": "湖北省",
            "city": "孝感市",
            "district": "安陆市"
        }
    },
    {
        "id": "17767844980876528202",
        "title": "公共厕所",
        "address": "湖北省孝感市汉川市南街与校军街交叉口西南方向300米左右",
        "tel": "",
        "category": "基础设施:公共设施:公共厕所",
        "type": 0,
        "location": {
            "lat": 30.638521,
            "lng": 113.836505
        },
        "ad_info": {
            "adcode": 420984,
            "province": "湖北省",
            "city": "孝感市",
            "district": "汉川市"
        }
    },
    {
        "id": "176548671750554627",
        "title": "公共厕所",
        "address": "湖北省孝感市孝南区长征路理丝小区",
        "tel": "",
        "category": "基础设施:公共设施:公共厕所",
        "type": 0,
        "location": {
            "lat": 30.936762,
            "lng": 113.932847
        },
        "ad_info": {
            "adcode": 420902,
            "province": "湖北省",
            "city": "孝感市",
            "district": "孝南区"
        }
    },
    {
        "id": "17832665432648210169",
        "title": "公共厕所",
        "address": "湖北省孝感市大悟县大夏路与悟友路交叉口正东方向319米左右",
        "tel": "",
        "category": "基础设施:公共设施:公共厕所",
        "type": 0,
        "location": {
            "lat": 31.585371,
            "lng": 114.220174
        },
        "ad_info": {
            "adcode": 420922,
            "province": "湖北省",
            "city": "孝感市",
            "district": "大悟县"
        }
    },
    {
        "id": "132744320517117474",
        "title": "公共厕所",
        "address": "湖北省孝感市安陆市王义贞镇钱冲村古银杏国家森林公园内",
        "tel": "",
        "category": "基础设施:公共设施:公共厕所",
        "type": 0,
        "location": {
            "lat": 31.412115,
            "lng": 113.345652
        },
        "ad_info": {
            "adcode": 420982,
            "province": "湖北省",
            "city": "孝感市",
            "district": "安陆市"
        }
    },
    {
        "id": "8125577124386171053",
        "title": "公共厕所",
        "address": "湖北省孝感市大悟县兴华路与兴悟南路交叉口东南方向114米左右",
        "tel": "",
        "category": "基础设施:公共设施:公共厕所",
        "type": 0,
        "location": {
            "lat": 31.56377,
            "lng": 114.118315
        },
        "ad_info": {
            "adcode": 420922,
            "province": "湖北省",
            "city": "孝感市",
            "district": "大悟县"
        }
    },
    {
        "id": "13394010012755140359",
        "title": "公共厕所",
        "address": "湖北省孝感市大悟县兴悟北路与迎宾大道交叉口正东方向222米左右",
        "tel": "",
        "category": "基础设施:公共设施:公共厕所",
        "type": 0,
        "location": {
            "lat": 31.580085,
            "lng": 114.12388
        },
        "ad_info": {
            "adcode": 420922,
            "province": "湖北省",
            "city": "孝感市",
            "district": "大悟县"
        }
    },
    {
        "id": "7837643723877522213",
        "title": "汉川服务区公共厕所",
        "address": "湖北省孝感市汉川市护小线与汉长线交叉口西北方向1238米左右",
        "tel": "",
        "category": "基础设施:公共设施:公共厕所",
        "type": 0,
        "location": {
            "lat": 30.779514,
            "lng": 113.783242
        },
        "ad_info": {
            "adcode": 420984,
            "province": "湖北省",
            "city": "孝感市",
            "district": "汉川市"
        }
    },
    {
        "id": "8203049641767648945",
        "title": "公共厕所",
        "address": "湖北省孝感市大悟县S304中国石化大悟城东加油站",
        "tel": "",
        "category": "基础设施:公共设施:公共厕所",
        "type": 0,
        "location": {
            "lat": 31.541994,
            "lng": 114.135489
        },
        "ad_info": {
            "adcode": 420922,
            "province": "湖北省",
            "city": "孝感市",
            "district": "大悟县"
        }
    },
    {
        "id": "5391691179686746579",
        "title": "公共厕所",
        "address": "湖北省孝感市孝昌县兴隆街与洪胜街交叉口正东方向70米左右",
        "tel": "",
        "category": "基础设施:公共设施:公共厕所",
        "type": 0,
        "location": {
            "lat": 31.247819,
            "lng": 113.992089
        },
        "ad_info": {
            "adcode": 420921,
            "province": "湖北省",
            "city": "孝感市",
            "district": "孝昌县"
        }
    },
    {
        "id": "13359967646046520381",
        "title": "公共厕所",
        "address": "湖北省孝感市汉川市山后二路与火猴山街交叉口正南方向44米左右",
        "tel": "",
        "category": "基础设施:公共设施:公共厕所",
        "type": 0,
        "location": {
            "lat": 30.648718,
            "lng": 113.833401
        },
        "ad_info": {
            "adcode": 420984,
            "province": "湖北省",
            "city": "孝感市",
            "district": "汉川市"
        }
    },
    {
        "id": "11966170613347982202",
        "title": "公共厕所",
        "address": "湖北省孝感市汉川市仙女大道与欢乐街交叉口正西方向114米左右",
        "tel": "",
        "category": "基础设施:公共设施:公共厕所",
        "type": 0,
        "location": {
            "lat": 30.641457,
            "lng": 113.828603
        },
        "ad_info": {
            "adcode": 420984,
            "province": "湖北省",
            "city": "孝感市",
            "district": "汉川市"
        }
    },
    {
        "id": "3997264458642011925",
        "title": "公共厕所",
        "address": "湖北省孝感市汉川市新正街与王家路交叉口正西方向348米左右",
        "tel": "",
        "category": "基础设施:公共设施:公共厕所",
        "type": 0,
        "location": {
            "lat": 30.564608,
            "lng": 113.834768
        },
        "ad_info": {
            "adcode": 420984,
            "province": "湖北省",
            "city": "孝感市",
            "district": "汉川市"
        }
    },
    {
        "id": "3141925501032623613",
        "title": "公共厕所",
        "address": "湖北省孝感市大悟县澴河东路与西岳大道交叉口西南方向52米左右",
        "tel": "",
        "category": "基础设施:公共设施:公共厕所",
        "type": 0,
        "location": {
            "lat": 31.566184,
            "lng": 114.132782
        },
        "ad_info": {
            "adcode": 420922,
            "province": "湖北省",
            "city": "孝感市",
            "district": "大悟县"
        }
    },
    {
        "id": "9224120435047537982",
        "title": "公共厕所",
        "address": "湖北省孝感市孝南区小东门外正街与长征南路交叉口西北方向73米左右",
        "tel": "",
        "category": "基础设施:公共设施:公共厕所",
        "type": 0,
        "location": {
            "lat": 30.910508,
            "lng": 113.916691
        },
        "ad_info": {
            "adcode": 420902,
            "province": "湖北省",
            "city": "孝感市",
            "district": "孝南区"
        }
    },
    {
        "id": "8517915595105334535",
        "title": "公共厕所",
        "address": "湖北省孝感市孝南区北外正街与后湖东路交叉口西南方向94米左右",
        "tel": "",
        "category": "基础设施:公共设施:公共厕所",
        "type": 0,
        "location": {
            "lat": 30.922058,
            "lng": 113.91209
        },
        "ad_info": {
            "adcode": 420902,
            "province": "湖北省",
            "city": "孝感市",
            "district": "孝南区"
        }
    },
    {
        "id": "1851479650153267630",
        "title": "公共厕所",
        "address": "湖北省孝感市汉川市北街与新二村巷交叉口东北方向23米左右",
        "tel": "",
        "category": "基础设施:公共设施:公共厕所",
        "type": 0,
        "location": {
            "lat": 30.648164,
            "lng": 113.841074
        },
        "ad_info": {
            "adcode": 420984,
            "province": "湖北省",
            "city": "孝感市",
            "district": "汉川市"
        }
    },
    {
        "id": "4717260254351774025",
        "title": "公共厕所",
        "address": "湖北省孝感市大悟县S320与大东线交叉口东南方向522米左右",
        "tel": "",
        "category": "基础设施:公共设施:公共厕所",
        "type": 0,
        "location": {
            "lat": 31.707246,
            "lng": 114.190569
        },
        "ad_info": {
            "adcode": 420922,
            "province": "湖北省",
            "city": "孝感市",
            "district": "大悟县"
        }
    },
    {
        "id": "14953644874238915808",
        "title": "公共厕所",
        "address": "湖北省孝感市孝昌县发展路与崇文街交叉口西南方向17米左右",
        "tel": "",
        "category": "基础设施:公共设施:公共厕所",
        "type": 0,
        "location": {
            "lat": 31.255193,
            "lng": 113.983195
        },
        "ad_info": {
            "adcode": 420921,
            "province": "湖北省",
            "city": "孝感市",
            "district": "孝昌县"
        }
    },
    {
        "id": "4811935246953784653",
        "title": "卫生间",
        "address": "湖北省孝感市孝南区城站路与黄陂大道交叉口正东方向62米左右",
        "tel": "",
        "category": "基础设施:公共设施:公共厕所",
        "type": 0,
        "location": {
            "lat": 30.944789,
            "lng": 113.928532
        },
        "ad_info": {
            "adcode": 420902,
            "province": "湖北省",
            "city": "孝感市",
            "district": "孝南区"
        }
    },
    {
        "id": "10165113793443911738",
        "title": "公共厕所",
        "address": "湖北省孝感市安陆市涢东学校",
        "tel": "",
        "category": "基础设施:公共设施:公共厕所",
        "type": 0,
        "location": {
            "lat": 31.26402,
            "lng": 113.715545
        },
        "ad_info": {
            "adcode": 420982,
            "province": "湖北省",
            "city": "孝感市",
            "district": "安陆市"
        }
    },
    {
        "id": "16256950048365504337",
        "title": "G70孝感服务区公共厕所",
        "address": "湖北省孝感市孝南区G107与滚子河中桥交叉口正东方向1239米左右",
        "tel": "",
        "category": "基础设施:公共设施:公共厕所",
        "type": 0,
        "location": {
            "lat": 31.013617,
            "lng": 113.981352
        },
        "ad_info": {
            "adcode": 420902,
            "province": "湖北省",
            "city": "孝感市",
            "district": "孝南区"
        }
    },
    {
        "id": "17575971806527537130",
        "title": "应城紫来酒店-洗手间",
        "address": "湖北省孝感市应城市光明街与古城大道交叉口正北方向121米左右",
        "tel": "",
        "category": "基础设施:公共设施:公共厕所",
        "type": 0,
        "location": {
            "lat": 30.938785,
            "lng": 113.573388
        },
        "ad_info": {
            "adcode": 420981,
            "province": "湖北省",
            "city": "孝感市",
            "district": "应城市"
        }
    },
    {
        "id": "7637272733505658927",
        "title": "公共厕所",
        "address": "湖北省孝感市安陆市儒学路与碧山路交叉口正东方向46米左右",
        "tel": "",
        "category": "基础设施:公共设施:公共厕所",
        "type": 0,
        "location": {
            "lat": 31.25841,
            "lng": 113.69906
        },
        "ad_info": {
            "adcode": 420982,
            "province": "湖北省",
            "city": "孝感市",
            "district": "安陆市"
        }
    },
    {
        "id": "10182088801967820473",
        "title": "汉川西服务区公共厕所",
        "address": "湖北省孝感市汉川市交投能源汉川西服务区加油站东南侧140米",
        "tel": "",
        "category": "基础设施:公共设施:公共厕所",
        "type": 0,
        "location": {
            "lat": 30.57044,
            "lng": 113.48623
        },
        "ad_info": {
            "adcode": 420984,
            "province": "湖北省",
            "city": "孝感市",
            "district": "汉川市"
        }
    },
    {
        "id": "16509526416350240286",
        "title": "公共厕所",
        "address": "湖北省孝感市云梦县梦泽大道与珍珠坡路交叉口东南方向127米左右",
        "tel": "",
        "category": "基础设施:公共设施:公共厕所",
        "type": 0,
        "location": {
            "lat": 31.016738,
            "lng": 113.751754
        },
        "ad_info": {
            "adcode": 420923,
            "province": "湖北省",
            "city": "孝感市",
            "district": "云梦县"
        }
    },
    {
        "id": "2647796706188989378",
        "title": "公共厕所",
        "address": "湖北省孝感市孝昌县建设路15号",
        "tel": "",
        "category": "基础设施:公共设施:公共厕所",
        "type": 0,
        "location": {
            "lat": 31.255442,
            "lng": 113.992348
        },
        "ad_info": {
            "adcode": 420921,
            "province": "湖北省",
            "city": "孝感市",
            "district": "孝昌县"
        }
    },
    {
        "id": "15537203272060702551",
        "title": "公共厕所",
        "address": "湖北省孝感市安陆市府东北路与府东南路交叉口西南方向74米左右",
        "tel": "",
        "category": "基础设施:公共设施:公共厕所",
        "type": 0,
        "location": {
            "lat": 31.252645,
            "lng": 113.698576
        },
        "ad_info": {
            "adcode": 420982,
            "province": "湖北省",
            "city": "孝感市",
            "district": "安陆市"
        }
    },
    {
        "id": "6375020603942573733",
        "title": "公共厕所",
        "address": "湖北省孝感市云梦县安平路与文化巷交叉口西南方向24米左右",
        "tel": "",
        "category": "基础设施:公共设施:公共厕所",
        "type": 0,
        "location": {
            "lat": 31.014322,
            "lng": 113.746544
        },
        "ad_info": {
            "adcode": 420923,
            "province": "湖北省",
            "city": "孝感市",
            "district": "云梦县"
        }
    },
    {
        "id": "2635299864909053377",
        "title": "公共厕所",
        "address": "湖北省孝感市安陆市文昌路与碧涢路交叉口东北方向147米左右",
        "tel": "",
        "category": "基础设施:公共设施:公共厕所",
        "type": 0,
        "location": {
            "lat": 31.255825,
            "lng": 113.6945
        },
        "ad_info": {
            "adcode": 420982,
            "province": "湖北省",
            "city": "孝感市",
            "district": "安陆市"
        }
    },
    {
        "id": "8241313102414896568",
        "title": "孝感服务区第三公共厕所",
        "address": "湖北省孝感市孝南区G316与邱刘线交叉口正南方向1730米左右",
        "tel": "",
        "category": "基础设施:公共设施:公共厕所",
        "type": 0,
        "location": {
            "lat": 31.002829,
            "lng": 114.067153
        },
        "ad_info": {
            "adcode": 420902,
            "province": "湖北省",
            "city": "孝感市",
            "district": "孝南区"
        }
    },
    {
        "id": "16302646869137034643",
        "title": "汉川服务区公共厕所",
        "address": "湖北省孝感市汉川市护小线与汉长线交叉口西北方向1368米左右",
        "tel": "",
        "category": "基础设施:公共设施:公共厕所",
        "type": 0,
        "location": {
            "lat": 30.778741,
            "lng": 113.780156
        },
        "ad_info": {
            "adcode": 420984,
            "province": "湖北省",
            "city": "孝感市",
            "district": "汉川市"
        }
    },
    {
        "id": "3730675710135550107",
        "title": "公共厕所",
        "address": "湖北省孝感市安陆市汉丹路与解放大道交叉口正北方向229米左右",
        "tel": "",
        "category": "基础设施:公共设施:公共厕所",
        "type": 0,
        "location": {
            "lat": 31.274024,
            "lng": 113.702159
        },
        "ad_info": {
            "adcode": 420982,
            "province": "湖北省",
            "city": "孝感市",
            "district": "安陆市"
        }
    },
    {
        "id": "7076012632051104808",
        "title": "京港澳高速孝感服务区公共厕所",
        "address": "湖北省孝感市孝南区呵呵咖啡(京港澳高速公路西)",
        "tel": "",
        "category": "基础设施:公共设施:公共厕所",
        "type": 0,
        "location": {
            "lat": 31.004109,
            "lng": 114.067371
        },
        "ad_info": {
            "adcode": 420902,
            "province": "湖北省",
            "city": "孝感市",
            "district": "孝南区"
        }
    },
    {
        "id": "15739337121162618625",
        "title": "公共厕所",
        "address": "湖北省孝感市大悟县兴华路与建新街交叉口正南方向124米左右",
        "tel": "",
        "category": "基础设施:公共设施:公共厕所",
        "type": 0,
        "location": {
            "lat": 31.558433,
            "lng": 114.126857
        },
        "ad_info": {
            "adcode": 420922,
            "province": "湖北省",
            "city": "孝感市",
            "district": "大悟县"
        }
    },
    {
        "id": "6356156164612383289",
        "title": "公共厕所",
        "address": "湖北省孝感市安陆市碧涢路233号",
        "tel": "",
        "category": "基础设施:公共设施:公共厕所",
        "type": 0,
        "location": {
            "lat": 31.256532,
            "lng": 113.686189
        },
        "ad_info": {
            "adcode": 420982,
            "province": "湖北省",
            "city": "孝感市",
            "district": "安陆市"
        }
    },
    {
        "id": "11855244225431894995",
        "title": "公共厕所",
        "address": "湖北省孝感市安陆市凤凰路与德安南路交叉口东北方向22米左右",
        "tel": "",
        "category": "基础设施:公共设施:公共厕所",
        "type": 0,
        "location": {
            "lat": 31.254077,
            "lng": 113.687144
        },
        "ad_info": {
            "adcode": 420982,
            "province": "湖北省",
            "city": "孝感市",
            "district": "安陆市"
        }
    },
    {
        "id": "521324875657820923",
        "title": "公共厕所",
        "address": "湖北省孝感市大悟县兴华西路与西岳大道交叉口东南方向52米左右",
        "tel": "",
        "category": "基础设施:公共设施:公共厕所",
        "type": 0,
        "location": {
            "lat": 31.569388,
            "lng": 114.111582
        },
        "ad_info": {
            "adcode": 420922,
            "province": "湖北省",
            "city": "孝感市",
            "district": "大悟县"
        }
    },
    {
        "id": "4423654107473617300",
        "title": "安陆服务区公共厕所",
        "address": "湖北省孝感市安陆市安桃线与水长线交叉口西南方向369米左右",
        "tel": "",
        "category": "基础设施:公共设施:公共厕所",
        "type": 0,
        "location": {
            "lat": 31.365104,
            "lng": 113.54728
        },
        "ad_info": {
            "adcode": 420982,
            "province": "湖北省",
            "city": "孝感市",
            "district": "安陆市"
        }
    },
    {
        "id": "18306795588625304761",
        "title": "孝昌服务区公共厕所",
        "address": "湖北省孝感市孝昌县孝昌服务区东南侧",
        "tel": "",
        "category": "基础设施:公共设施:公共厕所",
        "type": 0,
        "location": {
            "lat": 31.360978,
            "lng": 113.918763
        },
        "ad_info": {
            "adcode": 420921,
            "province": "湖北省",
            "city": "孝感市",
            "district": "孝昌县"
        }
    },
    {
        "id": "6600171216263299435",
        "title": "装八寨服务区公共厕所",
        "address": "湖北省孝感市大悟县麻安高速",
        "tel": "",
        "category": "基础设施:公共设施:公共厕所",
        "type": 0,
        "location": {
            "lat": 31.411651,
            "lng": 114.271311
        },
        "ad_info": {
            "adcode": 420922,
            "province": "湖北省",
            "city": "孝感市",
            "district": "大悟县"
        }
    },
    {
        "id": "850279768761803734",
        "title": "安陆服务区第二公共厕所",
        "address": "湖北省孝感市安陆市安桃线与水长线交叉口西南方向421米左右",
        "tel": "",
        "category": "基础设施:公共设施:公共厕所",
        "type": 0,
        "location": {
            "lat": 31.365457,
            "lng": 113.545794
        },
        "ad_info": {
            "adcode": 420982,
            "province": "湖北省",
            "city": "孝感市",
            "district": "安陆市"
        }
    },
    {
        "id": "11344710540508994159",
        "title": "大悟服务区公共厕所",
        "address": "湖北省孝感市大悟县京港澳高速大悟服务区",
        "tel": "",
        "category": "基础设施:公共设施:公共厕所",
        "type": 0,
        "location": {
            "lat": 31.49338,
            "lng": 114.107183
        },
        "ad_info": {
            "adcode": 420922,
            "province": "湖北省",
            "city": "孝感市",
            "district": "大悟县"
        }
    },
    {
        "id": "17955644709601205311",
        "title": "大悟服务区第二公共厕所",
        "address": "湖北省孝感市大悟县S243与新建街交叉口正西方向659米左右",
        "tel": "",
        "category": "基础设施:公共设施:公共厕所",
        "type": 0,
        "location": {
            "lat": 31.49402,
            "lng": 114.105655
        },
        "ad_info": {
            "adcode": 420922,
            "province": "湖北省",
            "city": "孝感市",
            "district": "大悟县"
        }
    },
    {
        "id": "755401727605511907",
        "title": "大悟服务区公共厕所",
        "address": "湖北省孝感市大悟县S243与新建街交叉口西北方向668米左右",
        "tel": "",
        "category": "基础设施:公共设施:公共厕所",
        "type": 0,
        "location": {
            "lat": 31.495089,
            "lng": 114.106156
        },
        "ad_info": {
            "adcode": 420922,
            "province": "湖北省",
            "city": "孝感市",
            "district": "大悟县"
        }
    },
    {
        "id": "3367275101383948806",
        "title": "公共厕所",
        "address": "湖北省孝感市孝南区G107与朋兴店路交叉口正北方向1002米左右",
        "tel": "",
        "category": "基础设施:公共设施:公共厕所",
        "type": 0,
        "location": {
            "lat": 31.028567,
            "lng": 113.944867
        },
        "ad_info": {
            "adcode": 420902,
            "province": "湖北省",
            "city": "孝感市",
            "district": "孝南区"
        }
    },
    {
        "id": "17103865096552912095",
        "title": "公共厕所",
        "address": "湖北省孝感市应城市S212与新大街交叉口正东方向195米左右",
        "tel": "",
        "category": "基础设施:公共设施:公共厕所",
        "type": 0,
        "location": {
            "lat": 31.025396,
            "lng": 113.465208
        },
        "ad_info": {
            "adcode": 420981,
            "province": "湖北省",
            "city": "孝感市",
            "district": "应城市"
        }
    },
    {
        "id": "12040286266442068083",
        "title": "公共厕所",
        "address": "湖北省孝感市孝南区潘家墙路与黄陂大道交叉口正西方向111米左右",
        "tel": "",
        "category": "基础设施:公共设施:公共厕所",
        "type": 0,
        "location": {
            "lat": 30.945637,
            "lng": 113.904908
        },
        "ad_info": {
            "adcode": 420902,
            "province": "湖北省",
            "city": "孝感市",
            "district": "孝南区"
        }
    },
    {
        "id": "5533736365974614695",
        "title": "公共厕所",
        "address": "湖北省孝感市孝南区环城路与解放街交叉口正北方向92米左右",
        "tel": "",
        "category": "基础设施:公共设施:公共厕所",
        "type": 0,
        "location": {
            "lat": 30.916391,
            "lng": 113.917768
        },
        "ad_info": {
            "adcode": 420902,
            "province": "湖北省",
            "city": "孝感市",
            "district": "孝南区"
        }
    },
    {
        "id": "3045422587709683594",
        "title": "公共厕所",
        "address": "湖北省孝感市安陆市碧涢路老汽车站内",
        "tel": "",
        "category": "基础设施:公共设施:公共厕所",
        "type": 0,
        "location": {
            "lat": 31.254004,
            "lng": 113.692158
        },
        "ad_info": {
            "adcode": 420982,
            "province": "湖北省",
            "city": "孝感市",
            "district": "安陆市"
        }
    },
    {
        "id": "3286974236278743953",
        "title": "公共厕所",
        "address": "湖北省孝感市孝南区兴业一巷与长兴路交叉口正北方向45米左右",
        "tel": "",
        "category": "基础设施:公共设施:公共厕所",
        "type": 0,
        "location": {
            "lat": 30.95345,
            "lng": 113.937782
        },
        "ad_info": {
            "adcode": 420902,
            "province": "湖北省",
            "city": "孝感市",
            "district": "孝南区"
        }
    },
    {
        "id": "15670968356408357594",
        "title": "公共厕所",
        "address": "湖北省孝感市应城市瑞丰北路与解放街交叉口东北方向104米左右",
        "tel": "",
        "category": "基础设施:公共设施:公共厕所",
        "type": 0,
        "location": {
            "lat": 30.956366,
            "lng": 113.573024
        },
        "ad_info": {
            "adcode": 420981,
            "province": "湖北省",
            "city": "孝感市",
            "district": "应城市"
        }
    },
    {
        "id": "15864102276573957205",
        "title": "公共厕所",
        "address": "湖北省孝感市安陆市沿河大道与滨河东路交叉口正北方向129米左右",
        "tel": "",
        "category": "基础设施:公共设施:公共厕所",
        "type": 0,
        "location": {
            "lat": 31.25903,
            "lng": 113.68103
        },
        "ad_info": {
            "adcode": 420982,
            "province": "湖北省",
            "city": "孝感市",
            "district": "安陆市"
        }
    },
    {
        "id": "16521938102825796",
        "title": "公共厕所",
        "address": "湖北省孝感市应城市汉宜大道与育才路交叉口西南方向41米左右",
        "tel": "",
        "category": "基础设施:公共设施:公共厕所",
        "type": 0,
        "location": {
            "lat": 30.934895,
            "lng": 113.579984
        },
        "ad_info": {
            "adcode": 420981,
            "province": "湖北省",
            "city": "孝感市",
            "district": "应城市"
        }
    },
    {
        "id": "1737875982848388102",
        "title": "公共厕所",
        "address": "湖北省孝感市应城市建设街109-2",
        "tel": "",
        "category": "基础设施:公共设施:公共厕所",
        "type": 0,
        "location": {
            "lat": 30.944395,
            "lng": 113.568107
        },
        "ad_info": {
            "adcode": 420981,
            "province": "湖北省",
            "city": "孝感市",
            "district": "应城市"
        }
    },
    {
        "id": "15953487310283716868",
        "title": "公共厕所",
        "address": "湖北省孝感市孝南区G107与沦河大道交叉口正南方向129米左右",
        "tel": "",
        "category": "基础设施:公共设施:公共厕所",
        "type": 0,
        "location": {
            "lat": 30.803239,
            "lng": 113.995509
        },
        "ad_info": {
            "adcode": 420902,
            "province": "湖北省",
            "city": "孝感市",
            "district": "孝南区"
        }
    },
    {
        "id": "14288091910011226773",
        "title": "公共厕所",
        "address": "湖北省孝感市大悟县五一路与文化路交叉口正东方向129米左右",
        "tel": "",
        "category": "基础设施:公共设施:公共厕所",
        "type": 0,
        "location": {
            "lat": 31.315597,
            "lng": 114.436726
        },
        "ad_info": {
            "adcode": 420922,
            "province": "湖北省",
            "city": "孝感市",
            "district": "大悟县"
        }
    },
    {
        "id": "9771344590466782672",
        "title": "公共厕所",
        "address": "湖北省孝感市应城市G42沪蓉高速出口与汉长线交叉口东北40米",
        "tel": "",
        "category": "基础设施:公共设施:公共厕所",
        "type": 0,
        "location": {
            "lat": 30.835316,
            "lng": 113.716094
        },
        "ad_info": {
            "adcode": 420981,
            "province": "湖北省",
            "city": "孝感市",
            "district": "应城市"
        }
    },
    {
        "id": "4089915118982133674",
        "title": "公共厕所",
        "address": "湖北省孝感市汉川市S106中国石化汉川分水加油站",
        "tel": "",
        "category": "基础设施:公共设施:公共厕所",
        "type": 0,
        "location": {
            "lat": 30.583213,
            "lng": 113.667377
        },
        "ad_info": {
            "adcode": 420984,
            "province": "湖北省",
            "city": "孝感市",
            "district": "汉川市"
        }
    },
    {
        "id": "2672593584321827764",
        "title": "公共厕所",
        "address": "湖北省孝感市云梦县曲阳路与渠正巷交叉口正东方向137米左右",
        "tel": "",
        "category": "基础设施:公共设施:公共厕所",
        "type": 0,
        "location": {
            "lat": 31.021036,
            "lng": 113.75196
        },
        "ad_info": {
            "adcode": 420923,
            "province": "湖北省",
            "city": "孝感市",
            "district": "云梦县"
        }
    },
    {
        "id": "3353766893256622142",
        "title": "公共厕所",
        "address": "湖北省孝感市孝南区书院街与府后街交叉口西南方向16米左右",
        "tel": "",
        "category": "基础设施:公共设施:公共厕所",
        "type": 0,
        "location": {
            "lat": 30.917136,
            "lng": 113.910289
        },
        "ad_info": {
            "adcode": 420902,
            "province": "湖北省",
            "city": "孝感市",
            "district": "孝南区"
        }
    },
    {
        "id": "10201135199301953519",
        "title": "公共厕所",
        "address": "湖北省孝感市云梦县城隍庙商业步行街与曲阳路交叉口正北方向82米左右",
        "tel": "",
        "category": "基础设施:公共设施:公共厕所",
        "type": 0,
        "location": {
            "lat": 31.021557,
            "lng": 113.746355
        },
        "ad_info": {
            "adcode": 420923,
            "province": "湖北省",
            "city": "孝感市",
            "district": "云梦县"
        }
    },
    {
        "id": "10457149728679354389",
        "title": "公共厕所",
        "address": "湖北省孝感市安陆市太白大道与宝迪路交叉口东北方向74米左右",
        "tel": "",
        "category": "基础设施:公共设施:公共厕所",
        "type": 0,
        "location": {
            "lat": 31.282571,
            "lng": 113.700841
        },
        "ad_info": {
            "adcode": 420982,
            "province": "湖北省",
            "city": "孝感市",
            "district": "安陆市"
        }
    },
    {
        "id": "7815491760848606512",
        "title": "公共厕所",
        "address": "湖北省孝感市应城市粮贸街13-1号",
        "tel": "",
        "category": "基础设施:公共设施:公共厕所",
        "type": 0,
        "location": {
            "lat": 30.946972,
            "lng": 113.576142
        },
        "ad_info": {
            "adcode": 420981,
            "province": "湖北省",
            "city": "孝感市",
            "district": "应城市"
        }
    },
    {
        "id": "7427885501326050412",
        "title": "公共厕所",
        "address": "湖北省孝感市孝南区新华街与汤家街交叉口正北方向122米左右",
        "tel": "",
        "category": "基础设施:公共设施:公共厕所",
        "type": 0,
        "location": {
            "lat": 30.914036,
            "lng": 113.912732
        },
        "ad_info": {
            "adcode": 420902,
            "province": "湖北省",
            "city": "孝感市",
            "district": "孝南区"
        }
    },
    {
        "id": "5561026626068468084",
        "title": "公共厕所",
        "address": "湖北省孝感市应城市广场大道与长荆大道交叉口东南方向105米左右",
        "tel": "",
        "category": "基础设施:公共设施:公共厕所",
        "type": 0,
        "location": {
            "lat": 30.923403,
            "lng": 113.573318
        },
        "ad_info": {
            "adcode": 420981,
            "province": "湖北省",
            "city": "孝感市",
            "district": "应城市"
        }
    },
    {
        "id": "16418350928835150956",
        "title": "公共厕所",
        "address": "湖北省孝感市孝南区景园三路与滨湖路交叉口正东方向506米左右",
        "tel": "",
        "category": "基础设施:公共设施:公共厕所",
        "type": 0,
        "location": {
            "lat": 30.998459,
            "lng": 114.026959
        },
        "ad_info": {
            "adcode": 420902,
            "province": "湖北省",
            "city": "孝感市",
            "district": "孝南区"
        }
    },
    {
        "id": "15731598933237195312",
        "title": "公共厕所",
        "address": "湖北省孝感市云梦县文化路与泰山街交叉口正南方向24米左右",
        "tel": "",
        "category": "基础设施:公共设施:公共厕所",
        "type": 0,
        "location": {
            "lat": 31.017192,
            "lng": 113.74651
        },
        "ad_info": {
            "adcode": 420923,
            "province": "湖北省",
            "city": "孝感市",
            "district": "云梦县"
        }
    },
    {
        "id": "8048471105089986886",
        "title": "公共厕所",
        "address": "湖北省孝感市孝南区严桥一街与天仙路交叉口正东方向258米左右",
        "tel": "",
        "category": "基础设施:公共设施:公共厕所",
        "type": 0,
        "location": {
            "lat": 30.934934,
            "lng": 113.947857
        },
        "ad_info": {
            "adcode": 420902,
            "province": "湖北省",
            "city": "孝感市",
            "district": "孝南区"
        }
    },
    {
        "id": "15201149538845060181",
        "title": "交通旅游公共厕所",
        "address": "湖北省孝感市汉川市荷沙复线与金浩大道交叉口东北方向345米左右",
        "tel": "",
        "category": "基础设施:公共设施:公共厕所",
        "type": 0,
        "location": {
            "lat": 30.604387,
            "lng": 113.654121
        },
        "ad_info": {
            "adcode": 420984,
            "province": "湖北省",
            "city": "孝感市",
            "district": "汉川市"
        }
    },
    {
        "id": "1517011989440754141",
        "title": "公共厕所",
        "address": "湖北省孝感市大悟县兔山巷与建新街交叉口正南方向89米左右",
        "tel": "",
        "category": "基础设施:公共设施:公共厕所",
        "type": 0,
        "location": {
            "lat": 31.553653,
            "lng": 114.124965
        },
        "ad_info": {
            "adcode": 420922,
            "province": "湖北省",
            "city": "孝感市",
            "district": "大悟县"
        }
    },
    {
        "id": "3391670819653921180",
        "title": "公共厕所",
        "address": "湖北省孝感市安陆市德安北路与紫金路交叉口正北方向413米左右",
        "tel": "",
        "category": "基础设施:公共设施:公共厕所",
        "type": 0,
        "location": {
            "lat": 31.265066,
            "lng": 113.688096
        },
        "ad_info": {
            "adcode": 420982,
            "province": "湖北省",
            "city": "孝感市",
            "district": "安陆市"
        }
    },
    {
        "id": "11398312145870239135",
        "title": "公共厕所",
        "address": "湖北省孝感市应城市振兴街与大智路交叉口东南220米",
        "tel": "",
        "category": "基础设施:公共设施:公共厕所",
        "type": 0,
        "location": {
            "lat": 30.947219,
            "lng": 113.571069
        },
        "ad_info": {
            "adcode": 420981,
            "province": "湖北省",
            "city": "孝感市",
            "district": "应城市"
        }
    },
    {
        "id": "4386034076250912872",
        "title": "公共厕所",
        "address": "湖北省孝感市云梦县和平路与黄香大道交叉口西北方向245米左右",
        "tel": "",
        "category": "基础设施:公共设施:公共厕所",
        "type": 0,
        "location": {
            "lat": 31.011609,
            "lng": 113.781577
        },
        "ad_info": {
            "adcode": 420923,
            "province": "湖北省",
            "city": "孝感市",
            "district": "云梦县"
        }
    },
    {
        "id": "5626431402306949599",
        "title": "公共厕所",
        "address": "湖北省孝感市汉川市G347与垌王线交叉口西南方向929米左右",
        "tel": "",
        "category": "基础设施:公共设施:公共厕所",
        "type": 0,
        "location": {
            "lat": 30.851797,
            "lng": 113.382451
        },
        "ad_info": {
            "adcode": 420984,
            "province": "湖北省",
            "city": "孝感市",
            "district": "汉川市"
        }
    },
    {
        "id": "7128100975351473268",
        "title": "公共厕所",
        "address": "湖北省孝感市安陆市双龙桥西三路与解放大道辅路交叉口东北方向85米左右",
        "tel": "",
        "category": "基础设施:公共设施:公共厕所",
        "type": 0,
        "location": {
            "lat": 31.27065,
            "lng": 113.68802
        },
        "ad_info": {
            "adcode": 420982,
            "province": "湖北省",
            "city": "孝感市",
            "district": "安陆市"
        }
    },
    {
        "id": "11304380367470813377",
        "title": "公共厕所",
        "address": "湖北省孝感市安陆市沿河大道与涢水路交叉口正西方向59米左右",
        "tel": "",
        "category": "基础设施:公共设施:公共厕所",
        "type": 0,
        "location": {
            "lat": 31.257422,
            "lng": 113.681071
        },
        "ad_info": {
            "adcode": 420982,
            "province": "湖北省",
            "city": "孝感市",
            "district": "安陆市"
        }
    },
    {
        "id": "10089575380222684099",
        "title": "公共厕所",
        "address": "湖北省孝感市孝南区徐家巷口路与长征路辅路交叉口西南方向63米左右",
        "tel": "",
        "category": "基础设施:公共设施:公共厕所",
        "type": 0,
        "location": {
            "lat": 30.941817,
            "lng": 113.934118
        },
        "ad_info": {
            "adcode": 420902,
            "province": "湖北省",
            "city": "孝感市",
            "district": "孝南区"
        }
    },
    {
        "id": "12726908520364769758",
        "title": "公共厕所",
        "address": "湖北省孝感市应城市振兴街与西大街交叉口东南方向71米左右",
        "tel": "",
        "category": "基础设施:公共设施:公共厕所",
        "type": 0,
        "location": {
            "lat": 30.942772,
            "lng": 113.570281
        },
        "ad_info": {
            "adcode": 420981,
            "province": "湖北省",
            "city": "孝感市",
            "district": "应城市"
        }
    },
    {
        "id": "15302244136131254456",
        "title": "公共厕所",
        "address": "湖北省孝感市应城市光明街与古城大道交叉口西南方向59米左右",
        "tel": "",
        "category": "基础设施:公共设施:公共厕所",
        "type": 0,
        "location": {
            "lat": 30.937239,
            "lng": 113.572804
        },
        "ad_info": {
            "adcode": 420981,
            "province": "湖北省",
            "city": "孝感市",
            "district": "应城市"
        }
    },
    {
        "id": "6667062072413581975",
        "title": "公共厕所",
        "address": "湖北省孝感市安陆市碧涢路与铁西巷交叉口东100米",
        "tel": "",
        "category": "基础设施:公共设施:公共厕所",
        "type": 0,
        "location": {
            "lat": 31.253664,
            "lng": 113.696275
        },
        "ad_info": {
            "adcode": 420982,
            "province": "湖北省",
            "city": "孝感市",
            "district": "安陆市"
        }
    },
    {
        "id": "1017480211523490118",
        "title": "公共厕所",
        "address": "湖北省孝感市应城市汉宜大道与育才路交叉口西北方向53米左右",
        "tel": "",
        "category": "基础设施:公共设施:公共厕所",
        "type": 0,
        "location": {
            "lat": 30.93543,
            "lng": 113.579825
        },
        "ad_info": {
            "adcode": 420981,
            "province": "湖北省",
            "city": "孝感市",
            "district": "应城市"
        }
    },
    {
        "id": "4228065393724681998",
        "title": "公共厕所",
        "address": "湖北省孝感市云梦县县河路与211省道交叉口西南200米",
        "tel": "",
        "category": "基础设施:公共设施:公共厕所",
        "type": 0,
        "location": {
            "lat": 30.99524,
            "lng": 113.7476
        },
        "ad_info": {
            "adcode": 420923,
            "province": "湖北省",
            "city": "孝感市",
            "district": "云梦县"
        }
    },
    {
        "id": "13895247713946880801",
        "title": "公共厕所",
        "address": "湖北省孝感市安陆市凤凰路与德安南路交叉口西北方向86米左右",
        "tel": "",
        "category": "基础设施:公共设施:公共厕所",
        "type": 0,
        "location": {
            "lat": 31.254266,
            "lng": 113.686221
        },
        "ad_info": {
            "adcode": 420982,
            "province": "湖北省",
            "city": "孝感市",
            "district": "安陆市"
        }
    },
    {
        "id": "8416824978057654706",
        "title": "公共厕所",
        "address": "湖北省孝感市汉川市韩集乡卫生院东北侧80米",
        "tel": "",
        "category": "基础设施:公共设施:公共厕所",
        "type": 0,
        "location": {
            "lat": 30.673956,
            "lng": 113.602996
        },
        "ad_info": {
            "adcode": 420984,
            "province": "湖北省",
            "city": "孝感市",
            "district": "汉川市"
        }
    },
    {
        "id": "11177996863178801094",
        "title": "G70孝感服务区第二公共厕所",
        "address": "湖北省孝感市孝南区G107与滚子河中桥交叉口正东方向1396米左右",
        "tel": "",
        "category": "基础设施:公共设施:公共厕所",
        "type": 0,
        "location": {
            "lat": 31.012639,
            "lng": 113.983042
        },
        "ad_info": {
            "adcode": 420902,
            "province": "湖北省",
            "city": "孝感市",
            "district": "孝南区"
        }
    },
    {
        "id": "7658952663159359755",
        "title": "公共厕所",
        "address": "湖北省孝感市安陆市双龙桥西三路与解放大道辅路交叉口东南方向402米左右",
        "tel": "",
        "category": "基础设施:公共设施:公共厕所",
        "type": 0,
        "location": {
            "lat": 31.266896,
            "lng": 113.689091
        },
        "ad_info": {
            "adcode": 420982,
            "province": "湖北省",
            "city": "孝感市",
            "district": "安陆市"
        }
    },
    {
        "id": "1818372347899873955",
        "title": "公共厕所",
        "address": "湖北省孝感市安陆市滨河东路与紫金路交叉口正东方向166米左右",
        "tel": "",
        "category": "基础设施:公共设施:公共厕所",
        "type": 0,
        "location": {
            "lat": 31.261546,
            "lng": 113.684486
        },
        "ad_info": {
            "adcode": 420982,
            "province": "湖北省",
            "city": "孝感市",
            "district": "安陆市"
        }
    },
    {
        "id": "5112224712094627743",
        "title": "公共厕所",
        "address": "湖北省孝感市孝南区云陡线与宝林路交叉口西北方向190米左右",
        "tel": "",
        "category": "基础设施:公共设施:公共厕所",
        "type": 0,
        "location": {
            "lat": 31.035554,
            "lng": 113.852454
        },
        "ad_info": {
            "adcode": 420902,
            "province": "湖北省",
            "city": "孝感市",
            "district": "孝南区"
        }
    },
    {
        "id": "7838868911960187044",
        "title": "公共厕所",
        "address": "湖北省孝感市孝南区景园三路与滨湖路交叉口东南方向833米左右",
        "tel": "",
        "category": "基础设施:公共设施:公共厕所",
        "type": 0,
        "location": {
            "lat": 30.994265,
            "lng": 114.027861
        },
        "ad_info": {
            "adcode": 420902,
            "province": "湖北省",
            "city": "孝感市",
            "district": "孝南区"
        }
    },
    {
        "id": "7000227802611298614",
        "title": "大悟服务区第二公共厕所",
        "address": "湖北省孝感市大悟县S243与新建街交叉口西北方向487米左右",
        "tel": "",
        "category": "基础设施:公共设施:公共厕所",
        "type": 0,
        "location": {
            "lat": 31.494252,
            "lng": 114.107791
        },
        "ad_info": {
            "adcode": 420922,
            "province": "湖北省",
            "city": "孝感市",
            "district": "大悟县"
        }
    },
    {
        "id": "7326707660532242932",
        "title": "公共厕所",
        "address": "湖北省孝感市应城市加泰步行街与建设街交叉口正北方向111米左右",
        "tel": "",
        "category": "基础设施:公共设施:公共厕所",
        "type": 0,
        "location": {
            "lat": 30.946967,
            "lng": 113.567817
        },
        "ad_info": {
            "adcode": 420981,
            "province": "湖北省",
            "city": "孝感市",
            "district": "应城市"
        }
    },
    {
        "id": "8121325621204372639",
        "title": "公共厕所",
        "address": "湖北省孝感市孝昌县双峰大道8号七仙阁·海怡山庄内",
        "tel": "",
        "category": "基础设施:公共设施:公共厕所",
        "type": 0,
        "location": {
            "lat": 31.193413,
            "lng": 114.196062
        },
        "ad_info": {
            "adcode": 420921,
            "province": "湖北省",
            "city": "孝感市",
            "district": "孝昌县"
        }
    },
    {
        "id": "11660798974230186603",
        "title": "公共厕所",
        "address": "湖北省孝感市孝南区解放街201-1",
        "tel": "",
        "category": "基础设施:公共设施:公共厕所",
        "type": 0,
        "location": {
            "lat": 30.915861,
            "lng": 113.910352
        },
        "ad_info": {
            "adcode": 420902,
            "province": "湖北省",
            "city": "孝感市",
            "district": "孝南区"
        }
    },
    {
        "id": "15777402031367506393",
        "title": "汉川西服务区公共厕所",
        "address": "湖北省孝感市汉川市交投能源汉川西服务区加油站西北侧150米",
        "tel": "",
        "category": "基础设施:公共设施:公共厕所",
        "type": 0,
        "location": {
            "lat": 30.570343,
            "lng": 113.483613
        },
        "ad_info": {
            "adcode": 420984,
            "province": "湖北省",
            "city": "孝感市",
            "district": "汉川市"
        }
    },
    {
        "id": "8822546653225445891",
        "title": "应城服务区公共厕所",
        "address": "湖北省孝感市应城市交投能源应城服务区加油站南侧190米",
        "tel": "",
        "category": "基础设施:公共设施:公共厕所",
        "type": 0,
        "location": {
            "lat": 30.970175,
            "lng": 113.556077
        },
        "ad_info": {
            "adcode": 420981,
            "province": "湖北省",
            "city": "孝感市",
            "district": "应城市"
        }
    },
    {
        "id": "7123629719489853702",
        "title": "公共厕所",
        "address": "湖北省孝感市云梦县曲阳路与渠正巷交叉口正东方向34米左右",
        "tel": "",
        "category": "基础设施:公共设施:公共厕所",
        "type": 0,
        "location": {
            "lat": 31.020639,
            "lng": 113.750915
        },
        "ad_info": {
            "adcode": 420923,
            "province": "湖北省",
            "city": "孝感市",
            "district": "云梦县"
        }
    },
    {
        "id": "15053704748314570473",
        "title": "公共厕所",
        "address": "湖北省孝感市汉川市S244与姜岭街交叉口西南方向217米左右",
        "tel": "",
        "category": "基础设施:公共设施:公共厕所",
        "type": 0,
        "location": {
            "lat": 30.4976,
            "lng": 113.779784
        },
        "ad_info": {
            "adcode": 420984,
            "province": "湖北省",
            "city": "孝感市",
            "district": "汉川市"
        }
    },
    {
        "id": "13864356822014352522",
        "title": "公共厕所",
        "address": "湖北省孝感市孝昌县古城大道与府东路交叉口东北方向191米左右",
        "tel": "",
        "category": "基础设施:公共设施:公共厕所",
        "type": 0,
        "location": {
            "lat": 31.263479,
            "lng": 114.000233
        },
        "ad_info": {
            "adcode": 420921,
            "province": "湖北省",
            "city": "孝感市",
            "district": "孝昌县"
        }
    },
    {
        "id": "5878985252268641086",
        "title": "公共厕所",
        "address": "湖北省孝感市安陆市碧涢路与紫金路交叉口东北方向54米左右",
        "tel": "",
        "category": "基础设施:公共设施:公共厕所",
        "type": 0,
        "location": {
            "lat": 31.257446,
            "lng": 113.683528
        },
        "ad_info": {
            "adcode": 420982,
            "province": "湖北省",
            "city": "孝感市",
            "district": "安陆市"
        }
    },
    {
        "id": "11884143271843787317",
        "title": "公共厕所",
        "address": "湖北省孝感市应城市东堤路与汉宜大道交叉口正东方向102米左右",
        "tel": "",
        "category": "基础设施:公共设施:公共厕所",
        "type": 0,
        "location": {
            "lat": 30.935029,
            "lng": 113.59005
        },
        "ad_info": {
            "adcode": 420981,
            "province": "湖北省",
            "city": "孝感市",
            "district": "应城市"
        }
    },
    {
        "id": "6710842843651482484",
        "title": "南街公共厕所",
        "address": "湖北省孝感市汉川市南街与校军街交叉口东北方向36米左右",
        "tel": "",
        "category": "基础设施:公共设施:公共厕所",
        "type": 0,
        "location": {
            "lat": 30.640838,
            "lng": 113.838773
        },
        "ad_info": {
            "adcode": 420984,
            "province": "湖北省",
            "city": "孝感市",
            "district": "汉川市"
        }
    },
    {
        "id": "3637227466664012160",
        "title": "公共厕所",
        "address": "湖北省孝感市孝南区熙凤水乡旅游度假区农耕文化馆",
        "tel": "",
        "category": "基础设施:公共设施:公共厕所",
        "type": 0,
        "location": {
            "lat": 30.992864,
            "lng": 114.029156
        },
        "ad_info": {
            "adcode": 420902,
            "province": "湖北省",
            "city": "孝感市",
            "district": "孝南区"
        }
    },
    {
        "id": "2929502937581048712",
        "title": "公共厕所",
        "address": "湖北省孝感市应城市广场大道与长荆大道交叉口东南方向114米左右",
        "tel": "",
        "category": "基础设施:公共设施:公共厕所",
        "type": 0,
        "location": {
            "lat": 30.923534,
            "lng": 113.57371
        },
        "ad_info": {
            "adcode": 420981,
            "province": "湖北省",
            "city": "孝感市",
            "district": "应城市"
        }
    },
    {
        "id": "3358213021637371981",
        "title": "公共厕所",
        "address": "湖北省孝感市应城市王桥路与长荆大道交叉口东南方向116米左右",
        "tel": "",
        "category": "基础设施:公共设施:公共厕所",
        "type": 0,
        "location": {
            "lat": 30.923687,
            "lng": 113.567569
        },
        "ad_info": {
            "adcode": 420981,
            "province": "湖北省",
            "city": "孝感市",
            "district": "应城市"
        }
    },
    {
        "id": "10608975537949512774",
        "title": "公共厕所",
        "address": "湖北省孝感市应城市建设街47号",
        "tel": "",
        "category": "基础设施:公共设施:公共厕所",
        "type": 0,
        "location": {
            "lat": 30.950275,
            "lng": 113.569068
        },
        "ad_info": {
            "adcode": 420981,
            "province": "湖北省",
            "city": "孝感市",
            "district": "应城市"
        }
    },
    {
        "id": "7130447123756569093",
        "title": "公共厕所",
        "address": "湖北省孝感市安陆市大河线与烟应线交叉口正北方向569米左右",
        "tel": "",
        "category": "基础设施:公共设施:公共厕所",
        "type": 0,
        "location": {
            "lat": 31.215543,
            "lng": 113.640018
        },
        "ad_info": {
            "adcode": 420982,
            "province": "湖北省",
            "city": "孝感市",
            "district": "安陆市"
        }
    },
    {
        "id": "11073759223622678974",
        "title": "公共厕所",
        "address": "湖北省孝感市安陆市凤凰路与汉丹路交叉口西南方向131米左右",
        "tel": "",
        "category": "基础设施:公共设施:公共厕所",
        "type": 0,
        "location": {
            "lat": 31.25215,
            "lng": 113.689479
        },
        "ad_info": {
            "adcode": 420982,
            "province": "湖北省",
            "city": "孝感市",
            "district": "安陆市"
        }
    },
    {
        "id": "17344655460137228073",
        "title": "公共厕所",
        "address": "湖北省孝感市孝昌县利民路与北京路交叉口正北方向124米左右",
        "tel": "",
        "category": "基础设施:公共设施:公共厕所",
        "type": 0,
        "location": {
            "lat": 31.262262,
            "lng": 113.98447
        },
        "ad_info": {
            "adcode": 420921,
            "province": "湖北省",
            "city": "孝感市",
            "district": "孝昌县"
        }
    },
    {
        "id": "14611675176644647837",
        "title": "交通公共厕所",
        "address": "湖北省孝感市安陆市安广线与镇中后街交叉口正南方向158米左右",
        "tel": "",
        "category": "基础设施:公共设施:公共厕所",
        "type": 0,
        "location": {
            "lat": 31.405487,
            "lng": 113.854236
        },
        "ad_info": {
            "adcode": 420982,
            "province": "湖北省",
            "city": "孝感市",
            "district": "安陆市"
        }
    },
    {
        "id": "15694544834109034462",
        "title": "三里服务器区第一公共厕所",
        "address": "湖北省孝感市大悟县三里停车区与G4京港澳高速交叉口西南200米",
        "tel": "",
        "category": "基础设施:公共设施:公共厕所",
        "type": 0,
        "location": {
            "lat": 31.775822,
            "lng": 114.211685
        },
        "ad_info": {
            "adcode": 420922,
            "province": "湖北省",
            "city": "孝感市",
            "district": "大悟县"
        }
    },
    {
        "id": "2180418758148398887",
        "title": "公共厕所",
        "address": "湖北省孝感市孝昌县陆冲金朝超市西侧",
        "tel": "",
        "category": "基础设施:公共设施:公共厕所",
        "type": 0,
        "location": {
            "lat": 31.308904,
            "lng": 114.178245
        },
        "ad_info": {
            "adcode": 420921,
            "province": "湖北省",
            "city": "孝感市",
            "district": "孝昌县"
        }
    },
    {
        "id": "3774320602462914611",
        "title": "公共厕所",
        "address": "湖北省孝感市应城市肖湾路与长荆大道交叉口正南方向1049米左右",
        "tel": "",
        "category": "基础设施:公共设施:公共厕所",
        "type": 0,
        "location": {
            "lat": 30.914422,
            "lng": 113.555179
        },
        "ad_info": {
            "adcode": 420981,
            "province": "湖北省",
            "city": "孝感市",
            "district": "应城市"
        }
    },
    {
        "id": "8102512008758046983",
        "title": "公共厕所",
        "address": "湖北省孝感市孝南区G107与G316交叉口正北方向236米左右",
        "tel": "",
        "category": "基础设施:公共设施:公共厕所",
        "type": 0,
        "location": {
            "lat": 30.956618,
            "lng": 113.950997
        },
        "ad_info": {
            "adcode": 420902,
            "province": "湖北省",
            "city": "孝感市",
            "district": "孝南区"
        }
    },
    {
        "id": "14104173552704239970",
        "title": "公共厕所",
        "address": "湖北省孝感市孝南区罗陂路",
        "tel": "",
        "category": "基础设施:公共设施:公共厕所",
        "type": 0,
        "location": {
            "lat": 30.984793,
            "lng": 113.982082
        },
        "ad_info": {
            "adcode": 420902,
            "province": "湖北省",
            "city": "孝感市",
            "district": "孝南区"
        }
    },
    {
        "id": "12802481401675737337",
        "title": "公共厕所",
        "address": "湖北省孝感市孝昌县南凤路与昌盛街交叉口正南方向90米左右",
        "tel": "",
        "category": "基础设施:公共设施:公共厕所",
        "type": 0,
        "location": {
            "lat": 31.317179,
            "lng": 113.98323
        },
        "ad_info": {
            "adcode": 420921,
            "province": "湖北省",
            "city": "孝感市",
            "district": "孝昌县"
        }
    },
    {
        "id": "16747516858717307667",
        "title": "公共厕所",
        "address": "湖北省孝感市应城市S212与应云线交叉口正西方向112米左右",
        "tel": "",
        "category": "基础设施:公共设施:公共厕所",
        "type": 0,
        "location": {
            "lat": 30.963834,
            "lng": 113.581622
        },
        "ad_info": {
            "adcode": 420981,
            "province": "湖北省",
            "city": "孝感市",
            "district": "应城市"
        }
    },
    {
        "id": "10216582035841934770",
        "title": "公共厕所",
        "address": "湖北省孝感市孝南区城南大道与福龙路交叉口正北方向46米左右",
        "tel": "",
        "category": "基础设施:公共设施:公共厕所",
        "type": 0,
        "location": {
            "lat": 30.881142,
            "lng": 113.962398
        },
        "ad_info": {
            "adcode": 420902,
            "province": "湖北省",
            "city": "孝感市",
            "district": "孝南区"
        }
    },
    {
        "id": "12966179650971048312",
        "title": "公共厕所",
        "address": "湖北省孝感市云梦县G347与丘湖路交叉口东南方向53米左右",
        "tel": "",
        "category": "基础设施:公共设施:公共厕所",
        "type": 0,
        "location": {
            "lat": 30.838902,
            "lng": 113.843692
        },
        "ad_info": {
            "adcode": 420923,
            "province": "湖北省",
            "city": "孝感市",
            "district": "云梦县"
        }
    },
    {
        "id": "9306223145606182464",
        "title": "公共厕所",
        "address": "湖北省孝感市孝昌县青霞189超市西侧220米",
        "tel": "",
        "category": "基础设施:公共设施:公共厕所",
        "type": 0,
        "location": {
            "lat": 31.313297,
            "lng": 114.043959
        },
        "ad_info": {
            "adcode": 420921,
            "province": "湖北省",
            "city": "孝感市",
            "district": "孝昌县"
        }
    },
    {
        "id": "12618360589841356398",
        "title": "公共厕所",
        "address": "湖北省孝感市孝南区蔡陡线",
        "tel": "",
        "category": "基础设施:公共设施:公共厕所",
        "type": 0,
        "location": {
            "lat": 31.009649,
            "lng": 113.871723
        },
        "ad_info": {
            "adcode": 420902,
            "province": "湖北省",
            "city": "孝感市",
            "district": "孝南区"
        }
    },
    {
        "id": "9816930443814453490",
        "title": "公共厕所",
        "address": "湖北省孝感市孝南区严桥市场东",
        "tel": "",
        "category": "基础设施:公共设施:公共厕所",
        "type": 0,
        "location": {
            "lat": 30.934224,
            "lng": 113.942709
        },
        "ad_info": {
            "adcode": 420902,
            "province": "湖北省",
            "city": "孝感市",
            "district": "孝南区"
        }
    },
    {
        "id": "5528984692330506406",
        "title": "三里停车区公共厕所",
        "address": "湖北省孝感市大悟县三里停车区西50米",
        "tel": "",
        "category": "基础设施:公共设施:公共厕所",
        "type": 0,
        "location": {
            "lat": 31.775268,
            "lng": 114.211541
        },
        "ad_info": {
            "adcode": 420922,
            "province": "湖北省",
            "city": "孝感市",
            "district": "大悟县"
        }
    },
    {
        "id": "14022478589324782399",
        "title": "公共厕所",
        "address": "湖北省孝感市孝南区",
        "tel": "",
        "category": "基础设施:公共设施:公共厕所",
        "type": 0,
        "location": {
            "lat": 30.981028,
            "lng": 114.145956
        },
        "ad_info": {
            "adcode": 420902,
            "province": "湖北省",
            "city": "孝感市",
            "district": "孝南区"
        }
    },
    {
        "id": "8254614015704625647",
        "title": "公共厕所",
        "address": "湖北省孝感市安陆市棠棣镇金泉村安陆西站站前广场(西北角)",
        "tel": "",
        "category": "基础设施:公共设施:公共厕所",
        "type": 0,
        "location": {
            "lat": 31.255287,
            "lng": 113.653683
        },
        "ad_info": {
            "adcode": 420982,
            "province": "湖北省",
            "city": "孝感市",
            "district": "安陆市"
        }
    },
    {
        "id": "16235114529510796792",
        "title": "交通厕所",
        "address": "湖北省孝感市云梦县沙正街与沙隔线交叉口正西方向274米",
        "tel": "",
        "category": "基础设施:公共设施:公共厕所",
        "type": 0,
        "location": {
            "lat": 30.930636,
            "lng": 113.83012
        },
        "ad_info": {
            "adcode": 420923,
            "province": "湖北省",
            "city": "孝感市",
            "district": "云梦县"
        }
    },
    {
        "id": "12853506169257844674",
        "title": "应城停车区公共厕所",
        "address": "湖北省孝感市应城市应城停车区南50米",
        "tel": "",
        "category": "基础设施:公共设施:公共厕所",
        "type": 0,
        "location": {
            "lat": 30.857151,
            "lng": 113.530106
        },
        "ad_info": {
            "adcode": 420981,
            "province": "湖北省",
            "city": "孝感市",
            "district": "应城市"
        }
    },
    {
        "id": "11073759223622678974",
        "title": "公共厕所",
        "address": "湖北省孝感市安陆市凤凰路与汉丹路交叉口西南方向131米左右",
        "tel": "",
        "category": "基础设施:公共设施:公共厕所",
        "type": 0,
        "location": {
            "lat": 31.25215,
            "lng": 113.689479
        },
        "ad_info": {
            "adcode": 420982,
            "province": "湖北省",
            "city": "孝感市",
            "district": "安陆市"
        }
    },
    {
        "id": "17344655460137228073",
        "title": "公共厕所",
        "address": "湖北省孝感市孝昌县利民路与北京路交叉口正北方向124米左右",
        "tel": "",
        "category": "基础设施:公共设施:公共厕所",
        "type": 0,
        "location": {
            "lat": 31.262262,
            "lng": 113.98447
        },
        "ad_info": {
            "adcode": 420921,
            "province": "湖北省",
            "city": "孝感市",
            "district": "孝昌县"
        }
    },
    {
        "id": "14611675176644647837",
        "title": "交通公共厕所",
        "address": "湖北省孝感市安陆市安广线与镇中后街交叉口正南方向158米左右",
        "tel": "",
        "category": "基础设施:公共设施:公共厕所",
        "type": 0,
        "location": {
            "lat": 31.405487,
            "lng": 113.854236
        },
        "ad_info": {
            "adcode": 420982,
            "province": "湖北省",
            "city": "孝感市",
            "district": "安陆市"
        }
    },
    {
        "id": "15694544834109034462",
        "title": "三里服务器区第一公共厕所",
        "address": "湖北省孝感市大悟县三里停车区与G4京港澳高速交叉口西南200米",
        "tel": "",
        "category": "基础设施:公共设施:公共厕所",
        "type": 0,
        "location": {
            "lat": 31.775822,
            "lng": 114.211685
        },
        "ad_info": {
            "adcode": 420922,
            "province": "湖北省",
            "city": "孝感市",
            "district": "大悟县"
        }
    },
    {
        "id": "2180418758148398887",
        "title": "公共厕所",
        "address": "湖北省孝感市孝昌县陆冲金朝超市西侧",
        "tel": "",
        "category": "基础设施:公共设施:公共厕所",
        "type": 0,
        "location": {
            "lat": 31.308904,
            "lng": 114.178245
        },
        "ad_info": {
            "adcode": 420921,
            "province": "湖北省",
            "city": "孝感市",
            "district": "孝昌县"
        }
    },
    {
        "id": "3774320602462914611",
        "title": "公共厕所",
        "address": "湖北省孝感市应城市肖湾路与长荆大道交叉口正南方向1049米左右",
        "tel": "",
        "category": "基础设施:公共设施:公共厕所",
        "type": 0,
        "location": {
            "lat": 30.914422,
            "lng": 113.555179
        },
        "ad_info": {
            "adcode": 420981,
            "province": "湖北省",
            "city": "孝感市",
            "district": "应城市"
        }
    },
    {
        "id": "8102512008758046983",
        "title": "公共厕所",
        "address": "湖北省孝感市孝南区G107与G316交叉口正北方向236米左右",
        "tel": "",
        "category": "基础设施:公共设施:公共厕所",
        "type": 0,
        "location": {
            "lat": 30.956618,
            "lng": 113.950997
        },
        "ad_info": {
            "adcode": 420902,
            "province": "湖北省",
            "city": "孝感市",
            "district": "孝南区"
        }
    },
    {
        "id": "14104173552704239970",
        "title": "公共厕所",
        "address": "湖北省孝感市孝南区罗陂路",
        "tel": "",
        "category": "基础设施:公共设施:公共厕所",
        "type": 0,
        "location": {
            "lat": 30.984793,
            "lng": 113.982082
        },
        "ad_info": {
            "adcode": 420902,
            "province": "湖北省",
            "city": "孝感市",
            "district": "孝南区"
        }
    },
    {
        "id": "12802481401675737337",
        "title": "公共厕所",
        "address": "湖北省孝感市孝昌县南凤路与昌盛街交叉口正南方向90米左右",
        "tel": "",
        "category": "基础设施:公共设施:公共厕所",
        "type": 0,
        "location": {
            "lat": 31.317179,
            "lng": 113.98323
        },
        "ad_info": {
            "adcode": 420921,
            "province": "湖北省",
            "city": "孝感市",
            "district": "孝昌县"
        }
    },
    {
        "id": "16747516858717307667",
        "title": "公共厕所",
        "address": "湖北省孝感市应城市S212与应云线交叉口正西方向112米左右",
        "tel": "",
        "category": "基础设施:公共设施:公共厕所",
        "type": 0,
        "location": {
            "lat": 30.963834,
            "lng": 113.581622
        },
        "ad_info": {
            "adcode": 420981,
            "province": "湖北省",
            "city": "孝感市",
            "district": "应城市"
        }
    },
    {
        "id": "10216582035841934770",
        "title": "公共厕所",
        "address": "湖北省孝感市孝南区城南大道与福龙路交叉口正北方向46米左右",
        "tel": "",
        "category": "基础设施:公共设施:公共厕所",
        "type": 0,
        "location": {
            "lat": 30.881142,
            "lng": 113.962398
        },
        "ad_info": {
            "adcode": 420902,
            "province": "湖北省",
            "city": "孝感市",
            "district": "孝南区"
        }
    },
    {
        "id": "12966179650971048312",
        "title": "公共厕所",
        "address": "湖北省孝感市云梦县G347与丘湖路交叉口东南方向53米左右",
        "tel": "",
        "category": "基础设施:公共设施:公共厕所",
        "type": 0,
        "location": {
            "lat": 30.838902,
            "lng": 113.843692
        },
        "ad_info": {
            "adcode": 420923,
            "province": "湖北省",
            "city": "孝感市",
            "district": "云梦县"
        }
    },
    {
        "id": "9306223145606182464",
        "title": "公共厕所",
        "address": "湖北省孝感市孝昌县青霞189超市西侧220米",
        "tel": "",
        "category": "基础设施:公共设施:公共厕所",
        "type": 0,
        "location": {
            "lat": 31.313297,
            "lng": 114.043959
        },
        "ad_info": {
            "adcode": 420921,
            "province": "湖北省",
            "city": "孝感市",
            "district": "孝昌县"
        }
    },
    {
        "id": "12618360589841356398",
        "title": "公共厕所",
        "address": "湖北省孝感市孝南区蔡陡线",
        "tel": "",
        "category": "基础设施:公共设施:公共厕所",
        "type": 0,
        "location": {
            "lat": 31.009649,
            "lng": 113.871723
        },
        "ad_info": {
            "adcode": 420902,
            "province": "湖北省",
            "city": "孝感市",
            "district": "孝南区"
        }
    },
    {
        "id": "9816930443814453490",
        "title": "公共厕所",
        "address": "湖北省孝感市孝南区严桥市场东",
        "tel": "",
        "category": "基础设施:公共设施:公共厕所",
        "type": 0,
        "location": {
            "lat": 30.934224,
            "lng": 113.942709
        },
        "ad_info": {
            "adcode": 420902,
            "province": "湖北省",
            "city": "孝感市",
            "district": "孝南区"
        }
    },
    {
        "id": "5528984692330506406",
        "title": "三里停车区公共厕所",
        "address": "湖北省孝感市大悟县三里停车区西50米",
        "tel": "",
        "category": "基础设施:公共设施:公共厕所",
        "type": 0,
        "location": {
            "lat": 31.775268,
            "lng": 114.211541
        },
        "ad_info": {
            "adcode": 420922,
            "province": "湖北省",
            "city": "孝感市",
            "district": "大悟县"
        }
    },
    {
        "id": "14022478589324782399",
        "title": "公共厕所",
        "address": "湖北省孝感市孝南区",
        "tel": "",
        "category": "基础设施:公共设施:公共厕所",
        "type": 0,
        "location": {
            "lat": 30.981028,
            "lng": 114.145956
        },
        "ad_info": {
            "adcode": 420902,
            "province": "湖北省",
            "city": "孝感市",
            "district": "孝南区"
        }
    },
    {
        "id": "8254614015704625647",
        "title": "公共厕所",
        "address": "湖北省孝感市安陆市棠棣镇金泉村安陆西站站前广场(西北角)",
        "tel": "",
        "category": "基础设施:公共设施:公共厕所",
        "type": 0,
        "location": {
            "lat": 31.255287,
            "lng": 113.653683
        },
        "ad_info": {
            "adcode": 420982,
            "province": "湖北省",
            "city": "孝感市",
            "district": "安陆市"
        }
    },
    {
        "id": "16235114529510796792",
        "title": "交通厕所",
        "address": "湖北省孝感市云梦县沙正街与沙隔线交叉口正西方向274米",
        "tel": "",
        "category": "基础设施:公共设施:公共厕所",
        "type": 0,
        "location": {
            "lat": 30.930636,
            "lng": 113.83012
        },
        "ad_info": {
            "adcode": 420923,
            "province": "湖北省",
            "city": "孝感市",
            "district": "云梦县"
        }
    },
    {
        "id": "12853506169257844674",
        "title": "应城停车区公共厕所",
        "address": "湖北省孝感市应城市应城停车区南50米",
        "tel": "",
        "category": "基础设施:公共设施:公共厕所",
        "type": 0,
        "location": {
            "lat": 30.857151,
            "lng": 113.530106
        },
        "ad_info": {
            "adcode": 420981,
            "province": "湖北省",
            "city": "孝感市",
            "district": "应城市"
        }
    },
    {
        "id": "11073759223622678974",
        "title": "公共厕所",
        "address": "湖北省孝感市安陆市凤凰路与汉丹路交叉口西南方向131米左右",
        "tel": "",
        "category": "基础设施:公共设施:公共厕所",
        "type": 0,
        "location": {
            "lat": 31.25215,
            "lng": 113.689479
        },
        "ad_info": {
            "adcode": 420982,
            "province": "湖北省",
            "city": "孝感市",
            "district": "安陆市"
        }
    },
    {
        "id": "17344655460137228073",
        "title": "公共厕所",
        "address": "湖北省孝感市孝昌县利民路与北京路交叉口正北方向124米左右",
        "tel": "",
        "category": "基础设施:公共设施:公共厕所",
        "type": 0,
        "location": {
            "lat": 31.262262,
            "lng": 113.98447
        },
        "ad_info": {
            "adcode": 420921,
            "province": "湖北省",
            "city": "孝感市",
            "district": "孝昌县"
        }
    },
    {
        "id": "14611675176644647837",
        "title": "交通公共厕所",
        "address": "湖北省孝感市安陆市安广线与镇中后街交叉口正南方向158米左右",
        "tel": "",
        "category": "基础设施:公共设施:公共厕所",
        "type": 0,
        "location": {
            "lat": 31.405487,
            "lng": 113.854236
        },
        "ad_info": {
            "adcode": 420982,
            "province": "湖北省",
            "city": "孝感市",
            "district": "安陆市"
        }
    },
    {
        "id": "15694544834109034462",
        "title": "三里服务器区第一公共厕所",
        "address": "湖北省孝感市大悟县三里停车区与G4京港澳高速交叉口西南200米",
        "tel": "",
        "category": "基础设施:公共设施:公共厕所",
        "type": 0,
        "location": {
            "lat": 31.775822,
            "lng": 114.211685
        },
        "ad_info": {
            "adcode": 420922,
            "province": "湖北省",
            "city": "孝感市",
            "district": "大悟县"
        }
    },
    {
        "id": "2180418758148398887",
        "title": "公共厕所",
        "address": "湖北省孝感市孝昌县陆冲金朝超市西侧",
        "tel": "",
        "category": "基础设施:公共设施:公共厕所",
        "type": 0,
        "location": {
            "lat": 31.308904,
            "lng": 114.178245
        },
        "ad_info": {
            "adcode": 420921,
            "province": "湖北省",
            "city": "孝感市",
            "district": "孝昌县"
        }
    },
    {
        "id": "3774320602462914611",
        "title": "公共厕所",
        "address": "湖北省孝感市应城市肖湾路与长荆大道交叉口正南方向1049米左右",
        "tel": "",
        "category": "基础设施:公共设施:公共厕所",
        "type": 0,
        "location": {
            "lat": 30.914422,
            "lng": 113.555179
        },
        "ad_info": {
            "adcode": 420981,
            "province": "湖北省",
            "city": "孝感市",
            "district": "应城市"
        }
    },
    {
        "id": "8102512008758046983",
        "title": "公共厕所",
        "address": "湖北省孝感市孝南区G107与G316交叉口正北方向236米左右",
        "tel": "",
        "category": "基础设施:公共设施:公共厕所",
        "type": 0,
        "location": {
            "lat": 30.956618,
            "lng": 113.950997
        },
        "ad_info": {
            "adcode": 420902,
            "province": "湖北省",
            "city": "孝感市",
            "district": "孝南区"
        }
    },
    {
        "id": "14104173552704239970",
        "title": "公共厕所",
        "address": "湖北省孝感市孝南区罗陂路",
        "tel": "",
        "category": "基础设施:公共设施:公共厕所",
        "type": 0,
        "location": {
            "lat": 30.984793,
            "lng": 113.982082
        },
        "ad_info": {
            "adcode": 420902,
            "province": "湖北省",
            "city": "孝感市",
            "district": "孝南区"
        }
    },
    {
        "id": "12802481401675737337",
        "title": "公共厕所",
        "address": "湖北省孝感市孝昌县南凤路与昌盛街交叉口正南方向90米左右",
        "tel": "",
        "category": "基础设施:公共设施:公共厕所",
        "type": 0,
        "location": {
            "lat": 31.317179,
            "lng": 113.98323
        },
        "ad_info": {
            "adcode": 420921,
            "province": "湖北省",
            "city": "孝感市",
            "district": "孝昌县"
        }
    },
    {
        "id": "16747516858717307667",
        "title": "公共厕所",
        "address": "湖北省孝感市应城市S212与应云线交叉口正西方向112米左右",
        "tel": "",
        "category": "基础设施:公共设施:公共厕所",
        "type": 0,
        "location": {
            "lat": 30.963834,
            "lng": 113.581622
        },
        "ad_info": {
            "adcode": 420981,
            "province": "湖北省",
            "city": "孝感市",
            "district": "应城市"
        }
    },
    {
        "id": "10216582035841934770",
        "title": "公共厕所",
        "address": "湖北省孝感市孝南区城南大道与福龙路交叉口正北方向46米左右",
        "tel": "",
        "category": "基础设施:公共设施:公共厕所",
        "type": 0,
        "location": {
            "lat": 30.881142,
            "lng": 113.962398
        },
        "ad_info": {
            "adcode": 420902,
            "province": "湖北省",
            "city": "孝感市",
            "district": "孝南区"
        }
    },
    {
        "id": "12966179650971048312",
        "title": "公共厕所",
        "address": "湖北省孝感市云梦县G347与丘湖路交叉口东南方向53米左右",
        "tel": "",
        "category": "基础设施:公共设施:公共厕所",
        "type": 0,
        "location": {
            "lat": 30.838902,
            "lng": 113.843692
        },
        "ad_info": {
            "adcode": 420923,
            "province": "湖北省",
            "city": "孝感市",
            "district": "云梦县"
        }
    },
    {
        "id": "9306223145606182464",
        "title": "公共厕所",
        "address": "湖北省孝感市孝昌县青霞189超市西侧220米",
        "tel": "",
        "category": "基础设施:公共设施:公共厕所",
        "type": 0,
        "location": {
            "lat": 31.313297,
            "lng": 114.043959
        },
        "ad_info": {
            "adcode": 420921,
            "province": "湖北省",
            "city": "孝感市",
            "district": "孝昌县"
        }
    },
    {
        "id": "12618360589841356398",
        "title": "公共厕所",
        "address": "湖北省孝感市孝南区蔡陡线",
        "tel": "",
        "category": "基础设施:公共设施:公共厕所",
        "type": 0,
        "location": {
            "lat": 31.009649,
            "lng": 113.871723
        },
        "ad_info": {
            "adcode": 420902,
            "province": "湖北省",
            "city": "孝感市",
            "district": "孝南区"
        }
    },
    {
        "id": "9816930443814453490",
        "title": "公共厕所",
        "address": "湖北省孝感市孝南区严桥市场东",
        "tel": "",
        "category": "基础设施:公共设施:公共厕所",
        "type": 0,
        "location": {
            "lat": 30.934224,
            "lng": 113.942709
        },
        "ad_info": {
            "adcode": 420902,
            "province": "湖北省",
            "city": "孝感市",
            "district": "孝南区"
        }
    },
    {
        "id": "5528984692330506406",
        "title": "三里停车区公共厕所",
        "address": "湖北省孝感市大悟县三里停车区西50米",
        "tel": "",
        "category": "基础设施:公共设施:公共厕所",
        "type": 0,
        "location": {
            "lat": 31.775268,
            "lng": 114.211541
        },
        "ad_info": {
            "adcode": 420922,
            "province": "湖北省",
            "city": "孝感市",
            "district": "大悟县"
        }
    },
    {
        "id": "14022478589324782399",
        "title": "公共厕所",
        "address": "湖北省孝感市孝南区",
        "tel": "",
        "category": "基础设施:公共设施:公共厕所",
        "type": 0,
        "location": {
            "lat": 30.981028,
            "lng": 114.145956
        },
        "ad_info": {
            "adcode": 420902,
            "province": "湖北省",
            "city": "孝感市",
            "district": "孝南区"
        }
    },
    {
        "id": "8254614015704625647",
        "title": "公共厕所",
        "address": "湖北省孝感市安陆市棠棣镇金泉村安陆西站站前广场(西北角)",
        "tel": "",
        "category": "基础设施:公共设施:公共厕所",
        "type": 0,
        "location": {
            "lat": 31.255287,
            "lng": 113.653683
        },
        "ad_info": {
            "adcode": 420982,
            "province": "湖北省",
            "city": "孝感市",
            "district": "安陆市"
        }
    },
    {
        "id": "16235114529510796792",
        "title": "交通厕所",
        "address": "湖北省孝感市云梦县沙正街与沙隔线交叉口正西方向274米",
        "tel": "",
        "category": "基础设施:公共设施:公共厕所",
        "type": 0,
        "location": {
            "lat": 30.930636,
            "lng": 113.83012
        },
        "ad_info": {
            "adcode": 420923,
            "province": "湖北省",
            "city": "孝感市",
            "district": "云梦县"
        }
    },
    {
        "id": "12853506169257844674",
        "title": "应城停车区公共厕所",
        "address": "湖北省孝感市应城市应城停车区南50米",
        "tel": "",
        "category": "基础设施:公共设施:公共厕所",
        "type": 0,
        "location": {
            "lat": 30.857151,
            "lng": 113.530106
        },
        "ad_info": {
            "adcode": 420981,
            "province": "湖北省",
            "city": "孝感市",
            "district": "应城市"
        }
    },
    {
        "id": "11073759223622678974",
        "title": "公共厕所",
        "address": "湖北省孝感市安陆市凤凰路与汉丹路交叉口西南方向131米左右",
        "tel": "",
        "category": "基础设施:公共设施:公共厕所",
        "type": 0,
        "location": {
            "lat": 31.25215,
            "lng": 113.689479
        },
        "ad_info": {
            "adcode": 420982,
            "province": "湖北省",
            "city": "孝感市",
            "district": "安陆市"
        }
    },
    {
        "id": "17344655460137228073",
        "title": "公共厕所",
        "address": "湖北省孝感市孝昌县利民路与北京路交叉口正北方向124米左右",
        "tel": "",
        "category": "基础设施:公共设施:公共厕所",
        "type": 0,
        "location": {
            "lat": 31.262262,
            "lng": 113.98447
        },
        "ad_info": {
            "adcode": 420921,
            "province": "湖北省",
            "city": "孝感市",
            "district": "孝昌县"
        }
    },
    {
        "id": "14611675176644647837",
        "title": "交通公共厕所",
        "address": "湖北省孝感市安陆市安广线与镇中后街交叉口正南方向158米左右",
        "tel": "",
        "category": "基础设施:公共设施:公共厕所",
        "type": 0,
        "location": {
            "lat": 31.405487,
            "lng": 113.854236
        },
        "ad_info": {
            "adcode": 420982,
            "province": "湖北省",
            "city": "孝感市",
            "district": "安陆市"
        }
    },
    {
        "id": "15694544834109034462",
        "title": "三里服务器区第一公共厕所",
        "address": "湖北省孝感市大悟县三里停车区与G4京港澳高速交叉口西南200米",
        "tel": "",
        "category": "基础设施:公共设施:公共厕所",
        "type": 0,
        "location": {
            "lat": 31.775822,
            "lng": 114.211685
        },
        "ad_info": {
            "adcode": 420922,
            "province": "湖北省",
            "city": "孝感市",
            "district": "大悟县"
        }
    },
    {
        "id": "2180418758148398887",
        "title": "公共厕所",
        "address": "湖北省孝感市孝昌县陆冲金朝超市西侧",
        "tel": "",
        "category": "基础设施:公共设施:公共厕所",
        "type": 0,
        "location": {
            "lat": 31.308904,
            "lng": 114.178245
        },
        "ad_info": {
            "adcode": 420921,
            "province": "湖北省",
            "city": "孝感市",
            "district": "孝昌县"
        }
    },
    {
        "id": "3774320602462914611",
        "title": "公共厕所",
        "address": "湖北省孝感市应城市肖湾路与长荆大道交叉口正南方向1049米左右",
        "tel": "",
        "category": "基础设施:公共设施:公共厕所",
        "type": 0,
        "location": {
            "lat": 30.914422,
            "lng": 113.555179
        },
        "ad_info": {
            "adcode": 420981,
            "province": "湖北省",
            "city": "孝感市",
            "district": "应城市"
        }
    },
    {
        "id": "8102512008758046983",
        "title": "公共厕所",
        "address": "湖北省孝感市孝南区G107与G316交叉口正北方向236米左右",
        "tel": "",
        "category": "基础设施:公共设施:公共厕所",
        "type": 0,
        "location": {
            "lat": 30.956618,
            "lng": 113.950997
        },
        "ad_info": {
            "adcode": 420902,
            "province": "湖北省",
            "city": "孝感市",
            "district": "孝南区"
        }
    },
    {
        "id": "14104173552704239970",
        "title": "公共厕所",
        "address": "湖北省孝感市孝南区罗陂路",
        "tel": "",
        "category": "基础设施:公共设施:公共厕所",
        "type": 0,
        "location": {
            "lat": 30.984793,
            "lng": 113.982082
        },
        "ad_info": {
            "adcode": 420902,
            "province": "湖北省",
            "city": "孝感市",
            "district": "孝南区"
        }
    },
    {
        "id": "12802481401675737337",
        "title": "公共厕所",
        "address": "湖北省孝感市孝昌县南凤路与昌盛街交叉口正南方向90米左右",
        "tel": "",
        "category": "基础设施:公共设施:公共厕所",
        "type": 0,
        "location": {
            "lat": 31.317179,
            "lng": 113.98323
        },
        "ad_info": {
            "adcode": 420921,
            "province": "湖北省",
            "city": "孝感市",
            "district": "孝昌县"
        }
    },
    {
        "id": "16747516858717307667",
        "title": "公共厕所",
        "address": "湖北省孝感市应城市S212与应云线交叉口正西方向112米左右",
        "tel": "",
        "category": "基础设施:公共设施:公共厕所",
        "type": 0,
        "location": {
            "lat": 30.963834,
            "lng": 113.581622
        },
        "ad_info": {
            "adcode": 420981,
            "province": "湖北省",
            "city": "孝感市",
            "district": "应城市"
        }
    },
    {
        "id": "10216582035841934770",
        "title": "公共厕所",
        "address": "湖北省孝感市孝南区城南大道与福龙路交叉口正北方向46米左右",
        "tel": "",
        "category": "基础设施:公共设施:公共厕所",
        "type": 0,
        "location": {
            "lat": 30.881142,
            "lng": 113.962398
        },
        "ad_info": {
            "adcode": 420902,
            "province": "湖北省",
            "city": "孝感市",
            "district": "孝南区"
        }
    },
    {
        "id": "12966179650971048312",
        "title": "公共厕所",
        "address": "湖北省孝感市云梦县G347与丘湖路交叉口东南方向53米左右",
        "tel": "",
        "category": "基础设施:公共设施:公共厕所",
        "type": 0,
        "location": {
            "lat": 30.838902,
            "lng": 113.843692
        },
        "ad_info": {
            "adcode": 420923,
            "province": "湖北省",
            "city": "孝感市",
            "district": "云梦县"
        }
    },
    {
        "id": "9306223145606182464",
        "title": "公共厕所",
        "address": "湖北省孝感市孝昌县青霞189超市西侧220米",
        "tel": "",
        "category": "基础设施:公共设施:公共厕所",
        "type": 0,
        "location": {
            "lat": 31.313297,
            "lng": 114.043959
        },
        "ad_info": {
            "adcode": 420921,
            "province": "湖北省",
            "city": "孝感市",
            "district": "孝昌县"
        }
    },
    {
        "id": "12618360589841356398",
        "title": "公共厕所",
        "address": "湖北省孝感市孝南区蔡陡线",
        "tel": "",
        "category": "基础设施:公共设施:公共厕所",
        "type": 0,
        "location": {
            "lat": 31.009649,
            "lng": 113.871723
        },
        "ad_info": {
            "adcode": 420902,
            "province": "湖北省",
            "city": "孝感市",
            "district": "孝南区"
        }
    },
    {
        "id": "9816930443814453490",
        "title": "公共厕所",
        "address": "湖北省孝感市孝南区严桥市场东",
        "tel": "",
        "category": "基础设施:公共设施:公共厕所",
        "type": 0,
        "location": {
            "lat": 30.934224,
            "lng": 113.942709
        },
        "ad_info": {
            "adcode": 420902,
            "province": "湖北省",
            "city": "孝感市",
            "district": "孝南区"
        }
    },
    {
        "id": "5528984692330506406",
        "title": "三里停车区公共厕所",
        "address": "湖北省孝感市大悟县三里停车区西50米",
        "tel": "",
        "category": "基础设施:公共设施:公共厕所",
        "type": 0,
        "location": {
            "lat": 31.775268,
            "lng": 114.211541
        },
        "ad_info": {
            "adcode": 420922,
            "province": "湖北省",
            "city": "孝感市",
            "district": "大悟县"
        }
    },
    {
        "id": "14022478589324782399",
        "title": "公共厕所",
        "address": "湖北省孝感市孝南区",
        "tel": "",
        "category": "基础设施:公共设施:公共厕所",
        "type": 0,
        "location": {
            "lat": 30.981028,
            "lng": 114.145956
        },
        "ad_info": {
            "adcode": 420902,
            "province": "湖北省",
            "city": "孝感市",
            "district": "孝南区"
        }
    },
    {
        "id": "8254614015704625647",
        "title": "公共厕所",
        "address": "湖北省孝感市安陆市棠棣镇金泉村安陆西站站前广场(西北角)",
        "tel": "",
        "category": "基础设施:公共设施:公共厕所",
        "type": 0,
        "location": {
            "lat": 31.255287,
            "lng": 113.653683
        },
        "ad_info": {
            "adcode": 420982,
            "province": "湖北省",
            "city": "孝感市",
            "district": "安陆市"
        }
    },
    {
        "id": "16235114529510796792",
        "title": "交通厕所",
        "address": "湖北省孝感市云梦县沙正街与沙隔线交叉口正西方向274米",
        "tel": "",
        "category": "基础设施:公共设施:公共厕所",
        "type": 0,
        "location": {
            "lat": 30.930636,
            "lng": 113.83012
        },
        "ad_info": {
            "adcode": 420923,
            "province": "湖北省",
            "city": "孝感市",
            "district": "云梦县"
        }
    },
    {
        "id": "12853506169257844674",
        "title": "应城停车区公共厕所",
        "address": "湖北省孝感市应城市应城停车区南50米",
        "tel": "",
        "category": "基础设施:公共设施:公共厕所",
        "type": 0,
        "location": {
            "lat": 30.857151,
            "lng": 113.530106
        },
        "ad_info": {
            "adcode": 420981,
            "province": "湖北省",
            "city": "孝感市",
            "district": "应城市"
        }
    },
    {
        "id": "11073759223622678974",
        "title": "公共厕所",
        "address": "湖北省孝感市安陆市凤凰路与汉丹路交叉口西南方向131米左右",
        "tel": "",
        "category": "基础设施:公共设施:公共厕所",
        "type": 0,
        "location": {
            "lat": 31.25215,
            "lng": 113.689479
        },
        "ad_info": {
            "adcode": 420982,
            "province": "湖北省",
            "city": "孝感市",
            "district": "安陆市"
        }
    },
    {
        "id": "17344655460137228073",
        "title": "公共厕所",
        "address": "湖北省孝感市孝昌县利民路与北京路交叉口正北方向124米左右",
        "tel": "",
        "category": "基础设施:公共设施:公共厕所",
        "type": 0,
        "location": {
            "lat": 31.262262,
            "lng": 113.98447
        },
        "ad_info": {
            "adcode": 420921,
            "province": "湖北省",
            "city": "孝感市",
            "district": "孝昌县"
        }
    },
    {
        "id": "14611675176644647837",
        "title": "交通公共厕所",
        "address": "湖北省孝感市安陆市安广线与镇中后街交叉口正南方向158米左右",
        "tel": "",
        "category": "基础设施:公共设施:公共厕所",
        "type": 0,
        "location": {
            "lat": 31.405487,
            "lng": 113.854236
        },
        "ad_info": {
            "adcode": 420982,
            "province": "湖北省",
            "city": "孝感市",
            "district": "安陆市"
        }
    },
    {
        "id": "15694544834109034462",
        "title": "三里服务器区第一公共厕所",
        "address": "湖北省孝感市大悟县三里停车区与G4京港澳高速交叉口西南200米",
        "tel": "",
        "category": "基础设施:公共设施:公共厕所",
        "type": 0,
        "location": {
            "lat": 31.775822,
            "lng": 114.211685
        },
        "ad_info": {
            "adcode": 420922,
            "province": "湖北省",
            "city": "孝感市",
            "district": "大悟县"
        }
    },
    {
        "id": "2180418758148398887",
        "title": "公共厕所",
        "address": "湖北省孝感市孝昌县陆冲金朝超市西侧",
        "tel": "",
        "category": "基础设施:公共设施:公共厕所",
        "type": 0,
        "location": {
            "lat": 31.308904,
            "lng": 114.178245
        },
        "ad_info": {
            "adcode": 420921,
            "province": "湖北省",
            "city": "孝感市",
            "district": "孝昌县"
        }
    },
    {
        "id": "3774320602462914611",
        "title": "公共厕所",
        "address": "湖北省孝感市应城市肖湾路与长荆大道交叉口正南方向1049米左右",
        "tel": "",
        "category": "基础设施:公共设施:公共厕所",
        "type": 0,
        "location": {
            "lat": 30.914422,
            "lng": 113.555179
        },
        "ad_info": {
            "adcode": 420981,
            "province": "湖北省",
            "city": "孝感市",
            "district": "应城市"
        }
    },
    {
        "id": "8102512008758046983",
        "title": "公共厕所",
        "address": "湖北省孝感市孝南区G107与G316交叉口正北方向236米左右",
        "tel": "",
        "category": "基础设施:公共设施:公共厕所",
        "type": 0,
        "location": {
            "lat": 30.956618,
            "lng": 113.950997
        },
        "ad_info": {
            "adcode": 420902,
            "province": "湖北省",
            "city": "孝感市",
            "district": "孝南区"
        }
    },
    {
        "id": "14104173552704239970",
        "title": "公共厕所",
        "address": "湖北省孝感市孝南区罗陂路",
        "tel": "",
        "category": "基础设施:公共设施:公共厕所",
        "type": 0,
        "location": {
            "lat": 30.984793,
            "lng": 113.982082
        },
        "ad_info": {
            "adcode": 420902,
            "province": "湖北省",
            "city": "孝感市",
            "district": "孝南区"
        }
    },
    {
        "id": "12802481401675737337",
        "title": "公共厕所",
        "address": "湖北省孝感市孝昌县南凤路与昌盛街交叉口正南方向90米左右",
        "tel": "",
        "category": "基础设施:公共设施:公共厕所",
        "type": 0,
        "location": {
            "lat": 31.317179,
            "lng": 113.98323
        },
        "ad_info": {
            "adcode": 420921,
            "province": "湖北省",
            "city": "孝感市",
            "district": "孝昌县"
        }
    },
    {
        "id": "16747516858717307667",
        "title": "公共厕所",
        "address": "湖北省孝感市应城市S212与应云线交叉口正西方向112米左右",
        "tel": "",
        "category": "基础设施:公共设施:公共厕所",
        "type": 0,
        "location": {
            "lat": 30.963834,
            "lng": 113.581622
        },
        "ad_info": {
            "adcode": 420981,
            "province": "湖北省",
            "city": "孝感市",
            "district": "应城市"
        }
    },
    {
        "id": "10216582035841934770",
        "title": "公共厕所",
        "address": "湖北省孝感市孝南区城南大道与福龙路交叉口正北方向46米左右",
        "tel": "",
        "category": "基础设施:公共设施:公共厕所",
        "type": 0,
        "location": {
            "lat": 30.881142,
            "lng": 113.962398
        },
        "ad_info": {
            "adcode": 420902,
            "province": "湖北省",
            "city": "孝感市",
            "district": "孝南区"
        }
    },
    {
        "id": "12966179650971048312",
        "title": "公共厕所",
        "address": "湖北省孝感市云梦县G347与丘湖路交叉口东南方向53米左右",
        "tel": "",
        "category": "基础设施:公共设施:公共厕所",
        "type": 0,
        "location": {
            "lat": 30.838902,
            "lng": 113.843692
        },
        "ad_info": {
            "adcode": 420923,
            "province": "湖北省",
            "city": "孝感市",
            "district": "云梦县"
        }
    },
    {
        "id": "9306223145606182464",
        "title": "公共厕所",
        "address": "湖北省孝感市孝昌县青霞189超市西侧220米",
        "tel": "",
        "category": "基础设施:公共设施:公共厕所",
        "type": 0,
        "location": {
            "lat": 31.313297,
            "lng": 114.043959
        },
        "ad_info": {
            "adcode": 420921,
            "province": "湖北省",
            "city": "孝感市",
            "district": "孝昌县"
        }
    },
    {
        "id": "12618360589841356398",
        "title": "公共厕所",
        "address": "湖北省孝感市孝南区蔡陡线",
        "tel": "",
        "category": "基础设施:公共设施:公共厕所",
        "type": 0,
        "location": {
            "lat": 31.009649,
            "lng": 113.871723
        },
        "ad_info": {
            "adcode": 420902,
            "province": "湖北省",
            "city": "孝感市",
            "district": "孝南区"
        }
    },
    {
        "id": "9816930443814453490",
        "title": "公共厕所",
        "address": "湖北省孝感市孝南区严桥市场东",
        "tel": "",
        "category": "基础设施:公共设施:公共厕所",
        "type": 0,
        "location": {
            "lat": 30.934224,
            "lng": 113.942709
        },
        "ad_info": {
            "adcode": 420902,
            "province": "湖北省",
            "city": "孝感市",
            "district": "孝南区"
        }
    },
    {
        "id": "5528984692330506406",
        "title": "三里停车区公共厕所",
        "address": "湖北省孝感市大悟县三里停车区西50米",
        "tel": "",
        "category": "基础设施:公共设施:公共厕所",
        "type": 0,
        "location": {
            "lat": 31.775268,
            "lng": 114.211541
        },
        "ad_info": {
            "adcode": 420922,
            "province": "湖北省",
            "city": "孝感市",
            "district": "大悟县"
        }
    },
    {
        "id": "14022478589324782399",
        "title": "公共厕所",
        "address": "湖北省孝感市孝南区",
        "tel": "",
        "category": "基础设施:公共设施:公共厕所",
        "type": 0,
        "location": {
            "lat": 30.981028,
            "lng": 114.145956
        },
        "ad_info": {
            "adcode": 420902,
            "province": "湖北省",
            "city": "孝感市",
            "district": "孝南区"
        }
    },
    {
        "id": "8254614015704625647",
        "title": "公共厕所",
        "address": "湖北省孝感市安陆市棠棣镇金泉村安陆西站站前广场(西北角)",
        "tel": "",
        "category": "基础设施:公共设施:公共厕所",
        "type": 0,
        "location": {
            "lat": 31.255287,
            "lng": 113.653683
        },
        "ad_info": {
            "adcode": 420982,
            "province": "湖北省",
            "city": "孝感市",
            "district": "安陆市"
        }
    },
    {
        "id": "16235114529510796792",
        "title": "交通厕所",
        "address": "湖北省孝感市云梦县沙正街与沙隔线交叉口正西方向274米",
        "tel": "",
        "category": "基础设施:公共设施:公共厕所",
        "type": 0,
        "location": {
            "lat": 30.930636,
            "lng": 113.83012
        },
        "ad_info": {
            "adcode": 420923,
            "province": "湖北省",
            "city": "孝感市",
            "district": "云梦县"
        }
    },
    {
        "id": "12853506169257844674",
        "title": "应城停车区公共厕所",
        "address": "湖北省孝感市应城市应城停车区南50米",
        "tel": "",
        "category": "基础设施:公共设施:公共厕所",
        "type": 0,
        "location": {
            "lat": 30.857151,
            "lng": 113.530106
        },
        "ad_info": {
            "adcode": 420981,
            "province": "湖北省",
            "city": "孝感市",
            "district": "应城市"
        }
    },
    {
        "id": "11073759223622678974",
        "title": "公共厕所",
        "address": "湖北省孝感市安陆市凤凰路与汉丹路交叉口西南方向131米左右",
        "tel": "",
        "category": "基础设施:公共设施:公共厕所",
        "type": 0,
        "location": {
            "lat": 31.25215,
            "lng": 113.689479
        },
        "ad_info": {
            "adcode": 420982,
            "province": "湖北省",
            "city": "孝感市",
            "district": "安陆市"
        }
    },
    {
        "id": "17344655460137228073",
        "title": "公共厕所",
        "address": "湖北省孝感市孝昌县利民路与北京路交叉口正北方向124米左右",
        "tel": "",
        "category": "基础设施:公共设施:公共厕所",
        "type": 0,
        "location": {
            "lat": 31.262262,
            "lng": 113.98447
        },
        "ad_info": {
            "adcode": 420921,
            "province": "湖北省",
            "city": "孝感市",
            "district": "孝昌县"
        }
    },
    {
        "id": "14611675176644647837",
        "title": "交通公共厕所",
        "address": "湖北省孝感市安陆市安广线与镇中后街交叉口正南方向158米左右",
        "tel": "",
        "category": "基础设施:公共设施:公共厕所",
        "type": 0,
        "location": {
            "lat": 31.405487,
            "lng": 113.854236
        },
        "ad_info": {
            "adcode": 420982,
            "province": "湖北省",
            "city": "孝感市",
            "district": "安陆市"
        }
    },
    {
        "id": "15694544834109034462",
        "title": "三里服务器区第一公共厕所",
        "address": "湖北省孝感市大悟县三里停车区与G4京港澳高速交叉口西南200米",
        "tel": "",
        "category": "基础设施:公共设施:公共厕所",
        "type": 0,
        "location": {
            "lat": 31.775822,
            "lng": 114.211685
        },
        "ad_info": {
            "adcode": 420922,
            "province": "湖北省",
            "city": "孝感市",
            "district": "大悟县"
        }
    },
    {
        "id": "2180418758148398887",
        "title": "公共厕所",
        "address": "湖北省孝感市孝昌县陆冲金朝超市西侧",
        "tel": "",
        "category": "基础设施:公共设施:公共厕所",
        "type": 0,
        "location": {
            "lat": 31.308904,
            "lng": 114.178245
        },
        "ad_info": {
            "adcode": 420921,
            "province": "湖北省",
            "city": "孝感市",
            "district": "孝昌县"
        }
    },
    {
        "id": "3774320602462914611",
        "title": "公共厕所",
        "address": "湖北省孝感市应城市肖湾路与长荆大道交叉口正南方向1049米左右",
        "tel": "",
        "category": "基础设施:公共设施:公共厕所",
        "type": 0,
        "location": {
            "lat": 30.914422,
            "lng": 113.555179
        },
        "ad_info": {
            "adcode": 420981,
            "province": "湖北省",
            "city": "孝感市",
            "district": "应城市"
        }
    },
    {
        "id": "8102512008758046983",
        "title": "公共厕所",
        "address": "湖北省孝感市孝南区G107与G316交叉口正北方向236米左右",
        "tel": "",
        "category": "基础设施:公共设施:公共厕所",
        "type": 0,
        "location": {
            "lat": 30.956618,
            "lng": 113.950997
        },
        "ad_info": {
            "adcode": 420902,
            "province": "湖北省",
            "city": "孝感市",
            "district": "孝南区"
        }
    },
    {
        "id": "14104173552704239970",
        "title": "公共厕所",
        "address": "湖北省孝感市孝南区罗陂路",
        "tel": "",
        "category": "基础设施:公共设施:公共厕所",
        "type": 0,
        "location": {
            "lat": 30.984793,
            "lng": 113.982082
        },
        "ad_info": {
            "adcode": 420902,
            "province": "湖北省",
            "city": "孝感市",
            "district": "孝南区"
        }
    },
    {
        "id": "12802481401675737337",
        "title": "公共厕所",
        "address": "湖北省孝感市孝昌县南凤路与昌盛街交叉口正南方向90米左右",
        "tel": "",
        "category": "基础设施:公共设施:公共厕所",
        "type": 0,
        "location": {
            "lat": 31.317179,
            "lng": 113.98323
        },
        "ad_info": {
            "adcode": 420921,
            "province": "湖北省",
            "city": "孝感市",
            "district": "孝昌县"
        }
    },
    {
        "id": "16747516858717307667",
        "title": "公共厕所",
        "address": "湖北省孝感市应城市S212与应云线交叉口正西方向112米左右",
        "tel": "",
        "category": "基础设施:公共设施:公共厕所",
        "type": 0,
        "location": {
            "lat": 30.963834,
            "lng": 113.581622
        },
        "ad_info": {
            "adcode": 420981,
            "province": "湖北省",
            "city": "孝感市",
            "district": "应城市"
        }
    },
    {
        "id": "10216582035841934770",
        "title": "公共厕所",
        "address": "湖北省孝感市孝南区城南大道与福龙路交叉口正北方向46米左右",
        "tel": "",
        "category": "基础设施:公共设施:公共厕所",
        "type": 0,
        "location": {
            "lat": 30.881142,
            "lng": 113.962398
        },
        "ad_info": {
            "adcode": 420902,
            "province": "湖北省",
            "city": "孝感市",
            "district": "孝南区"
        }
    },
    {
        "id": "12966179650971048312",
        "title": "公共厕所",
        "address": "湖北省孝感市云梦县G347与丘湖路交叉口东南方向53米左右",
        "tel": "",
        "category": "基础设施:公共设施:公共厕所",
        "type": 0,
        "location": {
            "lat": 30.838902,
            "lng": 113.843692
        },
        "ad_info": {
            "adcode": 420923,
            "province": "湖北省",
            "city": "孝感市",
            "district": "云梦县"
        }
    },
    {
        "id": "9306223145606182464",
        "title": "公共厕所",
        "address": "湖北省孝感市孝昌县青霞189超市西侧220米",
        "tel": "",
        "category": "基础设施:公共设施:公共厕所",
        "type": 0,
        "location": {
            "lat": 31.313297,
            "lng": 114.043959
        },
        "ad_info": {
            "adcode": 420921,
            "province": "湖北省",
            "city": "孝感市",
            "district": "孝昌县"
        }
    },
    {
        "id": "12618360589841356398",
        "title": "公共厕所",
        "address": "湖北省孝感市孝南区蔡陡线",
        "tel": "",
        "category": "基础设施:公共设施:公共厕所",
        "type": 0,
        "location": {
            "lat": 31.009649,
            "lng": 113.871723
        },
        "ad_info": {
            "adcode": 420902,
            "province": "湖北省",
            "city": "孝感市",
            "district": "孝南区"
        }
    },
    {
        "id": "9816930443814453490",
        "title": "公共厕所",
        "address": "湖北省孝感市孝南区严桥市场东",
        "tel": "",
        "category": "基础设施:公共设施:公共厕所",
        "type": 0,
        "location": {
            "lat": 30.934224,
            "lng": 113.942709
        },
        "ad_info": {
            "adcode": 420902,
            "province": "湖北省",
            "city": "孝感市",
            "district": "孝南区"
        }
    },
    {
        "id": "5528984692330506406",
        "title": "三里停车区公共厕所",
        "address": "湖北省孝感市大悟县三里停车区西50米",
        "tel": "",
        "category": "基础设施:公共设施:公共厕所",
        "type": 0,
        "location": {
            "lat": 31.775268,
            "lng": 114.211541
        },
        "ad_info": {
            "adcode": 420922,
            "province": "湖北省",
            "city": "孝感市",
            "district": "大悟县"
        }
    },
    {
        "id": "14022478589324782399",
        "title": "公共厕所",
        "address": "湖北省孝感市孝南区",
        "tel": "",
        "category": "基础设施:公共设施:公共厕所",
        "type": 0,
        "location": {
            "lat": 30.981028,
            "lng": 114.145956
        },
        "ad_info": {
            "adcode": 420902,
            "province": "湖北省",
            "city": "孝感市",
            "district": "孝南区"
        }
    },
    {
        "id": "8254614015704625647",
        "title": "公共厕所",
        "address": "湖北省孝感市安陆市棠棣镇金泉村安陆西站站前广场(西北角)",
        "tel": "",
        "category": "基础设施:公共设施:公共厕所",
        "type": 0,
        "location": {
            "lat": 31.255287,
            "lng": 113.653683
        },
        "ad_info": {
            "adcode": 420982,
            "province": "湖北省",
            "city": "孝感市",
            "district": "安陆市"
        }
    },
    {
        "id": "16235114529510796792",
        "title": "交通厕所",
        "address": "湖北省孝感市云梦县沙正街与沙隔线交叉口正西方向274米",
        "tel": "",
        "category": "基础设施:公共设施:公共厕所",
        "type": 0,
        "location": {
            "lat": 30.930636,
            "lng": 113.83012
        },
        "ad_info": {
            "adcode": 420923,
            "province": "湖北省",
            "city": "孝感市",
            "district": "云梦县"
        }
    },
    {
        "id": "12853506169257844674",
        "title": "应城停车区公共厕所",
        "address": "湖北省孝感市应城市应城停车区南50米",
        "tel": "",
        "category": "基础设施:公共设施:公共厕所",
        "type": 0,
        "location": {
            "lat": 30.857151,
            "lng": 113.530106
        },
        "ad_info": {
            "adcode": 420981,
            "province": "湖北省",
            "city": "孝感市",
            "district": "应城市"
        }
    },
    {
        "id": "11073759223622678974",
        "title": "公共厕所",
        "address": "湖北省孝感市安陆市凤凰路与汉丹路交叉口西南方向131米左右",
        "tel": "",
        "category": "基础设施:公共设施:公共厕所",
        "type": 0,
        "location": {
            "lat": 31.25215,
            "lng": 113.689479
        },
        "ad_info": {
            "adcode": 420982,
            "province": "湖北省",
            "city": "孝感市",
            "district": "安陆市"
        }
    },
    {
        "id": "17344655460137228073",
        "title": "公共厕所",
        "address": "湖北省孝感市孝昌县利民路与北京路交叉口正北方向124米左右",
        "tel": "",
        "category": "基础设施:公共设施:公共厕所",
        "type": 0,
        "location": {
            "lat": 31.262262,
            "lng": 113.98447
        },
        "ad_info": {
            "adcode": 420921,
            "province": "湖北省",
            "city": "孝感市",
            "district": "孝昌县"
        }
    },
    {
        "id": "14611675176644647837",
        "title": "交通公共厕所",
        "address": "湖北省孝感市安陆市安广线与镇中后街交叉口正南方向158米左右",
        "tel": "",
        "category": "基础设施:公共设施:公共厕所",
        "type": 0,
        "location": {
            "lat": 31.405487,
            "lng": 113.854236
        },
        "ad_info": {
            "adcode": 420982,
            "province": "湖北省",
            "city": "孝感市",
            "district": "安陆市"
        }
    },
    {
        "id": "15694544834109034462",
        "title": "三里服务器区第一公共厕所",
        "address": "湖北省孝感市大悟县三里停车区与G4京港澳高速交叉口西南200米",
        "tel": "",
        "category": "基础设施:公共设施:公共厕所",
        "type": 0,
        "location": {
            "lat": 31.775822,
            "lng": 114.211685
        },
        "ad_info": {
            "adcode": 420922,
            "province": "湖北省",
            "city": "孝感市",
            "district": "大悟县"
        }
    },
    {
        "id": "2180418758148398887",
        "title": "公共厕所",
        "address": "湖北省孝感市孝昌县陆冲金朝超市西侧",
        "tel": "",
        "category": "基础设施:公共设施:公共厕所",
        "type": 0,
        "location": {
            "lat": 31.308904,
            "lng": 114.178245
        },
        "ad_info": {
            "adcode": 420921,
            "province": "湖北省",
            "city": "孝感市",
            "district": "孝昌县"
        }
    },
    {
        "id": "3774320602462914611",
        "title": "公共厕所",
        "address": "湖北省孝感市应城市肖湾路与长荆大道交叉口正南方向1049米左右",
        "tel": "",
        "category": "基础设施:公共设施:公共厕所",
        "type": 0,
        "location": {
            "lat": 30.914422,
            "lng": 113.555179
        },
        "ad_info": {
            "adcode": 420981,
            "province": "湖北省",
            "city": "孝感市",
            "district": "应城市"
        }
    },
    {
        "id": "8102512008758046983",
        "title": "公共厕所",
        "address": "湖北省孝感市孝南区G107与G316交叉口正北方向236米左右",
        "tel": "",
        "category": "基础设施:公共设施:公共厕所",
        "type": 0,
        "location": {
            "lat": 30.956618,
            "lng": 113.950997
        },
        "ad_info": {
            "adcode": 420902,
            "province": "湖北省",
            "city": "孝感市",
            "district": "孝南区"
        }
    },
    {
        "id": "14104173552704239970",
        "title": "公共厕所",
        "address": "湖北省孝感市孝南区罗陂路",
        "tel": "",
        "category": "基础设施:公共设施:公共厕所",
        "type": 0,
        "location": {
            "lat": 30.984793,
            "lng": 113.982082
        },
        "ad_info": {
            "adcode": 420902,
            "province": "湖北省",
            "city": "孝感市",
            "district": "孝南区"
        }
    },
    {
        "id": "12802481401675737337",
        "title": "公共厕所",
        "address": "湖北省孝感市孝昌县南凤路与昌盛街交叉口正南方向90米左右",
        "tel": "",
        "category": "基础设施:公共设施:公共厕所",
        "type": 0,
        "location": {
            "lat": 31.317179,
            "lng": 113.98323
        },
        "ad_info": {
            "adcode": 420921,
            "province": "湖北省",
            "city": "孝感市",
            "district": "孝昌县"
        }
    },
    {
        "id": "16747516858717307667",
        "title": "公共厕所",
        "address": "湖北省孝感市应城市S212与应云线交叉口正西方向112米左右",
        "tel": "",
        "category": "基础设施:公共设施:公共厕所",
        "type": 0,
        "location": {
            "lat": 30.963834,
            "lng": 113.581622
        },
        "ad_info": {
            "adcode": 420981,
            "province": "湖北省",
            "city": "孝感市",
            "district": "应城市"
        }
    },
    {
        "id": "10216582035841934770",
        "title": "公共厕所",
        "address": "湖北省孝感市孝南区城南大道与福龙路交叉口正北方向46米左右",
        "tel": "",
        "category": "基础设施:公共设施:公共厕所",
        "type": 0,
        "location": {
            "lat": 30.881142,
            "lng": 113.962398
        },
        "ad_info": {
            "adcode": 420902,
            "province": "湖北省",
            "city": "孝感市",
            "district": "孝南区"
        }
    },
    {
        "id": "12966179650971048312",
        "title": "公共厕所",
        "address": "湖北省孝感市云梦县G347与丘湖路交叉口东南方向53米左右",
        "tel": "",
        "category": "基础设施:公共设施:公共厕所",
        "type": 0,
        "location": {
            "lat": 30.838902,
            "lng": 113.843692
        },
        "ad_info": {
            "adcode": 420923,
            "province": "湖北省",
            "city": "孝感市",
            "district": "云梦县"
        }
    },
    {
        "id": "9306223145606182464",
        "title": "公共厕所",
        "address": "湖北省孝感市孝昌县青霞189超市西侧220米",
        "tel": "",
        "category": "基础设施:公共设施:公共厕所",
        "type": 0,
        "location": {
            "lat": 31.313297,
            "lng": 114.043959
        },
        "ad_info": {
            "adcode": 420921,
            "province": "湖北省",
            "city": "孝感市",
            "district": "孝昌县"
        }
    },
    {
        "id": "12618360589841356398",
        "title": "公共厕所",
        "address": "湖北省孝感市孝南区蔡陡线",
        "tel": "",
        "category": "基础设施:公共设施:公共厕所",
        "type": 0,
        "location": {
            "lat": 31.009649,
            "lng": 113.871723
        },
        "ad_info": {
            "adcode": 420902,
            "province": "湖北省",
            "city": "孝感市",
            "district": "孝南区"
        }
    },
    {
        "id": "9816930443814453490",
        "title": "公共厕所",
        "address": "湖北省孝感市孝南区严桥市场东",
        "tel": "",
        "category": "基础设施:公共设施:公共厕所",
        "type": 0,
        "location": {
            "lat": 30.934224,
            "lng": 113.942709
        },
        "ad_info": {
            "adcode": 420902,
            "province": "湖北省",
            "city": "孝感市",
            "district": "孝南区"
        }
    },
    {
        "id": "5528984692330506406",
        "title": "三里停车区公共厕所",
        "address": "湖北省孝感市大悟县三里停车区西50米",
        "tel": "",
        "category": "基础设施:公共设施:公共厕所",
        "type": 0,
        "location": {
            "lat": 31.775268,
            "lng": 114.211541
        },
        "ad_info": {
            "adcode": 420922,
            "province": "湖北省",
            "city": "孝感市",
            "district": "大悟县"
        }
    },
    {
        "id": "14022478589324782399",
        "title": "公共厕所",
        "address": "湖北省孝感市孝南区",
        "tel": "",
        "category": "基础设施:公共设施:公共厕所",
        "type": 0,
        "location": {
            "lat": 30.981028,
            "lng": 114.145956
        },
        "ad_info": {
            "adcode": 420902,
            "province": "湖北省",
            "city": "孝感市",
            "district": "孝南区"
        }
    },
    {
        "id": "8254614015704625647",
        "title": "公共厕所",
        "address": "湖北省孝感市安陆市棠棣镇金泉村安陆西站站前广场(西北角)",
        "tel": "",
        "category": "基础设施:公共设施:公共厕所",
        "type": 0,
        "location": {
            "lat": 31.255287,
            "lng": 113.653683
        },
        "ad_info": {
            "adcode": 420982,
            "province": "湖北省",
            "city": "孝感市",
            "district": "安陆市"
        }
    },
    {
        "id": "16235114529510796792",
        "title": "交通厕所",
        "address": "湖北省孝感市云梦县沙正街与沙隔线交叉口正西方向274米",
        "tel": "",
        "category": "基础设施:公共设施:公共厕所",
        "type": 0,
        "location": {
            "lat": 30.930636,
            "lng": 113.83012
        },
        "ad_info": {
            "adcode": 420923,
            "province": "湖北省",
            "city": "孝感市",
            "district": "云梦县"
        }
    },
    {
        "id": "12853506169257844674",
        "title": "应城停车区公共厕所",
        "address": "湖北省孝感市应城市应城停车区南50米",
        "tel": "",
        "category": "基础设施:公共设施:公共厕所",
        "type": 0,
        "location": {
            "lat": 30.857151,
            "lng": 113.530106
        },
        "ad_info": {
            "adcode": 420981,
            "province": "湖北省",
            "city": "孝感市",
            "district": "应城市"
        }
    },
    {
        "id": "11073759223622678974",
        "title": "公共厕所",
        "address": "湖北省孝感市安陆市凤凰路与汉丹路交叉口西南方向131米左右",
        "tel": "",
        "category": "基础设施:公共设施:公共厕所",
        "type": 0,
        "location": {
            "lat": 31.25215,
            "lng": 113.689479
        },
        "ad_info": {
            "adcode": 420982,
            "province": "湖北省",
            "city": "孝感市",
            "district": "安陆市"
        }
    },
    {
        "id": "17344655460137228073",
        "title": "公共厕所",
        "address": "湖北省孝感市孝昌县利民路与北京路交叉口正北方向124米左右",
        "tel": "",
        "category": "基础设施:公共设施:公共厕所",
        "type": 0,
        "location": {
            "lat": 31.262262,
            "lng": 113.98447
        },
        "ad_info": {
            "adcode": 420921,
            "province": "湖北省",
            "city": "孝感市",
            "district": "孝昌县"
        }
    },
    {
        "id": "14611675176644647837",
        "title": "交通公共厕所",
        "address": "湖北省孝感市安陆市安广线与镇中后街交叉口正南方向158米左右",
        "tel": "",
        "category": "基础设施:公共设施:公共厕所",
        "type": 0,
        "location": {
            "lat": 31.405487,
            "lng": 113.854236
        },
        "ad_info": {
            "adcode": 420982,
            "province": "湖北省",
            "city": "孝感市",
            "district": "安陆市"
        }
    },
    {
        "id": "15694544834109034462",
        "title": "三里服务器区第一公共厕所",
        "address": "湖北省孝感市大悟县三里停车区与G4京港澳高速交叉口西南200米",
        "tel": "",
        "category": "基础设施:公共设施:公共厕所",
        "type": 0,
        "location": {
            "lat": 31.775822,
            "lng": 114.211685
        },
        "ad_info": {
            "adcode": 420922,
            "province": "湖北省",
            "city": "孝感市",
            "district": "大悟县"
        }
    },
    {
        "id": "2180418758148398887",
        "title": "公共厕所",
        "address": "湖北省孝感市孝昌县陆冲金朝超市西侧",
        "tel": "",
        "category": "基础设施:公共设施:公共厕所",
        "type": 0,
        "location": {
            "lat": 31.308904,
            "lng": 114.178245
        },
        "ad_info": {
            "adcode": 420921,
            "province": "湖北省",
            "city": "孝感市",
            "district": "孝昌县"
        }
    },
    {
        "id": "3774320602462914611",
        "title": "公共厕所",
        "address": "湖北省孝感市应城市肖湾路与长荆大道交叉口正南方向1049米左右",
        "tel": "",
        "category": "基础设施:公共设施:公共厕所",
        "type": 0,
        "location": {
            "lat": 30.914422,
            "lng": 113.555179
        },
        "ad_info": {
            "adcode": 420981,
            "province": "湖北省",
            "city": "孝感市",
            "district": "应城市"
        }
    },
    {
        "id": "8102512008758046983",
        "title": "公共厕所",
        "address": "湖北省孝感市孝南区G107与G316交叉口正北方向236米左右",
        "tel": "",
        "category": "基础设施:公共设施:公共厕所",
        "type": 0,
        "location": {
            "lat": 30.956618,
            "lng": 113.950997
        },
        "ad_info": {
            "adcode": 420902,
            "province": "湖北省",
            "city": "孝感市",
            "district": "孝南区"
        }
    },
    {
        "id": "14104173552704239970",
        "title": "公共厕所",
        "address": "湖北省孝感市孝南区罗陂路",
        "tel": "",
        "category": "基础设施:公共设施:公共厕所",
        "type": 0,
        "location": {
            "lat": 30.984793,
            "lng": 113.982082
        },
        "ad_info": {
            "adcode": 420902,
            "province": "湖北省",
            "city": "孝感市",
            "district": "孝南区"
        }
    },
    {
        "id": "12802481401675737337",
        "title": "公共厕所",
        "address": "湖北省孝感市孝昌县南凤路与昌盛街交叉口正南方向90米左右",
        "tel": "",
        "category": "基础设施:公共设施:公共厕所",
        "type": 0,
        "location": {
            "lat": 31.317179,
            "lng": 113.98323
        },
        "ad_info": {
            "adcode": 420921,
            "province": "湖北省",
            "city": "孝感市",
            "district": "孝昌县"
        }
    },
    {
        "id": "16747516858717307667",
        "title": "公共厕所",
        "address": "湖北省孝感市应城市S212与应云线交叉口正西方向112米左右",
        "tel": "",
        "category": "基础设施:公共设施:公共厕所",
        "type": 0,
        "location": {
            "lat": 30.963834,
            "lng": 113.581622
        },
        "ad_info": {
            "adcode": 420981,
            "province": "湖北省",
            "city": "孝感市",
            "district": "应城市"
        }
    },
    {
        "id": "10216582035841934770",
        "title": "公共厕所",
        "address": "湖北省孝感市孝南区城南大道与福龙路交叉口正北方向46米左右",
        "tel": "",
        "category": "基础设施:公共设施:公共厕所",
        "type": 0,
        "location": {
            "lat": 30.881142,
            "lng": 113.962398
        },
        "ad_info": {
            "adcode": 420902,
            "province": "湖北省",
            "city": "孝感市",
            "district": "孝南区"
        }
    },
    {
        "id": "12966179650971048312",
        "title": "公共厕所",
        "address": "湖北省孝感市云梦县G347与丘湖路交叉口东南方向53米左右",
        "tel": "",
        "category": "基础设施:公共设施:公共厕所",
        "type": 0,
        "location": {
            "lat": 30.838902,
            "lng": 113.843692
        },
        "ad_info": {
            "adcode": 420923,
            "province": "湖北省",
            "city": "孝感市",
            "district": "云梦县"
        }
    },
    {
        "id": "9306223145606182464",
        "title": "公共厕所",
        "address": "湖北省孝感市孝昌县青霞189超市西侧220米",
        "tel": "",
        "category": "基础设施:公共设施:公共厕所",
        "type": 0,
        "location": {
            "lat": 31.313297,
            "lng": 114.043959
        },
        "ad_info": {
            "adcode": 420921,
            "province": "湖北省",
            "city": "孝感市",
            "district": "孝昌县"
        }
    },
    {
        "id": "12618360589841356398",
        "title": "公共厕所",
        "address": "湖北省孝感市孝南区蔡陡线",
        "tel": "",
        "category": "基础设施:公共设施:公共厕所",
        "type": 0,
        "location": {
            "lat": 31.009649,
            "lng": 113.871723
        },
        "ad_info": {
            "adcode": 420902,
            "province": "湖北省",
            "city": "孝感市",
            "district": "孝南区"
        }
    },
    {
        "id": "9816930443814453490",
        "title": "公共厕所",
        "address": "湖北省孝感市孝南区严桥市场东",
        "tel": "",
        "category": "基础设施:公共设施:公共厕所",
        "type": 0,
        "location": {
            "lat": 30.934224,
            "lng": 113.942709
        },
        "ad_info": {
            "adcode": 420902,
            "province": "湖北省",
            "city": "孝感市",
            "district": "孝南区"
        }
    },
    {
        "id": "5528984692330506406",
        "title": "三里停车区公共厕所",
        "address": "湖北省孝感市大悟县三里停车区西50米",
        "tel": "",
        "category": "基础设施:公共设施:公共厕所",
        "type": 0,
        "location": {
            "lat": 31.775268,
            "lng": 114.211541
        },
        "ad_info": {
            "adcode": 420922,
            "province": "湖北省",
            "city": "孝感市",
            "district": "大悟县"
        }
    },
    {
        "id": "14022478589324782399",
        "title": "公共厕所",
        "address": "湖北省孝感市孝南区",
        "tel": "",
        "category": "基础设施:公共设施:公共厕所",
        "type": 0,
        "location": {
            "lat": 30.981028,
            "lng": 114.145956
        },
        "ad_info": {
            "adcode": 420902,
            "province": "湖北省",
            "city": "孝感市",
            "district": "孝南区"
        }
    },
    {
        "id": "8254614015704625647",
        "title": "公共厕所",
        "address": "湖北省孝感市安陆市棠棣镇金泉村安陆西站站前广场(西北角)",
        "tel": "",
        "category": "基础设施:公共设施:公共厕所",
        "type": 0,
        "location": {
            "lat": 31.255287,
            "lng": 113.653683
        },
        "ad_info": {
            "adcode": 420982,
            "province": "湖北省",
            "city": "孝感市",
            "district": "安陆市"
        }
    },
    {
        "id": "16235114529510796792",
        "title": "交通厕所",
        "address": "湖北省孝感市云梦县沙正街与沙隔线交叉口正西方向274米",
        "tel": "",
        "category": "基础设施:公共设施:公共厕所",
        "type": 0,
        "location": {
            "lat": 30.930636,
            "lng": 113.83012
        },
        "ad_info": {
            "adcode": 420923,
            "province": "湖北省",
            "city": "孝感市",
            "district": "云梦县"
        }
    },
    {
        "id": "12853506169257844674",
        "title": "应城停车区公共厕所",
        "address": "湖北省孝感市应城市应城停车区南50米",
        "tel": "",
        "category": "基础设施:公共设施:公共厕所",
        "type": 0,
        "location": {
            "lat": 30.857151,
            "lng": 113.530106
        },
        "ad_info": {
            "adcode": 420981,
            "province": "湖北省",
            "city": "孝感市",
            "district": "应城市"
        }
    },
    {
        "id": "11073759223622678974",
        "title": "公共厕所",
        "address": "湖北省孝感市安陆市凤凰路与汉丹路交叉口西南方向131米左右",
        "tel": "",
        "category": "基础设施:公共设施:公共厕所",
        "type": 0,
        "location": {
            "lat": 31.25215,
            "lng": 113.689479
        },
        "ad_info": {
            "adcode": 420982,
            "province": "湖北省",
            "city": "孝感市",
            "district": "安陆市"
        }
    },
    {
        "id": "17344655460137228073",
        "title": "公共厕所",
        "address": "湖北省孝感市孝昌县利民路与北京路交叉口正北方向124米左右",
        "tel": "",
        "category": "基础设施:公共设施:公共厕所",
        "type": 0,
        "location": {
            "lat": 31.262262,
            "lng": 113.98447
        },
        "ad_info": {
            "adcode": 420921,
            "province": "湖北省",
            "city": "孝感市",
            "district": "孝昌县"
        }
    },
    {
        "id": "14611675176644647837",
        "title": "交通公共厕所",
        "address": "湖北省孝感市安陆市安广线与镇中后街交叉口正南方向158米左右",
        "tel": "",
        "category": "基础设施:公共设施:公共厕所",
        "type": 0,
        "location": {
            "lat": 31.405487,
            "lng": 113.854236
        },
        "ad_info": {
            "adcode": 420982,
            "province": "湖北省",
            "city": "孝感市",
            "district": "安陆市"
        }
    },
    {
        "id": "15694544834109034462",
        "title": "三里服务器区第一公共厕所",
        "address": "湖北省孝感市大悟县三里停车区与G4京港澳高速交叉口西南200米",
        "tel": "",
        "category": "基础设施:公共设施:公共厕所",
        "type": 0,
        "location": {
            "lat": 31.775822,
            "lng": 114.211685
        },
        "ad_info": {
            "adcode": 420922,
            "province": "湖北省",
            "city": "孝感市",
            "district": "大悟县"
        }
    },
    {
        "id": "2180418758148398887",
        "title": "公共厕所",
        "address": "湖北省孝感市孝昌县陆冲金朝超市西侧",
        "tel": "",
        "category": "基础设施:公共设施:公共厕所",
        "type": 0,
        "location": {
            "lat": 31.308904,
            "lng": 114.178245
        },
        "ad_info": {
            "adcode": 420921,
            "province": "湖北省",
            "city": "孝感市",
            "district": "孝昌县"
        }
    },
    {
        "id": "3774320602462914611",
        "title": "公共厕所",
        "address": "湖北省孝感市应城市肖湾路与长荆大道交叉口正南方向1049米左右",
        "tel": "",
        "category": "基础设施:公共设施:公共厕所",
        "type": 0,
        "location": {
            "lat": 30.914422,
            "lng": 113.555179
        },
        "ad_info": {
            "adcode": 420981,
            "province": "湖北省",
            "city": "孝感市",
            "district": "应城市"
        }
    },
    {
        "id": "8102512008758046983",
        "title": "公共厕所",
        "address": "湖北省孝感市孝南区G107与G316交叉口正北方向236米左右",
        "tel": "",
        "category": "基础设施:公共设施:公共厕所",
        "type": 0,
        "location": {
            "lat": 30.956618,
            "lng": 113.950997
        },
        "ad_info": {
            "adcode": 420902,
            "province": "湖北省",
            "city": "孝感市",
            "district": "孝南区"
        }
    },
    {
        "id": "14104173552704239970",
        "title": "公共厕所",
        "address": "湖北省孝感市孝南区罗陂路",
        "tel": "",
        "category": "基础设施:公共设施:公共厕所",
        "type": 0,
        "location": {
            "lat": 30.984793,
            "lng": 113.982082
        },
        "ad_info": {
            "adcode": 420902,
            "province": "湖北省",
            "city": "孝感市",
            "district": "孝南区"
        }
    },
    {
        "id": "12802481401675737337",
        "title": "公共厕所",
        "address": "湖北省孝感市孝昌县南凤路与昌盛街交叉口正南方向90米左右",
        "tel": "",
        "category": "基础设施:公共设施:公共厕所",
        "type": 0,
        "location": {
            "lat": 31.317179,
            "lng": 113.98323
        },
        "ad_info": {
            "adcode": 420921,
            "province": "湖北省",
            "city": "孝感市",
            "district": "孝昌县"
        }
    },
    {
        "id": "16747516858717307667",
        "title": "公共厕所",
        "address": "湖北省孝感市应城市S212与应云线交叉口正西方向112米左右",
        "tel": "",
        "category": "基础设施:公共设施:公共厕所",
        "type": 0,
        "location": {
            "lat": 30.963834,
            "lng": 113.581622
        },
        "ad_info": {
            "adcode": 420981,
            "province": "湖北省",
            "city": "孝感市",
            "district": "应城市"
        }
    },
    {
        "id": "10216582035841934770",
        "title": "公共厕所",
        "address": "湖北省孝感市孝南区城南大道与福龙路交叉口正北方向46米左右",
        "tel": "",
        "category": "基础设施:公共设施:公共厕所",
        "type": 0,
        "location": {
            "lat": 30.881142,
            "lng": 113.962398
        },
        "ad_info": {
            "adcode": 420902,
            "province": "湖北省",
            "city": "孝感市",
            "district": "孝南区"
        }
    },
    {
        "id": "12966179650971048312",
        "title": "公共厕所",
        "address": "湖北省孝感市云梦县G347与丘湖路交叉口东南方向53米左右",
        "tel": "",
        "category": "基础设施:公共设施:公共厕所",
        "type": 0,
        "location": {
            "lat": 30.838902,
            "lng": 113.843692
        },
        "ad_info": {
            "adcode": 420923,
            "province": "湖北省",
            "city": "孝感市",
            "district": "云梦县"
        }
    },
    {
        "id": "9306223145606182464",
        "title": "公共厕所",
        "address": "湖北省孝感市孝昌县青霞189超市西侧220米",
        "tel": "",
        "category": "基础设施:公共设施:公共厕所",
        "type": 0,
        "location": {
            "lat": 31.313297,
            "lng": 114.043959
        },
        "ad_info": {
            "adcode": 420921,
            "province": "湖北省",
            "city": "孝感市",
            "district": "孝昌县"
        }
    },
    {
        "id": "12618360589841356398",
        "title": "公共厕所",
        "address": "湖北省孝感市孝南区蔡陡线",
        "tel": "",
        "category": "基础设施:公共设施:公共厕所",
        "type": 0,
        "location": {
            "lat": 31.009649,
            "lng": 113.871723
        },
        "ad_info": {
            "adcode": 420902,
            "province": "湖北省",
            "city": "孝感市",
            "district": "孝南区"
        }
    },
    {
        "id": "9816930443814453490",
        "title": "公共厕所",
        "address": "湖北省孝感市孝南区严桥市场东",
        "tel": "",
        "category": "基础设施:公共设施:公共厕所",
        "type": 0,
        "location": {
            "lat": 30.934224,
            "lng": 113.942709
        },
        "ad_info": {
            "adcode": 420902,
            "province": "湖北省",
            "city": "孝感市",
            "district": "孝南区"
        }
    },
    {
        "id": "5528984692330506406",
        "title": "三里停车区公共厕所",
        "address": "湖北省孝感市大悟县三里停车区西50米",
        "tel": "",
        "category": "基础设施:公共设施:公共厕所",
        "type": 0,
        "location": {
            "lat": 31.775268,
            "lng": 114.211541
        },
        "ad_info": {
            "adcode": 420922,
            "province": "湖北省",
            "city": "孝感市",
            "district": "大悟县"
        }
    },
    {
        "id": "14022478589324782399",
        "title": "公共厕所",
        "address": "湖北省孝感市孝南区",
        "tel": "",
        "category": "基础设施:公共设施:公共厕所",
        "type": 0,
        "location": {
            "lat": 30.981028,
            "lng": 114.145956
        },
        "ad_info": {
            "adcode": 420902,
            "province": "湖北省",
            "city": "孝感市",
            "district": "孝南区"
        }
    },
    {
        "id": "8254614015704625647",
        "title": "公共厕所",
        "address": "湖北省孝感市安陆市棠棣镇金泉村安陆西站站前广场(西北角)",
        "tel": "",
        "category": "基础设施:公共设施:公共厕所",
        "type": 0,
        "location": {
            "lat": 31.255287,
            "lng": 113.653683
        },
        "ad_info": {
            "adcode": 420982,
            "province": "湖北省",
            "city": "孝感市",
            "district": "安陆市"
        }
    },
    {
        "id": "16235114529510796792",
        "title": "交通厕所",
        "address": "湖北省孝感市云梦县沙正街与沙隔线交叉口正西方向274米",
        "tel": "",
        "category": "基础设施:公共设施:公共厕所",
        "type": 0,
        "location": {
            "lat": 30.930636,
            "lng": 113.83012
        },
        "ad_info": {
            "adcode": 420923,
            "province": "湖北省",
            "city": "孝感市",
            "district": "云梦县"
        }
    },
    {
        "id": "12853506169257844674",
        "title": "应城停车区公共厕所",
        "address": "湖北省孝感市应城市应城停车区南50米",
        "tel": "",
        "category": "基础设施:公共设施:公共厕所",
        "type": 0,
        "location": {
            "lat": 30.857151,
            "lng": 113.530106
        },
        "ad_info": {
            "adcode": 420981,
            "province": "湖北省",
            "city": "孝感市",
            "district": "应城市"
        }
    },
    {
        "id": "11073759223622678974",
        "title": "公共厕所",
        "address": "湖北省孝感市安陆市凤凰路与汉丹路交叉口西南方向131米左右",
        "tel": "",
        "category": "基础设施:公共设施:公共厕所",
        "type": 0,
        "location": {
            "lat": 31.25215,
            "lng": 113.689479
        },
        "ad_info": {
            "adcode": 420982,
            "province": "湖北省",
            "city": "孝感市",
            "district": "安陆市"
        }
    },
    {
        "id": "17344655460137228073",
        "title": "公共厕所",
        "address": "湖北省孝感市孝昌县利民路与北京路交叉口正北方向124米左右",
        "tel": "",
        "category": "基础设施:公共设施:公共厕所",
        "type": 0,
        "location": {
            "lat": 31.262262,
            "lng": 113.98447
        },
        "ad_info": {
            "adcode": 420921,
            "province": "湖北省",
            "city": "孝感市",
            "district": "孝昌县"
        }
    },
    {
        "id": "14611675176644647837",
        "title": "交通公共厕所",
        "address": "湖北省孝感市安陆市安广线与镇中后街交叉口正南方向158米左右",
        "tel": "",
        "category": "基础设施:公共设施:公共厕所",
        "type": 0,
        "location": {
            "lat": 31.405487,
            "lng": 113.854236
        },
        "ad_info": {
            "adcode": 420982,
            "province": "湖北省",
            "city": "孝感市",
            "district": "安陆市"
        }
    },
    {
        "id": "15694544834109034462",
        "title": "三里服务器区第一公共厕所",
        "address": "湖北省孝感市大悟县三里停车区与G4京港澳高速交叉口西南200米",
        "tel": "",
        "category": "基础设施:公共设施:公共厕所",
        "type": 0,
        "location": {
            "lat": 31.775822,
            "lng": 114.211685
        },
        "ad_info": {
            "adcode": 420922,
            "province": "湖北省",
            "city": "孝感市",
            "district": "大悟县"
        }
    },
    {
        "id": "2180418758148398887",
        "title": "公共厕所",
        "address": "湖北省孝感市孝昌县陆冲金朝超市西侧",
        "tel": "",
        "category": "基础设施:公共设施:公共厕所",
        "type": 0,
        "location": {
            "lat": 31.308904,
            "lng": 114.178245
        },
        "ad_info": {
            "adcode": 420921,
            "province": "湖北省",
            "city": "孝感市",
            "district": "孝昌县"
        }
    },
    {
        "id": "3774320602462914611",
        "title": "公共厕所",
        "address": "湖北省孝感市应城市肖湾路与长荆大道交叉口正南方向1049米左右",
        "tel": "",
        "category": "基础设施:公共设施:公共厕所",
        "type": 0,
        "location": {
            "lat": 30.914422,
            "lng": 113.555179
        },
        "ad_info": {
            "adcode": 420981,
            "province": "湖北省",
            "city": "孝感市",
            "district": "应城市"
        }
    },
    {
        "id": "8102512008758046983",
        "title": "公共厕所",
        "address": "湖北省孝感市孝南区G107与G316交叉口正北方向236米左右",
        "tel": "",
        "category": "基础设施:公共设施:公共厕所",
        "type": 0,
        "location": {
            "lat": 30.956618,
            "lng": 113.950997
        },
        "ad_info": {
            "adcode": 420902,
            "province": "湖北省",
            "city": "孝感市",
            "district": "孝南区"
        }
    },
    {
        "id": "14104173552704239970",
        "title": "公共厕所",
        "address": "湖北省孝感市孝南区罗陂路",
        "tel": "",
        "category": "基础设施:公共设施:公共厕所",
        "type": 0,
        "location": {
            "lat": 30.984793,
            "lng": 113.982082
        },
        "ad_info": {
            "adcode": 420902,
            "province": "湖北省",
            "city": "孝感市",
            "district": "孝南区"
        }
    },
    {
        "id": "12802481401675737337",
        "title": "公共厕所",
        "address": "湖北省孝感市孝昌县南凤路与昌盛街交叉口正南方向90米左右",
        "tel": "",
        "category": "基础设施:公共设施:公共厕所",
        "type": 0,
        "location": {
            "lat": 31.317179,
            "lng": 113.98323
        },
        "ad_info": {
            "adcode": 420921,
            "province": "湖北省",
            "city": "孝感市",
            "district": "孝昌县"
        }
    },
    {
        "id": "16747516858717307667",
        "title": "公共厕所",
        "address": "湖北省孝感市应城市S212与应云线交叉口正西方向112米左右",
        "tel": "",
        "category": "基础设施:公共设施:公共厕所",
        "type": 0,
        "location": {
            "lat": 30.963834,
            "lng": 113.581622
        },
        "ad_info": {
            "adcode": 420981,
            "province": "湖北省",
            "city": "孝感市",
            "district": "应城市"
        }
    },
    {
        "id": "10216582035841934770",
        "title": "公共厕所",
        "address": "湖北省孝感市孝南区城南大道与福龙路交叉口正北方向46米左右",
        "tel": "",
        "category": "基础设施:公共设施:公共厕所",
        "type": 0,
        "location": {
            "lat": 30.881142,
            "lng": 113.962398
        },
        "ad_info": {
            "adcode": 420902,
            "province": "湖北省",
            "city": "孝感市",
            "district": "孝南区"
        }
    },
    {
        "id": "12966179650971048312",
        "title": "公共厕所",
        "address": "湖北省孝感市云梦县G347与丘湖路交叉口东南方向53米左右",
        "tel": "",
        "category": "基础设施:公共设施:公共厕所",
        "type": 0,
        "location": {
            "lat": 30.838902,
            "lng": 113.843692
        },
        "ad_info": {
            "adcode": 420923,
            "province": "湖北省",
            "city": "孝感市",
            "district": "云梦县"
        }
    },
    {
        "id": "9306223145606182464",
        "title": "公共厕所",
        "address": "湖北省孝感市孝昌县青霞189超市西侧220米",
        "tel": "",
        "category": "基础设施:公共设施:公共厕所",
        "type": 0,
        "location": {
            "lat": 31.313297,
            "lng": 114.043959
        },
        "ad_info": {
            "adcode": 420921,
            "province": "湖北省",
            "city": "孝感市",
            "district": "孝昌县"
        }
    },
    {
        "id": "12618360589841356398",
        "title": "公共厕所",
        "address": "湖北省孝感市孝南区蔡陡线",
        "tel": "",
        "category": "基础设施:公共设施:公共厕所",
        "type": 0,
        "location": {
            "lat": 31.009649,
            "lng": 113.871723
        },
        "ad_info": {
            "adcode": 420902,
            "province": "湖北省",
            "city": "孝感市",
            "district": "孝南区"
        }
    },
    {
        "id": "9816930443814453490",
        "title": "公共厕所",
        "address": "湖北省孝感市孝南区严桥市场东",
        "tel": "",
        "category": "基础设施:公共设施:公共厕所",
        "type": 0,
        "location": {
            "lat": 30.934224,
            "lng": 113.942709
        },
        "ad_info": {
            "adcode": 420902,
            "province": "湖北省",
            "city": "孝感市",
            "district": "孝南区"
        }
    },
    {
        "id": "5528984692330506406",
        "title": "三里停车区公共厕所",
        "address": "湖北省孝感市大悟县三里停车区西50米",
        "tel": "",
        "category": "基础设施:公共设施:公共厕所",
        "type": 0,
        "location": {
            "lat": 31.775268,
            "lng": 114.211541
        },
        "ad_info": {
            "adcode": 420922,
            "province": "湖北省",
            "city": "孝感市",
            "district": "大悟县"
        }
    },
    {
        "id": "14022478589324782399",
        "title": "公共厕所",
        "address": "湖北省孝感市孝南区",
        "tel": "",
        "category": "基础设施:公共设施:公共厕所",
        "type": 0,
        "location": {
            "lat": 30.981028,
            "lng": 114.145956
        },
        "ad_info": {
            "adcode": 420902,
            "province": "湖北省",
            "city": "孝感市",
            "district": "孝南区"
        }
    },
    {
        "id": "8254614015704625647",
        "title": "公共厕所",
        "address": "湖北省孝感市安陆市棠棣镇金泉村安陆西站站前广场(西北角)",
        "tel": "",
        "category": "基础设施:公共设施:公共厕所",
        "type": 0,
        "location": {
            "lat": 31.255287,
            "lng": 113.653683
        },
        "ad_info": {
            "adcode": 420982,
            "province": "湖北省",
            "city": "孝感市",
            "district": "安陆市"
        }
    },
    {
        "id": "16235114529510796792",
        "title": "交通厕所",
        "address": "湖北省孝感市云梦县沙正街与沙隔线交叉口正西方向274米",
        "tel": "",
        "category": "基础设施:公共设施:公共厕所",
        "type": 0,
        "location": {
            "lat": 30.930636,
            "lng": 113.83012
        },
        "ad_info": {
            "adcode": 420923,
            "province": "湖北省",
            "city": "孝感市",
            "district": "云梦县"
        }
    },
    {
        "id": "12853506169257844674",
        "title": "应城停车区公共厕所",
        "address": "湖北省孝感市应城市应城停车区南50米",
        "tel": "",
        "category": "基础设施:公共设施:公共厕所",
        "type": 0,
        "location": {
            "lat": 30.857151,
            "lng": 113.530106
        },
        "ad_info": {
            "adcode": 420981,
            "province": "湖北省",
            "city": "孝感市",
            "district": "应城市"
        }
    }
]