[
    {
        "id": "12301720534353839694",
        "title": "公共厕所",
        "address": "陕西省安康市汉滨区木竹桥路与欢喜岭路交叉口正西方向66米左右",
        "tel": "",
        "category": "基础设施:公共设施:公共厕所",
        "type": 0,
        "location": {
            "lat": 32.688187,
            "lng": 109.051261
        },
        "ad_info": {
            "adcode": 610902,
            "province": "陕西省",
            "city": "安康市",
            "district": "汉滨区"
        }
    },
    {
        "id": "16472066602214567601",
        "title": "公共厕所",
        "address": "陕西省安康市汉滨区高井村兴华建材市场对面",
        "tel": "",
        "category": "基础设施:公共设施:公共厕所",
        "type": 0,
        "location": {
            "lat": 32.693751,
            "lng": 109.048918
        },
        "ad_info": {
            "adcode": 610902,
            "province": "陕西省",
            "city": "安康市",
            "district": "汉滨区"
        }
    },
    {
        "id": "6875043392371685242",
        "title": "公共厕所",
        "address": "陕西省安康市汉滨区进站西路1号",
        "tel": "",
        "category": "基础设施:公共设施:公共厕所",
        "type": 0,
        "location": {
            "lat": 32.710895,
            "lng": 109.014732
        },
        "ad_info": {
            "adcode": 610902,
            "province": "陕西省",
            "city": "安康市",
            "district": "汉滨区"
        }
    },
    {
        "id": "14471205356553727843",
        "title": "公共厕所",
        "address": "陕西省安康市汉滨区鼓楼东街与鼓楼街交叉口西北方向51米左右",
        "tel": "",
        "category": "基础设施:公共设施:公共厕所",
        "type": 0,
        "location": {
            "lat": 32.697323,
            "lng": 109.031042
        },
        "ad_info": {
            "adcode": 610902,
            "province": "陕西省",
            "city": "安康市",
            "district": "汉滨区"
        }
    },
    {
        "id": "16887811350244449571",
        "title": "公共厕所",
        "address": "陕西省安康市汉滨区世纪大道与花园大道交叉口东北方向112米左右",
        "tel": "",
        "category": "基础设施:公共设施:公共厕所",
        "type": 0,
        "location": {
            "lat": 32.714901,
            "lng": 108.987409
        },
        "ad_info": {
            "adcode": 610902,
            "province": "陕西省",
            "city": "安康市",
            "district": "汉滨区"
        }
    },
    {
        "id": "5850539891193553635",
        "title": "公共厕所",
        "address": "陕西省安康市汉滨区江北大道064号",
        "tel": "",
        "category": "基础设施:公共设施:公共厕所",
        "type": 0,
        "location": {
            "lat": 32.708663,
            "lng": 109.021781
        },
        "ad_info": {
            "adcode": 610902,
            "province": "陕西省",
            "city": "安康市",
            "district": "汉滨区"
        }
    },
    {
        "id": "11231141214609216715",
        "title": "公共厕所",
        "address": "陕西省安康市汉滨区南环路与教院路交叉口东北方向134米左右",
        "tel": "",
        "category": "基础设施:公共设施:公共厕所",
        "type": 0,
        "location": {
            "lat": 32.683515,
            "lng": 109.033848
        },
        "ad_info": {
            "adcode": 610902,
            "province": "陕西省",
            "city": "安康市",
            "district": "汉滨区"
        }
    },
    {
        "id": "4989838543658952106",
        "title": "洗手间",
        "address": "陕西省安康市汉滨区环城南路与陵园巷交叉口东北方向124米左右",
        "tel": "",
        "category": "基础设施:公共设施:公共厕所",
        "type": 0,
        "location": {
            "lat": 32.683551,
            "lng": 109.027549
        },
        "ad_info": {
            "adcode": 610902,
            "province": "陕西省",
            "city": "安康市",
            "district": "汉滨区"
        }
    },
    {
        "id": "16693946853447221924",
        "title": "公共厕所",
        "address": "陕西省安康市汉滨区巴山中路与茶厂巷交叉口正东方向50米左右",
        "tel": "",
        "category": "基础设施:公共设施:公共厕所",
        "type": 0,
        "location": {
            "lat": 32.688372,
            "lng": 109.031228
        },
        "ad_info": {
            "adcode": 610902,
            "province": "陕西省",
            "city": "安康市",
            "district": "汉滨区"
        }
    },
    {
        "id": "10985515841274355745",
        "title": "公共厕所",
        "address": "陕西省安康市汉滨区兴安中路与金州路交叉口正南方向98米左右",
        "tel": "",
        "category": "基础设施:公共设施:公共厕所",
        "type": 0,
        "location": {
            "lat": 32.692138,
            "lng": 109.027258
        },
        "ad_info": {
            "adcode": 610902,
            "province": "陕西省",
            "city": "安康市",
            "district": "汉滨区"
        }
    },
    {
        "id": "12641069759404142815",
        "title": "公共厕所",
        "address": "陕西省安康市汉滨区果园路1号",
        "tel": "",
        "category": "基础设施:公共设施:公共厕所",
        "type": 0,
        "location": {
            "lat": 32.681461,
            "lng": 109.020655
        },
        "ad_info": {
            "adcode": 610902,
            "province": "陕西省",
            "city": "安康市",
            "district": "汉滨区"
        }
    },
    {
        "id": "16319189822504694743",
        "title": "公共厕所",
        "address": "陕西省安康市汉滨区汉城东街与江北大道交叉口正北方向114米左右",
        "tel": "",
        "category": "基础设施:公共设施:公共厕所",
        "type": 0,
        "location": {
            "lat": 32.706426,
            "lng": 109.018949
        },
        "ad_info": {
            "adcode": 610902,
            "province": "陕西省",
            "city": "安康市",
            "district": "汉滨区"
        }
    },
    {
        "id": "3824747255450189620",
        "title": "公共厕所",
        "address": "陕西省安康市汉滨区G316与高新七路交叉口西南方向756米左右",
        "tel": "",
        "category": "基础设施:公共设施:公共厕所",
        "type": 0,
        "location": {
            "lat": 32.707453,
            "lng": 108.939194
        },
        "ad_info": {
            "adcode": 610902,
            "province": "陕西省",
            "city": "安康市",
            "district": "汉滨区"
        }
    },
    {
        "id": "9689682150997010837",
        "title": "公共厕所",
        "address": "陕西省安康市汉滨区兴安东路与兴安中路交叉口东北方向45米左右",
        "tel": "",
        "category": "基础设施:公共设施:公共厕所",
        "type": 0,
        "location": {
            "lat": 32.695486,
            "lng": 109.032862
        },
        "ad_info": {
            "adcode": 610902,
            "province": "陕西省",
            "city": "安康市",
            "district": "汉滨区"
        }
    },
    {
        "id": "15578611454814015410",
        "title": "公共厕所",
        "address": "陕西省安康市汉滨区兴安中路与新建巷交叉口正南方向83米左右",
        "tel": "",
        "category": "基础设施:公共设施:公共厕所",
        "type": 0,
        "location": {
            "lat": 32.69139,
            "lng": 109.024864
        },
        "ad_info": {
            "adcode": 610902,
            "province": "陕西省",
            "city": "安康市",
            "district": "汉滨区"
        }
    },
    {
        "id": "18137586112463214438",
        "title": "公共厕所",
        "address": "陕西省安康市汉滨区培新街与新建巷交叉口正南方向53米左右",
        "tel": "",
        "category": "基础设施:公共设施:公共厕所",
        "type": 0,
        "location": {
            "lat": 32.693321,
            "lng": 109.024108
        },
        "ad_info": {
            "adcode": 610902,
            "province": "陕西省",
            "city": "安康市",
            "district": "汉滨区"
        }
    },
    {
        "id": "7728946789357748475",
        "title": "公共厕所",
        "address": "陕西省安康市汉滨区西大街与金地步行街交叉口正北方向51米左右",
        "tel": "",
        "category": "基础设施:公共设施:公共厕所",
        "type": 0,
        "location": {
            "lat": 32.694114,
            "lng": 109.019732
        },
        "ad_info": {
            "adcode": 610902,
            "province": "陕西省",
            "city": "安康市",
            "district": "汉滨区"
        }
    },
    {
        "id": "12831785611313575056",
        "title": "公共厕所",
        "address": "陕西省安康市汉滨区巴山西路与西内环路交叉口东北方向60米左右",
        "tel": "",
        "category": "基础设施:公共设施:公共厕所",
        "type": 0,
        "location": {
            "lat": 32.685657,
            "lng": 109.021
        },
        "ad_info": {
            "adcode": 610902,
            "province": "陕西省",
            "city": "安康市",
            "district": "汉滨区"
        }
    },
    {
        "id": "2341408368185300323",
        "title": "公共厕所",
        "address": "陕西省安康市汉滨区北内环路与鲁班巷交叉口西南方向110米左右",
        "tel": "",
        "category": "基础设施:公共设施:公共厕所",
        "type": 0,
        "location": {
            "lat": 32.695926,
            "lng": 109.020729
        },
        "ad_info": {
            "adcode": 610902,
            "province": "陕西省",
            "city": "安康市",
            "district": "汉滨区"
        }
    },
    {
        "id": "18360933268408998732",
        "title": "公共厕所",
        "address": "陕西省安康市汉滨区G316与建五路交叉口西北方向82米左右",
        "tel": "",
        "category": "基础设施:公共设施:公共厕所",
        "type": 0,
        "location": {
            "lat": 32.722119,
            "lng": 108.892342
        },
        "ad_info": {
            "adcode": 610902,
            "province": "陕西省",
            "city": "安康市",
            "district": "汉滨区"
        }
    },
    {
        "id": "6394036855690435852",
        "title": "公共厕所",
        "address": "陕西省安康市汉滨区大北街与砂帽石街交叉口正北方向32米左右",
        "tel": "",
        "category": "基础设施:公共设施:公共厕所",
        "type": 0,
        "location": {
            "lat": 32.700019,
            "lng": 109.026756
        },
        "ad_info": {
            "adcode": 610902,
            "province": "陕西省",
            "city": "安康市",
            "district": "汉滨区"
        }
    },
    {
        "id": "661679377067794376",
        "title": "公共厕所",
        "address": "陕西省安康市汉滨区党校路安康市中医医院",
        "tel": "",
        "category": "基础设施:公共设施:公共厕所",
        "type": 0,
        "location": {
            "lat": 32.691773,
            "lng": 109.0395
        },
        "ad_info": {
            "adcode": 610902,
            "province": "陕西省",
            "city": "安康市",
            "district": "汉滨区"
        }
    },
    {
        "id": "12583542720143800675",
        "title": "公共厕所",
        "address": "陕西省安康市汉滨区安康大道与G7011十天高速出口交叉口东南180米",
        "tel": "",
        "category": "基础设施:公共设施:公共厕所",
        "type": 0,
        "location": {
            "lat": 32.69881,
            "lng": 108.96415
        },
        "ad_info": {
            "adcode": 610902,
            "province": "陕西省",
            "city": "安康市",
            "district": "汉滨区"
        }
    },
    {
        "id": "1144648995782149499",
        "title": "公共厕所",
        "address": "陕西省安康市汉滨区泸康东路与泸康大道交叉口正东方向257米左右",
        "tel": "",
        "category": "基础设施:公共设施:公共厕所",
        "type": 0,
        "location": {
            "lat": 32.692016,
            "lng": 109.051002
        },
        "ad_info": {
            "adcode": 610902,
            "province": "陕西省",
            "city": "安康市",
            "district": "汉滨区"
        }
    },
    {
        "id": "12807351872041169570",
        "title": "公共厕所",
        "address": "陕西省安康市汉滨区巴山东路与朝阳巷交叉口西北方向33米左右",
        "tel": "",
        "category": "基础设施:公共设施:公共厕所",
        "type": 0,
        "location": {
            "lat": 32.694281,
            "lng": 109.043781
        },
        "ad_info": {
            "adcode": 610902,
            "province": "陕西省",
            "city": "安康市",
            "district": "汉滨区"
        }
    },
    {
        "id": "4414299853041802313",
        "title": "公共厕所",
        "address": "陕西省安康市汉滨区安康大道与巴山西路交叉口东北方向233米左右",
        "tel": "",
        "category": "基础设施:公共设施:公共厕所",
        "type": 0,
        "location": {
            "lat": 32.681407,
            "lng": 109.01363
        },
        "ad_info": {
            "adcode": 610902,
            "province": "陕西省",
            "city": "安康市",
            "district": "汉滨区"
        }
    },
    {
        "id": "6027537403325617956",
        "title": "公共厕所",
        "address": "陕西省安康市汉滨区东大街与小北街交叉口西南方向116米左右",
        "tel": "",
        "category": "基础设施:公共设施:公共厕所",
        "type": 0,
        "location": {
            "lat": 32.697936,
            "lng": 109.029564
        },
        "ad_info": {
            "adcode": 610902,
            "province": "陕西省",
            "city": "安康市",
            "district": "汉滨区"
        }
    },
    {
        "id": "7344041510017115999",
        "title": "公共厕所",
        "address": "陕西省安康市汉滨区瀛湖路与环城南路交叉口东北方向171米左右",
        "tel": "",
        "category": "基础设施:公共设施:公共厕所",
        "type": 0,
        "location": {
            "lat": 32.67904,
            "lng": 109.01416
        },
        "ad_info": {
            "adcode": 610902,
            "province": "陕西省",
            "city": "安康市",
            "district": "汉滨区"
        }
    },
    {
        "id": "18326398993294578510",
        "title": "公共厕所",
        "address": "陕西省安康市汉滨区金州路与金桥路交叉口正南方向57米左右",
        "tel": "",
        "category": "基础设施:公共设施:公共厕所",
        "type": 0,
        "location": {
            "lat": 32.690265,
            "lng": 109.028318
        },
        "ad_info": {
            "adcode": 610902,
            "province": "陕西省",
            "city": "安康市",
            "district": "汉滨区"
        }
    },
    {
        "id": "1001026394003213022",
        "title": "公共厕所",
        "address": "陕西省安康市汉滨区翠屏路江南一品南郡",
        "tel": "",
        "category": "基础设施:公共设施:公共厕所",
        "type": 0,
        "location": {
            "lat": 32.690671,
            "lng": 109.04453
        },
        "ad_info": {
            "adcode": 610902,
            "province": "陕西省",
            "city": "安康市",
            "district": "汉滨区"
        }
    },
    {
        "id": "178822299778443451",
        "title": "公共厕所",
        "address": "陕西省安康市汉滨区汉江一桥与滨江大道交叉口东北方向216米左右",
        "tel": "",
        "category": "基础设施:公共设施:公共厕所",
        "type": 0,
        "location": {
            "lat": 32.699682,
            "lng": 109.017768
        },
        "ad_info": {
            "adcode": 610902,
            "province": "陕西省",
            "city": "安康市",
            "district": "汉滨区"
        }
    },
    {
        "id": "2593568281060840080",
        "title": "公共厕所",
        "address": "陕西省安康市汉滨区巴山中路与金州路交叉口西北方向58米左右",
        "tel": "",
        "category": "基础设施:公共设施:公共厕所",
        "type": 0,
        "location": {
            "lat": 32.68825,
            "lng": 109.029186
        },
        "ad_info": {
            "adcode": 610902,
            "province": "陕西省",
            "city": "安康市",
            "district": "汉滨区"
        }
    },
    {
        "id": "1599208992678009662",
        "title": "公共厕所",
        "address": "陕西省安康市汉滨区双堤巷与双堤社区商服街交叉口东南方向115米左右",
        "tel": "",
        "category": "基础设施:公共设施:公共厕所",
        "type": 0,
        "location": {
            "lat": 32.69113,
            "lng": 109.030528
        },
        "ad_info": {
            "adcode": 610902,
            "province": "陕西省",
            "city": "安康市",
            "district": "汉滨区"
        }
    },
    {
        "id": "6280731601520635972",
        "title": "公共厕所",
        "address": "陕西省安康市汉滨区东外环路与朝阳路交叉口东北方向88米左右",
        "tel": "",
        "category": "基础设施:公共设施:公共厕所",
        "type": 0,
        "location": {
            "lat": 32.696726,
            "lng": 109.038589
        },
        "ad_info": {
            "adcode": 610902,
            "province": "陕西省",
            "city": "安康市",
            "district": "汉滨区"
        }
    },
    {
        "id": "2409957747901718486",
        "title": "公共厕所",
        "address": "陕西省安康市汉滨区大桥路与金桥路交叉口正东方向140米左右",
        "tel": "",
        "category": "基础设施:公共设施:公共厕所",
        "type": 0,
        "location": {
            "lat": 32.689432,
            "lng": 109.025278
        },
        "ad_info": {
            "adcode": 610902,
            "province": "陕西省",
            "city": "安康市",
            "district": "汉滨区"
        }
    },
    {
        "id": "5907482703217421813",
        "title": "公共厕所",
        "address": "陕西省安康市汉滨区育才东路与魁星楼街交叉口东南方向37米左右",
        "tel": "",
        "category": "基础设施:公共设施:公共厕所",
        "type": 0,
        "location": {
            "lat": 32.685888,
            "lng": 109.035162
        },
        "ad_info": {
            "adcode": 610902,
            "province": "陕西省",
            "city": "安康市",
            "district": "汉滨区"
        }
    },
    {
        "id": "17209507380157162064",
        "title": "公共厕所",
        "address": "陕西省安康市汉滨区巴山路177号",
        "tel": "",
        "category": "基础设施:公共设施:公共厕所",
        "type": 0,
        "location": {
            "lat": 32.682924,
            "lng": 109.017614
        },
        "ad_info": {
            "adcode": 610902,
            "province": "陕西省",
            "city": "安康市",
            "district": "汉滨区"
        }
    },
    {
        "id": "14018476097789201105",
        "title": "公共厕所",
        "address": "陕西省安康市汉滨区东救生堤路与吴家坎巷交叉口正西方向137米左右",
        "tel": "",
        "category": "基础设施:公共设施:公共厕所",
        "type": 0,
        "location": {
            "lat": 32.696396,
            "lng": 109.046954
        },
        "ad_info": {
            "adcode": 610902,
            "province": "陕西省",
            "city": "安康市",
            "district": "汉滨区"
        }
    },
    {
        "id": "11751732630677101149",
        "title": "公共厕所",
        "address": "陕西省安康市汉滨区大桥路与汉江一桥交叉口东北方向26米左右",
        "tel": "",
        "category": "基础设施:公共设施:公共厕所",
        "type": 0,
        "location": {
            "lat": 32.695391,
            "lng": 109.020044
        },
        "ad_info": {
            "adcode": 610902,
            "province": "陕西省",
            "city": "安康市",
            "district": "汉滨区"
        }
    },
    {
        "id": "2640884896043624907",
        "title": "公共厕所",
        "address": "陕西省安康市汉滨区东内环路与鼓楼东街交叉口西南方向101米左右",
        "tel": "",
        "category": "基础设施:公共设施:公共厕所",
        "type": 0,
        "location": {
            "lat": 32.698471,
            "lng": 109.035547
        },
        "ad_info": {
            "adcode": 610902,
            "province": "陕西省",
            "city": "安康市",
            "district": "汉滨区"
        }
    },
    {
        "id": "8588828311358463940",
        "title": "公共厕所",
        "address": "陕西省安康市汉滨区北内环路与金银巷交叉口正南方向40米左右",
        "tel": "",
        "category": "基础设施:公共设施:公共厕所",
        "type": 0,
        "location": {
            "lat": 32.696728,
            "lng": 109.02236
        },
        "ad_info": {
            "adcode": 610902,
            "province": "陕西省",
            "city": "安康市",
            "district": "汉滨区"
        }
    },
    {
        "id": "3540186021000242333",
        "title": "公共厕所",
        "address": "陕西省安康市汉滨区吴家坎巷与朝阳巷交叉口正东方向78米左右",
        "tel": "",
        "category": "基础设施:公共设施:公共厕所",
        "type": 0,
        "location": {
            "lat": 32.696331,
            "lng": 109.046059
        },
        "ad_info": {
            "adcode": 610902,
            "province": "陕西省",
            "city": "安康市",
            "district": "汉滨区"
        }
    },
    {
        "id": "4713001578958163465",
        "title": "公共卫生间",
        "address": "陕西省安康市汉滨区汉宁路金州广场(北侧)",
        "tel": "",
        "category": "基础设施:公共设施:公共厕所",
        "type": 0,
        "location": {
            "lat": 32.699239,
            "lng": 109.039366
        },
        "ad_info": {
            "adcode": 610902,
            "province": "陕西省",
            "city": "安康市",
            "district": "汉滨区"
        }
    },
    {
        "id": "17131544481148416930",
        "title": "公共厕所",
        "address": "陕西省安康市汉滨区汗宁宫酒店斜对面",
        "tel": "",
        "category": "基础设施:公共设施:公共厕所",
        "type": 0,
        "location": {
            "lat": 32.698848,
            "lng": 109.036755
        },
        "ad_info": {
            "adcode": 610902,
            "province": "陕西省",
            "city": "安康市",
            "district": "汉滨区"
        }
    },
    {
        "id": "12280520154517588901",
        "title": "公共厕所",
        "address": "陕西省安康市汉滨区G211与石庙沟大桥交叉口西南方向327米左右",
        "tel": "",
        "category": "基础设施:公共设施:公共厕所",
        "type": 0,
        "location": {
            "lat": 32.640892,
            "lng": 108.915992
        },
        "ad_info": {
            "adcode": 610902,
            "province": "陕西省",
            "city": "安康市",
            "district": "汉滨区"
        }
    },
    {
        "id": "1331544377936311097",
        "title": "公共厕所",
        "address": "陕西省安康市紫阳县S211与育才路交叉口西南方向95米左右",
        "tel": "",
        "category": "基础设施:公共设施:公共厕所",
        "type": 0,
        "location": {
            "lat": 32.591943,
            "lng": 108.620047
        },
        "ad_info": {
            "adcode": 610924,
            "province": "陕西省",
            "city": "安康市",
            "district": "紫阳县"
        }
    },
    {
        "id": "17811526271656442423",
        "title": "安康运动公园公共厕所",
        "address": "陕西省安康市汉滨区学府路与秦岭大道交叉路口安康运动公园内(西侧)",
        "tel": "",
        "category": "基础设施:公共设施:公共厕所",
        "type": 0,
        "location": {
            "lat": 32.709839,
            "lng": 108.977356
        },
        "ad_info": {
            "adcode": 610902,
            "province": "陕西省",
            "city": "安康市",
            "district": "汉滨区"
        }
    },
    {
        "id": "4239256666734396451",
        "title": "公共厕所",
        "address": "陕西省安康市汉滨区安悦街与西大街交叉口正东方向46米左右",
        "tel": "",
        "category": "基础设施:公共设施:公共厕所",
        "type": 0,
        "location": {
            "lat": 32.696033,
            "lng": 109.025307
        },
        "ad_info": {
            "adcode": 610902,
            "province": "陕西省",
            "city": "安康市",
            "district": "汉滨区"
        }
    },
    {
        "id": "3981602324015296939",
        "title": "公共厕所",
        "address": "陕西省安康市汉滨区朝阳路与钻石东路交叉口正东方向386米左右",
        "tel": "",
        "category": "基础设施:公共设施:公共厕所",
        "type": 0,
        "location": {
            "lat": 32.715917,
            "lng": 108.998214
        },
        "ad_info": {
            "adcode": 610902,
            "province": "陕西省",
            "city": "安康市",
            "district": "汉滨区"
        }
    },
    {
        "id": "9464466171377906606",
        "title": "公共厕所",
        "address": "陕西省安康市汉滨区水电路与福星路交叉口正东方向61米左右",
        "tel": "",
        "category": "基础设施:公共设施:公共厕所",
        "type": 0,
        "location": {
            "lat": 32.700687,
            "lng": 109.010322
        },
        "ad_info": {
            "adcode": 610902,
            "province": "陕西省",
            "city": "安康市",
            "district": "汉滨区"
        }
    },
    {
        "id": "11095332213391172575",
        "title": "公共厕所",
        "address": "陕西省安康市汉滨区进站西路与进站路交叉口正西方向94米左右",
        "tel": "",
        "category": "基础设施:公共设施:公共厕所",
        "type": 0,
        "location": {
            "lat": 32.711755,
            "lng": 109.016969
        },
        "ad_info": {
            "adcode": 610902,
            "province": "陕西省",
            "city": "安康市",
            "district": "汉滨区"
        }
    },
    {
        "id": "13957850826681226406",
        "title": "公共厕所",
        "address": "陕西省安康市汉滨区大桥南路22号",
        "tel": "",
        "category": "基础设施:公共设施:公共厕所",
        "type": 0,
        "location": {
            "lat": 32.687354,
            "lng": 109.024614
        },
        "ad_info": {
            "adcode": 610902,
            "province": "陕西省",
            "city": "安康市",
            "district": "汉滨区"
        }
    },
    {
        "id": "15224593706531302088",
        "title": "公共厕所",
        "address": "陕西省安康市平利县新正街与西关路交叉口正南方向124米左右",
        "tel": "",
        "category": "基础设施:公共设施:公共厕所",
        "type": 0,
        "location": {
            "lat": 32.390405,
            "lng": 109.35563
        },
        "ad_info": {
            "adcode": 610926,
            "province": "陕西省",
            "city": "安康市",
            "district": "平利县"
        }
    },
    {
        "id": "12915489713200163199",
        "title": "公共厕所",
        "address": "陕西省安康市汉滨区安恒路018号",
        "tel": "",
        "category": "基础设施:公共设施:公共厕所",
        "type": 0,
        "location": {
            "lat": 32.705077,
            "lng": 109.015773
        },
        "ad_info": {
            "adcode": 610902,
            "province": "陕西省",
            "city": "安康市",
            "district": "汉滨区"
        }
    },
    {
        "id": "3673834607036823451",
        "title": "公共厕所",
        "address": "陕西省安康市平利县平利东立交与麻安高速交叉口东南方向289米左右",
        "tel": "",
        "category": "基础设施:公共设施:公共厕所",
        "type": 0,
        "location": {
            "lat": 32.369512,
            "lng": 109.420459
        },
        "ad_info": {
            "adcode": 610926,
            "province": "陕西省",
            "city": "安康市",
            "district": "平利县"
        }
    },
    {
        "id": "2761393393055015472",
        "title": "公共厕所",
        "address": "陕西省安康市白河县南台路与旬白路交叉口正东方向89米左右",
        "tel": "",
        "category": "基础设施:公共设施:公共厕所",
        "type": 0,
        "location": {
            "lat": 32.806876,
            "lng": 110.114964
        },
        "ad_info": {
            "adcode": 610929,
            "province": "陕西省",
            "city": "安康市",
            "district": "白河县"
        }
    },
    {
        "id": "13951379230506288350",
        "title": "公共厕所",
        "address": "陕西省安康市白河县旬白路与长春路交叉口西南方向33米左右",
        "tel": "",
        "category": "基础设施:公共设施:公共厕所",
        "type": 0,
        "location": {
            "lat": 32.814452,
            "lng": 110.112586
        },
        "ad_info": {
            "adcode": 610929,
            "province": "陕西省",
            "city": "安康市",
            "district": "白河县"
        }
    },
    {
        "id": "10696267190898414740",
        "title": "公共厕所",
        "address": "陕西省安康市白河县向荣一巷与滨河大道交叉口西北方向254米左右",
        "tel": "",
        "category": "基础设施:公共设施:公共厕所",
        "type": 0,
        "location": {
            "lat": 32.802528,
            "lng": 110.109106
        },
        "ad_info": {
            "adcode": 610929,
            "province": "陕西省",
            "city": "安康市",
            "district": "白河县"
        }
    },
    {
        "id": "8192175270877254321",
        "title": "公共厕所",
        "address": "陕西省安康市石泉县北街巷与桃园路交叉口正北方向70米左右",
        "tel": "",
        "category": "基础设施:公共设施:公共厕所",
        "type": 0,
        "location": {
            "lat": 33.038901,
            "lng": 108.25276
        },
        "ad_info": {
            "adcode": 610922,
            "province": "陕西省",
            "city": "安康市",
            "district": "石泉县"
        }
    },
    {
        "id": "17967386497631346336",
        "title": "公共厕所",
        "address": "陕西省安康市汉滨区滨江西路二黄文化园(安康博物馆东北)",
        "tel": "",
        "category": "基础设施:公共设施:公共厕所",
        "type": 0,
        "location": {
            "lat": 32.686851,
            "lng": 109.008667
        },
        "ad_info": {
            "adcode": 610902,
            "province": "陕西省",
            "city": "安康市",
            "district": "汉滨区"
        }
    },
    {
        "id": "11559156212062768841",
        "title": "公共厕所",
        "address": "陕西省安康市汉滨区汉剧巷与金州北路交叉口正东方向31米左右",
        "tel": "",
        "category": "基础设施:公共设施:公共厕所",
        "type": 0,
        "location": {
            "lat": 32.69734,
            "lng": 109.024373
        },
        "ad_info": {
            "adcode": 610902,
            "province": "陕西省",
            "city": "安康市",
            "district": "汉滨区"
        }
    },
    {
        "id": "2352879787111891360",
        "title": "公共厕所",
        "address": "陕西省安康市岚皋县岚花公路与蔺和公路交叉口正西方向183米左右",
        "tel": "",
        "category": "基础设施:公共设施:公共厕所",
        "type": 0,
        "location": {
            "lat": 32.313736,
            "lng": 108.944104
        },
        "ad_info": {
            "adcode": 610925,
            "province": "陕西省",
            "city": "安康市",
            "district": "岚皋县"
        }
    },
    {
        "id": "14005656698923768453",
        "title": "公共厕所",
        "address": "陕西省安康市宁陕县关口街与关池路交叉口西南方向24米左右",
        "tel": "",
        "category": "基础设施:公共设施:公共厕所",
        "type": 0,
        "location": {
            "lat": 33.311603,
            "lng": 108.315311
        },
        "ad_info": {
            "adcode": 610923,
            "province": "陕西省",
            "city": "安康市",
            "district": "宁陕县"
        }
    },
    {
        "id": "15813110361129273865",
        "title": "公共厕所",
        "address": "陕西省安康市紫阳县环城路与紫府路交叉口西北方向74米左右",
        "tel": "",
        "category": "基础设施:公共设施:公共厕所",
        "type": 0,
        "location": {
            "lat": 32.519152,
            "lng": 108.542414
        },
        "ad_info": {
            "adcode": 610924,
            "province": "陕西省",
            "city": "安康市",
            "district": "紫阳县"
        }
    },
    {
        "id": "8478772880187688107",
        "title": "公共厕所",
        "address": "陕西省安康市岚皋县永安路40号",
        "tel": "",
        "category": "基础设施:公共设施:公共厕所",
        "type": 0,
        "location": {
            "lat": 32.316383,
            "lng": 108.898555
        },
        "ad_info": {
            "adcode": 610925,
            "province": "陕西省",
            "city": "安康市",
            "district": "岚皋县"
        }
    },
    {
        "id": "4984381817549122986",
        "title": "公共厕所",
        "address": "陕西省安康市旬阳市商贸大街与文化西路交叉口正北方向161米左右",
        "tel": "",
        "category": "基础设施:公共设施:公共厕所",
        "type": 0,
        "location": {
            "lat": 32.83624,
            "lng": 109.362552
        },
        "ad_info": {
            "adcode": 610981,
            "province": "陕西省",
            "city": "安康市",
            "district": "旬阳市"
        }
    },
    {
        "id": "5744522120600014966",
        "title": "公共厕所",
        "address": "陕西省安康市岚皋县207省道东50米",
        "tel": "",
        "category": "基础设施:公共设施:公共厕所",
        "type": 0,
        "location": {
            "lat": 32.432359,
            "lng": 108.878185
        },
        "ad_info": {
            "adcode": 610925,
            "province": "陕西省",
            "city": "安康市",
            "district": "岚皋县"
        }
    },
    {
        "id": "16322064308829263811",
        "title": "公共厕所",
        "address": "陕西省安康市宁陕县G210",
        "tel": "",
        "category": "基础设施:公共设施:公共厕所",
        "type": 0,
        "location": {
            "lat": 33.368677,
            "lng": 108.342915
        },
        "ad_info": {
            "adcode": 610923,
            "province": "陕西省",
            "city": "安康市",
            "district": "宁陕县"
        }
    },
    {
        "id": "655915492071667423",
        "title": "公共厕所",
        "address": "陕西省安康市汉阴县东关街与北城街交叉口西北方向103米左右",
        "tel": "",
        "category": "基础设施:公共设施:公共厕所",
        "type": 0,
        "location": {
            "lat": 32.888142,
            "lng": 108.51512
        },
        "ad_info": {
            "adcode": 610921,
            "province": "陕西省",
            "city": "安康市",
            "district": "汉阴县"
        }
    },
    {
        "id": "12782347614827690098",
        "title": "公共厕所",
        "address": "陕西省安康市石泉县永安路",
        "tel": "",
        "category": "基础设施:公共设施:公共厕所",
        "type": 0,
        "location": {
            "lat": 33.021446,
            "lng": 108.268528
        },
        "ad_info": {
            "adcode": 610922,
            "province": "陕西省",
            "city": "安康市",
            "district": "石泉县"
        }
    },
    {
        "id": "3358297373276578999",
        "title": "公共厕所",
        "address": "陕西省安康市白河县X202与白界路交叉口正北方向48米",
        "tel": "",
        "category": "基础设施:公共设施:公共厕所",
        "type": 0,
        "location": {
            "lat": 32.770509,
            "lng": 110.06732
        },
        "ad_info": {
            "adcode": 610929,
            "province": "陕西省",
            "city": "安康市",
            "district": "白河县"
        }
    },
    {
        "id": "210188521102361576",
        "title": "公共厕所",
        "address": "陕西省安康市岚皋县207省道东50米",
        "tel": "",
        "category": "基础设施:公共设施:公共厕所",
        "type": 0,
        "location": {
            "lat": 32.40869,
            "lng": 108.883051
        },
        "ad_info": {
            "adcode": 610925,
            "province": "陕西省",
            "city": "安康市",
            "district": "岚皋县"
        }
    },
    {
        "id": "1960204282832305435",
        "title": "公共厕所",
        "address": "陕西省安康市岚皋县G211",
        "tel": "",
        "category": "基础设施:公共设施:公共厕所",
        "type": 0,
        "location": {
            "lat": 32.408972,
            "lng": 108.882113
        },
        "ad_info": {
            "adcode": 610925,
            "province": "陕西省",
            "city": "安康市",
            "district": "岚皋县"
        }
    },
    {
        "id": "14221429328127064849",
        "title": "公共厕所",
        "address": "陕西省安康市旬阳市G7011十天高速出口与东吕路交叉口东南160米",
        "tel": "",
        "category": "基础设施:公共设施:公共厕所",
        "type": 0,
        "location": {
            "lat": 32.775784,
            "lng": 109.373618
        },
        "ad_info": {
            "adcode": 610981,
            "province": "陕西省",
            "city": "安康市",
            "district": "旬阳市"
        }
    },
    {
        "id": "3528065413942281716",
        "title": "公共厕所",
        "address": "陕西省安康市石泉县向阳路西段与广场北路交叉口正东方向42米左右",
        "tel": "",
        "category": "基础设施:公共设施:公共厕所",
        "type": 0,
        "location": {
            "lat": 33.040196,
            "lng": 108.246655
        },
        "ad_info": {
            "adcode": 610922,
            "province": "陕西省",
            "city": "安康市",
            "district": "石泉县"
        }
    },
    {
        "id": "13655429114697592799",
        "title": "公共厕所",
        "address": "陕西省安康市岚皋县岚紫路与永安路交叉口正西方向211米左右",
        "tel": "",
        "category": "基础设施:公共设施:公共厕所",
        "type": 0,
        "location": {
            "lat": 32.406582,
            "lng": 108.727241
        },
        "ad_info": {
            "adcode": 610925,
            "province": "陕西省",
            "city": "安康市",
            "district": "岚皋县"
        }
    },
    {
        "id": "16392993545926505933",
        "title": "公共厕所",
        "address": "陕西省安康市宁陕县G210与东江大道交叉口正北方向117米左右",
        "tel": "",
        "category": "基础设施:公共设施:公共厕所",
        "type": 0,
        "location": {
            "lat": 33.667318,
            "lng": 108.652983
        },
        "ad_info": {
            "adcode": 610923,
            "province": "陕西省",
            "city": "安康市",
            "district": "宁陕县"
        }
    },
    {
        "id": "14202857316616769494",
        "title": "公共厕所",
        "address": "陕西省安康市汉阴县月南路40号",
        "tel": "",
        "category": "基础设施:公共设施:公共厕所",
        "type": 0,
        "location": {
            "lat": 32.883545,
            "lng": 108.514003
        },
        "ad_info": {
            "adcode": 610921,
            "province": "陕西省",
            "city": "安康市",
            "district": "汉阴县"
        }
    },
    {
        "id": "4700314042707681951",
        "title": "公共厕所",
        "address": "陕西省安康市白河县文昌路与长春路交叉口西北方向59米左右",
        "tel": "",
        "category": "基础设施:公共设施:公共厕所",
        "type": 0,
        "location": {
            "lat": 32.812172,
            "lng": 110.112618
        },
        "ad_info": {
            "adcode": 610929,
            "province": "陕西省",
            "city": "安康市",
            "district": "白河县"
        }
    },
    {
        "id": "329830355139279434",
        "title": "公共厕所",
        "address": "陕西省安康市白河县S316与白界路交叉口东南方向111米左右",
        "tel": "",
        "category": "基础设施:公共设施:公共厕所",
        "type": 0,
        "location": {
            "lat": 32.793251,
            "lng": 110.090934
        },
        "ad_info": {
            "adcode": 610929,
            "province": "陕西省",
            "city": "安康市",
            "district": "白河县"
        }
    },
    {
        "id": "4102686074366535956",
        "title": "公共厕所",
        "address": "陕西省安康市旬阳市商贸大街与商贸街一巷交叉口正南方向188米左右",
        "tel": "",
        "category": "基础设施:公共设施:公共厕所",
        "type": 0,
        "location": {
            "lat": 32.828986,
            "lng": 109.370519
        },
        "ad_info": {
            "adcode": 610981,
            "province": "陕西省",
            "city": "安康市",
            "district": "旬阳市"
        }
    },
    {
        "id": "12507924905987781302",
        "title": "公共厕所",
        "address": "陕西省安康市旬阳市商贸大街与文化西路交叉口东北方向18米左右",
        "tel": "",
        "category": "基础设施:公共设施:公共厕所",
        "type": 0,
        "location": {
            "lat": 32.835014,
            "lng": 109.362043
        },
        "ad_info": {
            "adcode": 610981,
            "province": "陕西省",
            "city": "安康市",
            "district": "旬阳市"
        }
    },
    {
        "id": "9930272512961471826",
        "title": "公共厕所",
        "address": "陕西省安康市宁陕县210国道东50米",
        "tel": "",
        "category": "基础设施:公共设施:公共厕所",
        "type": 0,
        "location": {
            "lat": 33.687283,
            "lng": 108.671389
        },
        "ad_info": {
            "adcode": 610923,
            "province": "陕西省",
            "city": "安康市",
            "district": "宁陕县"
        }
    },
    {
        "id": "3973912329322529822",
        "title": "公共厕所",
        "address": "陕西省安康市旬阳市康华二路康华园(滨河大道)",
        "tel": "",
        "category": "基础设施:公共设施:公共厕所",
        "type": 0,
        "location": {
            "lat": 32.837257,
            "lng": 109.359821
        },
        "ad_info": {
            "adcode": 610981,
            "province": "陕西省",
            "city": "安康市",
            "district": "旬阳市"
        }
    },
    {
        "id": "3608444834614971417",
        "title": "汉江公园公共厕所",
        "address": "陕西省安康市汉滨区北内环路汉江公园(西侧)",
        "tel": "",
        "category": "基础设施:公共设施:公共厕所",
        "type": 0,
        "location": {
            "lat": 32.702239,
            "lng": 109.029884
        },
        "ad_info": {
            "adcode": 610902,
            "province": "陕西省",
            "city": "安康市",
            "district": "汉滨区"
        }
    },
    {
        "id": "9078455146053193813",
        "title": "公共厕所",
        "address": "陕西省安康市石泉县体育场路与文化南路交叉口西北方向143米左右",
        "tel": "",
        "category": "基础设施:公共设施:公共厕所",
        "type": 0,
        "location": {
            "lat": 33.035983,
            "lng": 108.251334
        },
        "ad_info": {
            "adcode": 610922,
            "province": "陕西省",
            "city": "安康市",
            "district": "石泉县"
        }
    },
    {
        "id": "7487145915963347560",
        "title": "公共厕所",
        "address": "陕西省安康市旬阳市商贸大街与育才路交叉口东北方向363米左右",
        "tel": "",
        "category": "基础设施:公共设施:公共厕所",
        "type": 0,
        "location": {
            "lat": 32.829894,
            "lng": 109.35001
        },
        "ad_info": {
            "adcode": 610981,
            "province": "陕西省",
            "city": "安康市",
            "district": "旬阳市"
        }
    },
    {
        "id": "4273789559719443986",
        "title": "公共厕所",
        "address": "陕西省安康市旬阳市冬青毛公广场",
        "tel": "",
        "category": "基础设施:公共设施:公共厕所",
        "type": 0,
        "location": {
            "lat": 32.785109,
            "lng": 109.364473
        },
        "ad_info": {
            "adcode": 610981,
            "province": "陕西省",
            "city": "安康市",
            "district": "旬阳市"
        }
    },
    {
        "id": "5994414269458277842",
        "title": "公共厕所",
        "address": "陕西省安康市白河县白界路与G7011十天高速交叉口西150米",
        "tel": "",
        "category": "基础设施:公共设施:公共厕所",
        "type": 0,
        "location": {
            "lat": 32.741357,
            "lng": 110.050496
        },
        "ad_info": {
            "adcode": 610929,
            "province": "陕西省",
            "city": "安康市",
            "district": "白河县"
        }
    },
    {
        "id": "16656121267482136909",
        "title": "公共厕所",
        "address": "陕西省安康市白河县白界路西50米",
        "tel": "",
        "category": "基础设施:公共设施:公共厕所",
        "type": 0,
        "location": {
            "lat": 32.755172,
            "lng": 110.059541
        },
        "ad_info": {
            "adcode": 610929,
            "province": "陕西省",
            "city": "安康市",
            "district": "白河县"
        }
    },
    {
        "id": "4960869220110757121",
        "title": "公共厕所",
        "address": "陕西省安康市白河县S304与Y043交叉口正西方向745米左右",
        "tel": "",
        "category": "基础设施:公共设施:公共厕所",
        "type": 0,
        "location": {
            "lat": 32.843251,
            "lng": 110.075385
        },
        "ad_info": {
            "adcode": 610929,
            "province": "陕西省",
            "city": "安康市",
            "district": "白河县"
        }
    },
    {
        "id": "5554328224035100706",
        "title": "公共厕所",
        "address": "陕西省安康市旬阳市G211与甘溪一号大桥交叉口西南方向125米左右",
        "tel": "",
        "category": "基础设施:公共设施:公共厕所",
        "type": 0,
        "location": {
            "lat": 32.876719,
            "lng": 109.27441
        },
        "ad_info": {
            "adcode": 610981,
            "province": "陕西省",
            "city": "安康市",
            "district": "旬阳市"
        }
    },
    {
        "id": "1109022708848223701",
        "title": "公共厕所",
        "address": "陕西省安康市白河县构坪路与白界路交叉口东北方向1917米左右",
        "tel": "",
        "category": "基础设施:公共设施:公共厕所",
        "type": 0,
        "location": {
            "lat": 32.751085,
            "lng": 110.056519
        },
        "ad_info": {
            "adcode": 610929,
            "province": "陕西省",
            "city": "安康市",
            "district": "白河县"
        }
    },
    {
        "id": "9926122117018811159",
        "title": "公共厕所",
        "address": "陕西省安康市汉阴县G316与酒平路交叉口正北方向52米左右",
        "tel": "",
        "category": "基础设施:公共设施:公共厕所",
        "type": 0,
        "location": {
            "lat": 32.910622,
            "lng": 108.461634
        },
        "ad_info": {
            "adcode": 610921,
            "province": "陕西省",
            "city": "安康市",
            "district": "汉阴县"
        }
    },
    {
        "id": "11547057719247814985",
        "title": "公共厕所",
        "address": "陕西省安康市旬阳市大桥路与文化路交叉口西南方向33米左右",
        "tel": "",
        "category": "基础设施:公共设施:公共厕所",
        "type": 0,
        "location": {
            "lat": 32.836534,
            "lng": 109.364233
        },
        "ad_info": {
            "adcode": 610981,
            "province": "陕西省",
            "city": "安康市",
            "district": "旬阳市"
        }
    },
    {
        "id": "16275505963605026121",
        "title": "公共厕所",
        "address": "陕西省安康市旬阳市康华路与旬河大道交叉口正东方向66米左右",
        "tel": "",
        "category": "基础设施:公共设施:公共厕所",
        "type": 0,
        "location": {
            "lat": 32.839636,
            "lng": 109.363107
        },
        "ad_info": {
            "adcode": 610981,
            "province": "陕西省",
            "city": "安康市",
            "district": "旬阳市"
        }
    },
    {
        "id": "1244667461464017012",
        "title": "公共厕所",
        "address": "陕西省安康市汉阴县G541与石蒿路交叉口正南方向136米左右",
        "tel": "",
        "category": "基础设施:公共设施:公共厕所",
        "type": 0,
        "location": {
            "lat": 32.802966,
            "lng": 108.282088
        },
        "ad_info": {
            "adcode": 610921,
            "province": "陕西省",
            "city": "安康市",
            "district": "汉阴县"
        }
    },
    {
        "id": "11678901677042845273",
        "title": "公共厕所",
        "address": "陕西省安康市石泉县210国道东50米",
        "tel": "",
        "category": "基础设施:公共设施:公共厕所",
        "type": 0,
        "location": {
            "lat": 33.294024,
            "lng": 108.184783
        },
        "ad_info": {
            "adcode": 610922,
            "province": "陕西省",
            "city": "安康市",
            "district": "石泉县"
        }
    },
    {
        "id": "12409181475907180423",
        "title": "育才东路公共厕所垃圾房",
        "address": "陕西省安康市汉滨区东井街与南井街交叉口正东方向43米左右",
        "tel": "",
        "category": "基础设施:公共设施:公共厕所",
        "type": 0,
        "location": {
            "lat": 32.686684,
            "lng": 109.038129
        },
        "ad_info": {
            "adcode": 610902,
            "province": "陕西省",
            "city": "安康市",
            "district": "汉滨区"
        }
    },
    {
        "id": "281768325397705215",
        "title": "公共厕所",
        "address": "陕西省安康市旬阳市人民北路与坤顺路交叉口西南方向107米左右",
        "tel": "",
        "category": "基础设施:公共设施:公共厕所",
        "type": 0,
        "location": {
            "lat": 32.832443,
            "lng": 109.380598
        },
        "ad_info": {
            "adcode": 610981,
            "province": "陕西省",
            "city": "安康市",
            "district": "旬阳市"
        }
    },
    {
        "id": "5378886541870315360",
        "title": "公共厕所",
        "address": "陕西省安康市汉阴县广场街与长顺街交叉口正南方向31米左右",
        "tel": "",
        "category": "基础设施:公共设施:公共厕所",
        "type": 0,
        "location": {
            "lat": 32.888147,
            "lng": 108.504875
        },
        "ad_info": {
            "adcode": 610921,
            "province": "陕西省",
            "city": "安康市",
            "district": "汉阴县"
        }
    },
    {
        "id": "6279886891295297272",
        "title": "无障碍公共厕所",
        "address": "陕西省安康市平利县东二路与吉阳路交叉口西北方向116米左右",
        "tel": "",
        "category": "基础设施:公共设施:公共厕所",
        "type": 0,
        "location": {
            "lat": 32.388363,
            "lng": 109.364382
        },
        "ad_info": {
            "adcode": 610926,
            "province": "陕西省",
            "city": "安康市",
            "district": "平利县"
        }
    },
    {
        "id": "4275161378217474724",
        "title": "安康东服务区公共厕所",
        "address": "陕西省安康市汉滨区十天高速与黄洋河立交交叉口正东方向1954米左右",
        "tel": "",
        "category": "基础设施:公共设施:公共厕所",
        "type": 0,
        "location": {
            "lat": 32.67457,
            "lng": 109.115516
        },
        "ad_info": {
            "adcode": 610902,
            "province": "陕西省",
            "city": "安康市",
            "district": "汉滨区"
        }
    },
    {
        "id": "5764551794368384925",
        "title": "公共厕所",
        "address": "陕西省安康市岚皋县东兴路与南宫路交叉口东南方向83米左右",
        "tel": "",
        "category": "基础设施:公共设施:公共厕所",
        "type": 0,
        "location": {
            "lat": 32.309848,
            "lng": 108.904046
        },
        "ad_info": {
            "adcode": 610925,
            "province": "陕西省",
            "city": "安康市",
            "district": "岚皋县"
        }
    },
    {
        "id": "10287006822825774322",
        "title": "无障碍公共厕所",
        "address": "陕西省安康市汉滨区育才东路与西井街交叉口正西方向160米左右",
        "tel": "",
        "category": "基础设施:公共设施:公共厕所",
        "type": 0,
        "location": {
            "lat": 32.685681,
            "lng": 109.032753
        },
        "ad_info": {
            "adcode": 610902,
            "province": "陕西省",
            "city": "安康市",
            "district": "汉滨区"
        }
    },
    {
        "id": "1208362080353304341",
        "title": "安康南服务区第一公共厕所",
        "address": "陕西省安康市汉滨区包茂高速壳牌加油站北侧约44米",
        "tel": "",
        "category": "基础设施:公共设施:公共厕所",
        "type": 0,
        "location": {
            "lat": 32.579775,
            "lng": 108.662582
        },
        "ad_info": {
            "adcode": 610902,
            "province": "陕西省",
            "city": "安康市",
            "district": "汉滨区"
        }
    },
    {
        "id": "5536223060748005872",
        "title": "安康西服务区第三公共厕所",
        "address": "陕西省安康市汉滨区包茂高速",
        "tel": "",
        "category": "基础设施:公共设施:公共厕所",
        "type": 0,
        "location": {
            "lat": 32.709119,
            "lng": 108.870567
        },
        "ad_info": {
            "adcode": 610902,
            "province": "陕西省",
            "city": "安康市",
            "district": "汉滨区"
        }
    },
    {
        "id": "4538290605888491871",
        "title": "安康东服务区第二公共厕所",
        "address": "陕西省安康市汉滨区十天高速与黄洋河立交交叉口正东方向1967米左右",
        "tel": "",
        "category": "基础设施:公共设施:公共厕所",
        "type": 0,
        "location": {
            "lat": 32.673323,
            "lng": 109.115922
        },
        "ad_info": {
            "adcode": 610902,
            "province": "陕西省",
            "city": "安康市",
            "district": "汉滨区"
        }
    },
    {
        "id": "3146547293303284858",
        "title": "安康南服务区第一公共厕所",
        "address": "陕西省安康市汉滨区七堰路与新铺路交叉口东北方向425米左右",
        "tel": "",
        "category": "基础设施:公共设施:公共厕所",
        "type": 0,
        "location": {
            "lat": 32.581313,
            "lng": 108.661715
        },
        "ad_info": {
            "adcode": 610902,
            "province": "陕西省",
            "city": "安康市",
            "district": "汉滨区"
        }
    },
    {
        "id": "2555539118673921686",
        "title": "秦岭服务区公共厕所",
        "address": "陕西省安康市宁陕县G5京昆高速与秦岭服务区交叉口西160米",
        "tel": "",
        "category": "基础设施:公共设施:公共厕所",
        "type": 0,
        "location": {
            "lat": 33.775365,
            "lng": 108.488672
        },
        "ad_info": {
            "adcode": 610923,
            "province": "陕西省",
            "city": "安康市",
            "district": "宁陕县"
        }
    },
    {
        "id": "11579736706991027678",
        "title": "宁陕服务区公共厕所",
        "address": "陕西省安康市宁陕县宁陕服务区与G5京昆高速交叉口南160米",
        "tel": "",
        "category": "基础设施:公共设施:公共厕所",
        "type": 0,
        "location": {
            "lat": 33.399811,
            "lng": 108.233341
        },
        "ad_info": {
            "adcode": 610923,
            "province": "陕西省",
            "city": "安康市",
            "district": "宁陕县"
        }
    },
    {
        "id": "9983868086362306119",
        "title": "平利服务区公共厕所",
        "address": "陕西省安康市平利县G4213麻安高速附近",
        "tel": "",
        "category": "基础设施:公共设施:公共厕所",
        "type": 0,
        "location": {
            "lat": 32.342628,
            "lng": 109.491917
        },
        "ad_info": {
            "adcode": 610926,
            "province": "陕西省",
            "city": "安康市",
            "district": "平利县"
        }
    },
    {
        "id": "5447808794469907579",
        "title": "紫阳南服务区公共厕所",
        "address": "陕西省安康市紫阳县S211与便民桥交叉口西南方向944米左右",
        "tel": "",
        "category": "基础设施:公共设施:公共厕所",
        "type": 0,
        "location": {
            "lat": 32.369018,
            "lng": 108.297252
        },
        "ad_info": {
            "adcode": 610924,
            "province": "陕西省",
            "city": "安康市",
            "district": "紫阳县"
        }
    },
    {
        "id": "1771249820822862063",
        "title": "秦岭服务区公共厕所",
        "address": "陕西省安康市宁陕县京昆高速秦岭服务区",
        "tel": "",
        "category": "基础设施:公共设施:公共厕所",
        "type": 0,
        "location": {
            "lat": 33.775461,
            "lng": 108.491329
        },
        "ad_info": {
            "adcode": 610923,
            "province": "陕西省",
            "city": "安康市",
            "district": "宁陕县"
        }
    },
    {
        "id": "16056031336574864012",
        "title": "汉阴服务区公共厕所",
        "address": "陕西省安康市汉阴县太平路与汉太路交叉口西北方向1534米左右",
        "tel": "",
        "category": "基础设施:公共设施:公共厕所",
        "type": 0,
        "location": {
            "lat": 32.885814,
            "lng": 108.46631
        },
        "ad_info": {
            "adcode": 610921,
            "province": "陕西省",
            "city": "安康市",
            "district": "汉阴县"
        }
    },
    {
        "id": "93226146703038519",
        "title": "汉阴服务区第一公共厕所",
        "address": "陕西省安康市汉阴县吉庆路与太平路交叉口正西方向1525米左右",
        "tel": "",
        "category": "基础设施:公共设施:公共厕所",
        "type": 0,
        "location": {
            "lat": 32.887185,
            "lng": 108.46723
        },
        "ad_info": {
            "adcode": 610921,
            "province": "陕西省",
            "city": "安康市",
            "district": "汉阴县"
        }
    },
    {
        "id": "11226562388840968936",
        "title": "宁陕服务区公共厕所",
        "address": "陕西省安康市宁陕县宁陕服务区餐厅(京昆高速公路西)",
        "tel": "",
        "category": "基础设施:公共设施:公共厕所",
        "type": 0,
        "location": {
            "lat": 33.400511,
            "lng": 108.231701
        },
        "ad_info": {
            "adcode": 610923,
            "province": "陕西省",
            "city": "安康市",
            "district": "宁陕县"
        }
    },
    {
        "id": "4844736099990693626",
        "title": "汉阴服务区第二公共厕所",
        "address": "陕西省安康市汉阴县吉庆路与太平路交叉口正西方向1616米左右",
        "tel": "",
        "category": "基础设施:公共设施:公共厕所",
        "type": 0,
        "location": {
            "lat": 32.887366,
            "lng": 108.46627
        },
        "ad_info": {
            "adcode": 610921,
            "province": "陕西省",
            "city": "安康市",
            "district": "汉阴县"
        }
    },
    {
        "id": "13193406065871861194",
        "title": "宁陕服务区第二公共厕所",
        "address": "陕西省安康市宁陕县X225与筒五路交叉口正南方向491米左右",
        "tel": "",
        "category": "基础设施:公共设施:公共厕所",
        "type": 0,
        "location": {
            "lat": 33.401804,
            "lng": 108.230632
        },
        "ad_info": {
            "adcode": 610923,
            "province": "陕西省",
            "city": "安康市",
            "district": "宁陕县"
        }
    },
    {
        "id": "14192755724912588252",
        "title": "公共厕所",
        "address": "陕西省安康市平利县207省道北50米",
        "tel": "",
        "category": "基础设施:公共设施:公共厕所",
        "type": 0,
        "location": {
            "lat": 32.136151,
            "lng": 109.145283
        },
        "ad_info": {
            "adcode": 610926,
            "province": "陕西省",
            "city": "安康市",
            "district": "平利县"
        }
    },
    {
        "id": "8003350657313389943",
        "title": "安康南服务区第三公共厕所",
        "address": "陕西省安康市汉滨区新铺路与蒿流公路交叉口西北方向432米左右",
        "tel": "",
        "category": "基础设施:公共设施:公共厕所",
        "type": 0,
        "location": {
            "lat": 32.581314,
            "lng": 108.662021
        },
        "ad_info": {
            "adcode": 610902,
            "province": "陕西省",
            "city": "安康市",
            "district": "汉滨区"
        }
    },
    {
        "id": "2255208240336138732",
        "title": "公共厕所",
        "address": "陕西省安康市汉阴县凤凰大道汉阴县职教中心",
        "tel": "",
        "category": "基础设施:公共设施:公共厕所",
        "type": 0,
        "location": {
            "lat": 32.893256,
            "lng": 108.498933
        },
        "ad_info": {
            "adcode": 610921,
            "province": "陕西省",
            "city": "安康市",
            "district": "汉阴县"
        }
    },
    {
        "id": "8953376949585914182",
        "title": "安康东服务区公共厕所",
        "address": "陕西省安康市汉滨区张滩镇十天高速公路安康东服务区",
        "tel": "",
        "category": "基础设施:公共设施:公共厕所",
        "type": 0,
        "location": {
            "lat": 32.672881,
            "lng": 109.114236
        },
        "ad_info": {
            "adcode": 610902,
            "province": "陕西省",
            "city": "安康市",
            "district": "汉滨区"
        }
    },
    {
        "id": "2109843864378328313",
        "title": "公共厕所",
        "address": "陕西省安康市白河县兴狮街与车站东路交叉口东北方向50米左右",
        "tel": "",
        "category": "基础设施:公共设施:公共厕所",
        "type": 0,
        "location": {
            "lat": 32.802884,
            "lng": 110.115713
        },
        "ad_info": {
            "adcode": 610929,
            "province": "陕西省",
            "city": "安康市",
            "district": "白河县"
        }
    },
    {
        "id": "1168533806771661394",
        "title": "公共厕所",
        "address": "陕西省安康市白河县大桥路与清风路交叉口西南方向97米左右",
        "tel": "",
        "category": "基础设施:公共设施:公共厕所",
        "type": 0,
        "location": {
            "lat": 32.809722,
            "lng": 110.116652
        },
        "ad_info": {
            "adcode": 610929,
            "province": "陕西省",
            "city": "安康市",
            "district": "白河县"
        }
    },
    {
        "id": "17427386723220589152",
        "title": "公共厕所",
        "address": "陕西省安康市汉滨区市场路与建安巷交叉口东南方向48米左右",
        "tel": "",
        "category": "基础设施:公共设施:公共厕所",
        "type": 0,
        "location": {
            "lat": 32.702479,
            "lng": 109.008868
        },
        "ad_info": {
            "adcode": 610902,
            "province": "陕西省",
            "city": "安康市",
            "district": "汉滨区"
        }
    },
    {
        "id": "9794182838280187577",
        "title": "公共厕所",
        "address": "陕西省安康市宁陕县G210与小沙路交叉口东南方向33米左右",
        "tel": "",
        "category": "基础设施:公共设施:公共厕所",
        "type": 0,
        "location": {
            "lat": 33.613036,
            "lng": 108.663722
        },
        "ad_info": {
            "adcode": 610923,
            "province": "陕西省",
            "city": "安康市",
            "district": "宁陕县"
        }
    },
    {
        "id": "17115651072205519240",
        "title": "公共厕所",
        "address": "陕西省安康市石泉县杨柳路与竹儿湾路交叉口正东方向109米左右",
        "tel": "",
        "category": "基础设施:公共设施:公共厕所",
        "type": 0,
        "location": {
            "lat": 33.066179,
            "lng": 108.226696
        },
        "ad_info": {
            "adcode": 610922,
            "province": "陕西省",
            "city": "安康市",
            "district": "石泉县"
        }
    },
    {
        "id": "5771856386520753095",
        "title": "公共厕所",
        "address": "陕西省安康市平利县新正街与月城巷交叉口正南方向225米左右",
        "tel": "",
        "category": "基础设施:公共设施:公共厕所",
        "type": 0,
        "location": {
            "lat": 32.388691,
            "lng": 109.35652
        },
        "ad_info": {
            "adcode": 610926,
            "province": "陕西省",
            "city": "安康市",
            "district": "平利县"
        }
    },
    {
        "id": "10804627936636910398",
        "title": "公共厕所",
        "address": "陕西省安康市汉滨区G211与堰吉河大桥交叉口正北方向1362米左右",
        "tel": "",
        "category": "基础设施:公共设施:公共厕所",
        "type": 0,
        "location": {
            "lat": 32.563504,
            "lng": 108.892438
        },
        "ad_info": {
            "adcode": 610902,
            "province": "陕西省",
            "city": "安康市",
            "district": "汉滨区"
        }
    },
    {
        "id": "10352752702588078619",
        "title": "公共厕所",
        "address": "陕西省安康市汉滨区东大街与蓖子巷交叉口东北方向23米左右",
        "tel": "",
        "category": "基础设施:公共设施:公共厕所",
        "type": 0,
        "location": {
            "lat": 32.699642,
            "lng": 109.031351
        },
        "ad_info": {
            "adcode": 610902,
            "province": "陕西省",
            "city": "安康市",
            "district": "汉滨区"
        }
    },
    {
        "id": "6544268820180203426",
        "title": "公共厕所",
        "address": "陕西省安康市宁陕县粮食巷与长安东街交叉口西北方向90米左右",
        "tel": "",
        "category": "基础设施:公共设施:公共厕所",
        "type": 0,
        "location": {
            "lat": 33.31575,
            "lng": 108.314622
        },
        "ad_info": {
            "adcode": 610923,
            "province": "陕西省",
            "city": "安康市",
            "district": "宁陕县"
        }
    },
    {
        "id": "9112376821990745459",
        "title": "公共厕所",
        "address": "陕西省安康市汉滨区安康大道与高新大道交叉口东北方向202米左右",
        "tel": "",
        "category": "基础设施:公共设施:公共厕所",
        "type": 0,
        "location": {
            "lat": 32.701812,
            "lng": 108.964136
        },
        "ad_info": {
            "adcode": 610902,
            "province": "陕西省",
            "city": "安康市",
            "district": "汉滨区"
        }
    },
    {
        "id": "13402256062988018274",
        "title": "公共厕所",
        "address": "陕西省安康市汉阴县北城街与河堤路交叉口正北方向95米左右",
        "tel": "",
        "category": "基础设施:公共设施:公共厕所",
        "type": 0,
        "location": {
            "lat": 32.885463,
            "lng": 108.515094
        },
        "ad_info": {
            "adcode": 610921,
            "province": "陕西省",
            "city": "安康市",
            "district": "汉阴县"
        }
    },
    {
        "id": "7341931485990629648",
        "title": "公共厕所",
        "address": "陕西省安康市旬阳市坤顺路与新隆巷交叉口正西方向57米左右",
        "tel": "",
        "category": "基础设施:公共设施:公共厕所",
        "type": 0,
        "location": {
            "lat": 32.831407,
            "lng": 109.382232
        },
        "ad_info": {
            "adcode": 610981,
            "province": "陕西省",
            "city": "安康市",
            "district": "旬阳市"
        }
    },
    {
        "id": "5090308091562859916",
        "title": "公共厕所",
        "address": "陕西省安康市白河县书院北路与书院南路交叉口东北方向169米左右",
        "tel": "",
        "category": "基础设施:公共设施:公共厕所",
        "type": 0,
        "location": {
            "lat": 32.812384,
            "lng": 110.115287
        },
        "ad_info": {
            "adcode": 610929,
            "province": "陕西省",
            "city": "安康市",
            "district": "白河县"
        }
    },
    {
        "id": "2635637899288314535",
        "title": "公共厕所",
        "address": "陕西省安康市白河县白界路东50米",
        "tel": "",
        "category": "基础设施:公共设施:公共厕所",
        "type": 0,
        "location": {
            "lat": 32.608484,
            "lng": 110.015884
        },
        "ad_info": {
            "adcode": 610929,
            "province": "陕西省",
            "city": "安康市",
            "district": "白河县"
        }
    },
    {
        "id": "4458874716631108946",
        "title": "公共厕所",
        "address": "陕西省安康市汉滨区大北街与砂帽石街交叉口正南方向76米左右",
        "tel": "",
        "category": "基础设施:公共设施:公共厕所",
        "type": 0,
        "location": {
            "lat": 32.699081,
            "lng": 109.027084
        },
        "ad_info": {
            "adcode": 610902,
            "province": "陕西省",
            "city": "安康市",
            "district": "汉滨区"
        }
    },
    {
        "id": "13960520906481407944",
        "title": "公共厕所",
        "address": "陕西省安康市汉滨区水电路与黄沟路交叉口西北方向156米左右",
        "tel": "",
        "category": "基础设施:公共设施:公共厕所",
        "type": 0,
        "location": {
            "lat": 32.698075,
            "lng": 109.01304
        },
        "ad_info": {
            "adcode": 610902,
            "province": "陕西省",
            "city": "安康市",
            "district": "汉滨区"
        }
    },
    {
        "id": "15924669259986073586",
        "title": "公共厕所",
        "address": "陕西省安康市汉滨区G316与北环线交叉口正西方向446米左右",
        "tel": "",
        "category": "基础设施:公共设施:公共厕所",
        "type": 0,
        "location": {
            "lat": 32.713381,
            "lng": 109.063039
        },
        "ad_info": {
            "adcode": 610902,
            "province": "陕西省",
            "city": "安康市",
            "district": "汉滨区"
        }
    },
    {
        "id": "9956589715896928011",
        "title": "公共厕所",
        "address": "陕西省安康市紫阳县紫府路与红广路交叉口正东方向199米左右",
        "tel": "",
        "category": "基础设施:公共设施:公共厕所",
        "type": 0,
        "location": {
            "lat": 32.521278,
            "lng": 108.53716
        },
        "ad_info": {
            "adcode": 610924,
            "province": "陕西省",
            "city": "安康市",
            "district": "紫阳县"
        }
    },
    {
        "id": "13708153459166693018",
        "title": "公共厕所",
        "address": "陕西省安康市汉阴县汉铁路",
        "tel": "",
        "category": "基础设施:公共设施:公共厕所",
        "type": 0,
        "location": {
            "lat": 33.139367,
            "lng": 108.716828
        },
        "ad_info": {
            "adcode": 610921,
            "province": "陕西省",
            "city": "安康市",
            "district": "汉阴县"
        }
    },
    {
        "id": "16654311761607481725",
        "title": "牛头店停车区公共厕所",
        "address": "陕西省安康市镇坪县安来高速",
        "tel": "",
        "category": "基础设施:公共设施:公共厕所",
        "type": 0,
        "location": {
            "lat": 32.067157,
            "lng": 109.546393
        },
        "ad_info": {
            "adcode": 610927,
            "province": "陕西省",
            "city": "安康市",
            "district": "镇坪县"
        }
    },
    {
        "id": "3271633299701623741",
        "title": "卫生间",
        "address": "陕西省安康市石泉县金山路",
        "tel": "",
        "category": "基础设施:公共设施:公共厕所",
        "type": 0,
        "location": {
            "lat": 33.054856,
            "lng": 108.258365
        },
        "ad_info": {
            "adcode": 610922,
            "province": "陕西省",
            "city": "安康市",
            "district": "石泉县"
        }
    },
    {
        "id": "1816717219546256693",
        "title": "公共厕所",
        "address": "陕西省安康市宁陕县X224",
        "tel": "",
        "category": "基础设施:公共设施:公共厕所",
        "type": 0,
        "location": {
            "lat": 33.299249,
            "lng": 108.334458
        },
        "ad_info": {
            "adcode": 610923,
            "province": "陕西省",
            "city": "安康市",
            "district": "宁陕县"
        }
    },
    {
        "id": "7590441878624037618",
        "title": "公共厕所",
        "address": "陕西省安康市汉阴县",
        "tel": "",
        "category": "基础设施:公共设施:公共厕所",
        "type": 0,
        "location": {
            "lat": 32.786144,
            "lng": 108.479011
        },
        "ad_info": {
            "adcode": 610921,
            "province": "陕西省",
            "city": "安康市",
            "district": "汉阴县"
        }
    },
    {
        "id": "1546555164698585658",
        "title": "应急厕所",
        "address": "陕西省安康市石泉县杨柳大道",
        "tel": "",
        "category": "基础设施:公共设施:公共厕所",
        "type": 0,
        "location": {
            "lat": 33.056187,
            "lng": 108.229895
        },
        "ad_info": {
            "adcode": 610922,
            "province": "陕西省",
            "city": "安康市",
            "district": "石泉县"
        }
    },
    {
        "id": "10715839356157665774",
        "title": "安康西服务区第一公共厕所",
        "address": "陕西省安康市汉滨区包茂高速",
        "tel": "",
        "category": "基础设施:公共设施:公共厕所",
        "type": 0,
        "location": {
            "lat": 32.710995,
            "lng": 108.870722
        },
        "ad_info": {
            "adcode": 610902,
            "province": "陕西省",
            "city": "安康市",
            "district": "汉滨区"
        }
    },
    {
        "id": "12009925436629121424",
        "title": "太行村驿站公共厕所",
        "address": "陕西省安康市汉阴县",
        "tel": "",
        "category": "基础设施:公共设施:公共厕所",
        "type": 0,
        "location": {
            "lat": 32.962231,
            "lng": 108.446914
        },
        "ad_info": {
            "adcode": 610921,
            "province": "陕西省",
            "city": "安康市",
            "district": "汉阴县"
        }
    },
    {
        "id": "5138858031485912594",
        "title": "镇坪服务区公共厕所",
        "address": "陕西省安康市镇坪县G541与安来高速交叉口西北方向1998米左右",
        "tel": "",
        "category": "基础设施:公共设施:公共厕所",
        "type": 0,
        "location": {
            "lat": 31.838665,
            "lng": 109.517827
        },
        "ad_info": {
            "adcode": 610927,
            "province": "陕西省",
            "city": "安康市",
            "district": "镇坪县"
        }
    },
    {
        "id": "8221038432904970822",
        "title": "安康南服务区第三公共厕所",
        "address": "陕西省安康市汉滨区新铺路与蒿流公路交叉口西北方向283米左右",
        "tel": "",
        "category": "基础设施:公共设施:公共厕所",
        "type": 0,
        "location": {
            "lat": 32.579931,
            "lng": 108.66234
        },
        "ad_info": {
            "adcode": 610902,
            "province": "陕西省",
            "city": "安康市",
            "district": "汉滨区"
        }
    },
    {
        "id": "1439406676825269053",
        "title": "卫生间",
        "address": "陕西省安康市石泉县池迎路",
        "tel": "",
        "category": "基础设施:公共设施:公共厕所",
        "type": 0,
        "location": {
            "lat": 32.97033,
            "lng": 108.353878
        },
        "ad_info": {
            "adcode": 610922,
            "province": "陕西省",
            "city": "安康市",
            "district": "石泉县"
        }
    },
    {
        "id": "3110962631129589248",
        "title": "应急厕所",
        "address": "陕西省安康市石泉县G210",
        "tel": "",
        "category": "基础设施:公共设施:公共厕所",
        "type": 0,
        "location": {
            "lat": 33.021164,
            "lng": 108.147372
        },
        "ad_info": {
            "adcode": 610922,
            "province": "陕西省",
            "city": "安康市",
            "district": "石泉县"
        }
    },
    {
        "id": "6472493410377064717",
        "title": "汉阴服务区第三公共厕所",
        "address": "陕西省安康市汉阴县中国石油安康汉阴服务区北加油站西南侧",
        "tel": "",
        "category": "基础设施:公共设施:公共厕所",
        "type": 0,
        "location": {
            "lat": 32.887653,
            "lng": 108.463755
        },
        "ad_info": {
            "adcode": 610921,
            "province": "陕西省",
            "city": "安康市",
            "district": "汉阴县"
        }
    },
    {
        "id": "14496329752969856196",
        "title": "紫阳南服务区公共厕所",
        "address": "陕西省安康市紫阳县紫阳南服务区与G65包茂高速交叉口南160米",
        "tel": "",
        "category": "基础设施:公共设施:公共厕所",
        "type": 0,
        "location": {
            "lat": 32.367162,
            "lng": 108.297536
        },
        "ad_info": {
            "adcode": 610924,
            "province": "陕西省",
            "city": "安康市",
            "district": "紫阳县"
        }
    },
    {
        "id": "4554501698608742366",
        "title": "公共厕所",
        "address": "陕西省安康市石泉县体育场路与滨江大道东段交叉口西北方向61米左右",
        "tel": "",
        "category": "基础设施:公共设施:公共厕所",
        "type": 0,
        "location": {
            "lat": 33.034617,
            "lng": 108.252968
        },
        "ad_info": {
            "adcode": 610922,
            "province": "陕西省",
            "city": "安康市",
            "district": "石泉县"
        }
    },
    {
        "id": "2829471859814795794",
        "title": "卫生间",
        "address": "陕西省安康市石泉县G7011",
        "tel": "",
        "category": "基础设施:公共设施:公共厕所",
        "type": 0,
        "location": {
            "lat": 32.964175,
            "lng": 108.311184
        },
        "ad_info": {
            "adcode": 610922,
            "province": "陕西省",
            "city": "安康市",
            "district": "石泉县"
        }
    },
    {
        "id": "2021712197352651808",
        "title": "界牌村公共厕所",
        "address": "陕西省安康市汉阴县G316",
        "tel": "",
        "category": "基础设施:公共设施:公共厕所",
        "type": 0,
        "location": {
            "lat": 32.940196,
            "lng": 108.379551
        },
        "ad_info": {
            "adcode": 610921,
            "province": "陕西省",
            "city": "安康市",
            "district": "汉阴县"
        }
    },
    {
        "id": "1120476114130504220",
        "title": "汉阴县观音河镇进步村公厕",
        "address": "陕西省安康市汉阴县龙观路",
        "tel": "",
        "category": "基础设施:公共设施:公共厕所",
        "type": 0,
        "location": {
            "lat": 32.980073,
            "lng": 108.514379
        },
        "ad_info": {
            "adcode": 610921,
            "province": "陕西省",
            "city": "安康市",
            "district": "汉阴县"
        }
    },
    {
        "id": "1622102527586502331",
        "title": "公共厕所",
        "address": "陕西省安康市汉滨区南环路与魁星楼街交叉口东南方向248米左右",
        "tel": "",
        "category": "基础设施:公共设施:公共厕所",
        "type": 0,
        "location": {
            "lat": 32.681507,
            "lng": 109.037445
        },
        "ad_info": {
            "adcode": 610902,
            "province": "陕西省",
            "city": "安康市",
            "district": "汉滨区"
        }
    },
    {
        "id": "2586983225827742168",
        "title": "卫生间",
        "address": "陕西省安康市石泉县",
        "tel": "",
        "category": "基础设施:公共设施:公共厕所",
        "type": 0,
        "location": {
            "lat": 32.974243,
            "lng": 108.333048
        },
        "ad_info": {
            "adcode": 610922,
            "province": "陕西省",
            "city": "安康市",
            "district": "石泉县"
        }
    },
    {
        "id": "7237874336536257856",
        "title": "应急厕所",
        "address": "陕西省安康市石泉县G316",
        "tel": "",
        "category": "基础设施:公共设施:公共厕所",
        "type": 0,
        "location": {
            "lat": 33.013614,
            "lng": 108.281993
        },
        "ad_info": {
            "adcode": 610922,
            "province": "陕西省",
            "city": "安康市",
            "district": "石泉县"
        }
    },
    {
        "id": "2174697385637452789",
        "title": "仁和社区公共厕所",
        "address": "陕西省安康市紫阳县S310",
        "tel": "",
        "category": "基础设施:公共设施:公共厕所",
        "type": 0,
        "location": {
            "lat": 32.52508,
            "lng": 108.523564
        },
        "ad_info": {
            "adcode": 610924,
            "province": "陕西省",
            "city": "安康市",
            "district": "紫阳县"
        }
    },
    {
        "id": "3193283644026524115",
        "title": "卫生间",
        "address": "陕西省安康市石泉县杨柳路",
        "tel": "",
        "category": "基础设施:公共设施:公共厕所",
        "type": 0,
        "location": {
            "lat": 33.057524,
            "lng": 108.227586
        },
        "ad_info": {
            "adcode": 610922,
            "province": "陕西省",
            "city": "安康市",
            "district": "石泉县"
        }
    },
    {
        "id": "3456915842447954406",
        "title": "公共厕所",
        "address": "陕西省安康市汉滨区南环路与南竹巷交叉口正南方向243米左右",
        "tel": "",
        "category": "基础设施:公共设施:公共厕所",
        "type": 0,
        "location": {
            "lat": 32.682166,
            "lng": 109.038755
        },
        "ad_info": {
            "adcode": 610902,
            "province": "陕西省",
            "city": "安康市",
            "district": "汉滨区"
        }
    },
    {
        "id": "17057794099222904752",
        "title": "公共厕所",
        "address": "陕西省安康市汉滨区育才东路64号(巴山东路公共停车场院内)",
        "tel": "",
        "category": "基础设施:公共设施:公共厕所",
        "type": 0,
        "location": {
            "lat": 32.690249,
            "lng": 109.034898
        },
        "ad_info": {
            "adcode": 610902,
            "province": "陕西省",
            "city": "安康市",
            "district": "汉滨区"
        }
    },
    {
        "id": "9035968718648557452",
        "title": "渔湾村公共卫生间",
        "address": "陕西省安康市宁陕县G210",
        "tel": "",
        "category": "基础设施:公共设施:公共厕所",
        "type": 0,
        "location": {
            "lat": 33.312606,
            "lng": 108.232978
        },
        "ad_info": {
            "adcode": 610923,
            "province": "陕西省",
            "city": "安康市",
            "district": "宁陕县"
        }
    },
    {
        "id": "806231944152884789",
        "title": "镇坪服务区公共厕所",
        "address": "陕西省安康市镇坪县安来高速",
        "tel": "",
        "category": "基础设施:公共设施:公共厕所",
        "type": 0,
        "location": {
            "lat": 31.838039,
            "lng": 109.520468
        },
        "ad_info": {
            "adcode": 610927,
            "province": "陕西省",
            "city": "安康市",
            "district": "镇坪县"
        }
    },
    {
        "id": "10770259764626743419",
        "title": "盘龙村桃花谷卫生间",
        "address": "陕西省安康市汉阴县田蒲公路",
        "tel": "",
        "category": "基础设施:公共设施:公共厕所",
        "type": 0,
        "location": {
            "lat": 32.850316,
            "lng": 108.664178
        },
        "ad_info": {
            "adcode": 610921,
            "province": "陕西省",
            "city": "安康市",
            "district": "汉阴县"
        }
    },
    {
        "id": "6366224730704335354",
        "title": "公共厕所",
        "address": "陕西省安康市平利县五峰路与老正街交叉口西南方向82米左右",
        "tel": "",
        "category": "基础设施:公共设施:公共厕所",
        "type": 0,
        "location": {
            "lat": 32.39066,
            "lng": 109.360329
        },
        "ad_info": {
            "adcode": 610926,
            "province": "陕西省",
            "city": "安康市",
            "district": "平利县"
        }
    },
    {
        "id": "2319022988920520373",
        "title": "池河镇谭家湾村应急厕所",
        "address": "陕西省安康市石泉县池迎路",
        "tel": "",
        "category": "基础设施:公共设施:公共厕所",
        "type": 0,
        "location": {
            "lat": 32.959064,
            "lng": 108.355493
        },
        "ad_info": {
            "adcode": 610922,
            "province": "陕西省",
            "city": "安康市",
            "district": "石泉县"
        }
    },
    {
        "id": "2392852199302727878",
        "title": "卫生间",
        "address": "陕西省安康市石泉县S103",
        "tel": "",
        "category": "基础设施:公共设施:公共厕所",
        "type": 0,
        "location": {
            "lat": 33.272126,
            "lng": 108.08537
        },
        "ad_info": {
            "adcode": 610922,
            "province": "陕西省",
            "city": "安康市",
            "district": "石泉县"
        }
    },
    {
        "id": "9586649721694809856",
        "title": "公共卫生间",
        "address": "陕西省安康市石泉县喜熨路",
        "tel": "",
        "category": "基础设施:公共设施:公共厕所",
        "type": 0,
        "location": {
            "lat": 32.79616,
            "lng": 108.164832
        },
        "ad_info": {
            "adcode": 610922,
            "province": "陕西省",
            "city": "安康市",
            "district": "石泉县"
        }
    },
    {
        "id": "1145146993543612552",
        "title": "公共厕所",
        "address": "陕西省安康市汉滨区鸿基·枫尚东侧80米",
        "tel": "",
        "category": "基础设施:公共设施:公共厕所",
        "type": 0,
        "location": {
            "lat": 32.683959,
            "lng": 109.025842
        },
        "ad_info": {
            "adcode": 610902,
            "province": "陕西省",
            "city": "安康市",
            "district": "汉滨区"
        }
    },
    {
        "id": "2430971450848503629",
        "title": "公共厕所",
        "address": "陕西省安康市石泉县新兴街中段",
        "tel": "",
        "category": "基础设施:公共设施:公共厕所",
        "type": 0,
        "location": {
            "lat": 32.955745,
            "lng": 108.331671
        },
        "ad_info": {
            "adcode": 610922,
            "province": "陕西省",
            "city": "安康市",
            "district": "石泉县"
        }
    },
    {
        "id": "12487275123096173688",
        "title": "公共厕所",
        "address": "陕西省安康市平利县G346与S102交叉口西南方向78米左右",
        "tel": "",
        "category": "基础设施:公共设施:公共厕所",
        "type": 0,
        "location": {
            "lat": 32.379187,
            "lng": 109.38107
        },
        "ad_info": {
            "adcode": 610926,
            "province": "陕西省",
            "city": "安康市",
            "district": "平利县"
        }
    },
    {
        "id": "7632110862249226063",
        "title": "公共厕所",
        "address": "陕西省安康市汉滨区汉城东街与滨江大道交叉口正西方向141米左右",
        "tel": "",
        "category": "基础设施:公共设施:公共厕所",
        "type": 0,
        "location": {
            "lat": 32.703011,
            "lng": 109.019353
        },
        "ad_info": {
            "adcode": 610902,
            "province": "陕西省",
            "city": "安康市",
            "district": "汉滨区"
        }
    },
    {
        "id": "726195950544877711",
        "title": "石门寺村公厕",
        "address": "陕西省安康市汉阴县",
        "tel": "",
        "category": "基础设施:公共设施:公共厕所",
        "type": 0,
        "location": {
            "lat": 32.983727,
            "lng": 108.481627
        },
        "ad_info": {
            "adcode": 610921,
            "province": "陕西省",
            "city": "安康市",
            "district": "汉阴县"
        }
    },
    {
        "id": "265404338090355127",
        "title": "滨南服务区公共厕所",
        "address": "陕西省安康市汉滨区汉滨南服务区西侧",
        "tel": "",
        "category": "基础设施:公共设施:公共厕所",
        "type": 0,
        "location": {
            "lat": 32.559111,
            "lng": 109.01245
        },
        "ad_info": {
            "adcode": 610902,
            "province": "陕西省",
            "city": "安康市",
            "district": "汉滨区"
        }
    },
    {
        "id": "10269018952682259239",
        "title": "公共厕所",
        "address": "陕西省安康市平利县大广公路与百朝公路交叉口正西方向308米左右",
        "tel": "",
        "category": "基础设施:公共设施:公共厕所",
        "type": 0,
        "location": {
            "lat": 32.467774,
            "lng": 109.159784
        },
        "ad_info": {
            "adcode": 610926,
            "province": "陕西省",
            "city": "安康市",
            "district": "平利县"
        }
    },
    {
        "id": "12244255367431442798",
        "title": "公共厕所",
        "address": "陕西省安康市汉滨区建材路与环城南路交叉口东南方向176米左右",
        "tel": "",
        "category": "基础设施:公共设施:公共厕所",
        "type": 0,
        "location": {
            "lat": 32.67735,
            "lng": 109.031409
        },
        "ad_info": {
            "adcode": 610902,
            "province": "陕西省",
            "city": "安康市",
            "district": "汉滨区"
        }
    },
    {
        "id": "10885027640578072592",
        "title": "公共厕所",
        "address": "陕西省安康市汉滨区汉城东街与滨江大道交叉口西北方向62米左右",
        "tel": "",
        "category": "基础设施:公共设施:公共厕所",
        "type": 0,
        "location": {
            "lat": 32.703476,
            "lng": 109.020383
        },
        "ad_info": {
            "adcode": 610902,
            "province": "陕西省",
            "city": "安康市",
            "district": "汉滨区"
        }
    },
    {
        "id": "1527353054072391449",
        "title": "安康北停车区公共厕所",
        "address": "陕西省安康市汉滨区安康北停车区",
        "tel": "",
        "category": "基础设施:公共设施:公共厕所",
        "type": 0,
        "location": {
            "lat": 32.916457,
            "lng": 108.966529
        },
        "ad_info": {
            "adcode": 610902,
            "province": "陕西省",
            "city": "安康市",
            "district": "汉滨区"
        }
    },
    {
        "id": "1908042613284046732",
        "title": "安康南服务区第二公共厕所",
        "address": "陕西省安康市汉滨区延长壳牌安康南服务区东加油站南侧",
        "tel": "",
        "category": "基础设施:公共设施:公共厕所",
        "type": 0,
        "location": {
            "lat": 32.579312,
            "lng": 108.663742
        },
        "ad_info": {
            "adcode": 610902,
            "province": "陕西省",
            "city": "安康市",
            "district": "汉滨区"
        }
    },
    {
        "id": "13702042333536206064",
        "title": "林场停车区公共厕所",
        "address": "陕西省安康市宁陕县G5京昆高速与服务区交叉口南160米",
        "tel": "",
        "category": "基础设施:公共设施:公共厕所",
        "type": 0,
        "location": {
            "lat": 33.671196,
            "lng": 108.425522
        },
        "ad_info": {
            "adcode": 610923,
            "province": "陕西省",
            "city": "安康市",
            "district": "宁陕县"
        }
    },
    {
        "id": "2490921947119245262",
        "title": "卫生间",
        "address": "陕西省安康市石泉县喜熨路",
        "tel": "",
        "category": "基础设施:公共设施:公共厕所",
        "type": 0,
        "location": {
            "lat": 32.797628,
            "lng": 108.163936
        },
        "ad_info": {
            "adcode": 610922,
            "province": "陕西省",
            "city": "安康市",
            "district": "石泉县"
        }
    },
    {
        "id": "1117546656622308073",
        "title": "公共厕所",
        "address": "陕西省安康市汉滨区秦岭大道中元北城中央",
        "tel": "",
        "category": "基础设施:公共设施:公共厕所",
        "type": 0,
        "location": {
            "lat": 32.702545,
            "lng": 108.97814
        },
        "ad_info": {
            "adcode": 610902,
            "province": "陕西省",
            "city": "安康市",
            "district": "汉滨区"
        }
    },
    {
        "id": "2272122018612347568",
        "title": "卫生间",
        "address": "陕西省安康市石泉县云红公路",
        "tel": "",
        "category": "基础设施:公共设施:公共厕所",
        "type": 0,
        "location": {
            "lat": 33.148464,
            "lng": 108.302654
        },
        "ad_info": {
            "adcode": 610922,
            "province": "陕西省",
            "city": "安康市",
            "district": "石泉县"
        }
    },
    {
        "id": "6559141273735911732",
        "title": "公共厕所",
        "address": "陕西省安康市汉滨区世纪大道与钻石中路交叉口正南方向328米左右",
        "tel": "",
        "category": "基础设施:公共设施:公共厕所",
        "type": 0,
        "location": {
            "lat": 32.711425,
            "lng": 108.989245
        },
        "ad_info": {
            "adcode": 610902,
            "province": "陕西省",
            "city": "安康市",
            "district": "汉滨区"
        }
    },
    {
        "id": "3031973675134692437",
        "title": "安康北停车区公共厕所",
        "address": "陕西省安康市汉滨区G65包茂高速与安康北停车区交叉口西南60米",
        "tel": "",
        "category": "基础设施:公共设施:公共厕所",
        "type": 0,
        "location": {
            "lat": 32.917855,
            "lng": 108.963288
        },
        "ad_info": {
            "adcode": 610902,
            "province": "陕西省",
            "city": "安康市",
            "district": "汉滨区"
        }
    },
    {
        "id": "8993558982625175272",
        "title": "公共厕所",
        "address": "陕西省安康市石泉县池迎路",
        "tel": "",
        "category": "基础设施:公共设施:公共厕所",
        "type": 0,
        "location": {
            "lat": 32.959286,
            "lng": 108.355688
        },
        "ad_info": {
            "adcode": 610922,
            "province": "陕西省",
            "city": "安康市",
            "district": "石泉县"
        }
    },
    {
        "id": "3294093751965031813",
        "title": "竹叶村金家大院公厕",
        "address": "陕西省安康市镇坪县",
        "tel": "",
        "category": "基础设施:公共设施:公共厕所",
        "type": 0,
        "location": {
            "lat": 32.059527,
            "lng": 109.587137
        },
        "ad_info": {
            "adcode": 610927,
            "province": "陕西省",
            "city": "安康市",
            "district": "镇坪县"
        }
    },
    {
        "id": "1282399165277120749",
        "title": "卫生间",
        "address": "陕西省安康市石泉县水电大道",
        "tel": "",
        "category": "基础设施:公共设施:公共厕所",
        "type": 0,
        "location": {
            "lat": 33.041781,
            "lng": 108.23525
        },
        "ad_info": {
            "adcode": 610922,
            "province": "陕西省",
            "city": "安康市",
            "district": "石泉县"
        }
    },
    {
        "id": "1020946677209792631",
        "title": "汉阴县观音河镇药王村公厕",
        "address": "陕西省安康市汉阴县",
        "tel": "",
        "category": "基础设施:公共设施:公共厕所",
        "type": 0,
        "location": {
            "lat": 33.057996,
            "lng": 108.523128
        },
        "ad_info": {
            "adcode": 610921,
            "province": "陕西省",
            "city": "安康市",
            "district": "汉阴县"
        }
    },
    {
        "id": "10371434189135753569",
        "title": "洗手间",
        "address": "陕西省安康市汉滨区环城南路与陵园巷交叉口西南方向46米左右",
        "tel": "",
        "category": "基础设施:公共设施:公共厕所",
        "type": 0,
        "location": {
            "lat": 32.682638,
            "lng": 109.026135
        },
        "ad_info": {
            "adcode": 610902,
            "province": "陕西省",
            "city": "安康市",
            "district": "汉滨区"
        }
    },
    {
        "id": "63900924974990441",
        "title": "公共厕所",
        "address": "陕西省安康市汉滨区育才路6号",
        "tel": "",
        "category": "基础设施:公共设施:公共厕所",
        "type": 0,
        "location": {
            "lat": 32.686771,
            "lng": 109.038123
        },
        "ad_info": {
            "adcode": 610902,
            "province": "陕西省",
            "city": "安康市",
            "district": "汉滨区"
        }
    },
    {
        "id": "3390558971891799492",
        "title": "卫生间",
        "address": "陕西省安康市石泉县G210",
        "tel": "",
        "category": "基础设施:公共设施:公共厕所",
        "type": 0,
        "location": {
            "lat": 33.102526,
            "lng": 108.210922
        },
        "ad_info": {
            "adcode": 610922,
            "province": "陕西省",
            "city": "安康市",
            "district": "石泉县"
        }
    },
    {
        "id": "5245918740877940943",
        "title": "公共厕所",
        "address": "陕西省安康市汉滨区巴山西路与果园路交叉口西北方向154米左右",
        "tel": "",
        "category": "基础设施:公共设施:公共厕所",
        "type": 0,
        "location": {
            "lat": 32.685234,
            "lng": 109.017585
        },
        "ad_info": {
            "adcode": 610902,
            "province": "陕西省",
            "city": "安康市",
            "district": "汉滨区"
        }
    },
    {
        "id": "12352807135957846492",
        "title": "公共厕所",
        "address": "陕西省安康市汉滨区朝阳路与钻石东路交叉口正东方向412米左右",
        "tel": "",
        "category": "基础设施:公共设施:公共厕所",
        "type": 0,
        "location": {
            "lat": 32.716058,
            "lng": 108.998525
        },
        "ad_info": {
            "adcode": 610902,
            "province": "陕西省",
            "city": "安康市",
            "district": "汉滨区"
        }
    },
    {
        "id": "399556932845188119",
        "title": "公共厕所",
        "address": "陕西省安康市汉滨区巴山中路与金州路交叉口西北方向43米左右",
        "tel": "",
        "category": "基础设施:公共设施:公共厕所",
        "type": 0,
        "location": {
            "lat": 32.6883,
            "lng": 109.029474
        },
        "ad_info": {
            "adcode": 610902,
            "province": "陕西省",
            "city": "安康市",
            "district": "汉滨区"
        }
    },
    {
        "id": "12244255367431442798",
        "title": "公共厕所",
        "address": "陕西省安康市汉滨区建材路与环城南路交叉口东南方向176米左右",
        "tel": "",
        "category": "基础设施:公共设施:公共厕所",
        "type": 0,
        "location": {
            "lat": 32.67735,
            "lng": 109.031409
        },
        "ad_info": {
            "adcode": 610902,
            "province": "陕西省",
            "city": "安康市",
            "district": "汉滨区"
        }
    },
    {
        "id": "10885027640578072592",
        "title": "公共厕所",
        "address": "陕西省安康市汉滨区汉城东街与滨江大道交叉口西北方向62米左右",
        "tel": "",
        "category": "基础设施:公共设施:公共厕所",
        "type": 0,
        "location": {
            "lat": 32.703476,
            "lng": 109.020383
        },
        "ad_info": {
            "adcode": 610902,
            "province": "陕西省",
            "city": "安康市",
            "district": "汉滨区"
        }
    },
    {
        "id": "1527353054072391449",
        "title": "安康北停车区公共厕所",
        "address": "陕西省安康市汉滨区安康北停车区",
        "tel": "",
        "category": "基础设施:公共设施:公共厕所",
        "type": 0,
        "location": {
            "lat": 32.916457,
            "lng": 108.966529
        },
        "ad_info": {
            "adcode": 610902,
            "province": "陕西省",
            "city": "安康市",
            "district": "汉滨区"
        }
    },
    {
        "id": "1908042613284046732",
        "title": "安康南服务区第二公共厕所",
        "address": "陕西省安康市汉滨区延长壳牌安康南服务区东加油站南侧",
        "tel": "",
        "category": "基础设施:公共设施:公共厕所",
        "type": 0,
        "location": {
            "lat": 32.579312,
            "lng": 108.663742
        },
        "ad_info": {
            "adcode": 610902,
            "province": "陕西省",
            "city": "安康市",
            "district": "汉滨区"
        }
    },
    {
        "id": "13702042333536206064",
        "title": "林场停车区公共厕所",
        "address": "陕西省安康市宁陕县G5京昆高速与服务区交叉口南160米",
        "tel": "",
        "category": "基础设施:公共设施:公共厕所",
        "type": 0,
        "location": {
            "lat": 33.671196,
            "lng": 108.425522
        },
        "ad_info": {
            "adcode": 610923,
            "province": "陕西省",
            "city": "安康市",
            "district": "宁陕县"
        }
    },
    {
        "id": "2490921947119245262",
        "title": "卫生间",
        "address": "陕西省安康市石泉县喜熨路",
        "tel": "",
        "category": "基础设施:公共设施:公共厕所",
        "type": 0,
        "location": {
            "lat": 32.797628,
            "lng": 108.163936
        },
        "ad_info": {
            "adcode": 610922,
            "province": "陕西省",
            "city": "安康市",
            "district": "石泉县"
        }
    },
    {
        "id": "1117546656622308073",
        "title": "公共厕所",
        "address": "陕西省安康市汉滨区秦岭大道中元北城中央",
        "tel": "",
        "category": "基础设施:公共设施:公共厕所",
        "type": 0,
        "location": {
            "lat": 32.702545,
            "lng": 108.97814
        },
        "ad_info": {
            "adcode": 610902,
            "province": "陕西省",
            "city": "安康市",
            "district": "汉滨区"
        }
    },
    {
        "id": "2272122018612347568",
        "title": "卫生间",
        "address": "陕西省安康市石泉县云红公路",
        "tel": "",
        "category": "基础设施:公共设施:公共厕所",
        "type": 0,
        "location": {
            "lat": 33.148464,
            "lng": 108.302654
        },
        "ad_info": {
            "adcode": 610922,
            "province": "陕西省",
            "city": "安康市",
            "district": "石泉县"
        }
    },
    {
        "id": "6559141273735911732",
        "title": "公共厕所",
        "address": "陕西省安康市汉滨区世纪大道与钻石中路交叉口正南方向328米左右",
        "tel": "",
        "category": "基础设施:公共设施:公共厕所",
        "type": 0,
        "location": {
            "lat": 32.711425,
            "lng": 108.989245
        },
        "ad_info": {
            "adcode": 610902,
            "province": "陕西省",
            "city": "安康市",
            "district": "汉滨区"
        }
    },
    {
        "id": "3031973675134692437",
        "title": "安康北停车区公共厕所",
        "address": "陕西省安康市汉滨区G65包茂高速与安康北停车区交叉口西南60米",
        "tel": "",
        "category": "基础设施:公共设施:公共厕所",
        "type": 0,
        "location": {
            "lat": 32.917855,
            "lng": 108.963288
        },
        "ad_info": {
            "adcode": 610902,
            "province": "陕西省",
            "city": "安康市",
            "district": "汉滨区"
        }
    },
    {
        "id": "8993558982625175272",
        "title": "公共厕所",
        "address": "陕西省安康市石泉县池迎路",
        "tel": "",
        "category": "基础设施:公共设施:公共厕所",
        "type": 0,
        "location": {
            "lat": 32.959286,
            "lng": 108.355688
        },
        "ad_info": {
            "adcode": 610922,
            "province": "陕西省",
            "city": "安康市",
            "district": "石泉县"
        }
    },
    {
        "id": "3294093751965031813",
        "title": "竹叶村金家大院公厕",
        "address": "陕西省安康市镇坪县",
        "tel": "",
        "category": "基础设施:公共设施:公共厕所",
        "type": 0,
        "location": {
            "lat": 32.059527,
            "lng": 109.587137
        },
        "ad_info": {
            "adcode": 610927,
            "province": "陕西省",
            "city": "安康市",
            "district": "镇坪县"
        }
    },
    {
        "id": "1282399165277120749",
        "title": "卫生间",
        "address": "陕西省安康市石泉县水电大道",
        "tel": "",
        "category": "基础设施:公共设施:公共厕所",
        "type": 0,
        "location": {
            "lat": 33.041781,
            "lng": 108.23525
        },
        "ad_info": {
            "adcode": 610922,
            "province": "陕西省",
            "city": "安康市",
            "district": "石泉县"
        }
    },
    {
        "id": "1020946677209792631",
        "title": "汉阴县观音河镇药王村公厕",
        "address": "陕西省安康市汉阴县",
        "tel": "",
        "category": "基础设施:公共设施:公共厕所",
        "type": 0,
        "location": {
            "lat": 33.057996,
            "lng": 108.523128
        },
        "ad_info": {
            "adcode": 610921,
            "province": "陕西省",
            "city": "安康市",
            "district": "汉阴县"
        }
    },
    {
        "id": "10371434189135753569",
        "title": "洗手间",
        "address": "陕西省安康市汉滨区环城南路与陵园巷交叉口西南方向46米左右",
        "tel": "",
        "category": "基础设施:公共设施:公共厕所",
        "type": 0,
        "location": {
            "lat": 32.682638,
            "lng": 109.026135
        },
        "ad_info": {
            "adcode": 610902,
            "province": "陕西省",
            "city": "安康市",
            "district": "汉滨区"
        }
    },
    {
        "id": "63900924974990441",
        "title": "公共厕所",
        "address": "陕西省安康市汉滨区育才路6号",
        "tel": "",
        "category": "基础设施:公共设施:公共厕所",
        "type": 0,
        "location": {
            "lat": 32.686771,
            "lng": 109.038123
        },
        "ad_info": {
            "adcode": 610902,
            "province": "陕西省",
            "city": "安康市",
            "district": "汉滨区"
        }
    },
    {
        "id": "3390558971891799492",
        "title": "卫生间",
        "address": "陕西省安康市石泉县G210",
        "tel": "",
        "category": "基础设施:公共设施:公共厕所",
        "type": 0,
        "location": {
            "lat": 33.102526,
            "lng": 108.210922
        },
        "ad_info": {
            "adcode": 610922,
            "province": "陕西省",
            "city": "安康市",
            "district": "石泉县"
        }
    },
    {
        "id": "5245918740877940943",
        "title": "公共厕所",
        "address": "陕西省安康市汉滨区巴山西路与果园路交叉口西北方向154米左右",
        "tel": "",
        "category": "基础设施:公共设施:公共厕所",
        "type": 0,
        "location": {
            "lat": 32.685234,
            "lng": 109.017585
        },
        "ad_info": {
            "adcode": 610902,
            "province": "陕西省",
            "city": "安康市",
            "district": "汉滨区"
        }
    },
    {
        "id": "12352807135957846492",
        "title": "公共厕所",
        "address": "陕西省安康市汉滨区朝阳路与钻石东路交叉口正东方向412米左右",
        "tel": "",
        "category": "基础设施:公共设施:公共厕所",
        "type": 0,
        "location": {
            "lat": 32.716058,
            "lng": 108.998525
        },
        "ad_info": {
            "adcode": 610902,
            "province": "陕西省",
            "city": "安康市",
            "district": "汉滨区"
        }
    },
    {
        "id": "399556932845188119",
        "title": "公共厕所",
        "address": "陕西省安康市汉滨区巴山中路与金州路交叉口西北方向43米左右",
        "tel": "",
        "category": "基础设施:公共设施:公共厕所",
        "type": 0,
        "location": {
            "lat": 32.6883,
            "lng": 109.029474
        },
        "ad_info": {
            "adcode": 610902,
            "province": "陕西省",
            "city": "安康市",
            "district": "汉滨区"
        }
    },
    {
        "id": "12244255367431442798",
        "title": "公共厕所",
        "address": "陕西省安康市汉滨区建材路与环城南路交叉口东南方向176米左右",
        "tel": "",
        "category": "基础设施:公共设施:公共厕所",
        "type": 0,
        "location": {
            "lat": 32.67735,
            "lng": 109.031409
        },
        "ad_info": {
            "adcode": 610902,
            "province": "陕西省",
            "city": "安康市",
            "district": "汉滨区"
        }
    },
    {
        "id": "10885027640578072592",
        "title": "公共厕所",
        "address": "陕西省安康市汉滨区汉城东街与滨江大道交叉口西北方向62米左右",
        "tel": "",
        "category": "基础设施:公共设施:公共厕所",
        "type": 0,
        "location": {
            "lat": 32.703476,
            "lng": 109.020383
        },
        "ad_info": {
            "adcode": 610902,
            "province": "陕西省",
            "city": "安康市",
            "district": "汉滨区"
        }
    },
    {
        "id": "1527353054072391449",
        "title": "安康北停车区公共厕所",
        "address": "陕西省安康市汉滨区安康北停车区",
        "tel": "",
        "category": "基础设施:公共设施:公共厕所",
        "type": 0,
        "location": {
            "lat": 32.916457,
            "lng": 108.966529
        },
        "ad_info": {
            "adcode": 610902,
            "province": "陕西省",
            "city": "安康市",
            "district": "汉滨区"
        }
    },
    {
        "id": "1908042613284046732",
        "title": "安康南服务区第二公共厕所",
        "address": "陕西省安康市汉滨区延长壳牌安康南服务区东加油站南侧",
        "tel": "",
        "category": "基础设施:公共设施:公共厕所",
        "type": 0,
        "location": {
            "lat": 32.579312,
            "lng": 108.663742
        },
        "ad_info": {
            "adcode": 610902,
            "province": "陕西省",
            "city": "安康市",
            "district": "汉滨区"
        }
    },
    {
        "id": "13702042333536206064",
        "title": "林场停车区公共厕所",
        "address": "陕西省安康市宁陕县G5京昆高速与服务区交叉口南160米",
        "tel": "",
        "category": "基础设施:公共设施:公共厕所",
        "type": 0,
        "location": {
            "lat": 33.671196,
            "lng": 108.425522
        },
        "ad_info": {
            "adcode": 610923,
            "province": "陕西省",
            "city": "安康市",
            "district": "宁陕县"
        }
    },
    {
        "id": "2490921947119245262",
        "title": "卫生间",
        "address": "陕西省安康市石泉县喜熨路",
        "tel": "",
        "category": "基础设施:公共设施:公共厕所",
        "type": 0,
        "location": {
            "lat": 32.797628,
            "lng": 108.163936
        },
        "ad_info": {
            "adcode": 610922,
            "province": "陕西省",
            "city": "安康市",
            "district": "石泉县"
        }
    },
    {
        "id": "1117546656622308073",
        "title": "公共厕所",
        "address": "陕西省安康市汉滨区秦岭大道中元北城中央",
        "tel": "",
        "category": "基础设施:公共设施:公共厕所",
        "type": 0,
        "location": {
            "lat": 32.702545,
            "lng": 108.97814
        },
        "ad_info": {
            "adcode": 610902,
            "province": "陕西省",
            "city": "安康市",
            "district": "汉滨区"
        }
    },
    {
        "id": "2272122018612347568",
        "title": "卫生间",
        "address": "陕西省安康市石泉县云红公路",
        "tel": "",
        "category": "基础设施:公共设施:公共厕所",
        "type": 0,
        "location": {
            "lat": 33.148464,
            "lng": 108.302654
        },
        "ad_info": {
            "adcode": 610922,
            "province": "陕西省",
            "city": "安康市",
            "district": "石泉县"
        }
    },
    {
        "id": "6559141273735911732",
        "title": "公共厕所",
        "address": "陕西省安康市汉滨区世纪大道与钻石中路交叉口正南方向328米左右",
        "tel": "",
        "category": "基础设施:公共设施:公共厕所",
        "type": 0,
        "location": {
            "lat": 32.711425,
            "lng": 108.989245
        },
        "ad_info": {
            "adcode": 610902,
            "province": "陕西省",
            "city": "安康市",
            "district": "汉滨区"
        }
    },
    {
        "id": "3031973675134692437",
        "title": "安康北停车区公共厕所",
        "address": "陕西省安康市汉滨区G65包茂高速与安康北停车区交叉口西南60米",
        "tel": "",
        "category": "基础设施:公共设施:公共厕所",
        "type": 0,
        "location": {
            "lat": 32.917855,
            "lng": 108.963288
        },
        "ad_info": {
            "adcode": 610902,
            "province": "陕西省",
            "city": "安康市",
            "district": "汉滨区"
        }
    },
    {
        "id": "8993558982625175272",
        "title": "公共厕所",
        "address": "陕西省安康市石泉县池迎路",
        "tel": "",
        "category": "基础设施:公共设施:公共厕所",
        "type": 0,
        "location": {
            "lat": 32.959286,
            "lng": 108.355688
        },
        "ad_info": {
            "adcode": 610922,
            "province": "陕西省",
            "city": "安康市",
            "district": "石泉县"
        }
    },
    {
        "id": "3294093751965031813",
        "title": "竹叶村金家大院公厕",
        "address": "陕西省安康市镇坪县",
        "tel": "",
        "category": "基础设施:公共设施:公共厕所",
        "type": 0,
        "location": {
            "lat": 32.059527,
            "lng": 109.587137
        },
        "ad_info": {
            "adcode": 610927,
            "province": "陕西省",
            "city": "安康市",
            "district": "镇坪县"
        }
    },
    {
        "id": "1282399165277120749",
        "title": "卫生间",
        "address": "陕西省安康市石泉县水电大道",
        "tel": "",
        "category": "基础设施:公共设施:公共厕所",
        "type": 0,
        "location": {
            "lat": 33.041781,
            "lng": 108.23525
        },
        "ad_info": {
            "adcode": 610922,
            "province": "陕西省",
            "city": "安康市",
            "district": "石泉县"
        }
    },
    {
        "id": "1020946677209792631",
        "title": "汉阴县观音河镇药王村公厕",
        "address": "陕西省安康市汉阴县",
        "tel": "",
        "category": "基础设施:公共设施:公共厕所",
        "type": 0,
        "location": {
            "lat": 33.057996,
            "lng": 108.523128
        },
        "ad_info": {
            "adcode": 610921,
            "province": "陕西省",
            "city": "安康市",
            "district": "汉阴县"
        }
    },
    {
        "id": "10371434189135753569",
        "title": "洗手间",
        "address": "陕西省安康市汉滨区环城南路与陵园巷交叉口西南方向46米左右",
        "tel": "",
        "category": "基础设施:公共设施:公共厕所",
        "type": 0,
        "location": {
            "lat": 32.682638,
            "lng": 109.026135
        },
        "ad_info": {
            "adcode": 610902,
            "province": "陕西省",
            "city": "安康市",
            "district": "汉滨区"
        }
    },
    {
        "id": "63900924974990441",
        "title": "公共厕所",
        "address": "陕西省安康市汉滨区育才路6号",
        "tel": "",
        "category": "基础设施:公共设施:公共厕所",
        "type": 0,
        "location": {
            "lat": 32.686771,
            "lng": 109.038123
        },
        "ad_info": {
            "adcode": 610902,
            "province": "陕西省",
            "city": "安康市",
            "district": "汉滨区"
        }
    },
    {
        "id": "3390558971891799492",
        "title": "卫生间",
        "address": "陕西省安康市石泉县G210",
        "tel": "",
        "category": "基础设施:公共设施:公共厕所",
        "type": 0,
        "location": {
            "lat": 33.102526,
            "lng": 108.210922
        },
        "ad_info": {
            "adcode": 610922,
            "province": "陕西省",
            "city": "安康市",
            "district": "石泉县"
        }
    },
    {
        "id": "5245918740877940943",
        "title": "公共厕所",
        "address": "陕西省安康市汉滨区巴山西路与果园路交叉口西北方向154米左右",
        "tel": "",
        "category": "基础设施:公共设施:公共厕所",
        "type": 0,
        "location": {
            "lat": 32.685234,
            "lng": 109.017585
        },
        "ad_info": {
            "adcode": 610902,
            "province": "陕西省",
            "city": "安康市",
            "district": "汉滨区"
        }
    },
    {
        "id": "12352807135957846492",
        "title": "公共厕所",
        "address": "陕西省安康市汉滨区朝阳路与钻石东路交叉口正东方向412米左右",
        "tel": "",
        "category": "基础设施:公共设施:公共厕所",
        "type": 0,
        "location": {
            "lat": 32.716058,
            "lng": 108.998525
        },
        "ad_info": {
            "adcode": 610902,
            "province": "陕西省",
            "city": "安康市",
            "district": "汉滨区"
        }
    },
    {
        "id": "399556932845188119",
        "title": "公共厕所",
        "address": "陕西省安康市汉滨区巴山中路与金州路交叉口西北方向43米左右",
        "tel": "",
        "category": "基础设施:公共设施:公共厕所",
        "type": 0,
        "location": {
            "lat": 32.6883,
            "lng": 109.029474
        },
        "ad_info": {
            "adcode": 610902,
            "province": "陕西省",
            "city": "安康市",
            "district": "汉滨区"
        }
    },
    {
        "id": "12244255367431442798",
        "title": "公共厕所",
        "address": "陕西省安康市汉滨区建材路与环城南路交叉口东南方向176米左右",
        "tel": "",
        "category": "基础设施:公共设施:公共厕所",
        "type": 0,
        "location": {
            "lat": 32.67735,
            "lng": 109.031409
        },
        "ad_info": {
            "adcode": 610902,
            "province": "陕西省",
            "city": "安康市",
            "district": "汉滨区"
        }
    },
    {
        "id": "10885027640578072592",
        "title": "公共厕所",
        "address": "陕西省安康市汉滨区汉城东街与滨江大道交叉口西北方向62米左右",
        "tel": "",
        "category": "基础设施:公共设施:公共厕所",
        "type": 0,
        "location": {
            "lat": 32.703476,
            "lng": 109.020383
        },
        "ad_info": {
            "adcode": 610902,
            "province": "陕西省",
            "city": "安康市",
            "district": "汉滨区"
        }
    },
    {
        "id": "1527353054072391449",
        "title": "安康北停车区公共厕所",
        "address": "陕西省安康市汉滨区安康北停车区",
        "tel": "",
        "category": "基础设施:公共设施:公共厕所",
        "type": 0,
        "location": {
            "lat": 32.916457,
            "lng": 108.966529
        },
        "ad_info": {
            "adcode": 610902,
            "province": "陕西省",
            "city": "安康市",
            "district": "汉滨区"
        }
    },
    {
        "id": "1908042613284046732",
        "title": "安康南服务区第二公共厕所",
        "address": "陕西省安康市汉滨区延长壳牌安康南服务区东加油站南侧",
        "tel": "",
        "category": "基础设施:公共设施:公共厕所",
        "type": 0,
        "location": {
            "lat": 32.579312,
            "lng": 108.663742
        },
        "ad_info": {
            "adcode": 610902,
            "province": "陕西省",
            "city": "安康市",
            "district": "汉滨区"
        }
    },
    {
        "id": "13702042333536206064",
        "title": "林场停车区公共厕所",
        "address": "陕西省安康市宁陕县G5京昆高速与服务区交叉口南160米",
        "tel": "",
        "category": "基础设施:公共设施:公共厕所",
        "type": 0,
        "location": {
            "lat": 33.671196,
            "lng": 108.425522
        },
        "ad_info": {
            "adcode": 610923,
            "province": "陕西省",
            "city": "安康市",
            "district": "宁陕县"
        }
    },
    {
        "id": "2490921947119245262",
        "title": "卫生间",
        "address": "陕西省安康市石泉县喜熨路",
        "tel": "",
        "category": "基础设施:公共设施:公共厕所",
        "type": 0,
        "location": {
            "lat": 32.797628,
            "lng": 108.163936
        },
        "ad_info": {
            "adcode": 610922,
            "province": "陕西省",
            "city": "安康市",
            "district": "石泉县"
        }
    },
    {
        "id": "1117546656622308073",
        "title": "公共厕所",
        "address": "陕西省安康市汉滨区秦岭大道中元北城中央",
        "tel": "",
        "category": "基础设施:公共设施:公共厕所",
        "type": 0,
        "location": {
            "lat": 32.702545,
            "lng": 108.97814
        },
        "ad_info": {
            "adcode": 610902,
            "province": "陕西省",
            "city": "安康市",
            "district": "汉滨区"
        }
    },
    {
        "id": "2272122018612347568",
        "title": "卫生间",
        "address": "陕西省安康市石泉县云红公路",
        "tel": "",
        "category": "基础设施:公共设施:公共厕所",
        "type": 0,
        "location": {
            "lat": 33.148464,
            "lng": 108.302654
        },
        "ad_info": {
            "adcode": 610922,
            "province": "陕西省",
            "city": "安康市",
            "district": "石泉县"
        }
    },
    {
        "id": "6559141273735911732",
        "title": "公共厕所",
        "address": "陕西省安康市汉滨区世纪大道与钻石中路交叉口正南方向328米左右",
        "tel": "",
        "category": "基础设施:公共设施:公共厕所",
        "type": 0,
        "location": {
            "lat": 32.711425,
            "lng": 108.989245
        },
        "ad_info": {
            "adcode": 610902,
            "province": "陕西省",
            "city": "安康市",
            "district": "汉滨区"
        }
    },
    {
        "id": "3031973675134692437",
        "title": "安康北停车区公共厕所",
        "address": "陕西省安康市汉滨区G65包茂高速与安康北停车区交叉口西南60米",
        "tel": "",
        "category": "基础设施:公共设施:公共厕所",
        "type": 0,
        "location": {
            "lat": 32.917855,
            "lng": 108.963288
        },
        "ad_info": {
            "adcode": 610902,
            "province": "陕西省",
            "city": "安康市",
            "district": "汉滨区"
        }
    },
    {
        "id": "8993558982625175272",
        "title": "公共厕所",
        "address": "陕西省安康市石泉县池迎路",
        "tel": "",
        "category": "基础设施:公共设施:公共厕所",
        "type": 0,
        "location": {
            "lat": 32.959286,
            "lng": 108.355688
        },
        "ad_info": {
            "adcode": 610922,
            "province": "陕西省",
            "city": "安康市",
            "district": "石泉县"
        }
    },
    {
        "id": "3294093751965031813",
        "title": "竹叶村金家大院公厕",
        "address": "陕西省安康市镇坪县",
        "tel": "",
        "category": "基础设施:公共设施:公共厕所",
        "type": 0,
        "location": {
            "lat": 32.059527,
            "lng": 109.587137
        },
        "ad_info": {
            "adcode": 610927,
            "province": "陕西省",
            "city": "安康市",
            "district": "镇坪县"
        }
    },
    {
        "id": "1282399165277120749",
        "title": "卫生间",
        "address": "陕西省安康市石泉县水电大道",
        "tel": "",
        "category": "基础设施:公共设施:公共厕所",
        "type": 0,
        "location": {
            "lat": 33.041781,
            "lng": 108.23525
        },
        "ad_info": {
            "adcode": 610922,
            "province": "陕西省",
            "city": "安康市",
            "district": "石泉县"
        }
    },
    {
        "id": "1020946677209792631",
        "title": "汉阴县观音河镇药王村公厕",
        "address": "陕西省安康市汉阴县",
        "tel": "",
        "category": "基础设施:公共设施:公共厕所",
        "type": 0,
        "location": {
            "lat": 33.057996,
            "lng": 108.523128
        },
        "ad_info": {
            "adcode": 610921,
            "province": "陕西省",
            "city": "安康市",
            "district": "汉阴县"
        }
    },
    {
        "id": "10371434189135753569",
        "title": "洗手间",
        "address": "陕西省安康市汉滨区环城南路与陵园巷交叉口西南方向46米左右",
        "tel": "",
        "category": "基础设施:公共设施:公共厕所",
        "type": 0,
        "location": {
            "lat": 32.682638,
            "lng": 109.026135
        },
        "ad_info": {
            "adcode": 610902,
            "province": "陕西省",
            "city": "安康市",
            "district": "汉滨区"
        }
    },
    {
        "id": "63900924974990441",
        "title": "公共厕所",
        "address": "陕西省安康市汉滨区育才路6号",
        "tel": "",
        "category": "基础设施:公共设施:公共厕所",
        "type": 0,
        "location": {
            "lat": 32.686771,
            "lng": 109.038123
        },
        "ad_info": {
            "adcode": 610902,
            "province": "陕西省",
            "city": "安康市",
            "district": "汉滨区"
        }
    },
    {
        "id": "3390558971891799492",
        "title": "卫生间",
        "address": "陕西省安康市石泉县G210",
        "tel": "",
        "category": "基础设施:公共设施:公共厕所",
        "type": 0,
        "location": {
            "lat": 33.102526,
            "lng": 108.210922
        },
        "ad_info": {
            "adcode": 610922,
            "province": "陕西省",
            "city": "安康市",
            "district": "石泉县"
        }
    },
    {
        "id": "5245918740877940943",
        "title": "公共厕所",
        "address": "陕西省安康市汉滨区巴山西路与果园路交叉口西北方向154米左右",
        "tel": "",
        "category": "基础设施:公共设施:公共厕所",
        "type": 0,
        "location": {
            "lat": 32.685234,
            "lng": 109.017585
        },
        "ad_info": {
            "adcode": 610902,
            "province": "陕西省",
            "city": "安康市",
            "district": "汉滨区"
        }
    },
    {
        "id": "12352807135957846492",
        "title": "公共厕所",
        "address": "陕西省安康市汉滨区朝阳路与钻石东路交叉口正东方向412米左右",
        "tel": "",
        "category": "基础设施:公共设施:公共厕所",
        "type": 0,
        "location": {
            "lat": 32.716058,
            "lng": 108.998525
        },
        "ad_info": {
            "adcode": 610902,
            "province": "陕西省",
            "city": "安康市",
            "district": "汉滨区"
        }
    },
    {
        "id": "399556932845188119",
        "title": "公共厕所",
        "address": "陕西省安康市汉滨区巴山中路与金州路交叉口西北方向43米左右",
        "tel": "",
        "category": "基础设施:公共设施:公共厕所",
        "type": 0,
        "location": {
            "lat": 32.6883,
            "lng": 109.029474
        },
        "ad_info": {
            "adcode": 610902,
            "province": "陕西省",
            "city": "安康市",
            "district": "汉滨区"
        }
    },
    {
        "id": "12244255367431442798",
        "title": "公共厕所",
        "address": "陕西省安康市汉滨区建材路与环城南路交叉口东南方向176米左右",
        "tel": "",
        "category": "基础设施:公共设施:公共厕所",
        "type": 0,
        "location": {
            "lat": 32.67735,
            "lng": 109.031409
        },
        "ad_info": {
            "adcode": 610902,
            "province": "陕西省",
            "city": "安康市",
            "district": "汉滨区"
        }
    },
    {
        "id": "10885027640578072592",
        "title": "公共厕所",
        "address": "陕西省安康市汉滨区汉城东街与滨江大道交叉口西北方向62米左右",
        "tel": "",
        "category": "基础设施:公共设施:公共厕所",
        "type": 0,
        "location": {
            "lat": 32.703476,
            "lng": 109.020383
        },
        "ad_info": {
            "adcode": 610902,
            "province": "陕西省",
            "city": "安康市",
            "district": "汉滨区"
        }
    },
    {
        "id": "1527353054072391449",
        "title": "安康北停车区公共厕所",
        "address": "陕西省安康市汉滨区安康北停车区",
        "tel": "",
        "category": "基础设施:公共设施:公共厕所",
        "type": 0,
        "location": {
            "lat": 32.916457,
            "lng": 108.966529
        },
        "ad_info": {
            "adcode": 610902,
            "province": "陕西省",
            "city": "安康市",
            "district": "汉滨区"
        }
    },
    {
        "id": "1908042613284046732",
        "title": "安康南服务区第二公共厕所",
        "address": "陕西省安康市汉滨区延长壳牌安康南服务区东加油站南侧",
        "tel": "",
        "category": "基础设施:公共设施:公共厕所",
        "type": 0,
        "location": {
            "lat": 32.579312,
            "lng": 108.663742
        },
        "ad_info": {
            "adcode": 610902,
            "province": "陕西省",
            "city": "安康市",
            "district": "汉滨区"
        }
    },
    {
        "id": "13702042333536206064",
        "title": "林场停车区公共厕所",
        "address": "陕西省安康市宁陕县G5京昆高速与服务区交叉口南160米",
        "tel": "",
        "category": "基础设施:公共设施:公共厕所",
        "type": 0,
        "location": {
            "lat": 33.671196,
            "lng": 108.425522
        },
        "ad_info": {
            "adcode": 610923,
            "province": "陕西省",
            "city": "安康市",
            "district": "宁陕县"
        }
    },
    {
        "id": "2490921947119245262",
        "title": "卫生间",
        "address": "陕西省安康市石泉县喜熨路",
        "tel": "",
        "category": "基础设施:公共设施:公共厕所",
        "type": 0,
        "location": {
            "lat": 32.797628,
            "lng": 108.163936
        },
        "ad_info": {
            "adcode": 610922,
            "province": "陕西省",
            "city": "安康市",
            "district": "石泉县"
        }
    },
    {
        "id": "1117546656622308073",
        "title": "公共厕所",
        "address": "陕西省安康市汉滨区秦岭大道中元北城中央",
        "tel": "",
        "category": "基础设施:公共设施:公共厕所",
        "type": 0,
        "location": {
            "lat": 32.702545,
            "lng": 108.97814
        },
        "ad_info": {
            "adcode": 610902,
            "province": "陕西省",
            "city": "安康市",
            "district": "汉滨区"
        }
    },
    {
        "id": "2272122018612347568",
        "title": "卫生间",
        "address": "陕西省安康市石泉县云红公路",
        "tel": "",
        "category": "基础设施:公共设施:公共厕所",
        "type": 0,
        "location": {
            "lat": 33.148464,
            "lng": 108.302654
        },
        "ad_info": {
            "adcode": 610922,
            "province": "陕西省",
            "city": "安康市",
            "district": "石泉县"
        }
    },
    {
        "id": "6559141273735911732",
        "title": "公共厕所",
        "address": "陕西省安康市汉滨区世纪大道与钻石中路交叉口正南方向328米左右",
        "tel": "",
        "category": "基础设施:公共设施:公共厕所",
        "type": 0,
        "location": {
            "lat": 32.711425,
            "lng": 108.989245
        },
        "ad_info": {
            "adcode": 610902,
            "province": "陕西省",
            "city": "安康市",
            "district": "汉滨区"
        }
    },
    {
        "id": "3031973675134692437",
        "title": "安康北停车区公共厕所",
        "address": "陕西省安康市汉滨区G65包茂高速与安康北停车区交叉口西南60米",
        "tel": "",
        "category": "基础设施:公共设施:公共厕所",
        "type": 0,
        "location": {
            "lat": 32.917855,
            "lng": 108.963288
        },
        "ad_info": {
            "adcode": 610902,
            "province": "陕西省",
            "city": "安康市",
            "district": "汉滨区"
        }
    },
    {
        "id": "8993558982625175272",
        "title": "公共厕所",
        "address": "陕西省安康市石泉县池迎路",
        "tel": "",
        "category": "基础设施:公共设施:公共厕所",
        "type": 0,
        "location": {
            "lat": 32.959286,
            "lng": 108.355688
        },
        "ad_info": {
            "adcode": 610922,
            "province": "陕西省",
            "city": "安康市",
            "district": "石泉县"
        }
    },
    {
        "id": "3294093751965031813",
        "title": "竹叶村金家大院公厕",
        "address": "陕西省安康市镇坪县",
        "tel": "",
        "category": "基础设施:公共设施:公共厕所",
        "type": 0,
        "location": {
            "lat": 32.059527,
            "lng": 109.587137
        },
        "ad_info": {
            "adcode": 610927,
            "province": "陕西省",
            "city": "安康市",
            "district": "镇坪县"
        }
    },
    {
        "id": "1282399165277120749",
        "title": "卫生间",
        "address": "陕西省安康市石泉县水电大道",
        "tel": "",
        "category": "基础设施:公共设施:公共厕所",
        "type": 0,
        "location": {
            "lat": 33.041781,
            "lng": 108.23525
        },
        "ad_info": {
            "adcode": 610922,
            "province": "陕西省",
            "city": "安康市",
            "district": "石泉县"
        }
    },
    {
        "id": "1020946677209792631",
        "title": "汉阴县观音河镇药王村公厕",
        "address": "陕西省安康市汉阴县",
        "tel": "",
        "category": "基础设施:公共设施:公共厕所",
        "type": 0,
        "location": {
            "lat": 33.057996,
            "lng": 108.523128
        },
        "ad_info": {
            "adcode": 610921,
            "province": "陕西省",
            "city": "安康市",
            "district": "汉阴县"
        }
    },
    {
        "id": "10371434189135753569",
        "title": "洗手间",
        "address": "陕西省安康市汉滨区环城南路与陵园巷交叉口西南方向46米左右",
        "tel": "",
        "category": "基础设施:公共设施:公共厕所",
        "type": 0,
        "location": {
            "lat": 32.682638,
            "lng": 109.026135
        },
        "ad_info": {
            "adcode": 610902,
            "province": "陕西省",
            "city": "安康市",
            "district": "汉滨区"
        }
    },
    {
        "id": "63900924974990441",
        "title": "公共厕所",
        "address": "陕西省安康市汉滨区育才路6号",
        "tel": "",
        "category": "基础设施:公共设施:公共厕所",
        "type": 0,
        "location": {
            "lat": 32.686771,
            "lng": 109.038123
        },
        "ad_info": {
            "adcode": 610902,
            "province": "陕西省",
            "city": "安康市",
            "district": "汉滨区"
        }
    },
    {
        "id": "3390558971891799492",
        "title": "卫生间",
        "address": "陕西省安康市石泉县G210",
        "tel": "",
        "category": "基础设施:公共设施:公共厕所",
        "type": 0,
        "location": {
            "lat": 33.102526,
            "lng": 108.210922
        },
        "ad_info": {
            "adcode": 610922,
            "province": "陕西省",
            "city": "安康市",
            "district": "石泉县"
        }
    },
    {
        "id": "5245918740877940943",
        "title": "公共厕所",
        "address": "陕西省安康市汉滨区巴山西路与果园路交叉口西北方向154米左右",
        "tel": "",
        "category": "基础设施:公共设施:公共厕所",
        "type": 0,
        "location": {
            "lat": 32.685234,
            "lng": 109.017585
        },
        "ad_info": {
            "adcode": 610902,
            "province": "陕西省",
            "city": "安康市",
            "district": "汉滨区"
        }
    },
    {
        "id": "12352807135957846492",
        "title": "公共厕所",
        "address": "陕西省安康市汉滨区朝阳路与钻石东路交叉口正东方向412米左右",
        "tel": "",
        "category": "基础设施:公共设施:公共厕所",
        "type": 0,
        "location": {
            "lat": 32.716058,
            "lng": 108.998525
        },
        "ad_info": {
            "adcode": 610902,
            "province": "陕西省",
            "city": "安康市",
            "district": "汉滨区"
        }
    },
    {
        "id": "399556932845188119",
        "title": "公共厕所",
        "address": "陕西省安康市汉滨区巴山中路与金州路交叉口西北方向43米左右",
        "tel": "",
        "category": "基础设施:公共设施:公共厕所",
        "type": 0,
        "location": {
            "lat": 32.6883,
            "lng": 109.029474
        },
        "ad_info": {
            "adcode": 610902,
            "province": "陕西省",
            "city": "安康市",
            "district": "汉滨区"
        }
    },
    {
        "id": "12244255367431442798",
        "title": "公共厕所",
        "address": "陕西省安康市汉滨区建材路与环城南路交叉口东南方向176米左右",
        "tel": "",
        "category": "基础设施:公共设施:公共厕所",
        "type": 0,
        "location": {
            "lat": 32.67735,
            "lng": 109.031409
        },
        "ad_info": {
            "adcode": 610902,
            "province": "陕西省",
            "city": "安康市",
            "district": "汉滨区"
        }
    },
    {
        "id": "10885027640578072592",
        "title": "公共厕所",
        "address": "陕西省安康市汉滨区汉城东街与滨江大道交叉口西北方向62米左右",
        "tel": "",
        "category": "基础设施:公共设施:公共厕所",
        "type": 0,
        "location": {
            "lat": 32.703476,
            "lng": 109.020383
        },
        "ad_info": {
            "adcode": 610902,
            "province": "陕西省",
            "city": "安康市",
            "district": "汉滨区"
        }
    },
    {
        "id": "1527353054072391449",
        "title": "安康北停车区公共厕所",
        "address": "陕西省安康市汉滨区安康北停车区",
        "tel": "",
        "category": "基础设施:公共设施:公共厕所",
        "type": 0,
        "location": {
            "lat": 32.916457,
            "lng": 108.966529
        },
        "ad_info": {
            "adcode": 610902,
            "province": "陕西省",
            "city": "安康市",
            "district": "汉滨区"
        }
    },
    {
        "id": "1908042613284046732",
        "title": "安康南服务区第二公共厕所",
        "address": "陕西省安康市汉滨区延长壳牌安康南服务区东加油站南侧",
        "tel": "",
        "category": "基础设施:公共设施:公共厕所",
        "type": 0,
        "location": {
            "lat": 32.579312,
            "lng": 108.663742
        },
        "ad_info": {
            "adcode": 610902,
            "province": "陕西省",
            "city": "安康市",
            "district": "汉滨区"
        }
    },
    {
        "id": "13702042333536206064",
        "title": "林场停车区公共厕所",
        "address": "陕西省安康市宁陕县G5京昆高速与服务区交叉口南160米",
        "tel": "",
        "category": "基础设施:公共设施:公共厕所",
        "type": 0,
        "location": {
            "lat": 33.671196,
            "lng": 108.425522
        },
        "ad_info": {
            "adcode": 610923,
            "province": "陕西省",
            "city": "安康市",
            "district": "宁陕县"
        }
    },
    {
        "id": "2490921947119245262",
        "title": "卫生间",
        "address": "陕西省安康市石泉县喜熨路",
        "tel": "",
        "category": "基础设施:公共设施:公共厕所",
        "type": 0,
        "location": {
            "lat": 32.797628,
            "lng": 108.163936
        },
        "ad_info": {
            "adcode": 610922,
            "province": "陕西省",
            "city": "安康市",
            "district": "石泉县"
        }
    },
    {
        "id": "1117546656622308073",
        "title": "公共厕所",
        "address": "陕西省安康市汉滨区秦岭大道中元北城中央",
        "tel": "",
        "category": "基础设施:公共设施:公共厕所",
        "type": 0,
        "location": {
            "lat": 32.702545,
            "lng": 108.97814
        },
        "ad_info": {
            "adcode": 610902,
            "province": "陕西省",
            "city": "安康市",
            "district": "汉滨区"
        }
    },
    {
        "id": "2272122018612347568",
        "title": "卫生间",
        "address": "陕西省安康市石泉县云红公路",
        "tel": "",
        "category": "基础设施:公共设施:公共厕所",
        "type": 0,
        "location": {
            "lat": 33.148464,
            "lng": 108.302654
        },
        "ad_info": {
            "adcode": 610922,
            "province": "陕西省",
            "city": "安康市",
            "district": "石泉县"
        }
    },
    {
        "id": "6559141273735911732",
        "title": "公共厕所",
        "address": "陕西省安康市汉滨区世纪大道与钻石中路交叉口正南方向328米左右",
        "tel": "",
        "category": "基础设施:公共设施:公共厕所",
        "type": 0,
        "location": {
            "lat": 32.711425,
            "lng": 108.989245
        },
        "ad_info": {
            "adcode": 610902,
            "province": "陕西省",
            "city": "安康市",
            "district": "汉滨区"
        }
    },
    {
        "id": "3031973675134692437",
        "title": "安康北停车区公共厕所",
        "address": "陕西省安康市汉滨区G65包茂高速与安康北停车区交叉口西南60米",
        "tel": "",
        "category": "基础设施:公共设施:公共厕所",
        "type": 0,
        "location": {
            "lat": 32.917855,
            "lng": 108.963288
        },
        "ad_info": {
            "adcode": 610902,
            "province": "陕西省",
            "city": "安康市",
            "district": "汉滨区"
        }
    },
    {
        "id": "8993558982625175272",
        "title": "公共厕所",
        "address": "陕西省安康市石泉县池迎路",
        "tel": "",
        "category": "基础设施:公共设施:公共厕所",
        "type": 0,
        "location": {
            "lat": 32.959286,
            "lng": 108.355688
        },
        "ad_info": {
            "adcode": 610922,
            "province": "陕西省",
            "city": "安康市",
            "district": "石泉县"
        }
    },
    {
        "id": "3294093751965031813",
        "title": "竹叶村金家大院公厕",
        "address": "陕西省安康市镇坪县",
        "tel": "",
        "category": "基础设施:公共设施:公共厕所",
        "type": 0,
        "location": {
            "lat": 32.059527,
            "lng": 109.587137
        },
        "ad_info": {
            "adcode": 610927,
            "province": "陕西省",
            "city": "安康市",
            "district": "镇坪县"
        }
    },
    {
        "id": "1282399165277120749",
        "title": "卫生间",
        "address": "陕西省安康市石泉县水电大道",
        "tel": "",
        "category": "基础设施:公共设施:公共厕所",
        "type": 0,
        "location": {
            "lat": 33.041781,
            "lng": 108.23525
        },
        "ad_info": {
            "adcode": 610922,
            "province": "陕西省",
            "city": "安康市",
            "district": "石泉县"
        }
    },
    {
        "id": "1020946677209792631",
        "title": "汉阴县观音河镇药王村公厕",
        "address": "陕西省安康市汉阴县",
        "tel": "",
        "category": "基础设施:公共设施:公共厕所",
        "type": 0,
        "location": {
            "lat": 33.057996,
            "lng": 108.523128
        },
        "ad_info": {
            "adcode": 610921,
            "province": "陕西省",
            "city": "安康市",
            "district": "汉阴县"
        }
    },
    {
        "id": "10371434189135753569",
        "title": "洗手间",
        "address": "陕西省安康市汉滨区环城南路与陵园巷交叉口西南方向46米左右",
        "tel": "",
        "category": "基础设施:公共设施:公共厕所",
        "type": 0,
        "location": {
            "lat": 32.682638,
            "lng": 109.026135
        },
        "ad_info": {
            "adcode": 610902,
            "province": "陕西省",
            "city": "安康市",
            "district": "汉滨区"
        }
    },
    {
        "id": "63900924974990441",
        "title": "公共厕所",
        "address": "陕西省安康市汉滨区育才路6号",
        "tel": "",
        "category": "基础设施:公共设施:公共厕所",
        "type": 0,
        "location": {
            "lat": 32.686771,
            "lng": 109.038123
        },
        "ad_info": {
            "adcode": 610902,
            "province": "陕西省",
            "city": "安康市",
            "district": "汉滨区"
        }
    },
    {
        "id": "3390558971891799492",
        "title": "卫生间",
        "address": "陕西省安康市石泉县G210",
        "tel": "",
        "category": "基础设施:公共设施:公共厕所",
        "type": 0,
        "location": {
            "lat": 33.102526,
            "lng": 108.210922
        },
        "ad_info": {
            "adcode": 610922,
            "province": "陕西省",
            "city": "安康市",
            "district": "石泉县"
        }
    },
    {
        "id": "5245918740877940943",
        "title": "公共厕所",
        "address": "陕西省安康市汉滨区巴山西路与果园路交叉口西北方向154米左右",
        "tel": "",
        "category": "基础设施:公共设施:公共厕所",
        "type": 0,
        "location": {
            "lat": 32.685234,
            "lng": 109.017585
        },
        "ad_info": {
            "adcode": 610902,
            "province": "陕西省",
            "city": "安康市",
            "district": "汉滨区"
        }
    },
    {
        "id": "12352807135957846492",
        "title": "公共厕所",
        "address": "陕西省安康市汉滨区朝阳路与钻石东路交叉口正东方向412米左右",
        "tel": "",
        "category": "基础设施:公共设施:公共厕所",
        "type": 0,
        "location": {
            "lat": 32.716058,
            "lng": 108.998525
        },
        "ad_info": {
            "adcode": 610902,
            "province": "陕西省",
            "city": "安康市",
            "district": "汉滨区"
        }
    },
    {
        "id": "399556932845188119",
        "title": "公共厕所",
        "address": "陕西省安康市汉滨区巴山中路与金州路交叉口西北方向43米左右",
        "tel": "",
        "category": "基础设施:公共设施:公共厕所",
        "type": 0,
        "location": {
            "lat": 32.6883,
            "lng": 109.029474
        },
        "ad_info": {
            "adcode": 610902,
            "province": "陕西省",
            "city": "安康市",
            "district": "汉滨区"
        }
    },
    {
        "id": "12244255367431442798",
        "title": "公共厕所",
        "address": "陕西省安康市汉滨区建材路与环城南路交叉口东南方向176米左右",
        "tel": "",
        "category": "基础设施:公共设施:公共厕所",
        "type": 0,
        "location": {
            "lat": 32.67735,
            "lng": 109.031409
        },
        "ad_info": {
            "adcode": 610902,
            "province": "陕西省",
            "city": "安康市",
            "district": "汉滨区"
        }
    },
    {
        "id": "10885027640578072592",
        "title": "公共厕所",
        "address": "陕西省安康市汉滨区汉城东街与滨江大道交叉口西北方向62米左右",
        "tel": "",
        "category": "基础设施:公共设施:公共厕所",
        "type": 0,
        "location": {
            "lat": 32.703476,
            "lng": 109.020383
        },
        "ad_info": {
            "adcode": 610902,
            "province": "陕西省",
            "city": "安康市",
            "district": "汉滨区"
        }
    },
    {
        "id": "1527353054072391449",
        "title": "安康北停车区公共厕所",
        "address": "陕西省安康市汉滨区安康北停车区",
        "tel": "",
        "category": "基础设施:公共设施:公共厕所",
        "type": 0,
        "location": {
            "lat": 32.916457,
            "lng": 108.966529
        },
        "ad_info": {
            "adcode": 610902,
            "province": "陕西省",
            "city": "安康市",
            "district": "汉滨区"
        }
    },
    {
        "id": "1908042613284046732",
        "title": "安康南服务区第二公共厕所",
        "address": "陕西省安康市汉滨区延长壳牌安康南服务区东加油站南侧",
        "tel": "",
        "category": "基础设施:公共设施:公共厕所",
        "type": 0,
        "location": {
            "lat": 32.579312,
            "lng": 108.663742
        },
        "ad_info": {
            "adcode": 610902,
            "province": "陕西省",
            "city": "安康市",
            "district": "汉滨区"
        }
    },
    {
        "id": "13702042333536206064",
        "title": "林场停车区公共厕所",
        "address": "陕西省安康市宁陕县G5京昆高速与服务区交叉口南160米",
        "tel": "",
        "category": "基础设施:公共设施:公共厕所",
        "type": 0,
        "location": {
            "lat": 33.671196,
            "lng": 108.425522
        },
        "ad_info": {
            "adcode": 610923,
            "province": "陕西省",
            "city": "安康市",
            "district": "宁陕县"
        }
    },
    {
        "id": "2490921947119245262",
        "title": "卫生间",
        "address": "陕西省安康市石泉县喜熨路",
        "tel": "",
        "category": "基础设施:公共设施:公共厕所",
        "type": 0,
        "location": {
            "lat": 32.797628,
            "lng": 108.163936
        },
        "ad_info": {
            "adcode": 610922,
            "province": "陕西省",
            "city": "安康市",
            "district": "石泉县"
        }
    },
    {
        "id": "1117546656622308073",
        "title": "公共厕所",
        "address": "陕西省安康市汉滨区秦岭大道中元北城中央",
        "tel": "",
        "category": "基础设施:公共设施:公共厕所",
        "type": 0,
        "location": {
            "lat": 32.702545,
            "lng": 108.97814
        },
        "ad_info": {
            "adcode": 610902,
            "province": "陕西省",
            "city": "安康市",
            "district": "汉滨区"
        }
    },
    {
        "id": "2272122018612347568",
        "title": "卫生间",
        "address": "陕西省安康市石泉县云红公路",
        "tel": "",
        "category": "基础设施:公共设施:公共厕所",
        "type": 0,
        "location": {
            "lat": 33.148464,
            "lng": 108.302654
        },
        "ad_info": {
            "adcode": 610922,
            "province": "陕西省",
            "city": "安康市",
            "district": "石泉县"
        }
    },
    {
        "id": "6559141273735911732",
        "title": "公共厕所",
        "address": "陕西省安康市汉滨区世纪大道与钻石中路交叉口正南方向328米左右",
        "tel": "",
        "category": "基础设施:公共设施:公共厕所",
        "type": 0,
        "location": {
            "lat": 32.711425,
            "lng": 108.989245
        },
        "ad_info": {
            "adcode": 610902,
            "province": "陕西省",
            "city": "安康市",
            "district": "汉滨区"
        }
    },
    {
        "id": "3031973675134692437",
        "title": "安康北停车区公共厕所",
        "address": "陕西省安康市汉滨区G65包茂高速与安康北停车区交叉口西南60米",
        "tel": "",
        "category": "基础设施:公共设施:公共厕所",
        "type": 0,
        "location": {
            "lat": 32.917855,
            "lng": 108.963288
        },
        "ad_info": {
            "adcode": 610902,
            "province": "陕西省",
            "city": "安康市",
            "district": "汉滨区"
        }
    },
    {
        "id": "8993558982625175272",
        "title": "公共厕所",
        "address": "陕西省安康市石泉县池迎路",
        "tel": "",
        "category": "基础设施:公共设施:公共厕所",
        "type": 0,
        "location": {
            "lat": 32.959286,
            "lng": 108.355688
        },
        "ad_info": {
            "adcode": 610922,
            "province": "陕西省",
            "city": "安康市",
            "district": "石泉县"
        }
    },
    {
        "id": "3294093751965031813",
        "title": "竹叶村金家大院公厕",
        "address": "陕西省安康市镇坪县",
        "tel": "",
        "category": "基础设施:公共设施:公共厕所",
        "type": 0,
        "location": {
            "lat": 32.059527,
            "lng": 109.587137
        },
        "ad_info": {
            "adcode": 610927,
            "province": "陕西省",
            "city": "安康市",
            "district": "镇坪县"
        }
    },
    {
        "id": "1282399165277120749",
        "title": "卫生间",
        "address": "陕西省安康市石泉县水电大道",
        "tel": "",
        "category": "基础设施:公共设施:公共厕所",
        "type": 0,
        "location": {
            "lat": 33.041781,
            "lng": 108.23525
        },
        "ad_info": {
            "adcode": 610922,
            "province": "陕西省",
            "city": "安康市",
            "district": "石泉县"
        }
    },
    {
        "id": "1020946677209792631",
        "title": "汉阴县观音河镇药王村公厕",
        "address": "陕西省安康市汉阴县",
        "tel": "",
        "category": "基础设施:公共设施:公共厕所",
        "type": 0,
        "location": {
            "lat": 33.057996,
            "lng": 108.523128
        },
        "ad_info": {
            "adcode": 610921,
            "province": "陕西省",
            "city": "安康市",
            "district": "汉阴县"
        }
    },
    {
        "id": "10371434189135753569",
        "title": "洗手间",
        "address": "陕西省安康市汉滨区环城南路与陵园巷交叉口西南方向46米左右",
        "tel": "",
        "category": "基础设施:公共设施:公共厕所",
        "type": 0,
        "location": {
            "lat": 32.682638,
            "lng": 109.026135
        },
        "ad_info": {
            "adcode": 610902,
            "province": "陕西省",
            "city": "安康市",
            "district": "汉滨区"
        }
    },
    {
        "id": "63900924974990441",
        "title": "公共厕所",
        "address": "陕西省安康市汉滨区育才路6号",
        "tel": "",
        "category": "基础设施:公共设施:公共厕所",
        "type": 0,
        "location": {
            "lat": 32.686771,
            "lng": 109.038123
        },
        "ad_info": {
            "adcode": 610902,
            "province": "陕西省",
            "city": "安康市",
            "district": "汉滨区"
        }
    },
    {
        "id": "3390558971891799492",
        "title": "卫生间",
        "address": "陕西省安康市石泉县G210",
        "tel": "",
        "category": "基础设施:公共设施:公共厕所",
        "type": 0,
        "location": {
            "lat": 33.102526,
            "lng": 108.210922
        },
        "ad_info": {
            "adcode": 610922,
            "province": "陕西省",
            "city": "安康市",
            "district": "石泉县"
        }
    },
    {
        "id": "5245918740877940943",
        "title": "公共厕所",
        "address": "陕西省安康市汉滨区巴山西路与果园路交叉口西北方向154米左右",
        "tel": "",
        "category": "基础设施:公共设施:公共厕所",
        "type": 0,
        "location": {
            "lat": 32.685234,
            "lng": 109.017585
        },
        "ad_info": {
            "adcode": 610902,
            "province": "陕西省",
            "city": "安康市",
            "district": "汉滨区"
        }
    },
    {
        "id": "12352807135957846492",
        "title": "公共厕所",
        "address": "陕西省安康市汉滨区朝阳路与钻石东路交叉口正东方向412米左右",
        "tel": "",
        "category": "基础设施:公共设施:公共厕所",
        "type": 0,
        "location": {
            "lat": 32.716058,
            "lng": 108.998525
        },
        "ad_info": {
            "adcode": 610902,
            "province": "陕西省",
            "city": "安康市",
            "district": "汉滨区"
        }
    },
    {
        "id": "399556932845188119",
        "title": "公共厕所",
        "address": "陕西省安康市汉滨区巴山中路与金州路交叉口西北方向43米左右",
        "tel": "",
        "category": "基础设施:公共设施:公共厕所",
        "type": 0,
        "location": {
            "lat": 32.6883,
            "lng": 109.029474
        },
        "ad_info": {
            "adcode": 610902,
            "province": "陕西省",
            "city": "安康市",
            "district": "汉滨区"
        }
    },
    {
        "id": "12244255367431442798",
        "title": "公共厕所",
        "address": "陕西省安康市汉滨区建材路与环城南路交叉口东南方向176米左右",
        "tel": "",
        "category": "基础设施:公共设施:公共厕所",
        "type": 0,
        "location": {
            "lat": 32.67735,
            "lng": 109.031409
        },
        "ad_info": {
            "adcode": 610902,
            "province": "陕西省",
            "city": "安康市",
            "district": "汉滨区"
        }
    },
    {
        "id": "10885027640578072592",
        "title": "公共厕所",
        "address": "陕西省安康市汉滨区汉城东街与滨江大道交叉口西北方向62米左右",
        "tel": "",
        "category": "基础设施:公共设施:公共厕所",
        "type": 0,
        "location": {
            "lat": 32.703476,
            "lng": 109.020383
        },
        "ad_info": {
            "adcode": 610902,
            "province": "陕西省",
            "city": "安康市",
            "district": "汉滨区"
        }
    },
    {
        "id": "1527353054072391449",
        "title": "安康北停车区公共厕所",
        "address": "陕西省安康市汉滨区安康北停车区",
        "tel": "",
        "category": "基础设施:公共设施:公共厕所",
        "type": 0,
        "location": {
            "lat": 32.916457,
            "lng": 108.966529
        },
        "ad_info": {
            "adcode": 610902,
            "province": "陕西省",
            "city": "安康市",
            "district": "汉滨区"
        }
    },
    {
        "id": "1908042613284046732",
        "title": "安康南服务区第二公共厕所",
        "address": "陕西省安康市汉滨区延长壳牌安康南服务区东加油站南侧",
        "tel": "",
        "category": "基础设施:公共设施:公共厕所",
        "type": 0,
        "location": {
            "lat": 32.579312,
            "lng": 108.663742
        },
        "ad_info": {
            "adcode": 610902,
            "province": "陕西省",
            "city": "安康市",
            "district": "汉滨区"
        }
    },
    {
        "id": "13702042333536206064",
        "title": "林场停车区公共厕所",
        "address": "陕西省安康市宁陕县G5京昆高速与服务区交叉口南160米",
        "tel": "",
        "category": "基础设施:公共设施:公共厕所",
        "type": 0,
        "location": {
            "lat": 33.671196,
            "lng": 108.425522
        },
        "ad_info": {
            "adcode": 610923,
            "province": "陕西省",
            "city": "安康市",
            "district": "宁陕县"
        }
    },
    {
        "id": "2490921947119245262",
        "title": "卫生间",
        "address": "陕西省安康市石泉县喜熨路",
        "tel": "",
        "category": "基础设施:公共设施:公共厕所",
        "type": 0,
        "location": {
            "lat": 32.797628,
            "lng": 108.163936
        },
        "ad_info": {
            "adcode": 610922,
            "province": "陕西省",
            "city": "安康市",
            "district": "石泉县"
        }
    },
    {
        "id": "1117546656622308073",
        "title": "公共厕所",
        "address": "陕西省安康市汉滨区秦岭大道中元北城中央",
        "tel": "",
        "category": "基础设施:公共设施:公共厕所",
        "type": 0,
        "location": {
            "lat": 32.702545,
            "lng": 108.97814
        },
        "ad_info": {
            "adcode": 610902,
            "province": "陕西省",
            "city": "安康市",
            "district": "汉滨区"
        }
    },
    {
        "id": "2272122018612347568",
        "title": "卫生间",
        "address": "陕西省安康市石泉县云红公路",
        "tel": "",
        "category": "基础设施:公共设施:公共厕所",
        "type": 0,
        "location": {
            "lat": 33.148464,
            "lng": 108.302654
        },
        "ad_info": {
            "adcode": 610922,
            "province": "陕西省",
            "city": "安康市",
            "district": "石泉县"
        }
    },
    {
        "id": "6559141273735911732",
        "title": "公共厕所",
        "address": "陕西省安康市汉滨区世纪大道与钻石中路交叉口正南方向328米左右",
        "tel": "",
        "category": "基础设施:公共设施:公共厕所",
        "type": 0,
        "location": {
            "lat": 32.711425,
            "lng": 108.989245
        },
        "ad_info": {
            "adcode": 610902,
            "province": "陕西省",
            "city": "安康市",
            "district": "汉滨区"
        }
    },
    {
        "id": "3031973675134692437",
        "title": "安康北停车区公共厕所",
        "address": "陕西省安康市汉滨区G65包茂高速与安康北停车区交叉口西南60米",
        "tel": "",
        "category": "基础设施:公共设施:公共厕所",
        "type": 0,
        "location": {
            "lat": 32.917855,
            "lng": 108.963288
        },
        "ad_info": {
            "adcode": 610902,
            "province": "陕西省",
            "city": "安康市",
            "district": "汉滨区"
        }
    },
    {
        "id": "8993558982625175272",
        "title": "公共厕所",
        "address": "陕西省安康市石泉县池迎路",
        "tel": "",
        "category": "基础设施:公共设施:公共厕所",
        "type": 0,
        "location": {
            "lat": 32.959286,
            "lng": 108.355688
        },
        "ad_info": {
            "adcode": 610922,
            "province": "陕西省",
            "city": "安康市",
            "district": "石泉县"
        }
    },
    {
        "id": "3294093751965031813",
        "title": "竹叶村金家大院公厕",
        "address": "陕西省安康市镇坪县",
        "tel": "",
        "category": "基础设施:公共设施:公共厕所",
        "type": 0,
        "location": {
            "lat": 32.059527,
            "lng": 109.587137
        },
        "ad_info": {
            "adcode": 610927,
            "province": "陕西省",
            "city": "安康市",
            "district": "镇坪县"
        }
    },
    {
        "id": "1282399165277120749",
        "title": "卫生间",
        "address": "陕西省安康市石泉县水电大道",
        "tel": "",
        "category": "基础设施:公共设施:公共厕所",
        "type": 0,
        "location": {
            "lat": 33.041781,
            "lng": 108.23525
        },
        "ad_info": {
            "adcode": 610922,
            "province": "陕西省",
            "city": "安康市",
            "district": "石泉县"
        }
    },
    {
        "id": "1020946677209792631",
        "title": "汉阴县观音河镇药王村公厕",
        "address": "陕西省安康市汉阴县",
        "tel": "",
        "category": "基础设施:公共设施:公共厕所",
        "type": 0,
        "location": {
            "lat": 33.057996,
            "lng": 108.523128
        },
        "ad_info": {
            "adcode": 610921,
            "province": "陕西省",
            "city": "安康市",
            "district": "汉阴县"
        }
    },
    {
        "id": "10371434189135753569",
        "title": "洗手间",
        "address": "陕西省安康市汉滨区环城南路与陵园巷交叉口西南方向46米左右",
        "tel": "",
        "category": "基础设施:公共设施:公共厕所",
        "type": 0,
        "location": {
            "lat": 32.682638,
            "lng": 109.026135
        },
        "ad_info": {
            "adcode": 610902,
            "province": "陕西省",
            "city": "安康市",
            "district": "汉滨区"
        }
    },
    {
        "id": "63900924974990441",
        "title": "公共厕所",
        "address": "陕西省安康市汉滨区育才路6号",
        "tel": "",
        "category": "基础设施:公共设施:公共厕所",
        "type": 0,
        "location": {
            "lat": 32.686771,
            "lng": 109.038123
        },
        "ad_info": {
            "adcode": 610902,
            "province": "陕西省",
            "city": "安康市",
            "district": "汉滨区"
        }
    },
    {
        "id": "3390558971891799492",
        "title": "卫生间",
        "address": "陕西省安康市石泉县G210",
        "tel": "",
        "category": "基础设施:公共设施:公共厕所",
        "type": 0,
        "location": {
            "lat": 33.102526,
            "lng": 108.210922
        },
        "ad_info": {
            "adcode": 610922,
            "province": "陕西省",
            "city": "安康市",
            "district": "石泉县"
        }
    },
    {
        "id": "5245918740877940943",
        "title": "公共厕所",
        "address": "陕西省安康市汉滨区巴山西路与果园路交叉口西北方向154米左右",
        "tel": "",
        "category": "基础设施:公共设施:公共厕所",
        "type": 0,
        "location": {
            "lat": 32.685234,
            "lng": 109.017585
        },
        "ad_info": {
            "adcode": 610902,
            "province": "陕西省",
            "city": "安康市",
            "district": "汉滨区"
        }
    },
    {
        "id": "12352807135957846492",
        "title": "公共厕所",
        "address": "陕西省安康市汉滨区朝阳路与钻石东路交叉口正东方向412米左右",
        "tel": "",
        "category": "基础设施:公共设施:公共厕所",
        "type": 0,
        "location": {
            "lat": 32.716058,
            "lng": 108.998525
        },
        "ad_info": {
            "adcode": 610902,
            "province": "陕西省",
            "city": "安康市",
            "district": "汉滨区"
        }
    },
    {
        "id": "399556932845188119",
        "title": "公共厕所",
        "address": "陕西省安康市汉滨区巴山中路与金州路交叉口西北方向43米左右",
        "tel": "",
        "category": "基础设施:公共设施:公共厕所",
        "type": 0,
        "location": {
            "lat": 32.6883,
            "lng": 109.029474
        },
        "ad_info": {
            "adcode": 610902,
            "province": "陕西省",
            "city": "安康市",
            "district": "汉滨区"
        }
    },
    {
        "id": "12244255367431442798",
        "title": "公共厕所",
        "address": "陕西省安康市汉滨区建材路与环城南路交叉口东南方向176米左右",
        "tel": "",
        "category": "基础设施:公共设施:公共厕所",
        "type": 0,
        "location": {
            "lat": 32.67735,
            "lng": 109.031409
        },
        "ad_info": {
            "adcode": 610902,
            "province": "陕西省",
            "city": "安康市",
            "district": "汉滨区"
        }
    },
    {
        "id": "10885027640578072592",
        "title": "公共厕所",
        "address": "陕西省安康市汉滨区汉城东街与滨江大道交叉口西北方向62米左右",
        "tel": "",
        "category": "基础设施:公共设施:公共厕所",
        "type": 0,
        "location": {
            "lat": 32.703476,
            "lng": 109.020383
        },
        "ad_info": {
            "adcode": 610902,
            "province": "陕西省",
            "city": "安康市",
            "district": "汉滨区"
        }
    },
    {
        "id": "1527353054072391449",
        "title": "安康北停车区公共厕所",
        "address": "陕西省安康市汉滨区安康北停车区",
        "tel": "",
        "category": "基础设施:公共设施:公共厕所",
        "type": 0,
        "location": {
            "lat": 32.916457,
            "lng": 108.966529
        },
        "ad_info": {
            "adcode": 610902,
            "province": "陕西省",
            "city": "安康市",
            "district": "汉滨区"
        }
    },
    {
        "id": "1908042613284046732",
        "title": "安康南服务区第二公共厕所",
        "address": "陕西省安康市汉滨区延长壳牌安康南服务区东加油站南侧",
        "tel": "",
        "category": "基础设施:公共设施:公共厕所",
        "type": 0,
        "location": {
            "lat": 32.579312,
            "lng": 108.663742
        },
        "ad_info": {
            "adcode": 610902,
            "province": "陕西省",
            "city": "安康市",
            "district": "汉滨区"
        }
    },
    {
        "id": "13702042333536206064",
        "title": "林场停车区公共厕所",
        "address": "陕西省安康市宁陕县G5京昆高速与服务区交叉口南160米",
        "tel": "",
        "category": "基础设施:公共设施:公共厕所",
        "type": 0,
        "location": {
            "lat": 33.671196,
            "lng": 108.425522
        },
        "ad_info": {
            "adcode": 610923,
            "province": "陕西省",
            "city": "安康市",
            "district": "宁陕县"
        }
    },
    {
        "id": "2490921947119245262",
        "title": "卫生间",
        "address": "陕西省安康市石泉县喜熨路",
        "tel": "",
        "category": "基础设施:公共设施:公共厕所",
        "type": 0,
        "location": {
            "lat": 32.797628,
            "lng": 108.163936
        },
        "ad_info": {
            "adcode": 610922,
            "province": "陕西省",
            "city": "安康市",
            "district": "石泉县"
        }
    },
    {
        "id": "1117546656622308073",
        "title": "公共厕所",
        "address": "陕西省安康市汉滨区秦岭大道中元北城中央",
        "tel": "",
        "category": "基础设施:公共设施:公共厕所",
        "type": 0,
        "location": {
            "lat": 32.702545,
            "lng": 108.97814
        },
        "ad_info": {
            "adcode": 610902,
            "province": "陕西省",
            "city": "安康市",
            "district": "汉滨区"
        }
    },
    {
        "id": "2272122018612347568",
        "title": "卫生间",
        "address": "陕西省安康市石泉县云红公路",
        "tel": "",
        "category": "基础设施:公共设施:公共厕所",
        "type": 0,
        "location": {
            "lat": 33.148464,
            "lng": 108.302654
        },
        "ad_info": {
            "adcode": 610922,
            "province": "陕西省",
            "city": "安康市",
            "district": "石泉县"
        }
    },
    {
        "id": "6559141273735911732",
        "title": "公共厕所",
        "address": "陕西省安康市汉滨区世纪大道与钻石中路交叉口正南方向328米左右",
        "tel": "",
        "category": "基础设施:公共设施:公共厕所",
        "type": 0,
        "location": {
            "lat": 32.711425,
            "lng": 108.989245
        },
        "ad_info": {
            "adcode": 610902,
            "province": "陕西省",
            "city": "安康市",
            "district": "汉滨区"
        }
    },
    {
        "id": "3031973675134692437",
        "title": "安康北停车区公共厕所",
        "address": "陕西省安康市汉滨区G65包茂高速与安康北停车区交叉口西南60米",
        "tel": "",
        "category": "基础设施:公共设施:公共厕所",
        "type": 0,
        "location": {
            "lat": 32.917855,
            "lng": 108.963288
        },
        "ad_info": {
            "adcode": 610902,
            "province": "陕西省",
            "city": "安康市",
            "district": "汉滨区"
        }
    },
    {
        "id": "8993558982625175272",
        "title": "公共厕所",
        "address": "陕西省安康市石泉县池迎路",
        "tel": "",
        "category": "基础设施:公共设施:公共厕所",
        "type": 0,
        "location": {
            "lat": 32.959286,
            "lng": 108.355688
        },
        "ad_info": {
            "adcode": 610922,
            "province": "陕西省",
            "city": "安康市",
            "district": "石泉县"
        }
    },
    {
        "id": "3294093751965031813",
        "title": "竹叶村金家大院公厕",
        "address": "陕西省安康市镇坪县",
        "tel": "",
        "category": "基础设施:公共设施:公共厕所",
        "type": 0,
        "location": {
            "lat": 32.059527,
            "lng": 109.587137
        },
        "ad_info": {
            "adcode": 610927,
            "province": "陕西省",
            "city": "安康市",
            "district": "镇坪县"
        }
    },
    {
        "id": "1282399165277120749",
        "title": "卫生间",
        "address": "陕西省安康市石泉县水电大道",
        "tel": "",
        "category": "基础设施:公共设施:公共厕所",
        "type": 0,
        "location": {
            "lat": 33.041781,
            "lng": 108.23525
        },
        "ad_info": {
            "adcode": 610922,
            "province": "陕西省",
            "city": "安康市",
            "district": "石泉县"
        }
    },
    {
        "id": "1020946677209792631",
        "title": "汉阴县观音河镇药王村公厕",
        "address": "陕西省安康市汉阴县",
        "tel": "",
        "category": "基础设施:公共设施:公共厕所",
        "type": 0,
        "location": {
            "lat": 33.057996,
            "lng": 108.523128
        },
        "ad_info": {
            "adcode": 610921,
            "province": "陕西省",
            "city": "安康市",
            "district": "汉阴县"
        }
    },
    {
        "id": "10371434189135753569",
        "title": "洗手间",
        "address": "陕西省安康市汉滨区环城南路与陵园巷交叉口西南方向46米左右",
        "tel": "",
        "category": "基础设施:公共设施:公共厕所",
        "type": 0,
        "location": {
            "lat": 32.682638,
            "lng": 109.026135
        },
        "ad_info": {
            "adcode": 610902,
            "province": "陕西省",
            "city": "安康市",
            "district": "汉滨区"
        }
    },
    {
        "id": "63900924974990441",
        "title": "公共厕所",
        "address": "陕西省安康市汉滨区育才路6号",
        "tel": "",
        "category": "基础设施:公共设施:公共厕所",
        "type": 0,
        "location": {
            "lat": 32.686771,
            "lng": 109.038123
        },
        "ad_info": {
            "adcode": 610902,
            "province": "陕西省",
            "city": "安康市",
            "district": "汉滨区"
        }
    },
    {
        "id": "3390558971891799492",
        "title": "卫生间",
        "address": "陕西省安康市石泉县G210",
        "tel": "",
        "category": "基础设施:公共设施:公共厕所",
        "type": 0,
        "location": {
            "lat": 33.102526,
            "lng": 108.210922
        },
        "ad_info": {
            "adcode": 610922,
            "province": "陕西省",
            "city": "安康市",
            "district": "石泉县"
        }
    },
    {
        "id": "5245918740877940943",
        "title": "公共厕所",
        "address": "陕西省安康市汉滨区巴山西路与果园路交叉口西北方向154米左右",
        "tel": "",
        "category": "基础设施:公共设施:公共厕所",
        "type": 0,
        "location": {
            "lat": 32.685234,
            "lng": 109.017585
        },
        "ad_info": {
            "adcode": 610902,
            "province": "陕西省",
            "city": "安康市",
            "district": "汉滨区"
        }
    },
    {
        "id": "12352807135957846492",
        "title": "公共厕所",
        "address": "陕西省安康市汉滨区朝阳路与钻石东路交叉口正东方向412米左右",
        "tel": "",
        "category": "基础设施:公共设施:公共厕所",
        "type": 0,
        "location": {
            "lat": 32.716058,
            "lng": 108.998525
        },
        "ad_info": {
            "adcode": 610902,
            "province": "陕西省",
            "city": "安康市",
            "district": "汉滨区"
        }
    },
    {
        "id": "399556932845188119",
        "title": "公共厕所",
        "address": "陕西省安康市汉滨区巴山中路与金州路交叉口西北方向43米左右",
        "tel": "",
        "category": "基础设施:公共设施:公共厕所",
        "type": 0,
        "location": {
            "lat": 32.6883,
            "lng": 109.029474
        },
        "ad_info": {
            "adcode": 610902,
            "province": "陕西省",
            "city": "安康市",
            "district": "汉滨区"
        }
    },
    {
        "id": "12244255367431442798",
        "title": "公共厕所",
        "address": "陕西省安康市汉滨区建材路与环城南路交叉口东南方向176米左右",
        "tel": "",
        "category": "基础设施:公共设施:公共厕所",
        "type": 0,
        "location": {
            "lat": 32.67735,
            "lng": 109.031409
        },
        "ad_info": {
            "adcode": 610902,
            "province": "陕西省",
            "city": "安康市",
            "district": "汉滨区"
        }
    },
    {
        "id": "10885027640578072592",
        "title": "公共厕所",
        "address": "陕西省安康市汉滨区汉城东街与滨江大道交叉口西北方向62米左右",
        "tel": "",
        "category": "基础设施:公共设施:公共厕所",
        "type": 0,
        "location": {
            "lat": 32.703476,
            "lng": 109.020383
        },
        "ad_info": {
            "adcode": 610902,
            "province": "陕西省",
            "city": "安康市",
            "district": "汉滨区"
        }
    },
    {
        "id": "1527353054072391449",
        "title": "安康北停车区公共厕所",
        "address": "陕西省安康市汉滨区安康北停车区",
        "tel": "",
        "category": "基础设施:公共设施:公共厕所",
        "type": 0,
        "location": {
            "lat": 32.916457,
            "lng": 108.966529
        },
        "ad_info": {
            "adcode": 610902,
            "province": "陕西省",
            "city": "安康市",
            "district": "汉滨区"
        }
    },
    {
        "id": "1908042613284046732",
        "title": "安康南服务区第二公共厕所",
        "address": "陕西省安康市汉滨区延长壳牌安康南服务区东加油站南侧",
        "tel": "",
        "category": "基础设施:公共设施:公共厕所",
        "type": 0,
        "location": {
            "lat": 32.579312,
            "lng": 108.663742
        },
        "ad_info": {
            "adcode": 610902,
            "province": "陕西省",
            "city": "安康市",
            "district": "汉滨区"
        }
    },
    {
        "id": "13702042333536206064",
        "title": "林场停车区公共厕所",
        "address": "陕西省安康市宁陕县G5京昆高速与服务区交叉口南160米",
        "tel": "",
        "category": "基础设施:公共设施:公共厕所",
        "type": 0,
        "location": {
            "lat": 33.671196,
            "lng": 108.425522
        },
        "ad_info": {
            "adcode": 610923,
            "province": "陕西省",
            "city": "安康市",
            "district": "宁陕县"
        }
    },
    {
        "id": "2490921947119245262",
        "title": "卫生间",
        "address": "陕西省安康市石泉县喜熨路",
        "tel": "",
        "category": "基础设施:公共设施:公共厕所",
        "type": 0,
        "location": {
            "lat": 32.797628,
            "lng": 108.163936
        },
        "ad_info": {
            "adcode": 610922,
            "province": "陕西省",
            "city": "安康市",
            "district": "石泉县"
        }
    },
    {
        "id": "1117546656622308073",
        "title": "公共厕所",
        "address": "陕西省安康市汉滨区秦岭大道中元北城中央",
        "tel": "",
        "category": "基础设施:公共设施:公共厕所",
        "type": 0,
        "location": {
            "lat": 32.702545,
            "lng": 108.97814
        },
        "ad_info": {
            "adcode": 610902,
            "province": "陕西省",
            "city": "安康市",
            "district": "汉滨区"
        }
    },
    {
        "id": "2272122018612347568",
        "title": "卫生间",
        "address": "陕西省安康市石泉县云红公路",
        "tel": "",
        "category": "基础设施:公共设施:公共厕所",
        "type": 0,
        "location": {
            "lat": 33.148464,
            "lng": 108.302654
        },
        "ad_info": {
            "adcode": 610922,
            "province": "陕西省",
            "city": "安康市",
            "district": "石泉县"
        }
    },
    {
        "id": "6559141273735911732",
        "title": "公共厕所",
        "address": "陕西省安康市汉滨区世纪大道与钻石中路交叉口正南方向328米左右",
        "tel": "",
        "category": "基础设施:公共设施:公共厕所",
        "type": 0,
        "location": {
            "lat": 32.711425,
            "lng": 108.989245
        },
        "ad_info": {
            "adcode": 610902,
            "province": "陕西省",
            "city": "安康市",
            "district": "汉滨区"
        }
    },
    {
        "id": "3031973675134692437",
        "title": "安康北停车区公共厕所",
        "address": "陕西省安康市汉滨区G65包茂高速与安康北停车区交叉口西南60米",
        "tel": "",
        "category": "基础设施:公共设施:公共厕所",
        "type": 0,
        "location": {
            "lat": 32.917855,
            "lng": 108.963288
        },
        "ad_info": {
            "adcode": 610902,
            "province": "陕西省",
            "city": "安康市",
            "district": "汉滨区"
        }
    },
    {
        "id": "8993558982625175272",
        "title": "公共厕所",
        "address": "陕西省安康市石泉县池迎路",
        "tel": "",
        "category": "基础设施:公共设施:公共厕所",
        "type": 0,
        "location": {
            "lat": 32.959286,
            "lng": 108.355688
        },
        "ad_info": {
            "adcode": 610922,
            "province": "陕西省",
            "city": "安康市",
            "district": "石泉县"
        }
    },
    {
        "id": "3294093751965031813",
        "title": "竹叶村金家大院公厕",
        "address": "陕西省安康市镇坪县",
        "tel": "",
        "category": "基础设施:公共设施:公共厕所",
        "type": 0,
        "location": {
            "lat": 32.059527,
            "lng": 109.587137
        },
        "ad_info": {
            "adcode": 610927,
            "province": "陕西省",
            "city": "安康市",
            "district": "镇坪县"
        }
    },
    {
        "id": "1282399165277120749",
        "title": "卫生间",
        "address": "陕西省安康市石泉县水电大道",
        "tel": "",
        "category": "基础设施:公共设施:公共厕所",
        "type": 0,
        "location": {
            "lat": 33.041781,
            "lng": 108.23525
        },
        "ad_info": {
            "adcode": 610922,
            "province": "陕西省",
            "city": "安康市",
            "district": "石泉县"
        }
    },
    {
        "id": "1020946677209792631",
        "title": "汉阴县观音河镇药王村公厕",
        "address": "陕西省安康市汉阴县",
        "tel": "",
        "category": "基础设施:公共设施:公共厕所",
        "type": 0,
        "location": {
            "lat": 33.057996,
            "lng": 108.523128
        },
        "ad_info": {
            "adcode": 610921,
            "province": "陕西省",
            "city": "安康市",
            "district": "汉阴县"
        }
    },
    {
        "id": "10371434189135753569",
        "title": "洗手间",
        "address": "陕西省安康市汉滨区环城南路与陵园巷交叉口西南方向46米左右",
        "tel": "",
        "category": "基础设施:公共设施:公共厕所",
        "type": 0,
        "location": {
            "lat": 32.682638,
            "lng": 109.026135
        },
        "ad_info": {
            "adcode": 610902,
            "province": "陕西省",
            "city": "安康市",
            "district": "汉滨区"
        }
    },
    {
        "id": "63900924974990441",
        "title": "公共厕所",
        "address": "陕西省安康市汉滨区育才路6号",
        "tel": "",
        "category": "基础设施:公共设施:公共厕所",
        "type": 0,
        "location": {
            "lat": 32.686771,
            "lng": 109.038123
        },
        "ad_info": {
            "adcode": 610902,
            "province": "陕西省",
            "city": "安康市",
            "district": "汉滨区"
        }
    },
    {
        "id": "3390558971891799492",
        "title": "卫生间",
        "address": "陕西省安康市石泉县G210",
        "tel": "",
        "category": "基础设施:公共设施:公共厕所",
        "type": 0,
        "location": {
            "lat": 33.102526,
            "lng": 108.210922
        },
        "ad_info": {
            "adcode": 610922,
            "province": "陕西省",
            "city": "安康市",
            "district": "石泉县"
        }
    },
    {
        "id": "5245918740877940943",
        "title": "公共厕所",
        "address": "陕西省安康市汉滨区巴山西路与果园路交叉口西北方向154米左右",
        "tel": "",
        "category": "基础设施:公共设施:公共厕所",
        "type": 0,
        "location": {
            "lat": 32.685234,
            "lng": 109.017585
        },
        "ad_info": {
            "adcode": 610902,
            "province": "陕西省",
            "city": "安康市",
            "district": "汉滨区"
        }
    },
    {
        "id": "12352807135957846492",
        "title": "公共厕所",
        "address": "陕西省安康市汉滨区朝阳路与钻石东路交叉口正东方向412米左右",
        "tel": "",
        "category": "基础设施:公共设施:公共厕所",
        "type": 0,
        "location": {
            "lat": 32.716058,
            "lng": 108.998525
        },
        "ad_info": {
            "adcode": 610902,
            "province": "陕西省",
            "city": "安康市",
            "district": "汉滨区"
        }
    },
    {
        "id": "399556932845188119",
        "title": "公共厕所",
        "address": "陕西省安康市汉滨区巴山中路与金州路交叉口西北方向43米左右",
        "tel": "",
        "category": "基础设施:公共设施:公共厕所",
        "type": 0,
        "location": {
            "lat": 32.6883,
            "lng": 109.029474
        },
        "ad_info": {
            "adcode": 610902,
            "province": "陕西省",
            "city": "安康市",
            "district": "汉滨区"
        }
    },
    {
        "id": "12244255367431442798",
        "title": "公共厕所",
        "address": "陕西省安康市汉滨区建材路与环城南路交叉口东南方向176米左右",
        "tel": "",
        "category": "基础设施:公共设施:公共厕所",
        "type": 0,
        "location": {
            "lat": 32.67735,
            "lng": 109.031409
        },
        "ad_info": {
            "adcode": 610902,
            "province": "陕西省",
            "city": "安康市",
            "district": "汉滨区"
        }
    },
    {
        "id": "10885027640578072592",
        "title": "公共厕所",
        "address": "陕西省安康市汉滨区汉城东街与滨江大道交叉口西北方向62米左右",
        "tel": "",
        "category": "基础设施:公共设施:公共厕所",
        "type": 0,
        "location": {
            "lat": 32.703476,
            "lng": 109.020383
        },
        "ad_info": {
            "adcode": 610902,
            "province": "陕西省",
            "city": "安康市",
            "district": "汉滨区"
        }
    },
    {
        "id": "1527353054072391449",
        "title": "安康北停车区公共厕所",
        "address": "陕西省安康市汉滨区安康北停车区",
        "tel": "",
        "category": "基础设施:公共设施:公共厕所",
        "type": 0,
        "location": {
            "lat": 32.916457,
            "lng": 108.966529
        },
        "ad_info": {
            "adcode": 610902,
            "province": "陕西省",
            "city": "安康市",
            "district": "汉滨区"
        }
    },
    {
        "id": "1908042613284046732",
        "title": "安康南服务区第二公共厕所",
        "address": "陕西省安康市汉滨区延长壳牌安康南服务区东加油站南侧",
        "tel": "",
        "category": "基础设施:公共设施:公共厕所",
        "type": 0,
        "location": {
            "lat": 32.579312,
            "lng": 108.663742
        },
        "ad_info": {
            "adcode": 610902,
            "province": "陕西省",
            "city": "安康市",
            "district": "汉滨区"
        }
    },
    {
        "id": "13702042333536206064",
        "title": "林场停车区公共厕所",
        "address": "陕西省安康市宁陕县G5京昆高速与服务区交叉口南160米",
        "tel": "",
        "category": "基础设施:公共设施:公共厕所",
        "type": 0,
        "location": {
            "lat": 33.671196,
            "lng": 108.425522
        },
        "ad_info": {
            "adcode": 610923,
            "province": "陕西省",
            "city": "安康市",
            "district": "宁陕县"
        }
    },
    {
        "id": "2490921947119245262",
        "title": "卫生间",
        "address": "陕西省安康市石泉县喜熨路",
        "tel": "",
        "category": "基础设施:公共设施:公共厕所",
        "type": 0,
        "location": {
            "lat": 32.797628,
            "lng": 108.163936
        },
        "ad_info": {
            "adcode": 610922,
            "province": "陕西省",
            "city": "安康市",
            "district": "石泉县"
        }
    },
    {
        "id": "1117546656622308073",
        "title": "公共厕所",
        "address": "陕西省安康市汉滨区秦岭大道中元北城中央",
        "tel": "",
        "category": "基础设施:公共设施:公共厕所",
        "type": 0,
        "location": {
            "lat": 32.702545,
            "lng": 108.97814
        },
        "ad_info": {
            "adcode": 610902,
            "province": "陕西省",
            "city": "安康市",
            "district": "汉滨区"
        }
    },
    {
        "id": "2272122018612347568",
        "title": "卫生间",
        "address": "陕西省安康市石泉县云红公路",
        "tel": "",
        "category": "基础设施:公共设施:公共厕所",
        "type": 0,
        "location": {
            "lat": 33.148464,
            "lng": 108.302654
        },
        "ad_info": {
            "adcode": 610922,
            "province": "陕西省",
            "city": "安康市",
            "district": "石泉县"
        }
    },
    {
        "id": "6559141273735911732",
        "title": "公共厕所",
        "address": "陕西省安康市汉滨区世纪大道与钻石中路交叉口正南方向328米左右",
        "tel": "",
        "category": "基础设施:公共设施:公共厕所",
        "type": 0,
        "location": {
            "lat": 32.711425,
            "lng": 108.989245
        },
        "ad_info": {
            "adcode": 610902,
            "province": "陕西省",
            "city": "安康市",
            "district": "汉滨区"
        }
    },
    {
        "id": "3031973675134692437",
        "title": "安康北停车区公共厕所",
        "address": "陕西省安康市汉滨区G65包茂高速与安康北停车区交叉口西南60米",
        "tel": "",
        "category": "基础设施:公共设施:公共厕所",
        "type": 0,
        "location": {
            "lat": 32.917855,
            "lng": 108.963288
        },
        "ad_info": {
            "adcode": 610902,
            "province": "陕西省",
            "city": "安康市",
            "district": "汉滨区"
        }
    },
    {
        "id": "8993558982625175272",
        "title": "公共厕所",
        "address": "陕西省安康市石泉县池迎路",
        "tel": "",
        "category": "基础设施:公共设施:公共厕所",
        "type": 0,
        "location": {
            "lat": 32.959286,
            "lng": 108.355688
        },
        "ad_info": {
            "adcode": 610922,
            "province": "陕西省",
            "city": "安康市",
            "district": "石泉县"
        }
    },
    {
        "id": "3294093751965031813",
        "title": "竹叶村金家大院公厕",
        "address": "陕西省安康市镇坪县",
        "tel": "",
        "category": "基础设施:公共设施:公共厕所",
        "type": 0,
        "location": {
            "lat": 32.059527,
            "lng": 109.587137
        },
        "ad_info": {
            "adcode": 610927,
            "province": "陕西省",
            "city": "安康市",
            "district": "镇坪县"
        }
    },
    {
        "id": "1282399165277120749",
        "title": "卫生间",
        "address": "陕西省安康市石泉县水电大道",
        "tel": "",
        "category": "基础设施:公共设施:公共厕所",
        "type": 0,
        "location": {
            "lat": 33.041781,
            "lng": 108.23525
        },
        "ad_info": {
            "adcode": 610922,
            "province": "陕西省",
            "city": "安康市",
            "district": "石泉县"
        }
    },
    {
        "id": "1020946677209792631",
        "title": "汉阴县观音河镇药王村公厕",
        "address": "陕西省安康市汉阴县",
        "tel": "",
        "category": "基础设施:公共设施:公共厕所",
        "type": 0,
        "location": {
            "lat": 33.057996,
            "lng": 108.523128
        },
        "ad_info": {
            "adcode": 610921,
            "province": "陕西省",
            "city": "安康市",
            "district": "汉阴县"
        }
    },
    {
        "id": "10371434189135753569",
        "title": "洗手间",
        "address": "陕西省安康市汉滨区环城南路与陵园巷交叉口西南方向46米左右",
        "tel": "",
        "category": "基础设施:公共设施:公共厕所",
        "type": 0,
        "location": {
            "lat": 32.682638,
            "lng": 109.026135
        },
        "ad_info": {
            "adcode": 610902,
            "province": "陕西省",
            "city": "安康市",
            "district": "汉滨区"
        }
    },
    {
        "id": "63900924974990441",
        "title": "公共厕所",
        "address": "陕西省安康市汉滨区育才路6号",
        "tel": "",
        "category": "基础设施:公共设施:公共厕所",
        "type": 0,
        "location": {
            "lat": 32.686771,
            "lng": 109.038123
        },
        "ad_info": {
            "adcode": 610902,
            "province": "陕西省",
            "city": "安康市",
            "district": "汉滨区"
        }
    },
    {
        "id": "3390558971891799492",
        "title": "卫生间",
        "address": "陕西省安康市石泉县G210",
        "tel": "",
        "category": "基础设施:公共设施:公共厕所",
        "type": 0,
        "location": {
            "lat": 33.102526,
            "lng": 108.210922
        },
        "ad_info": {
            "adcode": 610922,
            "province": "陕西省",
            "city": "安康市",
            "district": "石泉县"
        }
    },
    {
        "id": "5245918740877940943",
        "title": "公共厕所",
        "address": "陕西省安康市汉滨区巴山西路与果园路交叉口西北方向154米左右",
        "tel": "",
        "category": "基础设施:公共设施:公共厕所",
        "type": 0,
        "location": {
            "lat": 32.685234,
            "lng": 109.017585
        },
        "ad_info": {
            "adcode": 610902,
            "province": "陕西省",
            "city": "安康市",
            "district": "汉滨区"
        }
    },
    {
        "id": "12352807135957846492",
        "title": "公共厕所",
        "address": "陕西省安康市汉滨区朝阳路与钻石东路交叉口正东方向412米左右",
        "tel": "",
        "category": "基础设施:公共设施:公共厕所",
        "type": 0,
        "location": {
            "lat": 32.716058,
            "lng": 108.998525
        },
        "ad_info": {
            "adcode": 610902,
            "province": "陕西省",
            "city": "安康市",
            "district": "汉滨区"
        }
    },
    {
        "id": "399556932845188119",
        "title": "公共厕所",
        "address": "陕西省安康市汉滨区巴山中路与金州路交叉口西北方向43米左右",
        "tel": "",
        "category": "基础设施:公共设施:公共厕所",
        "type": 0,
        "location": {
            "lat": 32.6883,
            "lng": 109.029474
        },
        "ad_info": {
            "adcode": 610902,
            "province": "陕西省",
            "city": "安康市",
            "district": "汉滨区"
        }
    },
    {
        "id": "12244255367431442798",
        "title": "公共厕所",
        "address": "陕西省安康市汉滨区建材路与环城南路交叉口东南方向176米左右",
        "tel": "",
        "category": "基础设施:公共设施:公共厕所",
        "type": 0,
        "location": {
            "lat": 32.67735,
            "lng": 109.031409
        },
        "ad_info": {
            "adcode": 610902,
            "province": "陕西省",
            "city": "安康市",
            "district": "汉滨区"
        }
    },
    {
        "id": "10885027640578072592",
        "title": "公共厕所",
        "address": "陕西省安康市汉滨区汉城东街与滨江大道交叉口西北方向62米左右",
        "tel": "",
        "category": "基础设施:公共设施:公共厕所",
        "type": 0,
        "location": {
            "lat": 32.703476,
            "lng": 109.020383
        },
        "ad_info": {
            "adcode": 610902,
            "province": "陕西省",
            "city": "安康市",
            "district": "汉滨区"
        }
    },
    {
        "id": "1527353054072391449",
        "title": "安康北停车区公共厕所",
        "address": "陕西省安康市汉滨区安康北停车区",
        "tel": "",
        "category": "基础设施:公共设施:公共厕所",
        "type": 0,
        "location": {
            "lat": 32.916457,
            "lng": 108.966529
        },
        "ad_info": {
            "adcode": 610902,
            "province": "陕西省",
            "city": "安康市",
            "district": "汉滨区"
        }
    },
    {
        "id": "1908042613284046732",
        "title": "安康南服务区第二公共厕所",
        "address": "陕西省安康市汉滨区延长壳牌安康南服务区东加油站南侧",
        "tel": "",
        "category": "基础设施:公共设施:公共厕所",
        "type": 0,
        "location": {
            "lat": 32.579312,
            "lng": 108.663742
        },
        "ad_info": {
            "adcode": 610902,
            "province": "陕西省",
            "city": "安康市",
            "district": "汉滨区"
        }
    },
    {
        "id": "13702042333536206064",
        "title": "林场停车区公共厕所",
        "address": "陕西省安康市宁陕县G5京昆高速与服务区交叉口南160米",
        "tel": "",
        "category": "基础设施:公共设施:公共厕所",
        "type": 0,
        "location": {
            "lat": 33.671196,
            "lng": 108.425522
        },
        "ad_info": {
            "adcode": 610923,
            "province": "陕西省",
            "city": "安康市",
            "district": "宁陕县"
        }
    },
    {
        "id": "2490921947119245262",
        "title": "卫生间",
        "address": "陕西省安康市石泉县喜熨路",
        "tel": "",
        "category": "基础设施:公共设施:公共厕所",
        "type": 0,
        "location": {
            "lat": 32.797628,
            "lng": 108.163936
        },
        "ad_info": {
            "adcode": 610922,
            "province": "陕西省",
            "city": "安康市",
            "district": "石泉县"
        }
    },
    {
        "id": "1117546656622308073",
        "title": "公共厕所",
        "address": "陕西省安康市汉滨区秦岭大道中元北城中央",
        "tel": "",
        "category": "基础设施:公共设施:公共厕所",
        "type": 0,
        "location": {
            "lat": 32.702545,
            "lng": 108.97814
        },
        "ad_info": {
            "adcode": 610902,
            "province": "陕西省",
            "city": "安康市",
            "district": "汉滨区"
        }
    },
    {
        "id": "2272122018612347568",
        "title": "卫生间",
        "address": "陕西省安康市石泉县云红公路",
        "tel": "",
        "category": "基础设施:公共设施:公共厕所",
        "type": 0,
        "location": {
            "lat": 33.148464,
            "lng": 108.302654
        },
        "ad_info": {
            "adcode": 610922,
            "province": "陕西省",
            "city": "安康市",
            "district": "石泉县"
        }
    },
    {
        "id": "6559141273735911732",
        "title": "公共厕所",
        "address": "陕西省安康市汉滨区世纪大道与钻石中路交叉口正南方向328米左右",
        "tel": "",
        "category": "基础设施:公共设施:公共厕所",
        "type": 0,
        "location": {
            "lat": 32.711425,
            "lng": 108.989245
        },
        "ad_info": {
            "adcode": 610902,
            "province": "陕西省",
            "city": "安康市",
            "district": "汉滨区"
        }
    },
    {
        "id": "3031973675134692437",
        "title": "安康北停车区公共厕所",
        "address": "陕西省安康市汉滨区G65包茂高速与安康北停车区交叉口西南60米",
        "tel": "",
        "category": "基础设施:公共设施:公共厕所",
        "type": 0,
        "location": {
            "lat": 32.917855,
            "lng": 108.963288
        },
        "ad_info": {
            "adcode": 610902,
            "province": "陕西省",
            "city": "安康市",
            "district": "汉滨区"
        }
    },
    {
        "id": "8993558982625175272",
        "title": "公共厕所",
        "address": "陕西省安康市石泉县池迎路",
        "tel": "",
        "category": "基础设施:公共设施:公共厕所",
        "type": 0,
        "location": {
            "lat": 32.959286,
            "lng": 108.355688
        },
        "ad_info": {
            "adcode": 610922,
            "province": "陕西省",
            "city": "安康市",
            "district": "石泉县"
        }
    },
    {
        "id": "3294093751965031813",
        "title": "竹叶村金家大院公厕",
        "address": "陕西省安康市镇坪县",
        "tel": "",
        "category": "基础设施:公共设施:公共厕所",
        "type": 0,
        "location": {
            "lat": 32.059527,
            "lng": 109.587137
        },
        "ad_info": {
            "adcode": 610927,
            "province": "陕西省",
            "city": "安康市",
            "district": "镇坪县"
        }
    },
    {
        "id": "1282399165277120749",
        "title": "卫生间",
        "address": "陕西省安康市石泉县水电大道",
        "tel": "",
        "category": "基础设施:公共设施:公共厕所",
        "type": 0,
        "location": {
            "lat": 33.041781,
            "lng": 108.23525
        },
        "ad_info": {
            "adcode": 610922,
            "province": "陕西省",
            "city": "安康市",
            "district": "石泉县"
        }
    },
    {
        "id": "1020946677209792631",
        "title": "汉阴县观音河镇药王村公厕",
        "address": "陕西省安康市汉阴县",
        "tel": "",
        "category": "基础设施:公共设施:公共厕所",
        "type": 0,
        "location": {
            "lat": 33.057996,
            "lng": 108.523128
        },
        "ad_info": {
            "adcode": 610921,
            "province": "陕西省",
            "city": "安康市",
            "district": "汉阴县"
        }
    },
    {
        "id": "10371434189135753569",
        "title": "洗手间",
        "address": "陕西省安康市汉滨区环城南路与陵园巷交叉口西南方向46米左右",
        "tel": "",
        "category": "基础设施:公共设施:公共厕所",
        "type": 0,
        "location": {
            "lat": 32.682638,
            "lng": 109.026135
        },
        "ad_info": {
            "adcode": 610902,
            "province": "陕西省",
            "city": "安康市",
            "district": "汉滨区"
        }
    },
    {
        "id": "63900924974990441",
        "title": "公共厕所",
        "address": "陕西省安康市汉滨区育才路6号",
        "tel": "",
        "category": "基础设施:公共设施:公共厕所",
        "type": 0,
        "location": {
            "lat": 32.686771,
            "lng": 109.038123
        },
        "ad_info": {
            "adcode": 610902,
            "province": "陕西省",
            "city": "安康市",
            "district": "汉滨区"
        }
    },
    {
        "id": "3390558971891799492",
        "title": "卫生间",
        "address": "陕西省安康市石泉县G210",
        "tel": "",
        "category": "基础设施:公共设施:公共厕所",
        "type": 0,
        "location": {
            "lat": 33.102526,
            "lng": 108.210922
        },
        "ad_info": {
            "adcode": 610922,
            "province": "陕西省",
            "city": "安康市",
            "district": "石泉县"
        }
    },
    {
        "id": "5245918740877940943",
        "title": "公共厕所",
        "address": "陕西省安康市汉滨区巴山西路与果园路交叉口西北方向154米左右",
        "tel": "",
        "category": "基础设施:公共设施:公共厕所",
        "type": 0,
        "location": {
            "lat": 32.685234,
            "lng": 109.017585
        },
        "ad_info": {
            "adcode": 610902,
            "province": "陕西省",
            "city": "安康市",
            "district": "汉滨区"
        }
    },
    {
        "id": "12352807135957846492",
        "title": "公共厕所",
        "address": "陕西省安康市汉滨区朝阳路与钻石东路交叉口正东方向412米左右",
        "tel": "",
        "category": "基础设施:公共设施:公共厕所",
        "type": 0,
        "location": {
            "lat": 32.716058,
            "lng": 108.998525
        },
        "ad_info": {
            "adcode": 610902,
            "province": "陕西省",
            "city": "安康市",
            "district": "汉滨区"
        }
    },
    {
        "id": "399556932845188119",
        "title": "公共厕所",
        "address": "陕西省安康市汉滨区巴山中路与金州路交叉口西北方向43米左右",
        "tel": "",
        "category": "基础设施:公共设施:公共厕所",
        "type": 0,
        "location": {
            "lat": 32.6883,
            "lng": 109.029474
        },
        "ad_info": {
            "adcode": 610902,
            "province": "陕西省",
            "city": "安康市",
            "district": "汉滨区"
        }
    }
]