[
    {
        "id": "6463997612852908496",
        "title": "公共厕所",
        "address": "贵州省安顺市西秀区西航路与镇宁路交叉口西北方向40米左右",
        "tel": "",
        "category": "基础设施:公共设施:公共厕所",
        "type": 0,
        "location": {
            "lat": 26.243371,
            "lng": 105.919174
        },
        "ad_info": {
            "adcode": 520402,
            "province": "贵州省",
            "city": "安顺市",
            "district": "西秀区"
        }
    },
    {
        "id": "14767701129103185998",
        "title": "公共厕所",
        "address": "贵州省安顺市平坝区贵安第一城3期南侧160米",
        "tel": "",
        "category": "基础设施:公共设施:公共厕所",
        "type": 0,
        "location": {
            "lat": 26.44879,
            "lng": 106.315388
        },
        "ad_info": {
            "adcode": 520403,
            "province": "贵州省",
            "city": "安顺市",
            "district": "平坝区"
        }
    },
    {
        "id": "18065635865648610150",
        "title": "公共厕所",
        "address": "贵州省安顺市西秀区中华南路与宋官巷交叉口正东方向125米左右",
        "tel": "",
        "category": "基础设施:公共设施:公共厕所",
        "type": 0,
        "location": {
            "lat": 26.241442,
            "lng": 105.935459
        },
        "ad_info": {
            "adcode": 520402,
            "province": "贵州省",
            "city": "安顺市",
            "district": "西秀区"
        }
    },
    {
        "id": "4789909233616312679",
        "title": "公共厕所",
        "address": "贵州省安顺市西秀区伍家关路与新天路交叉口正北方向35米左右",
        "tel": "",
        "category": "基础设施:公共设施:公共厕所",
        "type": 0,
        "location": {
            "lat": 26.252652,
            "lng": 105.958179
        },
        "ad_info": {
            "adcode": 520402,
            "province": "贵州省",
            "city": "安顺市",
            "district": "西秀区"
        }
    },
    {
        "id": "10288356620689981802",
        "title": "公共厕所",
        "address": "贵州省安顺市西秀区南马大道与玉龙北路交叉口正东方向35米左右",
        "tel": "",
        "category": "基础设施:公共设施:公共厕所",
        "type": 0,
        "location": {
            "lat": 26.247206,
            "lng": 105.924505
        },
        "ad_info": {
            "adcode": 520402,
            "province": "贵州省",
            "city": "安顺市",
            "district": "西秀区"
        }
    },
    {
        "id": "12852144180266716022",
        "title": "公共厕所",
        "address": "贵州省安顺市西秀区幺铺新城南侧150米",
        "tel": "",
        "category": "基础设施:公共设施:公共厕所",
        "type": 0,
        "location": {
            "lat": 26.169592,
            "lng": 105.852291
        },
        "ad_info": {
            "adcode": 520402,
            "province": "贵州省",
            "city": "安顺市",
            "district": "西秀区"
        }
    },
    {
        "id": "3345819119021816754",
        "title": "公共厕所",
        "address": "贵州省安顺市西秀区汉邑路与紫云路交叉口东北方向267米左右",
        "tel": "",
        "category": "基础设施:公共设施:公共厕所",
        "type": 0,
        "location": {
            "lat": 26.224994,
            "lng": 105.964319
        },
        "ad_info": {
            "adcode": 520402,
            "province": "贵州省",
            "city": "安顺市",
            "district": "西秀区"
        }
    },
    {
        "id": "10997841271609603578",
        "title": "公共厕所",
        "address": "贵州省安顺市西秀区图书路与太和街交叉口西南方向81米左右",
        "tel": "",
        "category": "基础设施:公共设施:公共厕所",
        "type": 0,
        "location": {
            "lat": 26.243161,
            "lng": 105.93593
        },
        "ad_info": {
            "adcode": 520402,
            "province": "贵州省",
            "city": "安顺市",
            "district": "西秀区"
        }
    },
    {
        "id": "13364232806233816761",
        "title": "公共厕所",
        "address": "贵州省安顺市西秀区凌云路与西航路交叉口东南方向114米左右",
        "tel": "",
        "category": "基础设施:公共设施:公共厕所",
        "type": 0,
        "location": {
            "lat": 26.233646,
            "lng": 105.890194
        },
        "ad_info": {
            "adcode": 520402,
            "province": "贵州省",
            "city": "安顺市",
            "district": "西秀区"
        }
    },
    {
        "id": "3417012106911994743",
        "title": "公共厕所",
        "address": "贵州省安顺市西秀区中华东路与永丰大道交叉口正东方向95米左右",
        "tel": "",
        "category": "基础设施:公共设施:公共厕所",
        "type": 0,
        "location": {
            "lat": 26.259304,
            "lng": 105.971692
        },
        "ad_info": {
            "adcode": 520402,
            "province": "贵州省",
            "city": "安顺市",
            "district": "西秀区"
        }
    },
    {
        "id": "1742107540097592886",
        "title": "公共厕所",
        "address": "贵州省安顺市西秀区中华南路与蒋衙街交叉口西北方向53米左右",
        "tel": "",
        "category": "基础设施:公共设施:公共厕所",
        "type": 0,
        "location": {
            "lat": 26.244201,
            "lng": 105.933131
        },
        "ad_info": {
            "adcode": 520402,
            "province": "贵州省",
            "city": "安顺市",
            "district": "西秀区"
        }
    },
    {
        "id": "7010715123429887930",
        "title": "公共厕所",
        "address": "贵州省安顺市平坝区城关镇中山东路53号",
        "tel": "",
        "category": "基础设施:公共设施:公共厕所",
        "type": 0,
        "location": {
            "lat": 26.413479,
            "lng": 106.27101
        },
        "ad_info": {
            "adcode": 520403,
            "province": "贵州省",
            "city": "安顺市",
            "district": "平坝区"
        }
    },
    {
        "id": "8265593326451918562",
        "title": "公共厕所",
        "address": "贵州省安顺市西秀区市府路与金钟山路交叉口正西方向26米左右",
        "tel": "",
        "category": "基础设施:公共设施:公共厕所",
        "type": 0,
        "location": {
            "lat": 26.250939,
            "lng": 105.94661
        },
        "ad_info": {
            "adcode": 520402,
            "province": "贵州省",
            "city": "安顺市",
            "district": "西秀区"
        }
    },
    {
        "id": "16509323534112533322",
        "title": "公共厕所",
        "address": "贵州省安顺市西秀区G321与S211交叉口正南方向48米左右",
        "tel": "",
        "category": "基础设施:公共设施:公共厕所",
        "type": 0,
        "location": {
            "lat": 26.181607,
            "lng": 106.182818
        },
        "ad_info": {
            "adcode": 520402,
            "province": "贵州省",
            "city": "安顺市",
            "district": "西秀区"
        }
    },
    {
        "id": "7048344644377161221",
        "title": "公共厕所",
        "address": "贵州省安顺市西秀区东山路垃圾转运站东山路",
        "tel": "",
        "category": "基础设施:公共设施:公共厕所",
        "type": 0,
        "location": {
            "lat": 26.252495,
            "lng": 105.940541
        },
        "ad_info": {
            "adcode": 520402,
            "province": "贵州省",
            "city": "安顺市",
            "district": "西秀区"
        }
    },
    {
        "id": "10797326766368300619",
        "title": "公共厕所",
        "address": "贵州省安顺市关岭布依族苗族自治县城阳路与灞陵大道交叉口东北方向109米左右",
        "tel": "",
        "category": "基础设施:公共设施:公共厕所",
        "type": 0,
        "location": {
            "lat": 25.951851,
            "lng": 105.5389
        },
        "ad_info": {
            "adcode": 520424,
            "province": "贵州省",
            "city": "安顺市",
            "district": "关岭布依族苗族自治县"
        }
    },
    {
        "id": "17256955481057680082",
        "title": "公共厕所",
        "address": "贵州省安顺市西秀区S102与贵黄公路辅路交叉口正西方向493米左右",
        "tel": "",
        "category": "基础设施:公共设施:公共厕所",
        "type": 0,
        "location": {
            "lat": 26.267908,
            "lng": 106.014937
        },
        "ad_info": {
            "adcode": 520402,
            "province": "贵州省",
            "city": "安顺市",
            "district": "西秀区"
        }
    },
    {
        "id": "16301426982284027781",
        "title": "公共厕所",
        "address": "贵州省安顺市平坝区岭源养殖有限公司东北侧120米",
        "tel": "",
        "category": "基础设施:公共设施:公共厕所",
        "type": 0,
        "location": {
            "lat": 26.295329,
            "lng": 106.297785
        },
        "ad_info": {
            "adcode": 520403,
            "province": "贵州省",
            "city": "安顺市",
            "district": "平坝区"
        }
    },
    {
        "id": "11089582783762257391",
        "title": "公共厕所",
        "address": "贵州省安顺市西秀区宋官巷与顾府街交叉口正东方向47米左右",
        "tel": "",
        "category": "基础设施:公共设施:公共厕所",
        "type": 0,
        "location": {
            "lat": 26.24329,
            "lng": 105.937218
        },
        "ad_info": {
            "adcode": 520402,
            "province": "贵州省",
            "city": "安顺市",
            "district": "西秀区"
        }
    },
    {
        "id": "11726974978255037797",
        "title": "公共厕所",
        "address": "贵州省安顺市西秀区塔山西路与大梨树街交叉口西北方向78米左右",
        "tel": "",
        "category": "基础设施:公共设施:公共厕所",
        "type": 0,
        "location": {
            "lat": 26.240194,
            "lng": 105.933502
        },
        "ad_info": {
            "adcode": 520402,
            "province": "贵州省",
            "city": "安顺市",
            "district": "西秀区"
        }
    },
    {
        "id": "13945227862153463104",
        "title": "公共厕所",
        "address": "贵州省安顺市普定县城关镇安织路206号",
        "tel": "",
        "category": "基础设施:公共设施:公共厕所",
        "type": 0,
        "location": {
            "lat": 26.303074,
            "lng": 105.737871
        },
        "ad_info": {
            "adcode": 520422,
            "province": "贵州省",
            "city": "安顺市",
            "district": "普定县"
        }
    },
    {
        "id": "13331952970054513841",
        "title": "公共厕所",
        "address": "贵州省安顺市西秀区安吉佳园西侧370米",
        "tel": "",
        "category": "基础设施:公共设施:公共厕所",
        "type": 0,
        "location": {
            "lat": 26.267654,
            "lng": 105.998334
        },
        "ad_info": {
            "adcode": 520402,
            "province": "贵州省",
            "city": "安顺市",
            "district": "西秀区"
        }
    },
    {
        "id": "9110234137451477768",
        "title": "公共厕所",
        "address": "贵州省安顺市西秀区水洞街与金匮街交叉口正东方向78米左右",
        "tel": "",
        "category": "基础设施:公共设施:公共厕所",
        "type": 0,
        "location": {
            "lat": 26.249091,
            "lng": 105.932347
        },
        "ad_info": {
            "adcode": 520402,
            "province": "贵州省",
            "city": "安顺市",
            "district": "西秀区"
        }
    },
    {
        "id": "12229277504322597079",
        "title": "公共厕所",
        "address": "贵州省安顺市平坝区北苑巷与天马路交叉口西南方向210米左右",
        "tel": "",
        "category": "基础设施:公共设施:公共厕所",
        "type": 0,
        "location": {
            "lat": 26.42049,
            "lng": 106.262156
        },
        "ad_info": {
            "adcode": 520403,
            "province": "贵州省",
            "city": "安顺市",
            "district": "平坝区"
        }
    },
    {
        "id": "1023890646746689567",
        "title": "公共厕所",
        "address": "贵州省安顺市西秀区黄果树大街与龙青路交叉口正西方向174米左右",
        "tel": "",
        "category": "基础设施:公共设施:公共厕所",
        "type": 0,
        "location": {
            "lat": 26.239392,
            "lng": 105.957794
        },
        "ad_info": {
            "adcode": 520402,
            "province": "贵州省",
            "city": "安顺市",
            "district": "西秀区"
        }
    },
    {
        "id": "13359096701085911896",
        "title": "公共厕所",
        "address": "贵州省安顺市西秀区凤山路与塔山东路交叉口东南方向103米左右",
        "tel": "",
        "category": "基础设施:公共设施:公共厕所",
        "type": 0,
        "location": {
            "lat": 26.243184,
            "lng": 105.941561
        },
        "ad_info": {
            "adcode": 520402,
            "province": "贵州省",
            "city": "安顺市",
            "district": "西秀区"
        }
    },
    {
        "id": "560387856713184777",
        "title": "公共厕所",
        "address": "贵州省安顺市西秀区塔山西路与安平街交叉口东北方向43米左右",
        "tel": "",
        "category": "基础设施:公共设施:公共厕所",
        "type": 0,
        "location": {
            "lat": 26.239634,
            "lng": 105.929717
        },
        "ad_info": {
            "adcode": 520402,
            "province": "贵州省",
            "city": "安顺市",
            "district": "西秀区"
        }
    },
    {
        "id": "4841215727829339018",
        "title": "公共厕所",
        "address": "贵州省安顺市西秀区娄湖西路与定安大道交叉口西北方向314米左右",
        "tel": "",
        "category": "基础设施:公共设施:公共厕所",
        "type": 0,
        "location": {
            "lat": 26.259903,
            "lng": 105.901492
        },
        "ad_info": {
            "adcode": 520402,
            "province": "贵州省",
            "city": "安顺市",
            "district": "西秀区"
        }
    },
    {
        "id": "16952661436437170178",
        "title": "公共厕所",
        "address": "贵州省安顺市西秀区南马大道与西水路交叉口东北方向39米左右",
        "tel": "",
        "category": "基础设施:公共设施:公共厕所",
        "type": 0,
        "location": {
            "lat": 26.247213,
            "lng": 105.925484
        },
        "ad_info": {
            "adcode": 520402,
            "province": "贵州省",
            "city": "安顺市",
            "district": "西秀区"
        }
    },
    {
        "id": "10952778159976855867",
        "title": "公共厕所",
        "address": "贵州省安顺市普定县天王旗路与跃进路交叉口东北方向383米左右",
        "tel": "",
        "category": "基础设施:公共设施:公共厕所",
        "type": 0,
        "location": {
            "lat": 26.314532,
            "lng": 105.753388
        },
        "ad_info": {
            "adcode": 520422,
            "province": "贵州省",
            "city": "安顺市",
            "district": "普定县"
        }
    },
    {
        "id": "14120801430260929260",
        "title": "公共厕所",
        "address": "贵州省安顺市西秀区中华南路与马鞍山路交叉口东北方向70米左右",
        "tel": "",
        "category": "基础设施:公共设施:公共厕所",
        "type": 0,
        "location": {
            "lat": 26.232996,
            "lng": 105.941026
        },
        "ad_info": {
            "adcode": 520402,
            "province": "贵州省",
            "city": "安顺市",
            "district": "西秀区"
        }
    },
    {
        "id": "14135231578621987343",
        "title": "公共厕所",
        "address": "贵州省安顺市西秀区中华东路与市府路交叉口正南方向137米左右",
        "tel": "",
        "category": "基础设施:公共设施:公共厕所",
        "type": 0,
        "location": {
            "lat": 26.248092,
            "lng": 105.9463
        },
        "ad_info": {
            "adcode": 520402,
            "province": "贵州省",
            "city": "安顺市",
            "district": "西秀区"
        }
    },
    {
        "id": "14848494259326089386",
        "title": "公共厕所",
        "address": "贵州省安顺市关岭布依族苗族自治县S210与和平东街交叉口正南方向36米左右",
        "tel": "",
        "category": "基础设施:公共设施:公共厕所",
        "type": 0,
        "location": {
            "lat": 25.751717,
            "lng": 105.610121
        },
        "ad_info": {
            "adcode": 520424,
            "province": "贵州省",
            "city": "安顺市",
            "district": "关岭布依族苗族自治县"
        }
    },
    {
        "id": "886846956227542427",
        "title": "公共厕所",
        "address": "贵州省安顺市关岭布依族苗族自治县海百合路与环城路交叉口正南方向125米左右",
        "tel": "",
        "category": "基础设施:公共设施:公共厕所",
        "type": 0,
        "location": {
            "lat": 25.936852,
            "lng": 105.618928
        },
        "ad_info": {
            "adcode": 520424,
            "province": "贵州省",
            "city": "安顺市",
            "district": "关岭布依族苗族自治县"
        }
    },
    {
        "id": "16940058997098280812",
        "title": "公共厕所",
        "address": "贵州省安顺市西秀区安顺好吃街与黄果树大街交叉口东南方向107米左右",
        "tel": "",
        "category": "基础设施:公共设施:公共厕所",
        "type": 0,
        "location": {
            "lat": 26.237218,
            "lng": 105.955997
        },
        "ad_info": {
            "adcode": 520402,
            "province": "贵州省",
            "city": "安顺市",
            "district": "西秀区"
        }
    },
    {
        "id": "17548896219448152718",
        "title": "公共厕所",
        "address": "贵州省安顺市西秀区屯堡大道",
        "tel": "",
        "category": "基础设施:公共设施:公共厕所",
        "type": 0,
        "location": {
            "lat": 26.26585,
            "lng": 106.115496
        },
        "ad_info": {
            "adcode": 520402,
            "province": "贵州省",
            "city": "安顺市",
            "district": "西秀区"
        }
    },
    {
        "id": "15797662236803916503",
        "title": "公共厕所",
        "address": "贵州省安顺市平坝区X001与高峰山大道交叉口西南方向439米左右",
        "tel": "",
        "category": "基础设施:公共设施:公共厕所",
        "type": 0,
        "location": {
            "lat": 26.358921,
            "lng": 106.453774
        },
        "ad_info": {
            "adcode": 520403,
            "province": "贵州省",
            "city": "安顺市",
            "district": "平坝区"
        }
    },
    {
        "id": "16617090695888726015",
        "title": "公共厕所",
        "address": "贵州省安顺市西秀区竹子街与西航路交叉口正北方向19米左右",
        "tel": "",
        "category": "基础设施:公共设施:公共厕所",
        "type": 0,
        "location": {
            "lat": 26.242827,
            "lng": 105.922874
        },
        "ad_info": {
            "adcode": 520402,
            "province": "贵州省",
            "city": "安顺市",
            "district": "西秀区"
        }
    },
    {
        "id": "2005925923401416825",
        "title": "公共厕所",
        "address": "贵州省安顺市普定县易捷便利店(杨柳加油站)南侧",
        "tel": "",
        "category": "基础设施:公共设施:公共厕所",
        "type": 0,
        "location": {
            "lat": 26.228781,
            "lng": 105.681037
        },
        "ad_info": {
            "adcode": 520422,
            "province": "贵州省",
            "city": "安顺市",
            "district": "普定县"
        }
    },
    {
        "id": "14205156873514105501",
        "title": "公共厕所",
        "address": "贵州省安顺市平坝区塘约生态农旅公园游客服务中心西北侧100米",
        "tel": "",
        "category": "基础设施:公共设施:公共厕所",
        "type": 0,
        "location": {
            "lat": 26.439941,
            "lng": 106.166787
        },
        "ad_info": {
            "adcode": 520403,
            "province": "贵州省",
            "city": "安顺市",
            "district": "平坝区"
        }
    },
    {
        "id": "1648558381518080687",
        "title": "公共厕所",
        "address": "贵州省安顺市关岭布依族苗族自治县G320关岭汽车站",
        "tel": "",
        "category": "基础设施:公共设施:公共厕所",
        "type": 0,
        "location": {
            "lat": 25.933632,
            "lng": 105.602402
        },
        "ad_info": {
            "adcode": 520424,
            "province": "贵州省",
            "city": "安顺市",
            "district": "关岭布依族苗族自治县"
        }
    },
    {
        "id": "14172636670844118379",
        "title": "公共厕所",
        "address": "贵州省安顺市西秀区中华东路与虹山路交叉口正南方向87米左右",
        "tel": "",
        "category": "基础设施:公共设施:公共厕所",
        "type": 0,
        "location": {
            "lat": 26.254604,
            "lng": 105.960104
        },
        "ad_info": {
            "adcode": 520402,
            "province": "贵州省",
            "city": "安顺市",
            "district": "西秀区"
        }
    },
    {
        "id": "7214994127077971546",
        "title": "公共厕所",
        "address": "贵州省安顺市西秀区文庙巷与虹山湖路交叉口正北方向120米左右",
        "tel": "",
        "category": "基础设施:公共设施:公共厕所",
        "type": 0,
        "location": {
            "lat": 26.250854,
            "lng": 105.937837
        },
        "ad_info": {
            "adcode": 520402,
            "province": "贵州省",
            "city": "安顺市",
            "district": "西秀区"
        }
    },
    {
        "id": "13192267475217570159",
        "title": "公共厕所",
        "address": "贵州省安顺市西秀区中华南路与塔山东路交叉口正南方向84米左右",
        "tel": "",
        "category": "基础设施:公共设施:公共厕所",
        "type": 0,
        "location": {
            "lat": 26.239536,
            "lng": 105.935256
        },
        "ad_info": {
            "adcode": 520402,
            "province": "贵州省",
            "city": "安顺市",
            "district": "西秀区"
        }
    },
    {
        "id": "4238799694423533522",
        "title": "公共厕所",
        "address": "贵州省安顺市西秀区新安大道与西七号路交叉口正北方向305米左右",
        "tel": "",
        "category": "基础设施:公共设施:公共厕所",
        "type": 0,
        "location": {
            "lat": 26.29021,
            "lng": 105.997987
        },
        "ad_info": {
            "adcode": 520402,
            "province": "贵州省",
            "city": "安顺市",
            "district": "西秀区"
        }
    },
    {
        "id": "199710085165115234",
        "title": "公共厕所",
        "address": "贵州省安顺市西秀区S102与七眼桥街交叉口东南方向1236米左右",
        "tel": "",
        "category": "基础设施:公共设施:公共厕所",
        "type": 0,
        "location": {
            "lat": 26.296553,
            "lng": 106.084699
        },
        "ad_info": {
            "adcode": 520402,
            "province": "贵州省",
            "city": "安顺市",
            "district": "西秀区"
        }
    },
    {
        "id": "13196136225287670217",
        "title": "公共厕所",
        "address": "贵州省安顺市普定县文体大道与波玉大道交叉口正西方向162米左右",
        "tel": "",
        "category": "基础设施:公共设施:公共厕所",
        "type": 0,
        "location": {
            "lat": 26.292885,
            "lng": 105.734508
        },
        "ad_info": {
            "adcode": 520422,
            "province": "贵州省",
            "city": "安顺市",
            "district": "普定县"
        }
    },
    {
        "id": "8448274787790319294",
        "title": "公共厕所",
        "address": "贵州省安顺市西秀区好吃街与安顺好吃街交叉口东南方向39米左右",
        "tel": "",
        "category": "基础设施:公共设施:公共厕所",
        "type": 0,
        "location": {
            "lat": 26.235979,
            "lng": 105.954487
        },
        "ad_info": {
            "adcode": 520402,
            "province": "贵州省",
            "city": "安顺市",
            "district": "西秀区"
        }
    },
    {
        "id": "8187781026550987740",
        "title": "公共厕所",
        "address": "贵州省安顺市镇宁布依族苗族自治县城关镇犀牛路县委宿舍老宿舍",
        "tel": "",
        "category": "基础设施:公共设施:公共厕所",
        "type": 0,
        "location": {
            "lat": 26.055551,
            "lng": 105.769339
        },
        "ad_info": {
            "adcode": 520423,
            "province": "贵州省",
            "city": "安顺市",
            "district": "镇宁布依族苗族自治县"
        }
    },
    {
        "id": "4425999800218546518",
        "title": "公共厕所",
        "address": "贵州省安顺市普定县夜郎湖路与环北路交叉口西北方向38米左右",
        "tel": "",
        "category": "基础设施:公共设施:公共厕所",
        "type": 0,
        "location": {
            "lat": 26.319755,
            "lng": 105.749548
        },
        "ad_info": {
            "adcode": 520422,
            "province": "贵州省",
            "city": "安顺市",
            "district": "普定县"
        }
    },
    {
        "id": "14767541888783374932",
        "title": "公共厕所",
        "address": "贵州省安顺市关岭布依族苗族自治县花江倪秀明牛肉狗肉王东北侧100米",
        "tel": "",
        "category": "基础设施:公共设施:公共厕所",
        "type": 0,
        "location": {
            "lat": 25.925945,
            "lng": 105.602363
        },
        "ad_info": {
            "adcode": 520424,
            "province": "贵州省",
            "city": "安顺市",
            "district": "关岭布依族苗族自治县"
        }
    },
    {
        "id": "3269591392604116882",
        "title": "公共厕所",
        "address": "贵州省安顺市西秀区新天路与祥云路交叉口西南方向81米左右",
        "tel": "",
        "category": "基础设施:公共设施:公共厕所",
        "type": 0,
        "location": {
            "lat": 26.249408,
            "lng": 105.955686
        },
        "ad_info": {
            "adcode": 520402,
            "province": "贵州省",
            "city": "安顺市",
            "district": "西秀区"
        }
    },
    {
        "id": "17889441850799170777",
        "title": "公共厕所",
        "address": "贵州省安顺市西秀区西四号路与青岛路交叉口西南方向1043米左右",
        "tel": "",
        "category": "基础设施:公共设施:公共厕所",
        "type": 0,
        "location": {
            "lat": 26.278466,
            "lng": 106.005201
        },
        "ad_info": {
            "adcode": 520402,
            "province": "贵州省",
            "city": "安顺市",
            "district": "西秀区"
        }
    },
    {
        "id": "6979257459237557182",
        "title": "公共厕所",
        "address": "贵州省安顺市关岭布依族苗族自治县黄果树奇遇岭滑雪场西侧220米",
        "tel": "",
        "category": "基础设施:公共设施:公共厕所",
        "type": 0,
        "location": {
            "lat": 25.918578,
            "lng": 105.487151
        },
        "ad_info": {
            "adcode": 520424,
            "province": "贵州省",
            "city": "安顺市",
            "district": "关岭布依族苗族自治县"
        }
    },
    {
        "id": "10559749694844798836",
        "title": "公共厕所",
        "address": "贵州省安顺市镇宁布依族苗族自治县天瀑路与红星大道交叉口东南方向112米左右",
        "tel": "",
        "category": "基础设施:公共设施:公共厕所",
        "type": 0,
        "location": {
            "lat": 26.063622,
            "lng": 105.760101
        },
        "ad_info": {
            "adcode": 520423,
            "province": "贵州省",
            "city": "安顺市",
            "district": "镇宁布依族苗族自治县"
        }
    },
    {
        "id": "14908675735273533088",
        "title": "公共厕所",
        "address": "贵州省安顺市普定县塔山路与夜郎湖路交叉口东北方向624米左右",
        "tel": "",
        "category": "基础设施:公共设施:公共厕所",
        "type": 0,
        "location": {
            "lat": 26.315767,
            "lng": 105.7448
        },
        "ad_info": {
            "adcode": 520422,
            "province": "贵州省",
            "city": "安顺市",
            "district": "普定县"
        }
    },
    {
        "id": "14417267861634165819",
        "title": "公共厕所",
        "address": "贵州省安顺市西秀区新安大道与西七号路交叉口西北方向334米左右",
        "tel": "",
        "category": "基础设施:公共设施:公共厕所",
        "type": 0,
        "location": {
            "lat": 26.288931,
            "lng": 105.994851
        },
        "ad_info": {
            "adcode": 520402,
            "province": "贵州省",
            "city": "安顺市",
            "district": "西秀区"
        }
    },
    {
        "id": "12763194188984432081",
        "title": "卫生间",
        "address": "贵州省安顺市西秀区新安大道与飞虹路交叉口正西方向189米左右",
        "tel": "",
        "category": "基础设施:公共设施:公共厕所",
        "type": 0,
        "location": {
            "lat": 26.289421,
            "lng": 105.988893
        },
        "ad_info": {
            "adcode": 520402,
            "province": "贵州省",
            "city": "安顺市",
            "district": "西秀区"
        }
    },
    {
        "id": "544650708965182692",
        "title": "公共厕所",
        "address": "贵州省安顺市关岭布依族苗族自治县S210与文化路交叉口正东方向162米左右",
        "tel": "",
        "category": "基础设施:公共设施:公共厕所",
        "type": 0,
        "location": {
            "lat": 25.8862,
            "lng": 105.647072
        },
        "ad_info": {
            "adcode": 520424,
            "province": "贵州省",
            "city": "安顺市",
            "district": "关岭布依族苗族自治县"
        }
    },
    {
        "id": "14067561964677951754",
        "title": "公共厕所",
        "address": "贵州省安顺市关岭布依族苗族自治县G320与交通路交叉口东南方向26米左右",
        "tel": "",
        "category": "基础设施:公共设施:公共厕所",
        "type": 0,
        "location": {
            "lat": 25.938582,
            "lng": 105.627693
        },
        "ad_info": {
            "adcode": 520424,
            "province": "贵州省",
            "city": "安顺市",
            "district": "关岭布依族苗族自治县"
        }
    },
    {
        "id": "13624570996206211785",
        "title": "公共厕所",
        "address": "贵州省安顺市西秀区东方路与中华东路交叉口正南方向18米左右",
        "tel": "",
        "category": "基础设施:公共设施:公共厕所",
        "type": 0,
        "location": {
            "lat": 26.246453,
            "lng": 105.936715
        },
        "ad_info": {
            "adcode": 520402,
            "province": "贵州省",
            "city": "安顺市",
            "district": "西秀区"
        }
    },
    {
        "id": "5408833513643327258",
        "title": "公共厕所",
        "address": "贵州省安顺市镇宁布依族苗族自治县东街与犀牛路交叉口正北方向88米左右",
        "tel": "",
        "category": "基础设施:公共设施:公共厕所",
        "type": 0,
        "location": {
            "lat": 26.057172,
            "lng": 105.768329
        },
        "ad_info": {
            "adcode": 520423,
            "province": "贵州省",
            "city": "安顺市",
            "district": "镇宁布依族苗族自治县"
        }
    },
    {
        "id": "5707753440832177339",
        "title": "公共厕所",
        "address": "贵州省安顺市西秀区南山路与火七路交叉口东北方向140米左右",
        "tel": "",
        "category": "基础设施:公共设施:公共厕所",
        "type": 0,
        "location": {
            "lat": 26.23531,
            "lng": 105.94933
        },
        "ad_info": {
            "adcode": 520402,
            "province": "贵州省",
            "city": "安顺市",
            "district": "西秀区"
        }
    },
    {
        "id": "17901687232238784619",
        "title": "公共厕所",
        "address": "贵州省安顺市紫云苗族布依族自治县体育街与文化路交叉口西南方向75米左右",
        "tel": "",
        "category": "基础设施:公共设施:公共厕所",
        "type": 0,
        "location": {
            "lat": 25.751107,
            "lng": 106.079515
        },
        "ad_info": {
            "adcode": 520425,
            "province": "贵州省",
            "city": "安顺市",
            "district": "紫云苗族布依族自治县"
        }
    },
    {
        "id": "14452474476163211903",
        "title": "公共厕所",
        "address": "贵州省安顺市镇宁布依族苗族自治县X453与迎宾大道交叉口东北方向55米左右",
        "tel": "",
        "category": "基础设施:公共设施:公共厕所",
        "type": 0,
        "location": {
            "lat": 25.997612,
            "lng": 105.687111
        },
        "ad_info": {
            "adcode": 520423,
            "province": "贵州省",
            "city": "安顺市",
            "district": "镇宁布依族苗族自治县"
        }
    },
    {
        "id": "12873545939710416652",
        "title": "公共厕所",
        "address": "贵州省安顺市普定县中兴大道与丰林路交叉口正东方向74米左右",
        "tel": "",
        "category": "基础设施:公共设施:公共厕所",
        "type": 0,
        "location": {
            "lat": 26.298659,
            "lng": 105.736039
        },
        "ad_info": {
            "adcode": 520422,
            "province": "贵州省",
            "city": "安顺市",
            "district": "普定县"
        }
    },
    {
        "id": "2094395665959416091",
        "title": "公共厕所",
        "address": "贵州省安顺市西秀区西花路与黄果树大街交叉口东北方向255米左右",
        "tel": "",
        "category": "基础设施:公共设施:公共厕所",
        "type": 0,
        "location": {
            "lat": 26.232595,
            "lng": 105.911319
        },
        "ad_info": {
            "adcode": 520402,
            "province": "贵州省",
            "city": "安顺市",
            "district": "西秀区"
        }
    },
    {
        "id": "6841816756510413541",
        "title": "公共厕所",
        "address": "贵州省安顺市西秀区南山路与黄山路交叉口正南方向256米左右",
        "tel": "",
        "category": "基础设施:公共设施:公共厕所",
        "type": 0,
        "location": {
            "lat": 26.229939,
            "lng": 105.942937
        },
        "ad_info": {
            "adcode": 520402,
            "province": "贵州省",
            "city": "安顺市",
            "district": "西秀区"
        }
    },
    {
        "id": "10443958608373997245",
        "title": "公共厕所",
        "address": "贵州省安顺市西秀区南水路38号",
        "tel": "",
        "category": "基础设施:公共设施:公共厕所",
        "type": 0,
        "location": {
            "lat": 26.23912,
            "lng": 105.937462
        },
        "ad_info": {
            "adcode": 520402,
            "province": "贵州省",
            "city": "安顺市",
            "district": "西秀区"
        }
    },
    {
        "id": "1746209139339378401",
        "title": "公共厕所",
        "address": "贵州省安顺市西秀区华南路101号",
        "tel": "",
        "category": "基础设施:公共设施:公共厕所",
        "type": 0,
        "location": {
            "lat": 26.233743,
            "lng": 105.940161
        },
        "ad_info": {
            "adcode": 520402,
            "province": "贵州省",
            "city": "安顺市",
            "district": "西秀区"
        }
    },
    {
        "id": "14902420971343334904",
        "title": "公共厕所",
        "address": "贵州省安顺市镇宁布依族苗族自治县贵黄公路与G60沪昆高速出口交叉口北120米",
        "tel": "",
        "category": "基础设施:公共设施:公共厕所",
        "type": 0,
        "location": {
            "lat": 26.13838,
            "lng": 105.831677
        },
        "ad_info": {
            "adcode": 520423,
            "province": "贵州省",
            "city": "安顺市",
            "district": "镇宁布依族苗族自治县"
        }
    },
    {
        "id": "18439803425414531198",
        "title": "公共厕所",
        "address": "贵州省安顺市西秀区红旗路与顾府街交叉口东北方向78米左右",
        "tel": "",
        "category": "基础设施:公共设施:公共厕所",
        "type": 0,
        "location": {
            "lat": 26.245111,
            "lng": 105.936582
        },
        "ad_info": {
            "adcode": 520402,
            "province": "贵州省",
            "city": "安顺市",
            "district": "西秀区"
        }
    },
    {
        "id": "14068768605300864851",
        "title": "公共厕所",
        "address": "贵州省安顺市西秀区体育路家运天城",
        "tel": "",
        "category": "基础设施:公共设施:公共厕所",
        "type": 0,
        "location": {
            "lat": 26.252353,
            "lng": 105.96679
        },
        "ad_info": {
            "adcode": 520402,
            "province": "贵州省",
            "city": "安顺市",
            "district": "西秀区"
        }
    },
    {
        "id": "4865864598742058965",
        "title": "公共厕所",
        "address": "贵州省安顺市平坝区红塔路与顺城路交叉口西北方向21米左右",
        "tel": "",
        "category": "基础设施:公共设施:公共厕所",
        "type": 0,
        "location": {
            "lat": 26.409032,
            "lng": 106.261038
        },
        "ad_info": {
            "adcode": 520403,
            "province": "贵州省",
            "city": "安顺市",
            "district": "平坝区"
        }
    },
    {
        "id": "12531114015573650868",
        "title": "公共厕所",
        "address": "贵州省安顺市西秀区北街与同心路交叉口东南方向47米左右",
        "tel": "",
        "category": "基础设施:公共设施:公共厕所",
        "type": 0,
        "location": {
            "lat": 26.24946,
            "lng": 106.14217
        },
        "ad_info": {
            "adcode": 520402,
            "province": "贵州省",
            "city": "安顺市",
            "district": "西秀区"
        }
    },
    {
        "id": "11125623012331650283",
        "title": "公共厕所",
        "address": "贵州省安顺市西秀区黄果树大街180号",
        "tel": "",
        "category": "基础设施:公共设施:公共厕所",
        "type": 0,
        "location": {
            "lat": 26.236275,
            "lng": 105.944315
        },
        "ad_info": {
            "adcode": 520402,
            "province": "贵州省",
            "city": "安顺市",
            "district": "西秀区"
        }
    },
    {
        "id": "13904782217135102710",
        "title": "无障碍公共厕所",
        "address": "贵州省安顺市西秀区万象花园东侧180米",
        "tel": "",
        "category": "基础设施:公共设施:公共厕所",
        "type": 0,
        "location": {
            "lat": 26.219405,
            "lng": 105.873104
        },
        "ad_info": {
            "adcode": 520402,
            "province": "贵州省",
            "city": "安顺市",
            "district": "西秀区"
        }
    },
    {
        "id": "15064041543168455818",
        "title": "公共厕所",
        "address": "贵州省安顺市西秀区北山路与北航路交叉口正南方向400米左右",
        "tel": "",
        "category": "基础设施:公共设施:公共厕所",
        "type": 0,
        "location": {
            "lat": 26.259121,
            "lng": 105.921815
        },
        "ad_info": {
            "adcode": 520402,
            "province": "贵州省",
            "city": "安顺市",
            "district": "西秀区"
        }
    },
    {
        "id": "12587930197372230335",
        "title": "卫生间",
        "address": "贵州省安顺市西秀区凤东路与建设路交叉口正北方向110米左右",
        "tel": "",
        "category": "基础设施:公共设施:公共厕所",
        "type": 0,
        "location": {
            "lat": 26.246101,
            "lng": 105.950711
        },
        "ad_info": {
            "adcode": 520402,
            "province": "贵州省",
            "city": "安顺市",
            "district": "西秀区"
        }
    },
    {
        "id": "17998573714500039755",
        "title": "公共厕所",
        "address": "贵州省安顺市西秀区新安大道与黄果树大街辅路交叉口西北400米",
        "tel": "",
        "category": "基础设施:公共设施:公共厕所",
        "type": 0,
        "location": {
            "lat": 26.264514,
            "lng": 105.998931
        },
        "ad_info": {
            "adcode": 520402,
            "province": "贵州省",
            "city": "安顺市",
            "district": "西秀区"
        }
    },
    {
        "id": "7071787905781408580",
        "title": "公共厕所",
        "address": "贵州省安顺市西秀区云雀小区西北侧160米",
        "tel": "",
        "category": "基础设施:公共设施:公共厕所",
        "type": 0,
        "location": {
            "lat": 26.233747,
            "lng": 105.884113
        },
        "ad_info": {
            "adcode": 520402,
            "province": "贵州省",
            "city": "安顺市",
            "district": "西秀区"
        }
    },
    {
        "id": "11696794907398064389",
        "title": "公共厕所",
        "address": "贵州省安顺市西秀区黄果树大街274号",
        "tel": "",
        "category": "基础设施:公共设施:公共厕所",
        "type": 0,
        "location": {
            "lat": 26.23217,
            "lng": 105.936078
        },
        "ad_info": {
            "adcode": 520402,
            "province": "贵州省",
            "city": "安顺市",
            "district": "西秀区"
        }
    },
    {
        "id": "3595162100020924963",
        "title": "公共卫生间",
        "address": "贵州省安顺市西秀区中华北路与温家巷交叉口正南方向101米左右",
        "tel": "",
        "category": "基础设施:公共设施:公共厕所",
        "type": 0,
        "location": {
            "lat": 26.248567,
            "lng": 105.929107
        },
        "ad_info": {
            "adcode": 520402,
            "province": "贵州省",
            "city": "安顺市",
            "district": "西秀区"
        }
    },
    {
        "id": "9658534020183370055",
        "title": "公共厕所(宝石花园小区)",
        "address": "贵州省安顺市镇宁布依族苗族自治县贵黄公路与镇坝大街交叉口正西方向90米左右",
        "tel": "",
        "category": "基础设施:公共设施:公共厕所",
        "type": 0,
        "location": {
            "lat": 26.044966,
            "lng": 105.7635
        },
        "ad_info": {
            "adcode": 520423,
            "province": "贵州省",
            "city": "安顺市",
            "district": "镇宁布依族苗族自治县"
        }
    },
    {
        "id": "11549995237559144574",
        "title": "公共厕所",
        "address": "贵州省安顺市西秀区体育路富佳花园",
        "tel": "",
        "category": "基础设施:公共设施:公共厕所",
        "type": 0,
        "location": {
            "lat": 26.246776,
            "lng": 105.943455
        },
        "ad_info": {
            "adcode": 520402,
            "province": "贵州省",
            "city": "安顺市",
            "district": "西秀区"
        }
    },
    {
        "id": "9964238929501042671",
        "title": "公共厕所",
        "address": "贵州省安顺市平坝区万华路与迎宾大道交叉口正北方向89米左右",
        "tel": "",
        "category": "基础设施:公共设施:公共厕所",
        "type": 0,
        "location": {
            "lat": 26.412361,
            "lng": 106.26876
        },
        "ad_info": {
            "adcode": 520403,
            "province": "贵州省",
            "city": "安顺市",
            "district": "平坝区"
        }
    },
    {
        "id": "178094611770996685",
        "title": "公共厕所",
        "address": "贵州省安顺市西秀区神骏生态文旅小镇北侧440米",
        "tel": "",
        "category": "基础设施:公共设施:公共厕所",
        "type": 0,
        "location": {
            "lat": 26.219583,
            "lng": 105.856293
        },
        "ad_info": {
            "adcode": 520402,
            "province": "贵州省",
            "city": "安顺市",
            "district": "西秀区"
        }
    },
    {
        "id": "16178447339830836961",
        "title": "公共厕所",
        "address": "贵州省安顺市西秀区学院路与西航路交叉口正西方向248米左右",
        "tel": "",
        "category": "基础设施:公共设施:公共厕所",
        "type": 0,
        "location": {
            "lat": 26.239766,
            "lng": 105.900371
        },
        "ad_info": {
            "adcode": 520402,
            "province": "贵州省",
            "city": "安顺市",
            "district": "西秀区"
        }
    },
    {
        "id": "13713874809936039709",
        "title": "公共厕所",
        "address": "贵州省安顺市西秀区永丰大道与黄果树大街交叉口东北方向798米左右",
        "tel": "",
        "category": "基础设施:公共设施:公共厕所",
        "type": 0,
        "location": {
            "lat": 26.254925,
            "lng": 105.982481
        },
        "ad_info": {
            "adcode": 520402,
            "province": "贵州省",
            "city": "安顺市",
            "district": "西秀区"
        }
    },
    {
        "id": "10923246393175838667",
        "title": "公共厕所",
        "address": "贵州省安顺市普定县光明路与解放路交叉口正东方向90米左右",
        "tel": "",
        "category": "基础设施:公共设施:公共厕所",
        "type": 0,
        "location": {
            "lat": 26.306035,
            "lng": 105.75003
        },
        "ad_info": {
            "adcode": 520422,
            "province": "贵州省",
            "city": "安顺市",
            "district": "普定县"
        }
    },
    {
        "id": "11584988335937531755",
        "title": "公共厕所",
        "address": "贵州省安顺市镇宁布依族苗族自治县G356与贵黄公路交叉口西南方向67米左右",
        "tel": "",
        "category": "基础设施:公共设施:公共厕所",
        "type": 0,
        "location": {
            "lat": 26.133826,
            "lng": 105.829427
        },
        "ad_info": {
            "adcode": 520423,
            "province": "贵州省",
            "city": "安顺市",
            "district": "镇宁布依族苗族自治县"
        }
    },
    {
        "id": "16644476822168815768",
        "title": "无障碍公共厕所",
        "address": "贵州省安顺市普定县丰林路与凯旋步行街交叉口正西方向141米左右",
        "tel": "",
        "category": "基础设施:公共设施:公共厕所",
        "type": 0,
        "location": {
            "lat": 26.296793,
            "lng": 105.736105
        },
        "ad_info": {
            "adcode": 520422,
            "province": "贵州省",
            "city": "安顺市",
            "district": "普定县"
        }
    },
    {
        "id": "3724685705867073933",
        "title": "公共厕所",
        "address": "贵州省安顺市平坝区康泰路与黎阳路交叉口西北方向156米左右",
        "tel": "",
        "category": "基础设施:公共设施:公共厕所",
        "type": 0,
        "location": {
            "lat": 26.397606,
            "lng": 106.254217
        },
        "ad_info": {
            "adcode": 520403,
            "province": "贵州省",
            "city": "安顺市",
            "district": "平坝区"
        }
    },
    {
        "id": "5071796839280691188",
        "title": "小青山公共厕所",
        "address": "贵州省安顺市普定县夜郎湖路与富强西路交叉口西南方向32米左右",
        "tel": "",
        "category": "基础设施:公共设施:公共厕所",
        "type": 0,
        "location": {
            "lat": 26.304138,
            "lng": 105.738151
        },
        "ad_info": {
            "adcode": 520422,
            "province": "贵州省",
            "city": "安顺市",
            "district": "普定县"
        }
    },
    {
        "id": "6186850790693975095",
        "title": "公共厕所",
        "address": "贵州省安顺市平坝区中山南路与堡城路交叉口西北方向70米左右",
        "tel": "",
        "category": "基础设施:公共设施:公共厕所",
        "type": 0,
        "location": {
            "lat": 26.407654,
            "lng": 106.257903
        },
        "ad_info": {
            "adcode": 520403,
            "province": "贵州省",
            "city": "安顺市",
            "district": "平坝区"
        }
    },
    {
        "id": "1361950013011705484",
        "title": "公共厕所",
        "address": "贵州省安顺市西秀区西花路与黄果树大街交叉口正东方向438米左右",
        "tel": "",
        "category": "基础设施:公共设施:公共厕所",
        "type": 0,
        "location": {
            "lat": 26.230036,
            "lng": 105.913487
        },
        "ad_info": {
            "adcode": 520402,
            "province": "贵州省",
            "city": "安顺市",
            "district": "西秀区"
        }
    },
    {
        "id": "13361099770532791629",
        "title": "免费公共厕所",
        "address": "贵州省安顺市普定县天王旗路与跃进路交叉口东北方向175米左右",
        "tel": "",
        "category": "基础设施:公共设施:公共厕所",
        "type": 0,
        "location": {
            "lat": 26.312643,
            "lng": 105.752731
        },
        "ad_info": {
            "adcode": 520422,
            "province": "贵州省",
            "city": "安顺市",
            "district": "普定县"
        }
    },
    {
        "id": "842039665704267417",
        "title": "公共厕所",
        "address": "贵州省安顺市西秀区旧州美食街与河湾路交叉口西北方向71米左右",
        "tel": "",
        "category": "基础设施:公共设施:公共厕所",
        "type": 0,
        "location": {
            "lat": 26.246624,
            "lng": 106.137809
        },
        "ad_info": {
            "adcode": 520402,
            "province": "贵州省",
            "city": "安顺市",
            "district": "西秀区"
        }
    },
    {
        "id": "2029213996977704530",
        "title": "公共厕所",
        "address": "贵州省安顺市西秀区安平街与弘杨路交叉口东南方向130米左右",
        "tel": "",
        "category": "基础设施:公共设施:公共厕所",
        "type": 0,
        "location": {
            "lat": 26.234422,
            "lng": 105.929812
        },
        "ad_info": {
            "adcode": 520402,
            "province": "贵州省",
            "city": "安顺市",
            "district": "西秀区"
        }
    },
    {
        "id": "3052370992784464380",
        "title": "龙宫服务区公共厕所",
        "address": "贵州省安顺市西秀区S102与幺铺立交桥交叉口东南方向955米左右",
        "tel": "",
        "category": "基础设施:公共设施:公共厕所",
        "type": 0,
        "location": {
            "lat": 26.16666,
            "lng": 105.859857
        },
        "ad_info": {
            "adcode": 520402,
            "province": "贵州省",
            "city": "安顺市",
            "district": "西秀区"
        }
    },
    {
        "id": "5216066191830896090",
        "title": "公共厕所",
        "address": "贵州省安顺市关岭布依族苗族自治县X470与关花大道交叉口东北方向1063米左右",
        "tel": "",
        "category": "基础设施:公共设施:公共厕所",
        "type": 0,
        "location": {
            "lat": 25.868552,
            "lng": 105.606199
        },
        "ad_info": {
            "adcode": 520424,
            "province": "贵州省",
            "city": "安顺市",
            "district": "关岭布依族苗族自治县"
        }
    },
    {
        "id": "12554720229505445478",
        "title": "公共厕所",
        "address": "贵州省安顺市西秀区双新路与定安大道交叉口西南方向288米左右",
        "tel": "",
        "category": "基础设施:公共设施:公共厕所",
        "type": 0,
        "location": {
            "lat": 26.234673,
            "lng": 105.853889
        },
        "ad_info": {
            "adcode": 520402,
            "province": "贵州省",
            "city": "安顺市",
            "district": "西秀区"
        }
    },
    {
        "id": "7404995890334744820",
        "title": "公共厕所",
        "address": "贵州省安顺市西秀区岚山景区西北侧",
        "tel": "",
        "category": "基础设施:公共设施:公共厕所",
        "type": 0,
        "location": {
            "lat": 26.278115,
            "lng": 106.042651
        },
        "ad_info": {
            "adcode": 520402,
            "province": "贵州省",
            "city": "安顺市",
            "district": "西秀区"
        }
    },
    {
        "id": "17955262852563127202",
        "title": "无障碍公共厕所",
        "address": "贵州省安顺市普定县S03安顺环城高速与S03安顺环城高速出口交叉口东260米",
        "tel": "",
        "category": "基础设施:公共设施:公共厕所",
        "type": 0,
        "location": {
            "lat": 26.258737,
            "lng": 105.824313
        },
        "ad_info": {
            "adcode": 520422,
            "province": "贵州省",
            "city": "安顺市",
            "district": "普定县"
        }
    },
    {
        "id": "1145386251519391993",
        "title": "无障碍公共厕所",
        "address": "贵州省安顺市西秀区中华东路与塔山东路交叉口西南方向48米左右",
        "tel": "",
        "category": "基础设施:公共设施:公共厕所",
        "type": 0,
        "location": {
            "lat": 26.24798,
            "lng": 105.94194
        },
        "ad_info": {
            "adcode": 520402,
            "province": "贵州省",
            "city": "安顺市",
            "district": "西秀区"
        }
    },
    {
        "id": "11657599556422185508",
        "title": "公共厕所",
        "address": "贵州省安顺市平坝区G60沪昆高速入口与贵黄公路交叉口东北80米",
        "tel": "",
        "category": "基础设施:公共设施:公共厕所",
        "type": 0,
        "location": {
            "lat": 26.403231,
            "lng": 106.245245
        },
        "ad_info": {
            "adcode": 520403,
            "province": "贵州省",
            "city": "安顺市",
            "district": "平坝区"
        }
    },
    {
        "id": "17285943801909081448",
        "title": "公共厕所",
        "address": "贵州省安顺市平坝区天马路与观音路交叉口东南方向63米左右",
        "tel": "",
        "category": "基础设施:公共设施:公共厕所",
        "type": 0,
        "location": {
            "lat": 26.410293,
            "lng": 106.256886
        },
        "ad_info": {
            "adcode": 520403,
            "province": "贵州省",
            "city": "安顺市",
            "district": "平坝区"
        }
    },
    {
        "id": "13169248036865699963",
        "title": "凯旋酒店-洗手间",
        "address": "贵州省安顺市西秀区南马大道(南马广场)",
        "tel": "",
        "category": "基础设施:公共设施:公共厕所",
        "type": 0,
        "location": {
            "lat": 26.249086,
            "lng": 105.915817
        },
        "ad_info": {
            "adcode": 520402,
            "province": "贵州省",
            "city": "安顺市",
            "district": "西秀区"
        }
    },
    {
        "id": "15903744277854241200",
        "title": "普定服务区公共厕所",
        "address": "贵州省安顺市普定县普定服务区与S55仁望高速交叉口东北180米",
        "tel": "",
        "category": "基础设施:公共设施:公共厕所",
        "type": 0,
        "location": {
            "lat": 26.37236,
            "lng": 105.742984
        },
        "ad_info": {
            "adcode": 520422,
            "province": "贵州省",
            "city": "安顺市",
            "district": "普定县"
        }
    },
    {
        "id": "15397149747423338721",
        "title": "杨武服务区第一公共厕所",
        "address": "贵州省安顺市西秀区天海石油杨武服务区加油站北侧170米",
        "tel": "",
        "category": "基础设施:公共设施:公共厕所",
        "type": 0,
        "location": {
            "lat": 26.08546,
            "lng": 106.15319
        },
        "ad_info": {
            "adcode": 520402,
            "province": "贵州省",
            "city": "安顺市",
            "district": "西秀区"
        }
    },
    {
        "id": "11913973960669449982",
        "title": "旅游公共厕所",
        "address": "贵州省安顺市西秀区双新路与双阳路交叉口正南方向175米左右",
        "tel": "",
        "category": "基础设施:公共设施:公共厕所",
        "type": 0,
        "location": {
            "lat": 26.230179,
            "lng": 105.873301
        },
        "ad_info": {
            "adcode": 520402,
            "province": "贵州省",
            "city": "安顺市",
            "district": "西秀区"
        }
    },
    {
        "id": "18263759591168647494",
        "title": "杨武服务区第二公共厕所",
        "address": "贵州省安顺市西秀区杨武服务区与S55仁望高速交叉口南320米",
        "tel": "",
        "category": "基础设施:公共设施:公共厕所",
        "type": 0,
        "location": {
            "lat": 26.087146,
            "lng": 106.15508
        },
        "ad_info": {
            "adcode": 520402,
            "province": "贵州省",
            "city": "安顺市",
            "district": "西秀区"
        }
    },
    {
        "id": "4059886330048237224",
        "title": "普定服务区公共厕所",
        "address": "贵州省安顺市普定县富来门业西侧270米",
        "tel": "",
        "category": "基础设施:公共设施:公共厕所",
        "type": 0,
        "location": {
            "lat": 26.371562,
            "lng": 105.744094
        },
        "ad_info": {
            "adcode": 520422,
            "province": "贵州省",
            "city": "安顺市",
            "district": "普定县"
        }
    },
    {
        "id": "3476428246926486927",
        "title": "关岭服务区公共厕所",
        "address": "贵州省安顺市关岭布依族苗族自治县G60沪昆高速与关岭服务区交叉口西360米",
        "tel": "",
        "category": "基础设施:公共设施:公共厕所",
        "type": 0,
        "location": {
            "lat": 25.931454,
            "lng": 105.56497
        },
        "ad_info": {
            "adcode": 520424,
            "province": "贵州省",
            "city": "安顺市",
            "district": "关岭布依族苗族自治县"
        }
    },
    {
        "id": "1692866170727047553",
        "title": "云峰服务区第二公共厕所",
        "address": "贵州省安顺市西秀区沪昆高速云峰服务区",
        "tel": "",
        "category": "基础设施:公共设施:公共厕所",
        "type": 0,
        "location": {
            "lat": 26.317254,
            "lng": 106.068259
        },
        "ad_info": {
            "adcode": 520402,
            "province": "贵州省",
            "city": "安顺市",
            "district": "西秀区"
        }
    },
    {
        "id": "9486418657601610142",
        "title": "第5空间无障碍公共厕所",
        "address": "贵州省安顺市西秀区玉龙北路与西航路交叉口东北方向45米左右",
        "tel": "",
        "category": "基础设施:公共设施:公共厕所",
        "type": 0,
        "location": {
            "lat": 26.243274,
            "lng": 105.921678
        },
        "ad_info": {
            "adcode": 520402,
            "province": "贵州省",
            "city": "安顺市",
            "district": "西秀区"
        }
    },
    {
        "id": "14092889118163013543",
        "title": "免费公共厕所",
        "address": "贵州省安顺市平坝区沿河路与迎宾大道交叉口西南方向55米左右",
        "tel": "",
        "category": "基础设施:公共设施:公共厕所",
        "type": 0,
        "location": {
            "lat": 26.407114,
            "lng": 106.264036
        },
        "ad_info": {
            "adcode": 520403,
            "province": "贵州省",
            "city": "安顺市",
            "district": "平坝区"
        }
    },
    {
        "id": "16662492528986238416",
        "title": "无障碍公共厕所",
        "address": "贵州省安顺市普定县富强路体育场门口",
        "tel": "",
        "category": "基础设施:公共设施:公共厕所",
        "type": 0,
        "location": {
            "lat": 26.305697,
            "lng": 105.74043
        },
        "ad_info": {
            "adcode": 520422,
            "province": "贵州省",
            "city": "安顺市",
            "district": "普定县"
        }
    },
    {
        "id": "5562690778552420261",
        "title": "紫云服务区第二公共厕所",
        "address": "贵州省安顺市紫云苗族布依族自治县紫云服务区与S50惠兴高速交叉口东北340米",
        "tel": "",
        "category": "基础设施:公共设施:公共厕所",
        "type": 0,
        "location": {
            "lat": 25.73386,
            "lng": 106.044909
        },
        "ad_info": {
            "adcode": 520425,
            "province": "贵州省",
            "city": "安顺市",
            "district": "紫云苗族布依族自治县"
        }
    },
    {
        "id": "1514207613354342917",
        "title": "公共厕所",
        "address": "贵州省安顺市西秀区X404与刘官路交叉口正东方向616米左右",
        "tel": "",
        "category": "基础设施:公共设施:公共厕所",
        "type": 0,
        "location": {
            "lat": 26.251768,
            "lng": 106.21185
        },
        "ad_info": {
            "adcode": 520402,
            "province": "贵州省",
            "city": "安顺市",
            "district": "西秀区"
        }
    },
    {
        "id": "4456830105112210835",
        "title": "无障碍公共厕所",
        "address": "贵州省安顺市普定县经济适用房4期西北侧240米",
        "tel": "",
        "category": "基础设施:公共设施:公共厕所",
        "type": 0,
        "location": {
            "lat": 26.303199,
            "lng": 105.731138
        },
        "ad_info": {
            "adcode": 520422,
            "province": "贵州省",
            "city": "安顺市",
            "district": "普定县"
        }
    },
    {
        "id": "10505040480545030115",
        "title": "公共厕所",
        "address": "贵州省安顺市镇宁布依族苗族自治县交通街与玉京路交叉口东南方向29米左右",
        "tel": "",
        "category": "基础设施:公共设施:公共厕所",
        "type": 0,
        "location": {
            "lat": 26.050542,
            "lng": 105.764424
        },
        "ad_info": {
            "adcode": 520423,
            "province": "贵州省",
            "city": "安顺市",
            "district": "镇宁布依族苗族自治县"
        }
    },
    {
        "id": "1857152268523241622",
        "title": "驼宝山免费公共厕所",
        "address": "贵州省安顺市西秀区新和路与马槽井路交叉口东北方向89米左右",
        "tel": "",
        "category": "基础设施:公共设施:公共厕所",
        "type": 0,
        "location": {
            "lat": 26.249842,
            "lng": 105.959441
        },
        "ad_info": {
            "adcode": 520402,
            "province": "贵州省",
            "city": "安顺市",
            "district": "西秀区"
        }
    },
    {
        "id": "5120066508606865599",
        "title": "公共厕所",
        "address": "贵州省安顺市西秀区X402与东环路交叉口正东方向316米左右",
        "tel": "",
        "category": "基础设施:公共设施:公共厕所",
        "type": 0,
        "location": {
            "lat": 26.25827,
            "lng": 106.139966
        },
        "ad_info": {
            "adcode": 520402,
            "province": "贵州省",
            "city": "安顺市",
            "district": "西秀区"
        }
    },
    {
        "id": "6463508501967363987",
        "title": "公共厕所",
        "address": "贵州省安顺市平坝区苗湾路",
        "tel": "",
        "category": "基础设施:公共设施:公共厕所",
        "type": 0,
        "location": {
            "lat": 26.382981,
            "lng": 106.257742
        },
        "ad_info": {
            "adcode": 520403,
            "province": "贵州省",
            "city": "安顺市",
            "district": "平坝区"
        }
    },
    {
        "id": "9508902042435101381",
        "title": "公共厕所",
        "address": "贵州省安顺市关岭布依族苗族自治县关花大道与灞陵大道交叉口正西方向55米左右",
        "tel": "",
        "category": "基础设施:公共设施:公共厕所",
        "type": 0,
        "location": {
            "lat": 25.934673,
            "lng": 105.596031
        },
        "ad_info": {
            "adcode": 520424,
            "province": "贵州省",
            "city": "安顺市",
            "district": "关岭布依族苗族自治县"
        }
    },
    {
        "id": "7859987228404097319",
        "title": "公共厕所",
        "address": "贵州省安顺市关岭布依族苗族自治县瓦厂路97号",
        "tel": "",
        "category": "基础设施:公共设施:公共厕所",
        "type": 0,
        "location": {
            "lat": 25.944893,
            "lng": 105.619686
        },
        "ad_info": {
            "adcode": 520424,
            "province": "贵州省",
            "city": "安顺市",
            "district": "关岭布依族苗族自治县"
        }
    },
    {
        "id": "15120808029621615769",
        "title": "服务区公共厕所",
        "address": "贵州省安顺市关岭布依族苗族自治县S213与关兴公路交叉口正东方向104米",
        "tel": "",
        "category": "基础设施:公共设施:公共厕所",
        "type": 0,
        "location": {
            "lat": 25.647813,
            "lng": 105.698821
        },
        "ad_info": {
            "adcode": 520424,
            "province": "贵州省",
            "city": "安顺市",
            "district": "关岭布依族苗族自治县"
        }
    },
    {
        "id": "15726507860647739332",
        "title": "公共厕所",
        "address": "贵州省安顺市西秀区凤凰东路与塔山东路交叉口东北方向16米左右",
        "tel": "",
        "category": "基础设施:公共设施:公共厕所",
        "type": 0,
        "location": {
            "lat": 26.245499,
            "lng": 105.942289
        },
        "ad_info": {
            "adcode": 520402,
            "province": "贵州省",
            "city": "安顺市",
            "district": "西秀区"
        }
    },
    {
        "id": "17548416335423776319",
        "title": "公共厕所",
        "address": "贵州省安顺市镇宁布依族苗族自治县云盘路与迎宾大道交叉口正北方向68米左右",
        "tel": "",
        "category": "基础设施:公共设施:公共厕所",
        "type": 0,
        "location": {
            "lat": 26.005876,
            "lng": 105.686244
        },
        "ad_info": {
            "adcode": 520423,
            "province": "贵州省",
            "city": "安顺市",
            "district": "镇宁布依族苗族自治县"
        }
    },
    {
        "id": "7357659157161269105",
        "title": "公共厕所",
        "address": "贵州省安顺市平坝区贵安新区清水湾余其全水晶葡萄园西北侧50米",
        "tel": "",
        "category": "基础设施:公共设施:公共厕所",
        "type": 0,
        "location": {
            "lat": 26.395768,
            "lng": 106.383254
        },
        "ad_info": {
            "adcode": 520403,
            "province": "贵州省",
            "city": "安顺市",
            "district": "平坝区"
        }
    },
    {
        "id": "9033531083729828506",
        "title": "公共厕所",
        "address": "贵州省安顺市西秀区宋官巷与顾府街交叉口西南方向77米左右",
        "tel": "",
        "category": "基础设施:公共设施:公共厕所",
        "type": 0,
        "location": {
            "lat": 26.242784,
            "lng": 105.936149
        },
        "ad_info": {
            "adcode": 520402,
            "province": "贵州省",
            "city": "安顺市",
            "district": "西秀区"
        }
    },
    {
        "id": "663749907720782358",
        "title": "公共厕所",
        "address": "贵州省安顺市镇宁布依族苗族自治县天星路与贵黄公路交叉口东北方向829米左右",
        "tel": "",
        "category": "基础设施:公共设施:公共厕所",
        "type": 0,
        "location": {
            "lat": 26.076582,
            "lng": 105.77657
        },
        "ad_info": {
            "adcode": 520423,
            "province": "贵州省",
            "city": "安顺市",
            "district": "镇宁布依族苗族自治县"
        }
    },
    {
        "id": "16196191484753320220",
        "title": "公共厕所",
        "address": "贵州省安顺市西秀区黄果树大街中国石化(茂名加油加气站)",
        "tel": "",
        "category": "基础设施:公共设施:公共厕所",
        "type": 0,
        "location": {
            "lat": 26.233021,
            "lng": 105.911719
        },
        "ad_info": {
            "adcode": 520402,
            "province": "贵州省",
            "city": "安顺市",
            "district": "西秀区"
        }
    },
    {
        "id": "3868427781182895838",
        "title": "公共厕所",
        "address": "贵州省安顺市西秀区宋官巷与顾府街交叉口正东方向73米左右",
        "tel": "",
        "category": "基础设施:公共设施:公共厕所",
        "type": 0,
        "location": {
            "lat": 26.243119,
            "lng": 105.937473
        },
        "ad_info": {
            "adcode": 520402,
            "province": "贵州省",
            "city": "安顺市",
            "district": "西秀区"
        }
    },
    {
        "id": "16326985059550368263",
        "title": "杨武服务区第一公共厕所",
        "address": "贵州省安顺市西秀区S55仁望高速与杨武服务区交叉口南480米",
        "tel": "",
        "category": "基础设施:公共设施:公共厕所",
        "type": 0,
        "location": {
            "lat": 26.085848,
            "lng": 106.155663
        },
        "ad_info": {
            "adcode": 520402,
            "province": "贵州省",
            "city": "安顺市",
            "district": "西秀区"
        }
    },
    {
        "id": "12378350231823693346",
        "title": "公共厕所",
        "address": "贵州省安顺市西秀区武当路与环湖西路交叉口东南方向123米左右",
        "tel": "",
        "category": "基础设施:公共设施:公共厕所",
        "type": 0,
        "location": {
            "lat": 26.257158,
            "lng": 105.931833
        },
        "ad_info": {
            "adcode": 520402,
            "province": "贵州省",
            "city": "安顺市",
            "district": "西秀区"
        }
    },
    {
        "id": "13714351791060840706",
        "title": "公共厕所",
        "address": "贵州省安顺市镇宁布依族苗族自治县新极里庄园东侧130米",
        "tel": "",
        "category": "基础设施:公共设施:公共厕所",
        "type": 0,
        "location": {
            "lat": 26.078464,
            "lng": 105.772032
        },
        "ad_info": {
            "adcode": 520423,
            "province": "贵州省",
            "city": "安顺市",
            "district": "镇宁布依族苗族自治县"
        }
    },
    {
        "id": "17197831532572845948",
        "title": "公共厕所",
        "address": "贵州省安顺市镇宁布依族苗族自治县红岩山路与贵黄公路交叉口正北方向218米左右",
        "tel": "",
        "category": "基础设施:公共设施:公共厕所",
        "type": 0,
        "location": {
            "lat": 26.064677,
            "lng": 105.770426
        },
        "ad_info": {
            "adcode": 520423,
            "province": "贵州省",
            "city": "安顺市",
            "district": "镇宁布依族苗族自治县"
        }
    },
    {
        "id": "12069162892298967966",
        "title": "公共厕所",
        "address": "贵州省安顺市西秀区黄果树大街万家商业广场",
        "tel": "",
        "category": "基础设施:公共设施:公共厕所",
        "type": 0,
        "location": {
            "lat": 26.243954,
            "lng": 105.966978
        },
        "ad_info": {
            "adcode": 520402,
            "province": "贵州省",
            "city": "安顺市",
            "district": "西秀区"
        }
    },
    {
        "id": "14920459932468362820",
        "title": "公共厕所",
        "address": "贵州省安顺市西秀区星火路与黄果树大街交叉口正南方向179米左右",
        "tel": "",
        "category": "基础设施:公共设施:公共厕所",
        "type": 0,
        "location": {
            "lat": 26.214162,
            "lng": 105.893546
        },
        "ad_info": {
            "adcode": 520402,
            "province": "贵州省",
            "city": "安顺市",
            "district": "西秀区"
        }
    },
    {
        "id": "9275159451135993927",
        "title": "公共厕所",
        "address": "贵州省安顺市西秀区好吃街与安顺好吃街交叉口西南方向128米左右",
        "tel": "",
        "category": "基础设施:公共设施:公共厕所",
        "type": 0,
        "location": {
            "lat": 26.235364,
            "lng": 105.953451
        },
        "ad_info": {
            "adcode": 520402,
            "province": "贵州省",
            "city": "安顺市",
            "district": "西秀区"
        }
    },
    {
        "id": "14381076420052103207",
        "title": "公共厕所",
        "address": "贵州省安顺市西秀区好吃街一路与安顺好吃街交叉口正东方向57米左右",
        "tel": "",
        "category": "基础设施:公共设施:公共厕所",
        "type": 0,
        "location": {
            "lat": 26.234758,
            "lng": 105.952113
        },
        "ad_info": {
            "adcode": 520402,
            "province": "贵州省",
            "city": "安顺市",
            "district": "西秀区"
        }
    },
    {
        "id": "982119583352170203",
        "title": "公共厕所",
        "address": "贵州省安顺市平坝区平坝果园农场邮政支局西北侧180米",
        "tel": "",
        "category": "基础设施:公共设施:公共厕所",
        "type": 0,
        "location": {
            "lat": 26.430553,
            "lng": 106.369571
        },
        "ad_info": {
            "adcode": 520403,
            "province": "贵州省",
            "city": "安顺市",
            "district": "平坝区"
        }
    },
    {
        "id": "99744407587046291",
        "title": "公共厕所",
        "address": "贵州省安顺市西秀区同鑫名苑北侧220米",
        "tel": "",
        "category": "基础设施:公共设施:公共厕所",
        "type": 0,
        "location": {
            "lat": 26.215741,
            "lng": 105.906155
        },
        "ad_info": {
            "adcode": 520402,
            "province": "贵州省",
            "city": "安顺市",
            "district": "西秀区"
        }
    },
    {
        "id": "15968686602632151788",
        "title": "公共厕所",
        "address": "贵州省安顺市普定县土司北路与教育路交叉口东南方向60米左右",
        "tel": "",
        "category": "基础设施:公共设施:公共厕所",
        "type": 0,
        "location": {
            "lat": 26.324755,
            "lng": 105.548766
        },
        "ad_info": {
            "adcode": 520422,
            "province": "贵州省",
            "city": "安顺市",
            "district": "普定县"
        }
    },
    {
        "id": "2060763788045880018",
        "title": "公共厕所",
        "address": "贵州省安顺市镇宁布依族苗族自治县三合路与红岩山路交叉口正南方向103米左右",
        "tel": "",
        "category": "基础设施:公共设施:公共厕所",
        "type": 0,
        "location": {
            "lat": 26.062244,
            "lng": 105.772721
        },
        "ad_info": {
            "adcode": 520423,
            "province": "贵州省",
            "city": "安顺市",
            "district": "镇宁布依族苗族自治县"
        }
    },
    {
        "id": "5301081343708694433",
        "title": "公共厕所",
        "address": "贵州省安顺市平坝区塘约村社区服务中心西南侧110米",
        "tel": "",
        "category": "基础设施:公共设施:公共厕所",
        "type": 0,
        "location": {
            "lat": 26.438446,
            "lng": 106.16658
        },
        "ad_info": {
            "adcode": 520403,
            "province": "贵州省",
            "city": "安顺市",
            "district": "平坝区"
        }
    },
    {
        "id": "16412837274409555462",
        "title": "公共厕所",
        "address": "贵州省安顺市镇宁布依族苗族自治县镇坝大街与黄龙湖路交叉口正南方向283米左右",
        "tel": "",
        "category": "基础设施:公共设施:公共厕所",
        "type": 0,
        "location": {
            "lat": 26.042038,
            "lng": 105.765199
        },
        "ad_info": {
            "adcode": 520423,
            "province": "贵州省",
            "city": "安顺市",
            "district": "镇宁布依族苗族自治县"
        }
    },
    {
        "id": "12346098413106056774",
        "title": "公共厕所",
        "address": "贵州省安顺市镇宁布依族苗族自治县X453与迎宾大道交叉口西北方向93米左右",
        "tel": "",
        "category": "基础设施:公共设施:公共厕所",
        "type": 0,
        "location": {
            "lat": 25.997768,
            "lng": 105.686222
        },
        "ad_info": {
            "adcode": 520423,
            "province": "贵州省",
            "city": "安顺市",
            "district": "镇宁布依族苗族自治县"
        }
    },
    {
        "id": "1881972139062650577",
        "title": "公共厕所",
        "address": "贵州省安顺市平坝区广场中路与广场南路交叉口东北方向51米左右",
        "tel": "",
        "category": "基础设施:公共设施:公共厕所",
        "type": 0,
        "location": {
            "lat": 26.401765,
            "lng": 106.258831
        },
        "ad_info": {
            "adcode": 520403,
            "province": "贵州省",
            "city": "安顺市",
            "district": "平坝区"
        }
    },
    {
        "id": "12640204570755682146",
        "title": "免费公共厕所",
        "address": "贵州省安顺市关岭布依族苗族自治县X474与景贤路交叉口西北方向444米左右",
        "tel": "",
        "category": "基础设施:公共设施:公共厕所",
        "type": 0,
        "location": {
            "lat": 25.906897,
            "lng": 105.484866
        },
        "ad_info": {
            "adcode": 520424,
            "province": "贵州省",
            "city": "安顺市",
            "district": "关岭布依族苗族自治县"
        }
    },
    {
        "id": "10063581876946813717",
        "title": "公共厕所",
        "address": "贵州省安顺市西秀区中华东路与建军路交叉口东南方向43米左右",
        "tel": "",
        "category": "基础设施:公共设施:公共厕所",
        "type": 0,
        "location": {
            "lat": 26.248391,
            "lng": 105.944456
        },
        "ad_info": {
            "adcode": 520402,
            "province": "贵州省",
            "city": "安顺市",
            "district": "西秀区"
        }
    },
    {
        "id": "468201077744739997",
        "title": "公共厕所",
        "address": "贵州省安顺市西秀区紫云路与龙宫大道交叉口东北方向97米左右",
        "tel": "",
        "category": "基础设施:公共设施:公共厕所",
        "type": 0,
        "location": {
            "lat": 26.227432,
            "lng": 105.954015
        },
        "ad_info": {
            "adcode": 520402,
            "province": "贵州省",
            "city": "安顺市",
            "district": "西秀区"
        }
    },
    {
        "id": "10952378410674816799",
        "title": "坡贡停车区公共厕所",
        "address": "贵州省安顺市关岭布依族苗族自治县X006与水黄公路交叉口正西方向207米左右",
        "tel": "",
        "category": "基础设施:公共设施:公共厕所",
        "type": 0,
        "location": {
            "lat": 25.998412,
            "lng": 105.609557
        },
        "ad_info": {
            "adcode": 520424,
            "province": "贵州省",
            "city": "安顺市",
            "district": "关岭布依族苗族自治县"
        }
    },
    {
        "id": "247850116368225451",
        "title": "公共厕所",
        "address": "贵州省安顺市西秀区X402与东环路交叉口正西方向1631米左右",
        "tel": "",
        "category": "基础设施:公共设施:公共厕所",
        "type": 0,
        "location": {
            "lat": 26.262382,
            "lng": 106.121038
        },
        "ad_info": {
            "adcode": 520402,
            "province": "贵州省",
            "city": "安顺市",
            "district": "西秀区"
        }
    },
    {
        "id": "562648988630839525",
        "title": "公共厕所",
        "address": "贵州省安顺市镇宁布依族苗族自治县三合路与红岩山路交叉口正南方向145米左右",
        "tel": "",
        "category": "基础设施:公共设施:公共厕所",
        "type": 0,
        "location": {
            "lat": 26.061843,
            "lng": 105.772791
        },
        "ad_info": {
            "adcode": 520423,
            "province": "贵州省",
            "city": "安顺市",
            "district": "镇宁布依族苗族自治县"
        }
    },
    {
        "id": "12706361342267986983",
        "title": "龙宫服务区公共厕所",
        "address": "贵州省安顺市西秀区S102与幺铺立交桥交叉口东南方向1093米左右",
        "tel": "",
        "category": "基础设施:公共设施:公共厕所",
        "type": 0,
        "location": {
            "lat": 26.165031,
            "lng": 105.860192
        },
        "ad_info": {
            "adcode": 520402,
            "province": "贵州省",
            "city": "安顺市",
            "district": "西秀区"
        }
    },
    {
        "id": "6922562710881569512",
        "title": "公共厕所",
        "address": "贵州省安顺市镇宁布依族苗族自治县东大街与二桥北路交叉口正南方向43米左右",
        "tel": "",
        "category": "基础设施:公共设施:公共厕所",
        "type": 0,
        "location": {
            "lat": 26.058253,
            "lng": 105.772813
        },
        "ad_info": {
            "adcode": 520423,
            "province": "贵州省",
            "city": "安顺市",
            "district": "镇宁布依族苗族自治县"
        }
    },
    {
        "id": "13426436351835322669",
        "title": "公共厕所",
        "address": "贵州省安顺市普定县安顺秀水漂流景区东北侧60米",
        "tel": "",
        "category": "基础设施:公共设施:公共厕所",
        "type": 0,
        "location": {
            "lat": 26.293119,
            "lng": 105.681516
        },
        "ad_info": {
            "adcode": 520422,
            "province": "贵州省",
            "city": "安顺市",
            "district": "普定县"
        }
    },
    {
        "id": "11134383456151060182",
        "title": "公共厕所",
        "address": "贵州省安顺市平坝区兴业东路与兴业北路交叉口正北方向350米左右",
        "tel": "",
        "category": "基础设施:公共设施:公共厕所",
        "type": 0,
        "location": {
            "lat": 26.467066,
            "lng": 106.318541
        },
        "ad_info": {
            "adcode": 520403,
            "province": "贵州省",
            "city": "安顺市",
            "district": "平坝区"
        }
    },
    {
        "id": "18365349655564390190",
        "title": "公共厕所",
        "address": "贵州省安顺市平坝区关厢路与平黎路交叉口正东方向194米左右",
        "tel": "",
        "category": "基础设施:公共设施:公共厕所",
        "type": 0,
        "location": {
            "lat": 26.403356,
            "lng": 106.264388
        },
        "ad_info": {
            "adcode": 520403,
            "province": "贵州省",
            "city": "安顺市",
            "district": "平坝区"
        }
    },
    {
        "id": "3469376578421694552",
        "title": "免费公共厕所(卓扬新能源汽车充电站)",
        "address": "贵州省安顺市镇宁布依族苗族自治县黄果树大道108号",
        "tel": "",
        "category": "基础设施:公共设施:公共厕所",
        "type": 0,
        "location": {
            "lat": 26.061874,
            "lng": 105.77122
        },
        "ad_info": {
            "adcode": 520423,
            "province": "贵州省",
            "city": "安顺市",
            "district": "镇宁布依族苗族自治县"
        }
    },
    {
        "id": "11467187958722043539",
        "title": "镇宁停车区公共厕所",
        "address": "贵州省安顺市镇宁布依族苗族自治县停车区(惠兴高速公路南)附近",
        "tel": "",
        "category": "基础设施:公共设施:公共厕所",
        "type": 0,
        "location": {
            "lat": 25.609639,
            "lng": 105.90926
        },
        "ad_info": {
            "adcode": 520423,
            "province": "贵州省",
            "city": "安顺市",
            "district": "镇宁布依族苗族自治县"
        }
    },
    {
        "id": "11791725689497413676",
        "title": "公共厕所",
        "address": "贵州省安顺市镇宁布依族苗族自治县工业大道与沿河路交叉口正东方向29米左右",
        "tel": "",
        "category": "基础设施:公共设施:公共厕所",
        "type": 0,
        "location": {
            "lat": 26.059647,
            "lng": 105.762057
        },
        "ad_info": {
            "adcode": 520423,
            "province": "贵州省",
            "city": "安顺市",
            "district": "镇宁布依族苗族自治县"
        }
    },
    {
        "id": "17210130030411714739",
        "title": "公共厕所",
        "address": "贵州省安顺市平坝区飞虎山景区北侧",
        "tel": "",
        "category": "基础设施:公共设施:公共厕所",
        "type": 0,
        "location": {
            "lat": 26.323926,
            "lng": 106.246285
        },
        "ad_info": {
            "adcode": 520403,
            "province": "贵州省",
            "city": "安顺市",
            "district": "平坝区"
        }
    },
    {
        "id": "15450762285165380434",
        "title": "北盘江停车区公共厕所",
        "address": "贵州省安顺市关岭布依族苗族自治县关兴公路北盘江停车区",
        "tel": "",
        "category": "基础设施:公共设施:公共厕所",
        "type": 0,
        "location": {
            "lat": 25.647674,
            "lng": 105.691611
        },
        "ad_info": {
            "adcode": 520424,
            "province": "贵州省",
            "city": "安顺市",
            "district": "关岭布依族苗族自治县"
        }
    },
    {
        "id": "7609306922939317668",
        "title": "杨武南服务区公共厕所",
        "address": "贵州省安顺市西秀区G7611都香高速与杨武南服务区交叉口东南340米",
        "tel": "",
        "category": "基础设施:公共设施:公共厕所",
        "type": 0,
        "location": {
            "lat": 26.031585,
            "lng": 106.19169
        },
        "ad_info": {
            "adcode": 520402,
            "province": "贵州省",
            "city": "安顺市",
            "district": "西秀区"
        }
    },
    {
        "id": "4551094351254810486",
        "title": "公共厕所",
        "address": "贵州省安顺市西秀区安顺桃园天翊宾馆西侧70米",
        "tel": "",
        "category": "基础设施:公共设施:公共厕所",
        "type": 0,
        "location": {
            "lat": 26.112134,
            "lng": 105.897345
        },
        "ad_info": {
            "adcode": 520402,
            "province": "贵州省",
            "city": "安顺市",
            "district": "西秀区"
        }
    },
    {
        "id": "7233701906504976054",
        "title": "公共厕所",
        "address": "贵州省安顺市镇宁布依族苗族自治县工业大道与西南外环路交叉口西北方向67米左右",
        "tel": "",
        "category": "基础设施:公共设施:公共厕所",
        "type": 0,
        "location": {
            "lat": 26.060546,
            "lng": 105.755159
        },
        "ad_info": {
            "adcode": 520423,
            "province": "贵州省",
            "city": "安顺市",
            "district": "镇宁布依族苗族自治县"
        }
    },
    {
        "id": "5193941914733780104",
        "title": "公共厕所",
        "address": "贵州省安顺市紫云苗族布依族自治县好百姓大药房北侧90米",
        "tel": "",
        "category": "基础设施:公共设施:公共厕所",
        "type": 0,
        "location": {
            "lat": 25.480179,
            "lng": 106.311083
        },
        "ad_info": {
            "adcode": 520425,
            "province": "贵州省",
            "city": "安顺市",
            "district": "紫云苗族布依族自治县"
        }
    },
    {
        "id": "17694466683723311329",
        "title": "云峰服务区第一公共厕所",
        "address": "贵州省安顺市西秀区沪昆高速云峰服务区",
        "tel": "",
        "category": "基础设施:公共设施:公共厕所",
        "type": 0,
        "location": {
            "lat": 26.318126,
            "lng": 106.069559
        },
        "ad_info": {
            "adcode": 520402,
            "province": "贵州省",
            "city": "安顺市",
            "district": "西秀区"
        }
    },
    {
        "id": "16654881958915797903",
        "title": "沙湾景区1号旅游公共厕所",
        "address": "贵州省安顺市普定县沙湾旅游景区1号",
        "tel": "",
        "category": "基础设施:公共设施:公共厕所",
        "type": 0,
        "location": {
            "lat": 26.355118,
            "lng": 105.763008
        },
        "ad_info": {
            "adcode": 520422,
            "province": "贵州省",
            "city": "安顺市",
            "district": "普定县"
        }
    },
    {
        "id": "10320958632274625353",
        "title": "公共厕所",
        "address": "贵州省安顺市普定县园丁东路与园丁路交叉口正东方向70米左右",
        "tel": "",
        "category": "基础设施:公共设施:公共厕所",
        "type": 0,
        "location": {
            "lat": 26.304488,
            "lng": 105.742348
        },
        "ad_info": {
            "adcode": 520422,
            "province": "贵州省",
            "city": "安顺市",
            "district": "普定县"
        }
    },
    {
        "id": "9329074458218376132",
        "title": "公共厕所(凤凰大道)",
        "address": "贵州省安顺市镇宁布依族苗族自治县环西路与西街交叉口正西方向377米左右",
        "tel": "",
        "category": "基础设施:公共设施:公共厕所",
        "type": 0,
        "location": {
            "lat": 26.056708,
            "lng": 105.757985
        },
        "ad_info": {
            "adcode": 520423,
            "province": "贵州省",
            "city": "安顺市",
            "district": "镇宁布依族苗族自治县"
        }
    },
    {
        "id": "10404592268793952884",
        "title": "宁谷停车区公共厕所",
        "address": "贵州省安顺市西秀区G320与汉邑路交叉口正南方向1568米左右",
        "tel": "",
        "category": "基础设施:公共设施:公共厕所",
        "type": 0,
        "location": {
            "lat": 26.190883,
            "lng": 105.983114
        },
        "ad_info": {
            "adcode": 520402,
            "province": "贵州省",
            "city": "安顺市",
            "district": "西秀区"
        }
    },
    {
        "id": "1502217965079857177",
        "title": "公共厕所",
        "address": "贵州省安顺市西秀区羊场村风荷园",
        "tel": "",
        "category": "基础设施:公共设施:公共厕所",
        "type": 0,
        "location": {
            "lat": 26.180842,
            "lng": 105.912066
        },
        "ad_info": {
            "adcode": 520402,
            "province": "贵州省",
            "city": "安顺市",
            "district": "西秀区"
        }
    },
    {
        "id": "42738794339822286",
        "title": "公共厕所",
        "address": "贵州省安顺市紫云苗族布依族自治县教场路与花园街交叉口南60米",
        "tel": "",
        "category": "基础设施:公共设施:公共厕所",
        "type": 0,
        "location": {
            "lat": 25.754187,
            "lng": 106.083853
        },
        "ad_info": {
            "adcode": 520425,
            "province": "贵州省",
            "city": "安顺市",
            "district": "紫云苗族布依族自治县"
        }
    },
    {
        "id": "12855384834645444167",
        "title": "公共厕所",
        "address": "贵州省安顺市紫云苗族布依族自治县白石岩联通营业厅北侧280米",
        "tel": "",
        "category": "基础设施:公共设施:公共厕所",
        "type": 0,
        "location": {
            "lat": 25.819294,
            "lng": 105.951696
        },
        "ad_info": {
            "adcode": 520425,
            "province": "贵州省",
            "city": "安顺市",
            "district": "紫云苗族布依族自治县"
        }
    },
    {
        "id": "7351920964114534612",
        "title": "公共厕所",
        "address": "贵州省安顺市西秀区合掌岩路与碧水路交叉口西南方向82米左右",
        "tel": "",
        "category": "基础设施:公共设施:公共厕所",
        "type": 0,
        "location": {
            "lat": 26.242596,
            "lng": 105.90841
        },
        "ad_info": {
            "adcode": 520402,
            "province": "贵州省",
            "city": "安顺市",
            "district": "西秀区"
        }
    },
    {
        "id": "113242006355752414",
        "title": "公共厕所(GZ-AS-0427)",
        "address": "贵州省安顺市西秀区虹山湖路虹山公园",
        "tel": "",
        "category": "基础设施:公共设施:公共厕所",
        "type": 0,
        "location": {
            "lat": 26.255084,
            "lng": 105.934713
        },
        "ad_info": {
            "adcode": 520402,
            "province": "贵州省",
            "city": "安顺市",
            "district": "西秀区"
        }
    },
    {
        "id": "5576403396574690877",
        "title": "沙子坝停车区公共厕所",
        "address": "贵州省安顺市西秀区沙子坝停车区与S03安顺环城高速交叉口东北100米",
        "tel": "",
        "category": "基础设施:公共设施:公共厕所",
        "type": 0,
        "location": {
            "lat": 26.32035,
            "lng": 105.93685
        },
        "ad_info": {
            "adcode": 520402,
            "province": "贵州省",
            "city": "安顺市",
            "district": "西秀区"
        }
    },
    {
        "id": "6925222028189993435",
        "title": "黔诚山水贵客·公共厕所",
        "address": "贵州省安顺市西秀区沪昆高速公路",
        "tel": "",
        "category": "基础设施:公共设施:公共厕所",
        "type": 0,
        "location": {
            "lat": 26.273287,
            "lng": 106.01327
        },
        "ad_info": {
            "adcode": 520402,
            "province": "贵州省",
            "city": "安顺市",
            "district": "西秀区"
        }
    },
    {
        "id": "3770052464440456336",
        "title": "云峰服务区第二公共厕所",
        "address": "贵州省安顺市西秀区云峰服务区与G60沪昆高速交叉口西南220米",
        "tel": "",
        "category": "基础设施:公共设施:公共厕所",
        "type": 0,
        "location": {
            "lat": 26.316327,
            "lng": 106.070297
        },
        "ad_info": {
            "adcode": 520402,
            "province": "贵州省",
            "city": "安顺市",
            "district": "西秀区"
        }
    },
    {
        "id": "787552471295694439",
        "title": "公共厕所",
        "address": "贵州省安顺市西秀区三号路与体育路交叉口西北方向115米左右",
        "tel": "",
        "category": "基础设施:公共设施:公共厕所",
        "type": 0,
        "location": {
            "lat": 26.248438,
            "lng": 105.952217
        },
        "ad_info": {
            "adcode": 520402,
            "province": "贵州省",
            "city": "安顺市",
            "district": "西秀区"
        }
    },
    {
        "id": "11746415452599392207",
        "title": "公共厕所",
        "address": "贵州省安顺市西秀区中华北路与定安大道交叉口西北方向111米左右",
        "tel": "",
        "category": "基础设施:公共设施:公共厕所",
        "type": 0,
        "location": {
            "lat": 26.260195,
            "lng": 105.909389
        },
        "ad_info": {
            "adcode": 520402,
            "province": "贵州省",
            "city": "安顺市",
            "district": "西秀区"
        }
    },
    {
        "id": "16380677355888539072",
        "title": "公共厕所",
        "address": "贵州省安顺市镇宁布依族苗族自治县东街与北街交叉口正北方向133米左右",
        "tel": "",
        "category": "基础设施:公共设施:公共厕所",
        "type": 0,
        "location": {
            "lat": 26.058053,
            "lng": 105.764494
        },
        "ad_info": {
            "adcode": 520423,
            "province": "贵州省",
            "city": "安顺市",
            "district": "镇宁布依族苗族自治县"
        }
    },
    {
        "id": "9310673581298372490",
        "title": "公共厕所",
        "address": "贵州省安顺市普定县星屿晚风东侧50米",
        "tel": "",
        "category": "基础设施:公共设施:公共厕所",
        "type": 0,
        "location": {
            "lat": 26.247135,
            "lng": 105.813631
        },
        "ad_info": {
            "adcode": 520422,
            "province": "贵州省",
            "city": "安顺市",
            "district": "普定县"
        }
    },
    {
        "id": "10339128567316048166",
        "title": "公1共厕所",
        "address": "贵州省安顺市平坝区香樟古韵农庄北侧",
        "tel": "",
        "category": "基础设施:公共设施:公共厕所",
        "type": 0,
        "location": {
            "lat": 26.424708,
            "lng": 106.375405
        },
        "ad_info": {
            "adcode": 520403,
            "province": "贵州省",
            "city": "安顺市",
            "district": "平坝区"
        }
    },
    {
        "id": "14925325178694180382",
        "title": "公共厕所",
        "address": "贵州省安顺市关岭布依族苗族自治县X474与景贤路交叉口西北方向424米左右",
        "tel": "",
        "category": "基础设施:公共设施:公共厕所",
        "type": 0,
        "location": {
            "lat": 25.906838,
            "lng": 105.48512
        },
        "ad_info": {
            "adcode": 520424,
            "province": "贵州省",
            "city": "安顺市",
            "district": "关岭布依族苗族自治县"
        }
    },
    {
        "id": "1082038367228006348",
        "title": "公共厕所",
        "address": "贵州省安顺市紫云苗族布依族自治县麦客KTV酒吧南侧70米",
        "tel": "",
        "category": "基础设施:公共设施:公共厕所",
        "type": 0,
        "location": {
            "lat": 25.591947,
            "lng": 106.316201
        },
        "ad_info": {
            "adcode": 520425,
            "province": "贵州省",
            "city": "安顺市",
            "district": "紫云苗族布依族自治县"
        }
    },
    {
        "id": "16217007599567534130",
        "title": "公共厕所",
        "address": "贵州省安顺市西秀区双新路1号",
        "tel": "",
        "category": "基础设施:公共设施:公共厕所",
        "type": 0,
        "location": {
            "lat": 26.232866,
            "lng": 105.85271
        },
        "ad_info": {
            "adcode": 520402,
            "province": "贵州省",
            "city": "安顺市",
            "district": "西秀区"
        }
    },
    {
        "id": "1820852472863990454",
        "title": "团坡停车区公共厕所",
        "address": "贵州省安顺市紫云苗族布依族自治县G354与清泉路交叉口正南方向1310米左右",
        "tel": "",
        "category": "基础设施:公共设施:公共厕所",
        "type": 0,
        "location": {
            "lat": 25.883999,
            "lng": 106.266384
        },
        "ad_info": {
            "adcode": 520425,
            "province": "贵州省",
            "city": "安顺市",
            "district": "紫云苗族布依族自治县"
        }
    },
    {
        "id": "3606706930426160432",
        "title": "沙子坝停车区公共厕所",
        "address": "贵州省安顺市西秀区S03安顺环城高速与沙子坝停车区交叉口西南120米",
        "tel": "",
        "category": "基础设施:公共设施:公共厕所",
        "type": 0,
        "location": {
            "lat": 26.318613,
            "lng": 105.935705
        },
        "ad_info": {
            "adcode": 520402,
            "province": "贵州省",
            "city": "安顺市",
            "district": "西秀区"
        }
    },
    {
        "id": "4732723402221782001",
        "title": "公共厕所",
        "address": "贵州省安顺市镇宁布依族苗族自治县大家乐餐馆西南侧",
        "tel": "",
        "category": "基础设施:公共设施:公共厕所",
        "type": 0,
        "location": {
            "lat": 25.664276,
            "lng": 105.879228
        },
        "ad_info": {
            "adcode": 520423,
            "province": "贵州省",
            "city": "安顺市",
            "district": "镇宁布依族苗族自治县"
        }
    },
    {
        "id": "13802845848272680976",
        "title": "云峰服务区第三公共厕所",
        "address": "贵州省安顺市西秀区G60沪昆高速与云峰服务区交叉口东北220米",
        "tel": "",
        "category": "基础设施:公共设施:公共厕所",
        "type": 0,
        "location": {
            "lat": 26.318137,
            "lng": 106.069012
        },
        "ad_info": {
            "adcode": 520402,
            "province": "贵州省",
            "city": "安顺市",
            "district": "西秀区"
        }
    },
    {
        "id": "9431924386922762909",
        "title": "公共厕所",
        "address": "贵州省安顺市镇宁布依族苗族自治县中共镇宁布依族苗族自治县委党校东侧130米",
        "tel": "",
        "category": "基础设施:公共设施:公共厕所",
        "type": 0,
        "location": {
            "lat": 26.069945,
            "lng": 105.766837
        },
        "ad_info": {
            "adcode": 520423,
            "province": "贵州省",
            "city": "安顺市",
            "district": "镇宁布依族苗族自治县"
        }
    },
    {
        "id": "7296270706708309841",
        "title": "公共厕所",
        "address": "贵州省安顺市普定县富强路与文明路交叉口正南方向46米左右",
        "tel": "",
        "category": "基础设施:公共设施:公共厕所",
        "type": 0,
        "location": {
            "lat": 26.304968,
            "lng": 105.747778
        },
        "ad_info": {
            "adcode": 520422,
            "province": "贵州省",
            "city": "安顺市",
            "district": "普定县"
        }
    },
    {
        "id": "587767042399635362",
        "title": "夜郎洞景区旅游厕所",
        "address": "贵州省安顺市镇宁布依族苗族自治县460县道夜郎洞景区",
        "tel": "",
        "category": "基础设施:公共设施:公共厕所",
        "type": 0,
        "location": {
            "lat": 26.087472,
            "lng": 105.626324
        },
        "ad_info": {
            "adcode": 520423,
            "province": "贵州省",
            "city": "安顺市",
            "district": "镇宁布依族苗族自治县"
        }
    },
    {
        "id": "7434215891275607175",
        "title": "公共厕所",
        "address": "贵州省安顺市紫云苗族布依族自治县和谐路与惠民路交叉口正北方向185米左右",
        "tel": "",
        "category": "基础设施:公共设施:公共厕所",
        "type": 0,
        "location": {
            "lat": 25.504882,
            "lng": 106.256731
        },
        "ad_info": {
            "adcode": 520425,
            "province": "贵州省",
            "city": "安顺市",
            "district": "紫云苗族布依族自治县"
        }
    },
    {
        "id": "113242006355752414",
        "title": "公共厕所(GZ-AS-0427)",
        "address": "贵州省安顺市西秀区虹山湖路虹山公园",
        "tel": "",
        "category": "基础设施:公共设施:公共厕所",
        "type": 0,
        "location": {
            "lat": 26.255084,
            "lng": 105.934713
        },
        "ad_info": {
            "adcode": 520402,
            "province": "贵州省",
            "city": "安顺市",
            "district": "西秀区"
        }
    },
    {
        "id": "5576403396574690877",
        "title": "沙子坝停车区公共厕所",
        "address": "贵州省安顺市西秀区沙子坝停车区与S03安顺环城高速交叉口东北100米",
        "tel": "",
        "category": "基础设施:公共设施:公共厕所",
        "type": 0,
        "location": {
            "lat": 26.32035,
            "lng": 105.93685
        },
        "ad_info": {
            "adcode": 520402,
            "province": "贵州省",
            "city": "安顺市",
            "district": "西秀区"
        }
    },
    {
        "id": "6925222028189993435",
        "title": "黔诚山水贵客·公共厕所",
        "address": "贵州省安顺市西秀区沪昆高速公路",
        "tel": "",
        "category": "基础设施:公共设施:公共厕所",
        "type": 0,
        "location": {
            "lat": 26.273287,
            "lng": 106.01327
        },
        "ad_info": {
            "adcode": 520402,
            "province": "贵州省",
            "city": "安顺市",
            "district": "西秀区"
        }
    },
    {
        "id": "3770052464440456336",
        "title": "云峰服务区第二公共厕所",
        "address": "贵州省安顺市西秀区云峰服务区与G60沪昆高速交叉口西南220米",
        "tel": "",
        "category": "基础设施:公共设施:公共厕所",
        "type": 0,
        "location": {
            "lat": 26.316327,
            "lng": 106.070297
        },
        "ad_info": {
            "adcode": 520402,
            "province": "贵州省",
            "city": "安顺市",
            "district": "西秀区"
        }
    },
    {
        "id": "787552471295694439",
        "title": "公共厕所",
        "address": "贵州省安顺市西秀区三号路与体育路交叉口西北方向115米左右",
        "tel": "",
        "category": "基础设施:公共设施:公共厕所",
        "type": 0,
        "location": {
            "lat": 26.248438,
            "lng": 105.952217
        },
        "ad_info": {
            "adcode": 520402,
            "province": "贵州省",
            "city": "安顺市",
            "district": "西秀区"
        }
    },
    {
        "id": "11746415452599392207",
        "title": "公共厕所",
        "address": "贵州省安顺市西秀区中华北路与定安大道交叉口西北方向111米左右",
        "tel": "",
        "category": "基础设施:公共设施:公共厕所",
        "type": 0,
        "location": {
            "lat": 26.260195,
            "lng": 105.909389
        },
        "ad_info": {
            "adcode": 520402,
            "province": "贵州省",
            "city": "安顺市",
            "district": "西秀区"
        }
    },
    {
        "id": "16380677355888539072",
        "title": "公共厕所",
        "address": "贵州省安顺市镇宁布依族苗族自治县东街与北街交叉口正北方向133米左右",
        "tel": "",
        "category": "基础设施:公共设施:公共厕所",
        "type": 0,
        "location": {
            "lat": 26.058053,
            "lng": 105.764494
        },
        "ad_info": {
            "adcode": 520423,
            "province": "贵州省",
            "city": "安顺市",
            "district": "镇宁布依族苗族自治县"
        }
    },
    {
        "id": "9310673581298372490",
        "title": "公共厕所",
        "address": "贵州省安顺市普定县星屿晚风东侧50米",
        "tel": "",
        "category": "基础设施:公共设施:公共厕所",
        "type": 0,
        "location": {
            "lat": 26.247135,
            "lng": 105.813631
        },
        "ad_info": {
            "adcode": 520422,
            "province": "贵州省",
            "city": "安顺市",
            "district": "普定县"
        }
    },
    {
        "id": "10339128567316048166",
        "title": "公1共厕所",
        "address": "贵州省安顺市平坝区香樟古韵农庄北侧",
        "tel": "",
        "category": "基础设施:公共设施:公共厕所",
        "type": 0,
        "location": {
            "lat": 26.424708,
            "lng": 106.375405
        },
        "ad_info": {
            "adcode": 520403,
            "province": "贵州省",
            "city": "安顺市",
            "district": "平坝区"
        }
    },
    {
        "id": "14925325178694180382",
        "title": "公共厕所",
        "address": "贵州省安顺市关岭布依族苗族自治县X474与景贤路交叉口西北方向424米左右",
        "tel": "",
        "category": "基础设施:公共设施:公共厕所",
        "type": 0,
        "location": {
            "lat": 25.906838,
            "lng": 105.48512
        },
        "ad_info": {
            "adcode": 520424,
            "province": "贵州省",
            "city": "安顺市",
            "district": "关岭布依族苗族自治县"
        }
    },
    {
        "id": "1082038367228006348",
        "title": "公共厕所",
        "address": "贵州省安顺市紫云苗族布依族自治县麦客KTV酒吧南侧70米",
        "tel": "",
        "category": "基础设施:公共设施:公共厕所",
        "type": 0,
        "location": {
            "lat": 25.591947,
            "lng": 106.316201
        },
        "ad_info": {
            "adcode": 520425,
            "province": "贵州省",
            "city": "安顺市",
            "district": "紫云苗族布依族自治县"
        }
    },
    {
        "id": "16217007599567534130",
        "title": "公共厕所",
        "address": "贵州省安顺市西秀区双新路1号",
        "tel": "",
        "category": "基础设施:公共设施:公共厕所",
        "type": 0,
        "location": {
            "lat": 26.232866,
            "lng": 105.85271
        },
        "ad_info": {
            "adcode": 520402,
            "province": "贵州省",
            "city": "安顺市",
            "district": "西秀区"
        }
    },
    {
        "id": "1820852472863990454",
        "title": "团坡停车区公共厕所",
        "address": "贵州省安顺市紫云苗族布依族自治县G354与清泉路交叉口正南方向1310米左右",
        "tel": "",
        "category": "基础设施:公共设施:公共厕所",
        "type": 0,
        "location": {
            "lat": 25.883999,
            "lng": 106.266384
        },
        "ad_info": {
            "adcode": 520425,
            "province": "贵州省",
            "city": "安顺市",
            "district": "紫云苗族布依族自治县"
        }
    },
    {
        "id": "3606706930426160432",
        "title": "沙子坝停车区公共厕所",
        "address": "贵州省安顺市西秀区S03安顺环城高速与沙子坝停车区交叉口西南120米",
        "tel": "",
        "category": "基础设施:公共设施:公共厕所",
        "type": 0,
        "location": {
            "lat": 26.318613,
            "lng": 105.935705
        },
        "ad_info": {
            "adcode": 520402,
            "province": "贵州省",
            "city": "安顺市",
            "district": "西秀区"
        }
    },
    {
        "id": "4732723402221782001",
        "title": "公共厕所",
        "address": "贵州省安顺市镇宁布依族苗族自治县大家乐餐馆西南侧",
        "tel": "",
        "category": "基础设施:公共设施:公共厕所",
        "type": 0,
        "location": {
            "lat": 25.664276,
            "lng": 105.879228
        },
        "ad_info": {
            "adcode": 520423,
            "province": "贵州省",
            "city": "安顺市",
            "district": "镇宁布依族苗族自治县"
        }
    },
    {
        "id": "13802845848272680976",
        "title": "云峰服务区第三公共厕所",
        "address": "贵州省安顺市西秀区G60沪昆高速与云峰服务区交叉口东北220米",
        "tel": "",
        "category": "基础设施:公共设施:公共厕所",
        "type": 0,
        "location": {
            "lat": 26.318137,
            "lng": 106.069012
        },
        "ad_info": {
            "adcode": 520402,
            "province": "贵州省",
            "city": "安顺市",
            "district": "西秀区"
        }
    },
    {
        "id": "9431924386922762909",
        "title": "公共厕所",
        "address": "贵州省安顺市镇宁布依族苗族自治县中共镇宁布依族苗族自治县委党校东侧130米",
        "tel": "",
        "category": "基础设施:公共设施:公共厕所",
        "type": 0,
        "location": {
            "lat": 26.069945,
            "lng": 105.766837
        },
        "ad_info": {
            "adcode": 520423,
            "province": "贵州省",
            "city": "安顺市",
            "district": "镇宁布依族苗族自治县"
        }
    },
    {
        "id": "7296270706708309841",
        "title": "公共厕所",
        "address": "贵州省安顺市普定县富强路与文明路交叉口正南方向46米左右",
        "tel": "",
        "category": "基础设施:公共设施:公共厕所",
        "type": 0,
        "location": {
            "lat": 26.304968,
            "lng": 105.747778
        },
        "ad_info": {
            "adcode": 520422,
            "province": "贵州省",
            "city": "安顺市",
            "district": "普定县"
        }
    },
    {
        "id": "587767042399635362",
        "title": "夜郎洞景区旅游厕所",
        "address": "贵州省安顺市镇宁布依族苗族自治县460县道夜郎洞景区",
        "tel": "",
        "category": "基础设施:公共设施:公共厕所",
        "type": 0,
        "location": {
            "lat": 26.087472,
            "lng": 105.626324
        },
        "ad_info": {
            "adcode": 520423,
            "province": "贵州省",
            "city": "安顺市",
            "district": "镇宁布依族苗族自治县"
        }
    },
    {
        "id": "7434215891275607175",
        "title": "公共厕所",
        "address": "贵州省安顺市紫云苗族布依族自治县和谐路与惠民路交叉口正北方向185米左右",
        "tel": "",
        "category": "基础设施:公共设施:公共厕所",
        "type": 0,
        "location": {
            "lat": 25.504882,
            "lng": 106.256731
        },
        "ad_info": {
            "adcode": 520425,
            "province": "贵州省",
            "city": "安顺市",
            "district": "紫云苗族布依族自治县"
        }
    },
    {
        "id": "113242006355752414",
        "title": "公共厕所(GZ-AS-0427)",
        "address": "贵州省安顺市西秀区虹山湖路虹山公园",
        "tel": "",
        "category": "基础设施:公共设施:公共厕所",
        "type": 0,
        "location": {
            "lat": 26.255084,
            "lng": 105.934713
        },
        "ad_info": {
            "adcode": 520402,
            "province": "贵州省",
            "city": "安顺市",
            "district": "西秀区"
        }
    },
    {
        "id": "5576403396574690877",
        "title": "沙子坝停车区公共厕所",
        "address": "贵州省安顺市西秀区沙子坝停车区与S03安顺环城高速交叉口东北100米",
        "tel": "",
        "category": "基础设施:公共设施:公共厕所",
        "type": 0,
        "location": {
            "lat": 26.32035,
            "lng": 105.93685
        },
        "ad_info": {
            "adcode": 520402,
            "province": "贵州省",
            "city": "安顺市",
            "district": "西秀区"
        }
    },
    {
        "id": "6925222028189993435",
        "title": "黔诚山水贵客·公共厕所",
        "address": "贵州省安顺市西秀区沪昆高速公路",
        "tel": "",
        "category": "基础设施:公共设施:公共厕所",
        "type": 0,
        "location": {
            "lat": 26.273287,
            "lng": 106.01327
        },
        "ad_info": {
            "adcode": 520402,
            "province": "贵州省",
            "city": "安顺市",
            "district": "西秀区"
        }
    },
    {
        "id": "3770052464440456336",
        "title": "云峰服务区第二公共厕所",
        "address": "贵州省安顺市西秀区云峰服务区与G60沪昆高速交叉口西南220米",
        "tel": "",
        "category": "基础设施:公共设施:公共厕所",
        "type": 0,
        "location": {
            "lat": 26.316327,
            "lng": 106.070297
        },
        "ad_info": {
            "adcode": 520402,
            "province": "贵州省",
            "city": "安顺市",
            "district": "西秀区"
        }
    },
    {
        "id": "787552471295694439",
        "title": "公共厕所",
        "address": "贵州省安顺市西秀区三号路与体育路交叉口西北方向115米左右",
        "tel": "",
        "category": "基础设施:公共设施:公共厕所",
        "type": 0,
        "location": {
            "lat": 26.248438,
            "lng": 105.952217
        },
        "ad_info": {
            "adcode": 520402,
            "province": "贵州省",
            "city": "安顺市",
            "district": "西秀区"
        }
    },
    {
        "id": "11746415452599392207",
        "title": "公共厕所",
        "address": "贵州省安顺市西秀区中华北路与定安大道交叉口西北方向111米左右",
        "tel": "",
        "category": "基础设施:公共设施:公共厕所",
        "type": 0,
        "location": {
            "lat": 26.260195,
            "lng": 105.909389
        },
        "ad_info": {
            "adcode": 520402,
            "province": "贵州省",
            "city": "安顺市",
            "district": "西秀区"
        }
    },
    {
        "id": "16380677355888539072",
        "title": "公共厕所",
        "address": "贵州省安顺市镇宁布依族苗族自治县东街与北街交叉口正北方向133米左右",
        "tel": "",
        "category": "基础设施:公共设施:公共厕所",
        "type": 0,
        "location": {
            "lat": 26.058053,
            "lng": 105.764494
        },
        "ad_info": {
            "adcode": 520423,
            "province": "贵州省",
            "city": "安顺市",
            "district": "镇宁布依族苗族自治县"
        }
    },
    {
        "id": "9310673581298372490",
        "title": "公共厕所",
        "address": "贵州省安顺市普定县星屿晚风东侧50米",
        "tel": "",
        "category": "基础设施:公共设施:公共厕所",
        "type": 0,
        "location": {
            "lat": 26.247135,
            "lng": 105.813631
        },
        "ad_info": {
            "adcode": 520422,
            "province": "贵州省",
            "city": "安顺市",
            "district": "普定县"
        }
    },
    {
        "id": "10339128567316048166",
        "title": "公1共厕所",
        "address": "贵州省安顺市平坝区香樟古韵农庄北侧",
        "tel": "",
        "category": "基础设施:公共设施:公共厕所",
        "type": 0,
        "location": {
            "lat": 26.424708,
            "lng": 106.375405
        },
        "ad_info": {
            "adcode": 520403,
            "province": "贵州省",
            "city": "安顺市",
            "district": "平坝区"
        }
    },
    {
        "id": "14925325178694180382",
        "title": "公共厕所",
        "address": "贵州省安顺市关岭布依族苗族自治县X474与景贤路交叉口西北方向424米左右",
        "tel": "",
        "category": "基础设施:公共设施:公共厕所",
        "type": 0,
        "location": {
            "lat": 25.906838,
            "lng": 105.48512
        },
        "ad_info": {
            "adcode": 520424,
            "province": "贵州省",
            "city": "安顺市",
            "district": "关岭布依族苗族自治县"
        }
    },
    {
        "id": "1082038367228006348",
        "title": "公共厕所",
        "address": "贵州省安顺市紫云苗族布依族自治县麦客KTV酒吧南侧70米",
        "tel": "",
        "category": "基础设施:公共设施:公共厕所",
        "type": 0,
        "location": {
            "lat": 25.591947,
            "lng": 106.316201
        },
        "ad_info": {
            "adcode": 520425,
            "province": "贵州省",
            "city": "安顺市",
            "district": "紫云苗族布依族自治县"
        }
    },
    {
        "id": "16217007599567534130",
        "title": "公共厕所",
        "address": "贵州省安顺市西秀区双新路1号",
        "tel": "",
        "category": "基础设施:公共设施:公共厕所",
        "type": 0,
        "location": {
            "lat": 26.232866,
            "lng": 105.85271
        },
        "ad_info": {
            "adcode": 520402,
            "province": "贵州省",
            "city": "安顺市",
            "district": "西秀区"
        }
    },
    {
        "id": "1820852472863990454",
        "title": "团坡停车区公共厕所",
        "address": "贵州省安顺市紫云苗族布依族自治县G354与清泉路交叉口正南方向1310米左右",
        "tel": "",
        "category": "基础设施:公共设施:公共厕所",
        "type": 0,
        "location": {
            "lat": 25.883999,
            "lng": 106.266384
        },
        "ad_info": {
            "adcode": 520425,
            "province": "贵州省",
            "city": "安顺市",
            "district": "紫云苗族布依族自治县"
        }
    },
    {
        "id": "3606706930426160432",
        "title": "沙子坝停车区公共厕所",
        "address": "贵州省安顺市西秀区S03安顺环城高速与沙子坝停车区交叉口西南120米",
        "tel": "",
        "category": "基础设施:公共设施:公共厕所",
        "type": 0,
        "location": {
            "lat": 26.318613,
            "lng": 105.935705
        },
        "ad_info": {
            "adcode": 520402,
            "province": "贵州省",
            "city": "安顺市",
            "district": "西秀区"
        }
    },
    {
        "id": "4732723402221782001",
        "title": "公共厕所",
        "address": "贵州省安顺市镇宁布依族苗族自治县大家乐餐馆西南侧",
        "tel": "",
        "category": "基础设施:公共设施:公共厕所",
        "type": 0,
        "location": {
            "lat": 25.664276,
            "lng": 105.879228
        },
        "ad_info": {
            "adcode": 520423,
            "province": "贵州省",
            "city": "安顺市",
            "district": "镇宁布依族苗族自治县"
        }
    },
    {
        "id": "13802845848272680976",
        "title": "云峰服务区第三公共厕所",
        "address": "贵州省安顺市西秀区G60沪昆高速与云峰服务区交叉口东北220米",
        "tel": "",
        "category": "基础设施:公共设施:公共厕所",
        "type": 0,
        "location": {
            "lat": 26.318137,
            "lng": 106.069012
        },
        "ad_info": {
            "adcode": 520402,
            "province": "贵州省",
            "city": "安顺市",
            "district": "西秀区"
        }
    },
    {
        "id": "9431924386922762909",
        "title": "公共厕所",
        "address": "贵州省安顺市镇宁布依族苗族自治县中共镇宁布依族苗族自治县委党校东侧130米",
        "tel": "",
        "category": "基础设施:公共设施:公共厕所",
        "type": 0,
        "location": {
            "lat": 26.069945,
            "lng": 105.766837
        },
        "ad_info": {
            "adcode": 520423,
            "province": "贵州省",
            "city": "安顺市",
            "district": "镇宁布依族苗族自治县"
        }
    },
    {
        "id": "7296270706708309841",
        "title": "公共厕所",
        "address": "贵州省安顺市普定县富强路与文明路交叉口正南方向46米左右",
        "tel": "",
        "category": "基础设施:公共设施:公共厕所",
        "type": 0,
        "location": {
            "lat": 26.304968,
            "lng": 105.747778
        },
        "ad_info": {
            "adcode": 520422,
            "province": "贵州省",
            "city": "安顺市",
            "district": "普定县"
        }
    },
    {
        "id": "587767042399635362",
        "title": "夜郎洞景区旅游厕所",
        "address": "贵州省安顺市镇宁布依族苗族自治县460县道夜郎洞景区",
        "tel": "",
        "category": "基础设施:公共设施:公共厕所",
        "type": 0,
        "location": {
            "lat": 26.087472,
            "lng": 105.626324
        },
        "ad_info": {
            "adcode": 520423,
            "province": "贵州省",
            "city": "安顺市",
            "district": "镇宁布依族苗族自治县"
        }
    },
    {
        "id": "7434215891275607175",
        "title": "公共厕所",
        "address": "贵州省安顺市紫云苗族布依族自治县和谐路与惠民路交叉口正北方向185米左右",
        "tel": "",
        "category": "基础设施:公共设施:公共厕所",
        "type": 0,
        "location": {
            "lat": 25.504882,
            "lng": 106.256731
        },
        "ad_info": {
            "adcode": 520425,
            "province": "贵州省",
            "city": "安顺市",
            "district": "紫云苗族布依族自治县"
        }
    },
    {
        "id": "113242006355752414",
        "title": "公共厕所(GZ-AS-0427)",
        "address": "贵州省安顺市西秀区虹山湖路虹山公园",
        "tel": "",
        "category": "基础设施:公共设施:公共厕所",
        "type": 0,
        "location": {
            "lat": 26.255084,
            "lng": 105.934713
        },
        "ad_info": {
            "adcode": 520402,
            "province": "贵州省",
            "city": "安顺市",
            "district": "西秀区"
        }
    },
    {
        "id": "5576403396574690877",
        "title": "沙子坝停车区公共厕所",
        "address": "贵州省安顺市西秀区沙子坝停车区与S03安顺环城高速交叉口东北100米",
        "tel": "",
        "category": "基础设施:公共设施:公共厕所",
        "type": 0,
        "location": {
            "lat": 26.32035,
            "lng": 105.93685
        },
        "ad_info": {
            "adcode": 520402,
            "province": "贵州省",
            "city": "安顺市",
            "district": "西秀区"
        }
    },
    {
        "id": "6925222028189993435",
        "title": "黔诚山水贵客·公共厕所",
        "address": "贵州省安顺市西秀区沪昆高速公路",
        "tel": "",
        "category": "基础设施:公共设施:公共厕所",
        "type": 0,
        "location": {
            "lat": 26.273287,
            "lng": 106.01327
        },
        "ad_info": {
            "adcode": 520402,
            "province": "贵州省",
            "city": "安顺市",
            "district": "西秀区"
        }
    },
    {
        "id": "3770052464440456336",
        "title": "云峰服务区第二公共厕所",
        "address": "贵州省安顺市西秀区云峰服务区与G60沪昆高速交叉口西南220米",
        "tel": "",
        "category": "基础设施:公共设施:公共厕所",
        "type": 0,
        "location": {
            "lat": 26.316327,
            "lng": 106.070297
        },
        "ad_info": {
            "adcode": 520402,
            "province": "贵州省",
            "city": "安顺市",
            "district": "西秀区"
        }
    },
    {
        "id": "787552471295694439",
        "title": "公共厕所",
        "address": "贵州省安顺市西秀区三号路与体育路交叉口西北方向115米左右",
        "tel": "",
        "category": "基础设施:公共设施:公共厕所",
        "type": 0,
        "location": {
            "lat": 26.248438,
            "lng": 105.952217
        },
        "ad_info": {
            "adcode": 520402,
            "province": "贵州省",
            "city": "安顺市",
            "district": "西秀区"
        }
    },
    {
        "id": "11746415452599392207",
        "title": "公共厕所",
        "address": "贵州省安顺市西秀区中华北路与定安大道交叉口西北方向111米左右",
        "tel": "",
        "category": "基础设施:公共设施:公共厕所",
        "type": 0,
        "location": {
            "lat": 26.260195,
            "lng": 105.909389
        },
        "ad_info": {
            "adcode": 520402,
            "province": "贵州省",
            "city": "安顺市",
            "district": "西秀区"
        }
    },
    {
        "id": "16380677355888539072",
        "title": "公共厕所",
        "address": "贵州省安顺市镇宁布依族苗族自治县东街与北街交叉口正北方向133米左右",
        "tel": "",
        "category": "基础设施:公共设施:公共厕所",
        "type": 0,
        "location": {
            "lat": 26.058053,
            "lng": 105.764494
        },
        "ad_info": {
            "adcode": 520423,
            "province": "贵州省",
            "city": "安顺市",
            "district": "镇宁布依族苗族自治县"
        }
    },
    {
        "id": "9310673581298372490",
        "title": "公共厕所",
        "address": "贵州省安顺市普定县星屿晚风东侧50米",
        "tel": "",
        "category": "基础设施:公共设施:公共厕所",
        "type": 0,
        "location": {
            "lat": 26.247135,
            "lng": 105.813631
        },
        "ad_info": {
            "adcode": 520422,
            "province": "贵州省",
            "city": "安顺市",
            "district": "普定县"
        }
    },
    {
        "id": "10339128567316048166",
        "title": "公1共厕所",
        "address": "贵州省安顺市平坝区香樟古韵农庄北侧",
        "tel": "",
        "category": "基础设施:公共设施:公共厕所",
        "type": 0,
        "location": {
            "lat": 26.424708,
            "lng": 106.375405
        },
        "ad_info": {
            "adcode": 520403,
            "province": "贵州省",
            "city": "安顺市",
            "district": "平坝区"
        }
    },
    {
        "id": "14925325178694180382",
        "title": "公共厕所",
        "address": "贵州省安顺市关岭布依族苗族自治县X474与景贤路交叉口西北方向424米左右",
        "tel": "",
        "category": "基础设施:公共设施:公共厕所",
        "type": 0,
        "location": {
            "lat": 25.906838,
            "lng": 105.48512
        },
        "ad_info": {
            "adcode": 520424,
            "province": "贵州省",
            "city": "安顺市",
            "district": "关岭布依族苗族自治县"
        }
    },
    {
        "id": "1082038367228006348",
        "title": "公共厕所",
        "address": "贵州省安顺市紫云苗族布依族自治县麦客KTV酒吧南侧70米",
        "tel": "",
        "category": "基础设施:公共设施:公共厕所",
        "type": 0,
        "location": {
            "lat": 25.591947,
            "lng": 106.316201
        },
        "ad_info": {
            "adcode": 520425,
            "province": "贵州省",
            "city": "安顺市",
            "district": "紫云苗族布依族自治县"
        }
    },
    {
        "id": "16217007599567534130",
        "title": "公共厕所",
        "address": "贵州省安顺市西秀区双新路1号",
        "tel": "",
        "category": "基础设施:公共设施:公共厕所",
        "type": 0,
        "location": {
            "lat": 26.232866,
            "lng": 105.85271
        },
        "ad_info": {
            "adcode": 520402,
            "province": "贵州省",
            "city": "安顺市",
            "district": "西秀区"
        }
    },
    {
        "id": "1820852472863990454",
        "title": "团坡停车区公共厕所",
        "address": "贵州省安顺市紫云苗族布依族自治县G354与清泉路交叉口正南方向1310米左右",
        "tel": "",
        "category": "基础设施:公共设施:公共厕所",
        "type": 0,
        "location": {
            "lat": 25.883999,
            "lng": 106.266384
        },
        "ad_info": {
            "adcode": 520425,
            "province": "贵州省",
            "city": "安顺市",
            "district": "紫云苗族布依族自治县"
        }
    },
    {
        "id": "3606706930426160432",
        "title": "沙子坝停车区公共厕所",
        "address": "贵州省安顺市西秀区S03安顺环城高速与沙子坝停车区交叉口西南120米",
        "tel": "",
        "category": "基础设施:公共设施:公共厕所",
        "type": 0,
        "location": {
            "lat": 26.318613,
            "lng": 105.935705
        },
        "ad_info": {
            "adcode": 520402,
            "province": "贵州省",
            "city": "安顺市",
            "district": "西秀区"
        }
    },
    {
        "id": "4732723402221782001",
        "title": "公共厕所",
        "address": "贵州省安顺市镇宁布依族苗族自治县大家乐餐馆西南侧",
        "tel": "",
        "category": "基础设施:公共设施:公共厕所",
        "type": 0,
        "location": {
            "lat": 25.664276,
            "lng": 105.879228
        },
        "ad_info": {
            "adcode": 520423,
            "province": "贵州省",
            "city": "安顺市",
            "district": "镇宁布依族苗族自治县"
        }
    },
    {
        "id": "13802845848272680976",
        "title": "云峰服务区第三公共厕所",
        "address": "贵州省安顺市西秀区G60沪昆高速与云峰服务区交叉口东北220米",
        "tel": "",
        "category": "基础设施:公共设施:公共厕所",
        "type": 0,
        "location": {
            "lat": 26.318137,
            "lng": 106.069012
        },
        "ad_info": {
            "adcode": 520402,
            "province": "贵州省",
            "city": "安顺市",
            "district": "西秀区"
        }
    },
    {
        "id": "9431924386922762909",
        "title": "公共厕所",
        "address": "贵州省安顺市镇宁布依族苗族自治县中共镇宁布依族苗族自治县委党校东侧130米",
        "tel": "",
        "category": "基础设施:公共设施:公共厕所",
        "type": 0,
        "location": {
            "lat": 26.069945,
            "lng": 105.766837
        },
        "ad_info": {
            "adcode": 520423,
            "province": "贵州省",
            "city": "安顺市",
            "district": "镇宁布依族苗族自治县"
        }
    },
    {
        "id": "7296270706708309841",
        "title": "公共厕所",
        "address": "贵州省安顺市普定县富强路与文明路交叉口正南方向46米左右",
        "tel": "",
        "category": "基础设施:公共设施:公共厕所",
        "type": 0,
        "location": {
            "lat": 26.304968,
            "lng": 105.747778
        },
        "ad_info": {
            "adcode": 520422,
            "province": "贵州省",
            "city": "安顺市",
            "district": "普定县"
        }
    },
    {
        "id": "587767042399635362",
        "title": "夜郎洞景区旅游厕所",
        "address": "贵州省安顺市镇宁布依族苗族自治县460县道夜郎洞景区",
        "tel": "",
        "category": "基础设施:公共设施:公共厕所",
        "type": 0,
        "location": {
            "lat": 26.087472,
            "lng": 105.626324
        },
        "ad_info": {
            "adcode": 520423,
            "province": "贵州省",
            "city": "安顺市",
            "district": "镇宁布依族苗族自治县"
        }
    },
    {
        "id": "7434215891275607175",
        "title": "公共厕所",
        "address": "贵州省安顺市紫云苗族布依族自治县和谐路与惠民路交叉口正北方向185米左右",
        "tel": "",
        "category": "基础设施:公共设施:公共厕所",
        "type": 0,
        "location": {
            "lat": 25.504882,
            "lng": 106.256731
        },
        "ad_info": {
            "adcode": 520425,
            "province": "贵州省",
            "city": "安顺市",
            "district": "紫云苗族布依族自治县"
        }
    },
    {
        "id": "113242006355752414",
        "title": "公共厕所(GZ-AS-0427)",
        "address": "贵州省安顺市西秀区虹山湖路虹山公园",
        "tel": "",
        "category": "基础设施:公共设施:公共厕所",
        "type": 0,
        "location": {
            "lat": 26.255084,
            "lng": 105.934713
        },
        "ad_info": {
            "adcode": 520402,
            "province": "贵州省",
            "city": "安顺市",
            "district": "西秀区"
        }
    },
    {
        "id": "5576403396574690877",
        "title": "沙子坝停车区公共厕所",
        "address": "贵州省安顺市西秀区沙子坝停车区与S03安顺环城高速交叉口东北100米",
        "tel": "",
        "category": "基础设施:公共设施:公共厕所",
        "type": 0,
        "location": {
            "lat": 26.32035,
            "lng": 105.93685
        },
        "ad_info": {
            "adcode": 520402,
            "province": "贵州省",
            "city": "安顺市",
            "district": "西秀区"
        }
    },
    {
        "id": "6925222028189993435",
        "title": "黔诚山水贵客·公共厕所",
        "address": "贵州省安顺市西秀区沪昆高速公路",
        "tel": "",
        "category": "基础设施:公共设施:公共厕所",
        "type": 0,
        "location": {
            "lat": 26.273287,
            "lng": 106.01327
        },
        "ad_info": {
            "adcode": 520402,
            "province": "贵州省",
            "city": "安顺市",
            "district": "西秀区"
        }
    },
    {
        "id": "3770052464440456336",
        "title": "云峰服务区第二公共厕所",
        "address": "贵州省安顺市西秀区云峰服务区与G60沪昆高速交叉口西南220米",
        "tel": "",
        "category": "基础设施:公共设施:公共厕所",
        "type": 0,
        "location": {
            "lat": 26.316327,
            "lng": 106.070297
        },
        "ad_info": {
            "adcode": 520402,
            "province": "贵州省",
            "city": "安顺市",
            "district": "西秀区"
        }
    },
    {
        "id": "787552471295694439",
        "title": "公共厕所",
        "address": "贵州省安顺市西秀区三号路与体育路交叉口西北方向115米左右",
        "tel": "",
        "category": "基础设施:公共设施:公共厕所",
        "type": 0,
        "location": {
            "lat": 26.248438,
            "lng": 105.952217
        },
        "ad_info": {
            "adcode": 520402,
            "province": "贵州省",
            "city": "安顺市",
            "district": "西秀区"
        }
    },
    {
        "id": "11746415452599392207",
        "title": "公共厕所",
        "address": "贵州省安顺市西秀区中华北路与定安大道交叉口西北方向111米左右",
        "tel": "",
        "category": "基础设施:公共设施:公共厕所",
        "type": 0,
        "location": {
            "lat": 26.260195,
            "lng": 105.909389
        },
        "ad_info": {
            "adcode": 520402,
            "province": "贵州省",
            "city": "安顺市",
            "district": "西秀区"
        }
    },
    {
        "id": "16380677355888539072",
        "title": "公共厕所",
        "address": "贵州省安顺市镇宁布依族苗族自治县东街与北街交叉口正北方向133米左右",
        "tel": "",
        "category": "基础设施:公共设施:公共厕所",
        "type": 0,
        "location": {
            "lat": 26.058053,
            "lng": 105.764494
        },
        "ad_info": {
            "adcode": 520423,
            "province": "贵州省",
            "city": "安顺市",
            "district": "镇宁布依族苗族自治县"
        }
    },
    {
        "id": "9310673581298372490",
        "title": "公共厕所",
        "address": "贵州省安顺市普定县星屿晚风东侧50米",
        "tel": "",
        "category": "基础设施:公共设施:公共厕所",
        "type": 0,
        "location": {
            "lat": 26.247135,
            "lng": 105.813631
        },
        "ad_info": {
            "adcode": 520422,
            "province": "贵州省",
            "city": "安顺市",
            "district": "普定县"
        }
    },
    {
        "id": "10339128567316048166",
        "title": "公1共厕所",
        "address": "贵州省安顺市平坝区香樟古韵农庄北侧",
        "tel": "",
        "category": "基础设施:公共设施:公共厕所",
        "type": 0,
        "location": {
            "lat": 26.424708,
            "lng": 106.375405
        },
        "ad_info": {
            "adcode": 520403,
            "province": "贵州省",
            "city": "安顺市",
            "district": "平坝区"
        }
    },
    {
        "id": "14925325178694180382",
        "title": "公共厕所",
        "address": "贵州省安顺市关岭布依族苗族自治县X474与景贤路交叉口西北方向424米左右",
        "tel": "",
        "category": "基础设施:公共设施:公共厕所",
        "type": 0,
        "location": {
            "lat": 25.906838,
            "lng": 105.48512
        },
        "ad_info": {
            "adcode": 520424,
            "province": "贵州省",
            "city": "安顺市",
            "district": "关岭布依族苗族自治县"
        }
    },
    {
        "id": "1082038367228006348",
        "title": "公共厕所",
        "address": "贵州省安顺市紫云苗族布依族自治县麦客KTV酒吧南侧70米",
        "tel": "",
        "category": "基础设施:公共设施:公共厕所",
        "type": 0,
        "location": {
            "lat": 25.591947,
            "lng": 106.316201
        },
        "ad_info": {
            "adcode": 520425,
            "province": "贵州省",
            "city": "安顺市",
            "district": "紫云苗族布依族自治县"
        }
    },
    {
        "id": "16217007599567534130",
        "title": "公共厕所",
        "address": "贵州省安顺市西秀区双新路1号",
        "tel": "",
        "category": "基础设施:公共设施:公共厕所",
        "type": 0,
        "location": {
            "lat": 26.232866,
            "lng": 105.85271
        },
        "ad_info": {
            "adcode": 520402,
            "province": "贵州省",
            "city": "安顺市",
            "district": "西秀区"
        }
    },
    {
        "id": "1820852472863990454",
        "title": "团坡停车区公共厕所",
        "address": "贵州省安顺市紫云苗族布依族自治县G354与清泉路交叉口正南方向1310米左右",
        "tel": "",
        "category": "基础设施:公共设施:公共厕所",
        "type": 0,
        "location": {
            "lat": 25.883999,
            "lng": 106.266384
        },
        "ad_info": {
            "adcode": 520425,
            "province": "贵州省",
            "city": "安顺市",
            "district": "紫云苗族布依族自治县"
        }
    },
    {
        "id": "3606706930426160432",
        "title": "沙子坝停车区公共厕所",
        "address": "贵州省安顺市西秀区S03安顺环城高速与沙子坝停车区交叉口西南120米",
        "tel": "",
        "category": "基础设施:公共设施:公共厕所",
        "type": 0,
        "location": {
            "lat": 26.318613,
            "lng": 105.935705
        },
        "ad_info": {
            "adcode": 520402,
            "province": "贵州省",
            "city": "安顺市",
            "district": "西秀区"
        }
    },
    {
        "id": "4732723402221782001",
        "title": "公共厕所",
        "address": "贵州省安顺市镇宁布依族苗族自治县大家乐餐馆西南侧",
        "tel": "",
        "category": "基础设施:公共设施:公共厕所",
        "type": 0,
        "location": {
            "lat": 25.664276,
            "lng": 105.879228
        },
        "ad_info": {
            "adcode": 520423,
            "province": "贵州省",
            "city": "安顺市",
            "district": "镇宁布依族苗族自治县"
        }
    },
    {
        "id": "13802845848272680976",
        "title": "云峰服务区第三公共厕所",
        "address": "贵州省安顺市西秀区G60沪昆高速与云峰服务区交叉口东北220米",
        "tel": "",
        "category": "基础设施:公共设施:公共厕所",
        "type": 0,
        "location": {
            "lat": 26.318137,
            "lng": 106.069012
        },
        "ad_info": {
            "adcode": 520402,
            "province": "贵州省",
            "city": "安顺市",
            "district": "西秀区"
        }
    },
    {
        "id": "9431924386922762909",
        "title": "公共厕所",
        "address": "贵州省安顺市镇宁布依族苗族自治县中共镇宁布依族苗族自治县委党校东侧130米",
        "tel": "",
        "category": "基础设施:公共设施:公共厕所",
        "type": 0,
        "location": {
            "lat": 26.069945,
            "lng": 105.766837
        },
        "ad_info": {
            "adcode": 520423,
            "province": "贵州省",
            "city": "安顺市",
            "district": "镇宁布依族苗族自治县"
        }
    },
    {
        "id": "7296270706708309841",
        "title": "公共厕所",
        "address": "贵州省安顺市普定县富强路与文明路交叉口正南方向46米左右",
        "tel": "",
        "category": "基础设施:公共设施:公共厕所",
        "type": 0,
        "location": {
            "lat": 26.304968,
            "lng": 105.747778
        },
        "ad_info": {
            "adcode": 520422,
            "province": "贵州省",
            "city": "安顺市",
            "district": "普定县"
        }
    },
    {
        "id": "587767042399635362",
        "title": "夜郎洞景区旅游厕所",
        "address": "贵州省安顺市镇宁布依族苗族自治县460县道夜郎洞景区",
        "tel": "",
        "category": "基础设施:公共设施:公共厕所",
        "type": 0,
        "location": {
            "lat": 26.087472,
            "lng": 105.626324
        },
        "ad_info": {
            "adcode": 520423,
            "province": "贵州省",
            "city": "安顺市",
            "district": "镇宁布依族苗族自治县"
        }
    },
    {
        "id": "7434215891275607175",
        "title": "公共厕所",
        "address": "贵州省安顺市紫云苗族布依族自治县和谐路与惠民路交叉口正北方向185米左右",
        "tel": "",
        "category": "基础设施:公共设施:公共厕所",
        "type": 0,
        "location": {
            "lat": 25.504882,
            "lng": 106.256731
        },
        "ad_info": {
            "adcode": 520425,
            "province": "贵州省",
            "city": "安顺市",
            "district": "紫云苗族布依族自治县"
        }
    },
    {
        "id": "113242006355752414",
        "title": "公共厕所(GZ-AS-0427)",
        "address": "贵州省安顺市西秀区虹山湖路虹山公园",
        "tel": "",
        "category": "基础设施:公共设施:公共厕所",
        "type": 0,
        "location": {
            "lat": 26.255084,
            "lng": 105.934713
        },
        "ad_info": {
            "adcode": 520402,
            "province": "贵州省",
            "city": "安顺市",
            "district": "西秀区"
        }
    },
    {
        "id": "5576403396574690877",
        "title": "沙子坝停车区公共厕所",
        "address": "贵州省安顺市西秀区沙子坝停车区与S03安顺环城高速交叉口东北100米",
        "tel": "",
        "category": "基础设施:公共设施:公共厕所",
        "type": 0,
        "location": {
            "lat": 26.32035,
            "lng": 105.93685
        },
        "ad_info": {
            "adcode": 520402,
            "province": "贵州省",
            "city": "安顺市",
            "district": "西秀区"
        }
    },
    {
        "id": "6925222028189993435",
        "title": "黔诚山水贵客·公共厕所",
        "address": "贵州省安顺市西秀区沪昆高速公路",
        "tel": "",
        "category": "基础设施:公共设施:公共厕所",
        "type": 0,
        "location": {
            "lat": 26.273287,
            "lng": 106.01327
        },
        "ad_info": {
            "adcode": 520402,
            "province": "贵州省",
            "city": "安顺市",
            "district": "西秀区"
        }
    },
    {
        "id": "3770052464440456336",
        "title": "云峰服务区第二公共厕所",
        "address": "贵州省安顺市西秀区云峰服务区与G60沪昆高速交叉口西南220米",
        "tel": "",
        "category": "基础设施:公共设施:公共厕所",
        "type": 0,
        "location": {
            "lat": 26.316327,
            "lng": 106.070297
        },
        "ad_info": {
            "adcode": 520402,
            "province": "贵州省",
            "city": "安顺市",
            "district": "西秀区"
        }
    },
    {
        "id": "787552471295694439",
        "title": "公共厕所",
        "address": "贵州省安顺市西秀区三号路与体育路交叉口西北方向115米左右",
        "tel": "",
        "category": "基础设施:公共设施:公共厕所",
        "type": 0,
        "location": {
            "lat": 26.248438,
            "lng": 105.952217
        },
        "ad_info": {
            "adcode": 520402,
            "province": "贵州省",
            "city": "安顺市",
            "district": "西秀区"
        }
    },
    {
        "id": "11746415452599392207",
        "title": "公共厕所",
        "address": "贵州省安顺市西秀区中华北路与定安大道交叉口西北方向111米左右",
        "tel": "",
        "category": "基础设施:公共设施:公共厕所",
        "type": 0,
        "location": {
            "lat": 26.260195,
            "lng": 105.909389
        },
        "ad_info": {
            "adcode": 520402,
            "province": "贵州省",
            "city": "安顺市",
            "district": "西秀区"
        }
    },
    {
        "id": "16380677355888539072",
        "title": "公共厕所",
        "address": "贵州省安顺市镇宁布依族苗族自治县东街与北街交叉口正北方向133米左右",
        "tel": "",
        "category": "基础设施:公共设施:公共厕所",
        "type": 0,
        "location": {
            "lat": 26.058053,
            "lng": 105.764494
        },
        "ad_info": {
            "adcode": 520423,
            "province": "贵州省",
            "city": "安顺市",
            "district": "镇宁布依族苗族自治县"
        }
    },
    {
        "id": "9310673581298372490",
        "title": "公共厕所",
        "address": "贵州省安顺市普定县星屿晚风东侧50米",
        "tel": "",
        "category": "基础设施:公共设施:公共厕所",
        "type": 0,
        "location": {
            "lat": 26.247135,
            "lng": 105.813631
        },
        "ad_info": {
            "adcode": 520422,
            "province": "贵州省",
            "city": "安顺市",
            "district": "普定县"
        }
    },
    {
        "id": "10339128567316048166",
        "title": "公1共厕所",
        "address": "贵州省安顺市平坝区香樟古韵农庄北侧",
        "tel": "",
        "category": "基础设施:公共设施:公共厕所",
        "type": 0,
        "location": {
            "lat": 26.424708,
            "lng": 106.375405
        },
        "ad_info": {
            "adcode": 520403,
            "province": "贵州省",
            "city": "安顺市",
            "district": "平坝区"
        }
    },
    {
        "id": "14925325178694180382",
        "title": "公共厕所",
        "address": "贵州省安顺市关岭布依族苗族自治县X474与景贤路交叉口西北方向424米左右",
        "tel": "",
        "category": "基础设施:公共设施:公共厕所",
        "type": 0,
        "location": {
            "lat": 25.906838,
            "lng": 105.48512
        },
        "ad_info": {
            "adcode": 520424,
            "province": "贵州省",
            "city": "安顺市",
            "district": "关岭布依族苗族自治县"
        }
    },
    {
        "id": "1082038367228006348",
        "title": "公共厕所",
        "address": "贵州省安顺市紫云苗族布依族自治县麦客KTV酒吧南侧70米",
        "tel": "",
        "category": "基础设施:公共设施:公共厕所",
        "type": 0,
        "location": {
            "lat": 25.591947,
            "lng": 106.316201
        },
        "ad_info": {
            "adcode": 520425,
            "province": "贵州省",
            "city": "安顺市",
            "district": "紫云苗族布依族自治县"
        }
    },
    {
        "id": "16217007599567534130",
        "title": "公共厕所",
        "address": "贵州省安顺市西秀区双新路1号",
        "tel": "",
        "category": "基础设施:公共设施:公共厕所",
        "type": 0,
        "location": {
            "lat": 26.232866,
            "lng": 105.85271
        },
        "ad_info": {
            "adcode": 520402,
            "province": "贵州省",
            "city": "安顺市",
            "district": "西秀区"
        }
    },
    {
        "id": "1820852472863990454",
        "title": "团坡停车区公共厕所",
        "address": "贵州省安顺市紫云苗族布依族自治县G354与清泉路交叉口正南方向1310米左右",
        "tel": "",
        "category": "基础设施:公共设施:公共厕所",
        "type": 0,
        "location": {
            "lat": 25.883999,
            "lng": 106.266384
        },
        "ad_info": {
            "adcode": 520425,
            "province": "贵州省",
            "city": "安顺市",
            "district": "紫云苗族布依族自治县"
        }
    },
    {
        "id": "3606706930426160432",
        "title": "沙子坝停车区公共厕所",
        "address": "贵州省安顺市西秀区S03安顺环城高速与沙子坝停车区交叉口西南120米",
        "tel": "",
        "category": "基础设施:公共设施:公共厕所",
        "type": 0,
        "location": {
            "lat": 26.318613,
            "lng": 105.935705
        },
        "ad_info": {
            "adcode": 520402,
            "province": "贵州省",
            "city": "安顺市",
            "district": "西秀区"
        }
    },
    {
        "id": "4732723402221782001",
        "title": "公共厕所",
        "address": "贵州省安顺市镇宁布依族苗族自治县大家乐餐馆西南侧",
        "tel": "",
        "category": "基础设施:公共设施:公共厕所",
        "type": 0,
        "location": {
            "lat": 25.664276,
            "lng": 105.879228
        },
        "ad_info": {
            "adcode": 520423,
            "province": "贵州省",
            "city": "安顺市",
            "district": "镇宁布依族苗族自治县"
        }
    },
    {
        "id": "13802845848272680976",
        "title": "云峰服务区第三公共厕所",
        "address": "贵州省安顺市西秀区G60沪昆高速与云峰服务区交叉口东北220米",
        "tel": "",
        "category": "基础设施:公共设施:公共厕所",
        "type": 0,
        "location": {
            "lat": 26.318137,
            "lng": 106.069012
        },
        "ad_info": {
            "adcode": 520402,
            "province": "贵州省",
            "city": "安顺市",
            "district": "西秀区"
        }
    },
    {
        "id": "9431924386922762909",
        "title": "公共厕所",
        "address": "贵州省安顺市镇宁布依族苗族自治县中共镇宁布依族苗族自治县委党校东侧130米",
        "tel": "",
        "category": "基础设施:公共设施:公共厕所",
        "type": 0,
        "location": {
            "lat": 26.069945,
            "lng": 105.766837
        },
        "ad_info": {
            "adcode": 520423,
            "province": "贵州省",
            "city": "安顺市",
            "district": "镇宁布依族苗族自治县"
        }
    },
    {
        "id": "7296270706708309841",
        "title": "公共厕所",
        "address": "贵州省安顺市普定县富强路与文明路交叉口正南方向46米左右",
        "tel": "",
        "category": "基础设施:公共设施:公共厕所",
        "type": 0,
        "location": {
            "lat": 26.304968,
            "lng": 105.747778
        },
        "ad_info": {
            "adcode": 520422,
            "province": "贵州省",
            "city": "安顺市",
            "district": "普定县"
        }
    },
    {
        "id": "587767042399635362",
        "title": "夜郎洞景区旅游厕所",
        "address": "贵州省安顺市镇宁布依族苗族自治县460县道夜郎洞景区",
        "tel": "",
        "category": "基础设施:公共设施:公共厕所",
        "type": 0,
        "location": {
            "lat": 26.087472,
            "lng": 105.626324
        },
        "ad_info": {
            "adcode": 520423,
            "province": "贵州省",
            "city": "安顺市",
            "district": "镇宁布依族苗族自治县"
        }
    },
    {
        "id": "7434215891275607175",
        "title": "公共厕所",
        "address": "贵州省安顺市紫云苗族布依族自治县和谐路与惠民路交叉口正北方向185米左右",
        "tel": "",
        "category": "基础设施:公共设施:公共厕所",
        "type": 0,
        "location": {
            "lat": 25.504882,
            "lng": 106.256731
        },
        "ad_info": {
            "adcode": 520425,
            "province": "贵州省",
            "city": "安顺市",
            "district": "紫云苗族布依族自治县"
        }
    }
]