[
    {
        "id": "11732756213288687366",
        "title": "公共厕所",
        "address": "海南省定安县塔北路与富民大道交叉口东南方向122米左右",
        "tel": "",
        "category": "基础设施:公共设施:公共厕所",
        "type": 0,
        "location": {
            "lat": 19.680206,
            "lng": 110.353132
        },
        "ad_info": {
            "adcode": 469021,
            "province": "海南省",
            "city": "",
            "district": "定安县"
        }
    },
    {
        "id": "264846628209060998",
        "title": "公共厕所",
        "address": "海南省定安县人民中路与见龙大道交叉口东南方向166米左右",
        "tel": "",
        "category": "基础设施:公共设施:公共厕所",
        "type": 0,
        "location": {
            "lat": 19.695231,
            "lng": 110.325338
        },
        "ad_info": {
            "adcode": 469021,
            "province": "海南省",
            "city": "",
            "district": "定安县"
        }
    },
    {
        "id": "10930757686391436023",
        "title": "公共厕所",
        "address": "海南省定安县中南街与人民中西横路交叉口正东方向159米左右",
        "tel": "",
        "category": "基础设施:公共设施:公共厕所",
        "type": 0,
        "location": {
            "lat": 19.699067,
            "lng": 110.321328
        },
        "ad_info": {
            "adcode": 469021,
            "province": "海南省",
            "city": "",
            "district": "定安县"
        }
    },
    {
        "id": "5927392633362589251",
        "title": "公共厕所",
        "address": "海南省定安县映斗路与见龙大道交叉口东北方向82米左右",
        "tel": "",
        "category": "基础设施:公共设施:公共厕所",
        "type": 0,
        "location": {
            "lat": 19.69038,
            "lng": 110.344445
        },
        "ad_info": {
            "adcode": 469021,
            "province": "海南省",
            "city": "",
            "district": "定安县"
        }
    },
    {
        "id": "13584323802425133539",
        "title": "公共厕所",
        "address": "海南省定安县丹桂街与翰文街交叉口正南方向50米左右",
        "tel": "",
        "category": "基础设施:公共设施:公共厕所",
        "type": 0,
        "location": {
            "lat": 19.32957,
            "lng": 110.262949
        },
        "ad_info": {
            "adcode": 469021,
            "province": "海南省",
            "city": "",
            "district": "定安县"
        }
    },
    {
        "id": "4277177352041061590",
        "title": "公共厕所",
        "address": "海南省定安县映斗路与见龙大道交叉口西北方向550米左右",
        "tel": "",
        "category": "基础设施:公共设施:公共厕所",
        "type": 0,
        "location": {
            "lat": 19.691785,
            "lng": 110.339096
        },
        "ad_info": {
            "adcode": 469021,
            "province": "海南省",
            "city": "",
            "district": "定安县"
        }
    },
    {
        "id": "13947248617602148574",
        "title": "公共厕所",
        "address": "海南省定安县富民大道与环城南路交叉口东北方向121米左右",
        "tel": "",
        "category": "基础设施:公共设施:公共厕所",
        "type": 0,
        "location": {
            "lat": 19.667538,
            "lng": 110.348667
        },
        "ad_info": {
            "adcode": 469021,
            "province": "海南省",
            "city": "",
            "district": "定安县"
        }
    },
    {
        "id": "12245277513901414898",
        "title": "公共厕所",
        "address": "海南省定安县人民中路与人民南路交叉口东北方向269米左右",
        "tel": "",
        "category": "基础设施:公共设施:公共厕所",
        "type": 0,
        "location": {
            "lat": 19.693552,
            "lng": 110.329467
        },
        "ad_info": {
            "adcode": 469021,
            "province": "海南省",
            "city": "",
            "district": "定安县"
        }
    },
    {
        "id": "7094190284483934318",
        "title": "公共厕所",
        "address": "海南省定安县思源路25号",
        "tel": "",
        "category": "基础设施:公共设施:公共厕所",
        "type": 0,
        "location": {
            "lat": 19.676618,
            "lng": 110.373695
        },
        "ad_info": {
            "adcode": 469021,
            "province": "海南省",
            "city": "",
            "district": "定安县"
        }
    },
    {
        "id": "14072577191683158167",
        "title": "公共厕所",
        "address": "海南省定安县富民大道与环城南路交叉口东北方向149米左右",
        "tel": "",
        "category": "基础设施:公共设施:公共厕所",
        "type": 0,
        "location": {
            "lat": 19.66775,
            "lng": 110.348827
        },
        "ad_info": {
            "adcode": 469021,
            "province": "海南省",
            "city": "",
            "district": "定安县"
        }
    },
    {
        "id": "12629238827085809565",
        "title": "公共厕所",
        "address": "海南省定安县塔南路宏城水岸",
        "tel": "",
        "category": "基础设施:公共设施:公共厕所",
        "type": 0,
        "location": {
            "lat": 19.682372,
            "lng": 110.337236
        },
        "ad_info": {
            "adcode": 469021,
            "province": "海南省",
            "city": "",
            "district": "定安县"
        }
    },
    {
        "id": "622762074729933248",
        "title": "公共厕所",
        "address": "海南省定安县海南白塘农业开发有限公司西北侧50米",
        "tel": "",
        "category": "基础设施:公共设施:公共厕所",
        "type": 0,
        "location": {
            "lat": 19.447447,
            "lng": 110.417115
        },
        "ad_info": {
            "adcode": 469021,
            "province": "海南省",
            "city": "",
            "district": "定安县"
        }
    },
    {
        "id": "5651767790649745721",
        "title": "公共厕所",
        "address": "海南省定安县岳崧路与环城南二环路交叉口正北方向225米左右",
        "tel": "",
        "category": "基础设施:公共设施:公共厕所",
        "type": 0,
        "location": {
            "lat": 19.669261,
            "lng": 110.338361
        },
        "ad_info": {
            "adcode": 469021,
            "province": "海南省",
            "city": "",
            "district": "定安县"
        }
    },
    {
        "id": "2073652582671872347",
        "title": "公共厕所",
        "address": "海南省定安县岳崧路与环城南二环路交叉口西北方向243米左右",
        "tel": "",
        "category": "基础设施:公共设施:公共厕所",
        "type": 0,
        "location": {
            "lat": 19.668903,
            "lng": 110.337198
        },
        "ad_info": {
            "adcode": 469021,
            "province": "海南省",
            "city": "",
            "district": "定安县"
        }
    },
    {
        "id": "3298877944148553672",
        "title": "公共厕所",
        "address": "海南省定安县亚洲榕树王东侧",
        "tel": "",
        "category": "基础设施:公共设施:公共厕所",
        "type": 0,
        "location": {
            "lat": 19.339715,
            "lng": 110.248497
        },
        "ad_info": {
            "adcode": 469021,
            "province": "海南省",
            "city": "",
            "district": "定安县"
        }
    },
    {
        "id": "15768320510830109937",
        "title": "公共厕所",
        "address": "海南省定安县S302与Y088交叉口东北方向106米左右",
        "tel": "",
        "category": "基础设施:公共设施:公共厕所",
        "type": 0,
        "location": {
            "lat": 19.449829,
            "lng": 110.445276
        },
        "ad_info": {
            "adcode": 469021,
            "province": "海南省",
            "city": "",
            "district": "定安县"
        }
    },
    {
        "id": "12192264753491027388",
        "title": "公共厕所",
        "address": "海南省定安县新建街与龙根路交叉口正西方向138米左右",
        "tel": "",
        "category": "基础设施:公共设施:公共厕所",
        "type": 0,
        "location": {
            "lat": 19.378322,
            "lng": 110.210025
        },
        "ad_info": {
            "adcode": 469021,
            "province": "海南省",
            "city": "",
            "district": "定安县"
        }
    },
    {
        "id": "9619292603498009634",
        "title": "公共厕所",
        "address": "海南省定安县S302与海榆东线交叉口西北方向59米左右",
        "tel": "",
        "category": "基础设施:公共设施:公共厕所",
        "type": 0,
        "location": {
            "lat": 19.449173,
            "lng": 110.448382
        },
        "ad_info": {
            "adcode": 469021,
            "province": "海南省",
            "city": "",
            "district": "定安县"
        }
    },
    {
        "id": "15333630247270640138",
        "title": "公共厕所",
        "address": "海南省定安县丽湖水庄附近",
        "tel": "",
        "category": "基础设施:公共设施:公共厕所",
        "type": 0,
        "location": {
            "lat": 19.502168,
            "lng": 110.348528
        },
        "ad_info": {
            "adcode": 469021,
            "province": "海南省",
            "city": "",
            "district": "定安县"
        }
    },
    {
        "id": "13627659056100730521",
        "title": "定安服务区第二公共厕所",
        "address": "海南省定安县中图能源定安服务区加气站西侧",
        "tel": "",
        "category": "基础设施:公共设施:公共厕所",
        "type": 0,
        "location": {
            "lat": 19.663535,
            "lng": 110.367261
        },
        "ad_info": {
            "adcode": 469021,
            "province": "海南省",
            "city": "",
            "district": "定安县"
        }
    },
    {
        "id": "6104308663757586904",
        "title": "定安服务区第一公共厕所",
        "address": "海南省定安县定安服务区加油站东南侧",
        "tel": "",
        "category": "基础设施:公共设施:公共厕所",
        "type": 0,
        "location": {
            "lat": 19.663254,
            "lng": 110.367269
        },
        "ad_info": {
            "adcode": 469021,
            "province": "海南省",
            "city": "",
            "district": "定安县"
        }
    },
    {
        "id": "8878517117121475064",
        "title": "仙沟服务区公共厕所",
        "address": "海南省定安县定城服务区与G98海南环岛高速交叉口西南100米",
        "tel": "",
        "category": "基础设施:公共设施:公共厕所",
        "type": 0,
        "location": {
            "lat": 19.686959,
            "lng": 110.362496
        },
        "ad_info": {
            "adcode": 469021,
            "province": "海南省",
            "city": "",
            "district": "定安县"
        }
    }
]