[
    {
        "id": "17145601856497234442",
        "title": "公共厕所",
        "address": "甘肃省定西市安定区新泉路与滨河东路交叉口正南方向240米左右",
        "tel": "17710285573",
        "category": "基础设施:公共设施:公共厕所",
        "type": 0,
        "location": {
            "lat": 35.550904,
            "lng": 104.63404
        },
        "ad_info": {
            "adcode": 621102,
            "province": "甘肃省",
            "city": "定西市",
            "district": "安定区"
        }
    },
    {
        "id": "61525440373416407",
        "title": "公共厕所",
        "address": "甘肃省定西市岷县公园东路与岷州西路交叉口正西方向81米左右",
        "tel": "",
        "category": "基础设施:公共设施:公共厕所",
        "type": 0,
        "location": {
            "lat": 34.435544,
            "lng": 104.019538
        },
        "ad_info": {
            "adcode": 621126,
            "province": "甘肃省",
            "city": "定西市",
            "district": "岷县"
        }
    },
    {
        "id": "12402903669711726010",
        "title": "公共厕所",
        "address": "甘肃省定西市漳县泰安南路与贵清路交叉口正南方向217米左右",
        "tel": "",
        "category": "基础设施:公共设施:公共厕所",
        "type": 0,
        "location": {
            "lat": 34.841929,
            "lng": 104.468136
        },
        "ad_info": {
            "adcode": 621125,
            "province": "甘肃省",
            "city": "定西市",
            "district": "漳县"
        }
    },
    {
        "id": "11626437956305510124",
        "title": "公共厕所",
        "address": "甘肃省定西市渭源县学府路与首阳路交叉口西北方向303米左右",
        "tel": "",
        "category": "基础设施:公共设施:公共厕所",
        "type": 0,
        "location": {
            "lat": 35.140297,
            "lng": 104.218259
        },
        "ad_info": {
            "adcode": 621123,
            "province": "甘肃省",
            "city": "定西市",
            "district": "渭源县"
        }
    },
    {
        "id": "7727937645371939783",
        "title": "公共厕所",
        "address": "甘肃省定西市安定区平襄街与福台路交叉口正北方向30米左右",
        "tel": "",
        "category": "基础设施:公共设施:公共厕所",
        "type": 0,
        "location": {
            "lat": 35.592863,
            "lng": 104.602556
        },
        "ad_info": {
            "adcode": 621102,
            "province": "甘肃省",
            "city": "定西市",
            "district": "安定区"
        }
    },
    {
        "id": "10941070985158370971",
        "title": "公共厕所",
        "address": "甘肃省定西市渭源县中街路与首阳路交叉口东南方向418米左右",
        "tel": "",
        "category": "基础设施:公共设施:公共厕所",
        "type": 0,
        "location": {
            "lat": 35.13216,
            "lng": 104.218657
        },
        "ad_info": {
            "adcode": 621123,
            "province": "甘肃省",
            "city": "定西市",
            "district": "渭源县"
        }
    },
    {
        "id": "17175979015886167938",
        "title": "公共厕所",
        "address": "甘肃省定西市岷县G212与岷州东路交叉口正西方向211米左右",
        "tel": "",
        "category": "基础设施:公共设施:公共厕所",
        "type": 0,
        "location": {
            "lat": 34.448434,
            "lng": 104.058095
        },
        "ad_info": {
            "adcode": 621126,
            "province": "甘肃省",
            "city": "定西市",
            "district": "岷县"
        }
    },
    {
        "id": "1507052106293198653",
        "title": "公共厕所",
        "address": "甘肃省定西市安定区关川路(中和银街)",
        "tel": "",
        "category": "基础设施:公共设施:公共厕所",
        "type": 0,
        "location": {
            "lat": 35.605403,
            "lng": 104.60417
        },
        "ad_info": {
            "adcode": 621102,
            "province": "甘肃省",
            "city": "定西市",
            "district": "安定区"
        }
    },
    {
        "id": "11840640111396686472",
        "title": "公共厕所",
        "address": "甘肃省定西市漳县盛世东昇苑西侧380米",
        "tel": "",
        "category": "基础设施:公共设施:公共厕所",
        "type": 0,
        "location": {
            "lat": 34.844364,
            "lng": 104.451022
        },
        "ad_info": {
            "adcode": 621125,
            "province": "甘肃省",
            "city": "定西市",
            "district": "漳县"
        }
    },
    {
        "id": "15850003818988593011",
        "title": "公共厕所",
        "address": "甘肃省定西市安定区中华北路与中华南路交叉口西北方向110米左右",
        "tel": "",
        "category": "基础设施:公共设施:公共厕所",
        "type": 0,
        "location": {
            "lat": 35.579832,
            "lng": 104.62599
        },
        "ad_info": {
            "adcode": 621102,
            "province": "甘肃省",
            "city": "定西市",
            "district": "安定区"
        }
    },
    {
        "id": "3237741276349584950",
        "title": "公共厕所",
        "address": "甘肃省定西市安定区公园路1号",
        "tel": "",
        "category": "基础设施:公共设施:公共厕所",
        "type": 0,
        "location": {
            "lat": 35.5788,
            "lng": 104.610196
        },
        "ad_info": {
            "adcode": 621102,
            "province": "甘肃省",
            "city": "定西市",
            "district": "安定区"
        }
    },
    {
        "id": "17560730930397521852",
        "title": "公共厕所",
        "address": "甘肃省定西市漳县中兴路与武阳路交叉口东南方向60米左右",
        "tel": "",
        "category": "基础设施:公共设施:公共厕所",
        "type": 0,
        "location": {
            "lat": 34.849244,
            "lng": 104.466891
        },
        "ad_info": {
            "adcode": 621125,
            "province": "甘肃省",
            "city": "定西市",
            "district": "漳县"
        }
    },
    {
        "id": "5249319344054679043",
        "title": "公共厕所",
        "address": "甘肃省定西市安定区关川路与将台街交叉口西南方向193米左右",
        "tel": "",
        "category": "基础设施:公共设施:公共厕所",
        "type": 0,
        "location": {
            "lat": 35.596044,
            "lng": 104.611969
        },
        "ad_info": {
            "adcode": 621102,
            "province": "甘肃省",
            "city": "定西市",
            "district": "安定区"
        }
    },
    {
        "id": "8993745541815878645",
        "title": "公共厕所",
        "address": "甘肃省定西市渭源县G316与西环路交叉口东南方向319米左右",
        "tel": "",
        "category": "基础设施:公共设施:公共厕所",
        "type": 0,
        "location": {
            "lat": 35.122137,
            "lng": 104.198523
        },
        "ad_info": {
            "adcode": 621123,
            "province": "甘肃省",
            "city": "定西市",
            "district": "渭源县"
        }
    },
    {
        "id": "17770364994266597758",
        "title": "公共厕所",
        "address": "甘肃省定西市安定区东河绿化广场",
        "tel": "",
        "category": "基础设施:公共设施:公共厕所",
        "type": 0,
        "location": {
            "lat": 35.570843,
            "lng": 104.629794
        },
        "ad_info": {
            "adcode": 621102,
            "province": "甘肃省",
            "city": "定西市",
            "district": "安定区"
        }
    },
    {
        "id": "7619321192801225712",
        "title": "公共厕所",
        "address": "甘肃省定西市安定区中华北路与自由街交叉口正西方向37米左右",
        "tel": "",
        "category": "基础设施:公共设施:公共厕所",
        "type": 0,
        "location": {
            "lat": 35.588113,
            "lng": 104.623081
        },
        "ad_info": {
            "adcode": 621102,
            "province": "甘肃省",
            "city": "定西市",
            "district": "安定区"
        }
    },
    {
        "id": "17269582311746732490",
        "title": "公共厕所",
        "address": "甘肃省定西市安定区定西北路与薯都大道交叉口东南方向134米左右",
        "tel": "",
        "category": "基础设施:公共设施:公共厕所",
        "type": 0,
        "location": {
            "lat": 35.612012,
            "lng": 104.591089
        },
        "ad_info": {
            "adcode": 621102,
            "province": "甘肃省",
            "city": "定西市",
            "district": "安定区"
        }
    },
    {
        "id": "13388109529764626431",
        "title": "公共厕所",
        "address": "甘肃省定西市渭源县君山路与新街路交叉口正北方向342米左右",
        "tel": "",
        "category": "基础设施:公共设施:公共厕所",
        "type": 0,
        "location": {
            "lat": 35.139515,
            "lng": 104.216635
        },
        "ad_info": {
            "adcode": 621123,
            "province": "甘肃省",
            "city": "定西市",
            "district": "渭源县"
        }
    },
    {
        "id": "6948956518067751532",
        "title": "公共厕所",
        "address": "甘肃省定西市漳县漳县站售票处西南侧50米",
        "tel": "",
        "category": "基础设施:公共设施:公共厕所",
        "type": 0,
        "location": {
            "lat": 34.716823,
            "lng": 104.158308
        },
        "ad_info": {
            "adcode": 621125,
            "province": "甘肃省",
            "city": "定西市",
            "district": "漳县"
        }
    },
    {
        "id": "234401197054955002",
        "title": "公共厕所",
        "address": "甘肃省定西市通渭县官井巷与襄瑞路交叉口正西方向92米左右",
        "tel": "",
        "category": "基础设施:公共设施:公共厕所",
        "type": 0,
        "location": {
            "lat": 35.208908,
            "lng": 105.2475
        },
        "ad_info": {
            "adcode": 621121,
            "province": "甘肃省",
            "city": "定西市",
            "district": "通渭县"
        }
    },
    {
        "id": "6886173098466385840",
        "title": "公共厕所",
        "address": "甘肃省定西市安定区贵清路(福台林生态园)",
        "tel": "",
        "category": "基础设施:公共设施:公共厕所",
        "type": 0,
        "location": {
            "lat": 35.608297,
            "lng": 104.58928
        },
        "ad_info": {
            "adcode": 621102,
            "province": "甘肃省",
            "city": "定西市",
            "district": "安定区"
        }
    },
    {
        "id": "9358594627835303913",
        "title": "公共厕所",
        "address": "甘肃省定西市安定区大同巷正立广场内",
        "tel": "",
        "category": "基础设施:公共设施:公共厕所",
        "type": 0,
        "location": {
            "lat": 35.577224,
            "lng": 104.618595
        },
        "ad_info": {
            "adcode": 621102,
            "province": "甘肃省",
            "city": "定西市",
            "district": "安定区"
        }
    },
    {
        "id": "11028195022025225294",
        "title": "公共厕所",
        "address": "甘肃省定西市通渭县襄南镇马店村中街(襄南舞台)",
        "tel": "",
        "category": "基础设施:公共设施:公共厕所",
        "type": 0,
        "location": {
            "lat": 35.061347,
            "lng": 105.248807
        },
        "ad_info": {
            "adcode": 621121,
            "province": "甘肃省",
            "city": "定西市",
            "district": "通渭县"
        }
    },
    {
        "id": "3012234381636260704",
        "title": "公共厕所",
        "address": "甘肃省定西市通渭县东城路与园区路交叉口西北方向38米左右",
        "tel": "",
        "category": "基础设施:公共设施:公共厕所",
        "type": 0,
        "location": {
            "lat": 35.206652,
            "lng": 105.257109
        },
        "ad_info": {
            "adcode": 621121,
            "province": "甘肃省",
            "city": "定西市",
            "district": "通渭县"
        }
    },
    {
        "id": "9507996991073727160",
        "title": "公共厕所",
        "address": "甘肃省定西市安定区交通南路与永定东路交叉口正西方向199米左右",
        "tel": "",
        "category": "基础设施:公共设施:公共厕所",
        "type": 0,
        "location": {
            "lat": 35.578228,
            "lng": 104.63009
        },
        "ad_info": {
            "adcode": 621102,
            "province": "甘肃省",
            "city": "定西市",
            "district": "安定区"
        }
    },
    {
        "id": "452760001955791139",
        "title": "公共厕所",
        "address": "甘肃省定西市渭源县渭河南路与西三路交叉口正西方向51米左右",
        "tel": "",
        "category": "基础设施:公共设施:公共厕所",
        "type": 0,
        "location": {
            "lat": 35.137283,
            "lng": 104.227092
        },
        "ad_info": {
            "adcode": 621123,
            "province": "甘肃省",
            "city": "定西市",
            "district": "渭源县"
        }
    },
    {
        "id": "3198516984046499919",
        "title": "卫生间",
        "address": "甘肃省定西市通渭县北环路与西环路交叉口西北方向148米左右",
        "tel": "",
        "category": "基础设施:公共设施:公共厕所",
        "type": 0,
        "location": {
            "lat": 35.230279,
            "lng": 105.231387
        },
        "ad_info": {
            "adcode": 621121,
            "province": "甘肃省",
            "city": "定西市",
            "district": "通渭县"
        }
    },
    {
        "id": "3011935298858586439",
        "title": "公共厕所",
        "address": "甘肃省定西市安定区葛家岔中心小学西北侧70米",
        "tel": "",
        "category": "基础设施:公共设施:公共厕所",
        "type": 0,
        "location": {
            "lat": 35.770225,
            "lng": 104.690963
        },
        "ad_info": {
            "adcode": 621102,
            "province": "甘肃省",
            "city": "定西市",
            "district": "安定区"
        }
    },
    {
        "id": "2644190184463540356",
        "title": "公共厕所",
        "address": "甘肃省定西市安定区文昌巷与解放路交叉口正南方向40米左右",
        "tel": "",
        "category": "基础设施:公共设施:公共厕所",
        "type": 0,
        "location": {
            "lat": 35.577579,
            "lng": 104.624247
        },
        "ad_info": {
            "adcode": 621102,
            "province": "甘肃省",
            "city": "定西市",
            "district": "安定区"
        }
    },
    {
        "id": "14153730733150349971",
        "title": "公共厕所",
        "address": "甘肃省定西市渭源县庆坪路与首阳路交叉口正西方向357米左右",
        "tel": "",
        "category": "基础设施:公共设施:公共厕所",
        "type": 0,
        "location": {
            "lat": 35.13094,
            "lng": 104.206997
        },
        "ad_info": {
            "adcode": 621123,
            "province": "甘肃省",
            "city": "定西市",
            "district": "渭源县"
        }
    },
    {
        "id": "12324312359391144027",
        "title": "公共厕所",
        "address": "甘肃省定西市岷县中华北路与民主街交叉口东北方向37米左右",
        "tel": "",
        "category": "基础设施:公共设施:公共厕所",
        "type": 0,
        "location": {
            "lat": 34.435189,
            "lng": 104.042272
        },
        "ad_info": {
            "adcode": 621126,
            "province": "甘肃省",
            "city": "定西市",
            "district": "岷县"
        }
    },
    {
        "id": "3795047365688311594",
        "title": "公共厕所",
        "address": "甘肃省定西市安定区关川路与友谊北路交叉口东北方向32米左右",
        "tel": "",
        "category": "基础设施:公共设施:公共厕所",
        "type": 0,
        "location": {
            "lat": 35.589966,
            "lng": 104.618653
        },
        "ad_info": {
            "adcode": 621102,
            "province": "甘肃省",
            "city": "定西市",
            "district": "安定区"
        }
    },
    {
        "id": "11902418044297532432",
        "title": "公共厕所",
        "address": "甘肃省定西市安定区交通路与定西北立交桥交叉口正西方向40米左右",
        "tel": "",
        "category": "基础设施:公共设施:公共厕所",
        "type": 0,
        "location": {
            "lat": 35.613787,
            "lng": 104.60522
        },
        "ad_info": {
            "adcode": 621102,
            "province": "甘肃省",
            "city": "定西市",
            "district": "安定区"
        }
    },
    {
        "id": "12311024064931639161",
        "title": "公共厕所",
        "address": "甘肃省定西市渭源县G310与平桥路交叉口正北方向101米左右",
        "tel": "",
        "category": "基础设施:公共设施:公共厕所",
        "type": 0,
        "location": {
            "lat": 35.133622,
            "lng": 104.212791
        },
        "ad_info": {
            "adcode": 621123,
            "province": "甘肃省",
            "city": "定西市",
            "district": "渭源县"
        }
    },
    {
        "id": "990277096241139982",
        "title": "公共厕所",
        "address": "甘肃省定西市渭源县G310与平桥路交叉口西南方向50米左右",
        "tel": "",
        "category": "基础设施:公共设施:公共厕所",
        "type": 0,
        "location": {
            "lat": 35.132345,
            "lng": 104.212519
        },
        "ad_info": {
            "adcode": 621123,
            "province": "甘肃省",
            "city": "定西市",
            "district": "渭源县"
        }
    },
    {
        "id": "1137063689186384450",
        "title": "公共厕所",
        "address": "甘肃省定西市岷县中华南路与启明路交叉口正北方向87米左右",
        "tel": "",
        "category": "基础设施:公共设施:公共厕所",
        "type": 0,
        "location": {
            "lat": 34.433224,
            "lng": 104.04744
        },
        "ad_info": {
            "adcode": 621126,
            "province": "甘肃省",
            "city": "定西市",
            "district": "岷县"
        }
    },
    {
        "id": "6394059847372444214",
        "title": "公共厕所",
        "address": "甘肃省定西市安定区友谊北路与友谊南路交叉口正北方向93米左右",
        "tel": "",
        "category": "基础设施:公共设施:公共厕所",
        "type": 0,
        "location": {
            "lat": 35.577941,
            "lng": 104.618773
        },
        "ad_info": {
            "adcode": 621102,
            "province": "甘肃省",
            "city": "定西市",
            "district": "安定区"
        }
    },
    {
        "id": "9843254255842317105",
        "title": "公共厕所",
        "address": "甘肃省定西市陇西县G310与药都大道交叉口正南方向322米左右",
        "tel": "",
        "category": "基础设施:公共设施:公共厕所",
        "type": 0,
        "location": {
            "lat": 35.017994,
            "lng": 104.660255
        },
        "ad_info": {
            "adcode": 621122,
            "province": "甘肃省",
            "city": "定西市",
            "district": "陇西县"
        }
    },
    {
        "id": "16201990996404671260",
        "title": "公共厕所",
        "address": "甘肃省定西市渭源县G212(兰渝线)",
        "tel": "",
        "category": "基础设施:公共设施:公共厕所",
        "type": 0,
        "location": {
            "lat": 34.999813,
            "lng": 103.990967
        },
        "ad_info": {
            "adcode": 621123,
            "province": "甘肃省",
            "city": "定西市",
            "district": "渭源县"
        }
    },
    {
        "id": "7311422979196015300",
        "title": "公共厕所",
        "address": "甘肃省定西市安定区陇西路(生态园)",
        "tel": "",
        "category": "基础设施:公共设施:公共厕所",
        "type": 0,
        "location": {
            "lat": 35.593513,
            "lng": 104.609529
        },
        "ad_info": {
            "adcode": 621102,
            "province": "甘肃省",
            "city": "定西市",
            "district": "安定区"
        }
    },
    {
        "id": "3546170723278577280",
        "title": "公共厕所",
        "address": "甘肃省定西市通渭县悦心凯悦农业有机果蔬采摘基地内",
        "tel": "",
        "category": "基础设施:公共设施:公共厕所",
        "type": 0,
        "location": {
            "lat": 35.189471,
            "lng": 105.158931
        },
        "ad_info": {
            "adcode": 621121,
            "province": "甘肃省",
            "city": "定西市",
            "district": "通渭县"
        }
    },
    {
        "id": "9829161034308909090",
        "title": "公共厕所",
        "address": "甘肃省定西市安定区中华北路与北城巷交叉口东南方向147米左右",
        "tel": "",
        "category": "基础设施:公共设施:公共厕所",
        "type": 0,
        "location": {
            "lat": 35.581074,
            "lng": 104.627591
        },
        "ad_info": {
            "adcode": 621102,
            "province": "甘肃省",
            "city": "定西市",
            "district": "安定区"
        }
    },
    {
        "id": "1586656445264001795",
        "title": "公共厕所",
        "address": "甘肃省定西市安定区正龙路东方红中学",
        "tel": "",
        "category": "基础设施:公共设施:公共厕所",
        "type": 0,
        "location": {
            "lat": 35.574813,
            "lng": 104.628334
        },
        "ad_info": {
            "adcode": 621102,
            "province": "甘肃省",
            "city": "定西市",
            "district": "安定区"
        }
    },
    {
        "id": "17964338871469031409",
        "title": "公共厕所",
        "address": "甘肃省定西市渭源县君山路与首阳路交叉口东南方向156米左右",
        "tel": "",
        "category": "基础设施:公共设施:公共厕所",
        "type": 0,
        "location": {
            "lat": 35.134609,
            "lng": 104.217789
        },
        "ad_info": {
            "adcode": 621123,
            "province": "甘肃省",
            "city": "定西市",
            "district": "渭源县"
        }
    },
    {
        "id": "3968578526757547750",
        "title": "公共厕所",
        "address": "甘肃省定西市安定区临洮路与贵清街交叉口正南方向243米左右",
        "tel": "",
        "category": "基础设施:公共设施:公共厕所",
        "type": 0,
        "location": {
            "lat": 35.60602,
            "lng": 104.587487
        },
        "ad_info": {
            "adcode": 621102,
            "province": "甘肃省",
            "city": "定西市",
            "district": "安定区"
        }
    },
    {
        "id": "1001233999900255821",
        "title": "公共厕所",
        "address": "甘肃省定西市漳县209省道东50米",
        "tel": "",
        "category": "基础设施:公共设施:公共厕所",
        "type": 0,
        "location": {
            "lat": 34.861388,
            "lng": 104.54082
        },
        "ad_info": {
            "adcode": 621125,
            "province": "甘肃省",
            "city": "定西市",
            "district": "漳县"
        }
    },
    {
        "id": "2559737982460965789",
        "title": "公共厕所",
        "address": "甘肃省定西市陇西县交通路与文峰商业步行街交叉口东南方向111米左右",
        "tel": "",
        "category": "基础设施:公共设施:公共厕所",
        "type": 0,
        "location": {
            "lat": 34.949901,
            "lng": 104.70349
        },
        "ad_info": {
            "adcode": 621122,
            "province": "甘肃省",
            "city": "定西市",
            "district": "陇西县"
        }
    },
    {
        "id": "5419255386630461009",
        "title": "公共厕所",
        "address": "甘肃省定西市安定区G312与巉口桥交叉口东南方向990米左右",
        "tel": "",
        "category": "基础设施:公共设施:公共厕所",
        "type": 0,
        "location": {
            "lat": 35.709355,
            "lng": 104.529563
        },
        "ad_info": {
            "adcode": 621102,
            "province": "甘肃省",
            "city": "定西市",
            "district": "安定区"
        }
    },
    {
        "id": "4807742933091726504",
        "title": "公共厕所",
        "address": "甘肃省定西市安定区安定路与渭源街交叉口正北方向132米左右",
        "tel": "",
        "category": "基础设施:公共设施:公共厕所",
        "type": 0,
        "location": {
            "lat": 35.593973,
            "lng": 104.611477
        },
        "ad_info": {
            "adcode": 621102,
            "province": "甘肃省",
            "city": "定西市",
            "district": "安定区"
        }
    },
    {
        "id": "139934274289588104",
        "title": "公共厕所",
        "address": "甘肃省定西市安定区友谊北路与友谊南路交叉口西北方向111米左右",
        "tel": "",
        "category": "基础设施:公共设施:公共厕所",
        "type": 0,
        "location": {
            "lat": 35.577974,
            "lng": 104.618386
        },
        "ad_info": {
            "adcode": 621102,
            "province": "甘肃省",
            "city": "定西市",
            "district": "安定区"
        }
    },
    {
        "id": "6171211019262358672",
        "title": "公共厕所",
        "address": "甘肃省定西市安定区北城路与北门巷交叉口正西方向68米左右",
        "tel": "",
        "category": "基础设施:公共设施:公共厕所",
        "type": 0,
        "location": {
            "lat": 35.582603,
            "lng": 104.620788
        },
        "ad_info": {
            "adcode": 621102,
            "province": "甘肃省",
            "city": "定西市",
            "district": "安定区"
        }
    },
    {
        "id": "17135855112302383132",
        "title": "公共厕所",
        "address": "甘肃省定西市安定区交通路与漳县街交叉口东南方向276米左右",
        "tel": "",
        "category": "基础设施:公共设施:公共厕所",
        "type": 0,
        "location": {
            "lat": 35.604306,
            "lng": 104.613143
        },
        "ad_info": {
            "adcode": 621102,
            "province": "甘肃省",
            "city": "定西市",
            "district": "安定区"
        }
    },
    {
        "id": "5142280377976103449",
        "title": "公共厕所",
        "address": "甘肃省定西市陇西县S208与S209交叉口东北方向324米左右",
        "tel": "",
        "category": "基础设施:公共设施:公共厕所",
        "type": 0,
        "location": {
            "lat": 35.092779,
            "lng": 104.718896
        },
        "ad_info": {
            "adcode": 621122,
            "province": "甘肃省",
            "city": "定西市",
            "district": "陇西县"
        }
    },
    {
        "id": "16954774581538521288",
        "title": "公共厕所",
        "address": "甘肃省定西市岷县岷州东路与岷州中路交叉口东南方向28米左右",
        "tel": "",
        "category": "基础设施:公共设施:公共厕所",
        "type": 0,
        "location": {
            "lat": 34.441807,
            "lng": 104.045652
        },
        "ad_info": {
            "adcode": 621126,
            "province": "甘肃省",
            "city": "定西市",
            "district": "岷县"
        }
    },
    {
        "id": "10072784794347561004",
        "title": "公共厕所",
        "address": "甘肃省定西市安定区同兴巷与解放路交叉口西南方向21米左右",
        "tel": "",
        "category": "基础设施:公共设施:公共厕所",
        "type": 0,
        "location": {
            "lat": 35.579796,
            "lng": 104.62879
        },
        "ad_info": {
            "adcode": 621102,
            "province": "甘肃省",
            "city": "定西市",
            "district": "安定区"
        }
    },
    {
        "id": "7802973605031200712",
        "title": "公共厕所",
        "address": "甘肃省定西市岷县岷州中路与钟楼街交叉口正东方向273米左右",
        "tel": "",
        "category": "基础设施:公共设施:公共厕所",
        "type": 0,
        "location": {
            "lat": 34.442071,
            "lng": 104.041128
        },
        "ad_info": {
            "adcode": 621126,
            "province": "甘肃省",
            "city": "定西市",
            "district": "岷县"
        }
    },
    {
        "id": "10924340914614341619",
        "title": "公共厕所",
        "address": "甘肃省定西市安定区公园路与西岩路交叉口正西方向222米左右",
        "tel": "",
        "category": "基础设施:公共设施:公共厕所",
        "type": 0,
        "location": {
            "lat": 35.579346,
            "lng": 104.60967
        },
        "ad_info": {
            "adcode": 621102,
            "province": "甘肃省",
            "city": "定西市",
            "district": "安定区"
        }
    },
    {
        "id": "12672915788314498477",
        "title": "公共厕所",
        "address": "甘肃省定西市安定区公园路26-2号",
        "tel": "",
        "category": "基础设施:公共设施:公共厕所",
        "type": 0,
        "location": {
            "lat": 35.579088,
            "lng": 104.615625
        },
        "ad_info": {
            "adcode": 621102,
            "province": "甘肃省",
            "city": "定西市",
            "district": "安定区"
        }
    },
    {
        "id": "3213560422493759507",
        "title": "公共厕所",
        "address": "甘肃省定西市安定区巉口中心卫生院东南侧150米",
        "tel": "",
        "category": "基础设施:公共设施:公共厕所",
        "type": 0,
        "location": {
            "lat": 35.713675,
            "lng": 104.529781
        },
        "ad_info": {
            "adcode": 621102,
            "province": "甘肃省",
            "city": "定西市",
            "district": "安定区"
        }
    },
    {
        "id": "4342426768352273137",
        "title": "公共厕所",
        "address": "甘肃省定西市岷县中华南路与当归大道交叉口东北方向22米左右",
        "tel": "",
        "category": "基础设施:公共设施:公共厕所",
        "type": 0,
        "location": {
            "lat": 34.431421,
            "lng": 104.042954
        },
        "ad_info": {
            "adcode": 621126,
            "province": "甘肃省",
            "city": "定西市",
            "district": "岷县"
        }
    },
    {
        "id": "2515145754270532719",
        "title": "公共厕所",
        "address": "甘肃省定西市安定区G312与Y167交叉口正西方向1072米左右",
        "tel": "",
        "category": "基础设施:公共设施:公共厕所",
        "type": 0,
        "location": {
            "lat": 35.695267,
            "lng": 104.92436
        },
        "ad_info": {
            "adcode": 621102,
            "province": "甘肃省",
            "city": "定西市",
            "district": "安定区"
        }
    },
    {
        "id": "17926685341723230222",
        "title": "公共厕所",
        "address": "甘肃省定西市安定区岷阳路与渭源街交叉口正南方向40米左右",
        "tel": "",
        "category": "基础设施:公共设施:公共厕所",
        "type": 0,
        "location": {
            "lat": 35.588578,
            "lng": 104.604344
        },
        "ad_info": {
            "adcode": 621102,
            "province": "甘肃省",
            "city": "定西市",
            "district": "安定区"
        }
    },
    {
        "id": "10052973164834140767",
        "title": "公共厕所",
        "address": "甘肃省定西市安定区S227与X112交叉口东北方向1164米左右",
        "tel": "",
        "category": "基础设施:公共设施:公共厕所",
        "type": 0,
        "location": {
            "lat": 35.632115,
            "lng": 104.717995
        },
        "ad_info": {
            "adcode": 621102,
            "province": "甘肃省",
            "city": "定西市",
            "district": "安定区"
        }
    },
    {
        "id": "13131908566727537775",
        "title": "公共厕所",
        "address": "甘肃省定西市安定区S311与北环路交叉口东北方向839米左右",
        "tel": "",
        "category": "基础设施:公共设施:公共厕所",
        "type": 0,
        "location": {
            "lat": 35.528211,
            "lng": 104.423379
        },
        "ad_info": {
            "adcode": 621102,
            "province": "甘肃省",
            "city": "定西市",
            "district": "安定区"
        }
    },
    {
        "id": "15350372617973669734",
        "title": "公共厕所",
        "address": "甘肃省定西市陇西县南河东路与崇文路交叉口正西方向284米左右",
        "tel": "",
        "category": "基础设施:公共设施:公共厕所",
        "type": 0,
        "location": {
            "lat": 34.988836,
            "lng": 104.653611
        },
        "ad_info": {
            "adcode": 621122,
            "province": "甘肃省",
            "city": "定西市",
            "district": "陇西县"
        }
    },
    {
        "id": "5844322680560526402",
        "title": "公共厕所",
        "address": "甘肃省定西市安定区兴业南巷与解放路交叉口东北方向63米左右",
        "tel": "",
        "category": "基础设施:公共设施:公共厕所",
        "type": 0,
        "location": {
            "lat": 35.58316,
            "lng": 104.634791
        },
        "ad_info": {
            "adcode": 621102,
            "province": "甘肃省",
            "city": "定西市",
            "district": "安定区"
        }
    },
    {
        "id": "7512337304319646963",
        "title": "公共厕所",
        "address": "甘肃省定西市安定区交通路与将台街交叉口西北方向261米左右",
        "tel": "",
        "category": "基础设施:公共设施:公共厕所",
        "type": 0,
        "location": {
            "lat": 35.602027,
            "lng": 104.615556
        },
        "ad_info": {
            "adcode": 621102,
            "province": "甘肃省",
            "city": "定西市",
            "district": "安定区"
        }
    },
    {
        "id": "5434504575599263596",
        "title": "公共厕所",
        "address": "甘肃省定西市陇西县渭州路与长安大道辅路交叉口东南方向274米左右",
        "tel": "",
        "category": "基础设施:公共设施:公共厕所",
        "type": 0,
        "location": {
            "lat": 34.998534,
            "lng": 104.652481
        },
        "ad_info": {
            "adcode": 621122,
            "province": "甘肃省",
            "city": "定西市",
            "district": "陇西县"
        }
    },
    {
        "id": "8591995382385692181",
        "title": "公共厕所",
        "address": "甘肃省定西市陇西县交通路与龙宫步行街交叉口正北方向136米左右",
        "tel": "",
        "category": "基础设施:公共设施:公共厕所",
        "type": 0,
        "location": {
            "lat": 35.009082,
            "lng": 104.644189
        },
        "ad_info": {
            "adcode": 621122,
            "province": "甘肃省",
            "city": "定西市",
            "district": "陇西县"
        }
    },
    {
        "id": "506508594372881976",
        "title": "公共厕所",
        "address": "甘肃省定西市陇西县北城路人民广场(西北角)",
        "tel": "",
        "category": "基础设施:公共设施:公共厕所",
        "type": 0,
        "location": {
            "lat": 35.002688,
            "lng": 104.649167
        },
        "ad_info": {
            "adcode": 621122,
            "province": "甘肃省",
            "city": "定西市",
            "district": "陇西县"
        }
    },
    {
        "id": "13685094785038751803",
        "title": "公共厕所",
        "address": "甘肃省定西市安定区S311与北环路交叉口东北方向1338米左右",
        "tel": "",
        "category": "基础设施:公共设施:公共厕所",
        "type": 0,
        "location": {
            "lat": 35.531233,
            "lng": 104.427474
        },
        "ad_info": {
            "adcode": 621102,
            "province": "甘肃省",
            "city": "定西市",
            "district": "安定区"
        }
    },
    {
        "id": "807532854546261027",
        "title": "公共厕所",
        "address": "甘肃省定西市安定区S207与天巉公路交叉口东南方向218米左右",
        "tel": "",
        "category": "基础设施:公共设施:公共厕所",
        "type": 0,
        "location": {
            "lat": 35.449714,
            "lng": 104.848597
        },
        "ad_info": {
            "adcode": 621102,
            "province": "甘肃省",
            "city": "定西市",
            "district": "安定区"
        }
    },
    {
        "id": "10563808835332592222",
        "title": "公共厕所",
        "address": "甘肃省定西市陇西县交通路与人民路交叉口正东方向166米左右",
        "tel": "",
        "category": "基础设施:公共设施:公共厕所",
        "type": 0,
        "location": {
            "lat": 34.951366,
            "lng": 104.705597
        },
        "ad_info": {
            "adcode": 621122,
            "province": "甘肃省",
            "city": "定西市",
            "district": "陇西县"
        }
    },
    {
        "id": "7723199211798690661",
        "title": "公共厕所",
        "address": "甘肃省定西市岷县S209与礼岷公路交叉口正西方向69米左右",
        "tel": "",
        "category": "基础设施:公共设施:公共厕所",
        "type": 0,
        "location": {
            "lat": 34.440993,
            "lng": 104.455758
        },
        "ad_info": {
            "adcode": 621126,
            "province": "甘肃省",
            "city": "定西市",
            "district": "岷县"
        }
    },
    {
        "id": "2277530201044086612",
        "title": "公共厕所",
        "address": "甘肃省定西市陇西县南安大道与西城路交叉口正东方向95米左右",
        "tel": "",
        "category": "基础设施:公共设施:公共厕所",
        "type": 0,
        "location": {
            "lat": 35.004135,
            "lng": 104.630487
        },
        "ad_info": {
            "adcode": 621122,
            "province": "甘肃省",
            "city": "定西市",
            "district": "陇西县"
        }
    },
    {
        "id": "1546911466062874722",
        "title": "公共厕所",
        "address": "甘肃省定西市陇西县东城路与崇文路交叉口东南方向322米左右",
        "tel": "",
        "category": "基础设施:公共设施:公共厕所",
        "type": 0,
        "location": {
            "lat": 34.996738,
            "lng": 104.648184
        },
        "ad_info": {
            "adcode": 621122,
            "province": "甘肃省",
            "city": "定西市",
            "district": "陇西县"
        }
    },
    {
        "id": "6788142368243725281",
        "title": "公共厕所",
        "address": "甘肃省定西市陇西县G310与S228交叉口西南方向172米左右",
        "tel": "",
        "category": "基础设施:公共设施:公共厕所",
        "type": 0,
        "location": {
            "lat": 35.012511,
            "lng": 104.619274
        },
        "ad_info": {
            "adcode": 621122,
            "province": "甘肃省",
            "city": "定西市",
            "district": "陇西县"
        }
    },
    {
        "id": "7891570758111620132",
        "title": "公共厕所",
        "address": "甘肃省定西市临洮县东大街与洋人巷交叉口西北方向59米左右",
        "tel": "",
        "category": "基础设施:公共设施:公共厕所",
        "type": 0,
        "location": {
            "lat": 35.374725,
            "lng": 103.861684
        },
        "ad_info": {
            "adcode": 621124,
            "province": "甘肃省",
            "city": "定西市",
            "district": "临洮县"
        }
    },
    {
        "id": "2538447406957752824",
        "title": "公共厕所",
        "address": "甘肃省定西市陇西县交通路与龙宫步行街交叉口正西方向92米左右",
        "tel": "",
        "category": "基础设施:公共设施:公共厕所",
        "type": 0,
        "location": {
            "lat": 35.007772,
            "lng": 104.642812
        },
        "ad_info": {
            "adcode": 621122,
            "province": "甘肃省",
            "city": "定西市",
            "district": "陇西县"
        }
    },
    {
        "id": "5456412025728313193",
        "title": "公共厕所",
        "address": "甘肃省定西市岷县G212与Y212交叉口西北方向744米左右",
        "tel": "",
        "category": "基础设施:公共设施:公共厕所",
        "type": 0,
        "location": {
            "lat": 34.544365,
            "lng": 104.070537
        },
        "ad_info": {
            "adcode": 621126,
            "province": "甘肃省",
            "city": "定西市",
            "district": "岷县"
        }
    },
    {
        "id": "13053013448779502523",
        "title": "岷县服务区公共厕所",
        "address": "甘肃省定西市岷县中国石油公航旅集团岷县服务区加油站东北侧130米",
        "tel": "",
        "category": "基础设施:公共设施:公共厕所",
        "type": 0,
        "location": {
            "lat": 34.439882,
            "lng": 104.059124
        },
        "ad_info": {
            "adcode": 621126,
            "province": "甘肃省",
            "city": "定西市",
            "district": "岷县"
        }
    },
    {
        "id": "17742619072454500380",
        "title": "公共厕所",
        "address": "甘肃省定西市陇西县G310与S228交叉口东南方向127米左右",
        "tel": "",
        "category": "基础设施:公共设施:公共厕所",
        "type": 0,
        "location": {
            "lat": 35.03937,
            "lng": 104.579758
        },
        "ad_info": {
            "adcode": 621122,
            "province": "甘肃省",
            "city": "定西市",
            "district": "陇西县"
        }
    },
    {
        "id": "2699993569702532878",
        "title": "公共厕所",
        "address": "甘肃省定西市陇西县渭州路与长安大道交叉口西南方向227米左右",
        "tel": "",
        "category": "基础设施:公共设施:公共厕所",
        "type": 0,
        "location": {
            "lat": 34.998371,
            "lng": 104.649049
        },
        "ad_info": {
            "adcode": 621122,
            "province": "甘肃省",
            "city": "定西市",
            "district": "陇西县"
        }
    },
    {
        "id": "3684030831835323726",
        "title": "公共厕所",
        "address": "甘肃省定西市临洮县貂蝉路与番城路交叉口南260米",
        "tel": "",
        "category": "基础设施:公共设施:公共厕所",
        "type": 0,
        "location": {
            "lat": 35.365672,
            "lng": 103.858289
        },
        "ad_info": {
            "adcode": 621124,
            "province": "甘肃省",
            "city": "定西市",
            "district": "临洮县"
        }
    },
    {
        "id": "11048814061931231401",
        "title": "公共厕所",
        "address": "甘肃省定西市临洮县武昭路与熙州东路交叉口正东方向241米左右",
        "tel": "",
        "category": "基础设施:公共设施:公共厕所",
        "type": 0,
        "location": {
            "lat": 35.385731,
            "lng": 103.868348
        },
        "ad_info": {
            "adcode": 621124,
            "province": "甘肃省",
            "city": "定西市",
            "district": "临洮县"
        }
    },
    {
        "id": "5453111484265414187",
        "title": "公共厕所",
        "address": "甘肃省定西市临洮县北大街(甘肃省临洮中学西侧)位置错误",
        "tel": "",
        "category": "基础设施:公共设施:公共厕所",
        "type": 0,
        "location": {
            "lat": 35.376581,
            "lng": 103.863123
        },
        "ad_info": {
            "adcode": 621124,
            "province": "甘肃省",
            "city": "定西市",
            "district": "临洮县"
        }
    },
    {
        "id": "3149344303464330843",
        "title": "公共厕所",
        "address": "甘肃省定西市陇西县南大街与南安大道交叉口正北方向23米左右",
        "tel": "",
        "category": "基础设施:公共设施:公共厕所",
        "type": 0,
        "location": {
            "lat": 34.999167,
            "lng": 104.633234
        },
        "ad_info": {
            "adcode": 621122,
            "province": "甘肃省",
            "city": "定西市",
            "district": "陇西县"
        }
    },
    {
        "id": "13025358283990927440",
        "title": "莲峰停车区公共厕所",
        "address": "甘肃省定西市渭源县G75兰海高速与莲峰停车区交叉口西南340米",
        "tel": "",
        "category": "基础设施:公共设施:公共厕所",
        "type": 0,
        "location": {
            "lat": 35.071027,
            "lng": 104.362098
        },
        "ad_info": {
            "adcode": 621123,
            "province": "甘肃省",
            "city": "定西市",
            "district": "渭源县"
        }
    },
    {
        "id": "4806749506893909319",
        "title": "马营停车区公共厕所",
        "address": "甘肃省定西市通渭县S46通定高速与马营停车区交叉口西北260米",
        "tel": "",
        "category": "基础设施:公共设施:公共厕所",
        "type": 0,
        "location": {
            "lat": 35.290463,
            "lng": 105.040072
        },
        "ad_info": {
            "adcode": 621121,
            "province": "甘肃省",
            "city": "定西市",
            "district": "通渭县"
        }
    },
    {
        "id": "7115953979391267627",
        "title": "收费公共厕所",
        "address": "甘肃省定西市安定区交通中路与交通南路交叉口正东方向127米左右",
        "tel": "",
        "category": "基础设施:公共设施:公共厕所",
        "type": 0,
        "location": {
            "lat": 35.580486,
            "lng": 104.632476
        },
        "ad_info": {
            "adcode": 621102,
            "province": "甘肃省",
            "city": "定西市",
            "district": "安定区"
        }
    },
    {
        "id": "14013541675796545140",
        "title": "公共厕所",
        "address": "甘肃省定西市临洮县熙州西路128号",
        "tel": "",
        "category": "基础设施:公共设施:公共厕所",
        "type": 0,
        "location": {
            "lat": 35.388432,
            "lng": 103.847958
        },
        "ad_info": {
            "adcode": 621124,
            "province": "甘肃省",
            "city": "定西市",
            "district": "临洮县"
        }
    },
    {
        "id": "98740987332406110",
        "title": "公共厕所",
        "address": "甘肃省定西市临洮县庙巷与背篼巷交叉口正东方向50米左右",
        "tel": "",
        "category": "基础设施:公共设施:公共厕所",
        "type": 0,
        "location": {
            "lat": 35.37677,
            "lng": 103.860928
        },
        "ad_info": {
            "adcode": 621124,
            "province": "甘肃省",
            "city": "定西市",
            "district": "临洮县"
        }
    },
    {
        "id": "12463720243019495588",
        "title": "公共厕所",
        "address": "甘肃省定西市临洮县华城大道与文峰东路交叉口正西方向242米左右",
        "tel": "",
        "category": "基础设施:公共设施:公共厕所",
        "type": 0,
        "location": {
            "lat": 35.391944,
            "lng": 103.869763
        },
        "ad_info": {
            "adcode": 621124,
            "province": "甘肃省",
            "city": "定西市",
            "district": "临洮县"
        }
    },
    {
        "id": "15154292768423736968",
        "title": "莲峰停车区公共厕所",
        "address": "甘肃省定西市渭源县G75兰海高速与莲峰停车区交叉口西南280米",
        "tel": "",
        "category": "基础设施:公共设施:公共厕所",
        "type": 0,
        "location": {
            "lat": 35.072477,
            "lng": 104.361046
        },
        "ad_info": {
            "adcode": 621123,
            "province": "甘肃省",
            "city": "定西市",
            "district": "渭源县"
        }
    },
    {
        "id": "14820884195624517197",
        "title": "上湾服务区公共厕所",
        "address": "甘肃省定西市渭源县G212与富康路交叉口正北方向1419米左右",
        "tel": "",
        "category": "基础设施:公共设施:公共厕所",
        "type": 0,
        "location": {
            "lat": 35.182564,
            "lng": 103.959741
        },
        "ad_info": {
            "adcode": 621123,
            "province": "甘肃省",
            "city": "定西市",
            "district": "渭源县"
        }
    },
    {
        "id": "16021156603767312816",
        "title": "公共厕所",
        "address": "甘肃省定西市临洮县S311与永宁路交叉口正东方向54米左右",
        "tel": "",
        "category": "基础设施:公共设施:公共厕所",
        "type": 0,
        "location": {
            "lat": 35.374266,
            "lng": 103.846168
        },
        "ad_info": {
            "adcode": 621124,
            "province": "甘肃省",
            "city": "定西市",
            "district": "临洮县"
        }
    },
    {
        "id": "12153117709999085264",
        "title": "公共厕所",
        "address": "甘肃省定西市临洮县",
        "tel": "",
        "category": "基础设施:公共设施:公共厕所",
        "type": 0,
        "location": {
            "lat": 35.844899,
            "lng": 103.536957
        },
        "ad_info": {
            "adcode": 621124,
            "province": "甘肃省",
            "city": "定西市",
            "district": "临洮县"
        }
    },
    {
        "id": "17874660383075422347",
        "title": "岷县服务区公共厕所",
        "address": "甘肃省定西市岷县岷县服务区与G75兰海高速交叉口西南440米",
        "tel": "",
        "category": "基础设施:公共设施:公共厕所",
        "type": 0,
        "location": {
            "lat": 34.440814,
            "lng": 104.06133
        },
        "ad_info": {
            "adcode": 621126,
            "province": "甘肃省",
            "city": "定西市",
            "district": "岷县"
        }
    },
    {
        "id": "54081902358677126",
        "title": "公共厕所",
        "address": "甘肃省定西市临洮县文峰北路与文峰西路交叉口正西方向339米左右",
        "tel": "",
        "category": "基础设施:公共设施:公共厕所",
        "type": 0,
        "location": {
            "lat": 35.393701,
            "lng": 103.858305
        },
        "ad_info": {
            "adcode": 621124,
            "province": "甘肃省",
            "city": "定西市",
            "district": "临洮县"
        }
    },
    {
        "id": "2879041174715430789",
        "title": "福台林生态园公共厕所",
        "address": "甘肃省定西市安定区临洮路福台林生态园",
        "tel": "",
        "category": "基础设施:公共设施:公共厕所",
        "type": 0,
        "location": {
            "lat": 35.605386,
            "lng": 104.590513
        },
        "ad_info": {
            "adcode": 621102,
            "province": "甘肃省",
            "city": "定西市",
            "district": "安定区"
        }
    },
    {
        "id": "1539608678178088792",
        "title": "公共厕所",
        "address": "甘肃省定西市临洮县G212(福兰线)",
        "tel": "",
        "category": "基础设施:公共设施:公共厕所",
        "type": 0,
        "location": {
            "lat": 35.64477,
            "lng": 103.760604
        },
        "ad_info": {
            "adcode": 621124,
            "province": "甘肃省",
            "city": "定西市",
            "district": "临洮县"
        }
    },
    {
        "id": "7553947849459994937",
        "title": "宁远服务区公共厕所",
        "address": "甘肃省定西市安定区宁远服务区南侧",
        "tel": "",
        "category": "基础设施:公共设施:公共厕所",
        "type": 0,
        "location": {
            "lat": 35.45241,
            "lng": 104.846719
        },
        "ad_info": {
            "adcode": 621102,
            "province": "甘肃省",
            "city": "定西市",
            "district": "安定区"
        }
    },
    {
        "id": "2822303682453207653",
        "title": "公共厕所",
        "address": "甘肃省定西市临洮县临康路与北大街交叉口正北方向79米左右",
        "tel": "",
        "category": "基础设施:公共设施:公共厕所",
        "type": 0,
        "location": {
            "lat": 35.383148,
            "lng": 103.860245
        },
        "ad_info": {
            "adcode": 621124,
            "province": "甘肃省",
            "city": "定西市",
            "district": "临洮县"
        }
    },
    {
        "id": "13419653955399537861",
        "title": "定西服务区公共厕所",
        "address": "甘肃省定西市安定区G312与交通路交叉口东南方向654米左右",
        "tel": "",
        "category": "基础设施:公共设施:公共厕所",
        "type": 0,
        "location": {
            "lat": 35.648464,
            "lng": 104.595699
        },
        "ad_info": {
            "adcode": 621102,
            "province": "甘肃省",
            "city": "定西市",
            "district": "安定区"
        }
    },
    {
        "id": "12645362528927310550",
        "title": "定西服务区公共厕所",
        "address": "甘肃省定西市安定区定西铺服务区与G22青兰高速交叉口西南150米",
        "tel": "",
        "category": "基础设施:公共设施:公共厕所",
        "type": 0,
        "location": {
            "lat": 35.648131,
            "lng": 104.593327
        },
        "ad_info": {
            "adcode": 621102,
            "province": "甘肃省",
            "city": "定西市",
            "district": "安定区"
        }
    },
    {
        "id": "2142933826314309018",
        "title": "公共厕所",
        "address": "甘肃省定西市临洮县文峰南路与熙州西路交叉口西南方向29米左右",
        "tel": "",
        "category": "基础设施:公共设施:公共厕所",
        "type": 0,
        "location": {
            "lat": 35.386664,
            "lng": 103.861153
        },
        "ad_info": {
            "adcode": 621124,
            "province": "甘肃省",
            "city": "定西市",
            "district": "临洮县"
        }
    },
    {
        "id": "17550339613224473062",
        "title": "公共卫生间",
        "address": "甘肃省定西市临洮县临康路三兆水车苑",
        "tel": "",
        "category": "基础设施:公共设施:公共厕所",
        "type": 0,
        "location": {
            "lat": 35.382914,
            "lng": 103.857127
        },
        "ad_info": {
            "adcode": 621124,
            "province": "甘肃省",
            "city": "定西市",
            "district": "临洮县"
        }
    },
    {
        "id": "5487166067179650316",
        "title": "公共厕所",
        "address": "甘肃省定西市临洮县G212与中和路交叉口东北方向1088米左右",
        "tel": "",
        "category": "基础设施:公共设施:公共厕所",
        "type": 0,
        "location": {
            "lat": 35.78592,
            "lng": 103.733103
        },
        "ad_info": {
            "adcode": 621124,
            "province": "甘肃省",
            "city": "定西市",
            "district": "临洮县"
        }
    },
    {
        "id": "14632214272415883822",
        "title": "公共厕所",
        "address": "甘肃省定西市临洮县G212与兰海高速交叉口正南方向844米左右",
        "tel": "",
        "category": "基础设施:公共设施:公共厕所",
        "type": 0,
        "location": {
            "lat": 35.312595,
            "lng": 103.858054
        },
        "ad_info": {
            "adcode": 621124,
            "province": "甘肃省",
            "city": "定西市",
            "district": "临洮县"
        }
    },
    {
        "id": "2441846996710957700",
        "title": "公共厕所",
        "address": "甘肃省定西市临洮县G310与秦风桥交叉口西北方向689米左右",
        "tel": "",
        "category": "基础设施:公共设施:公共厕所",
        "type": 0,
        "location": {
            "lat": 35.312475,
            "lng": 104.044803
        },
        "ad_info": {
            "adcode": 621124,
            "province": "甘肃省",
            "city": "定西市",
            "district": "临洮县"
        }
    },
    {
        "id": "6666870827556660563",
        "title": "陇西南服务区公共厕所",
        "address": "甘肃省定西市陇西县服务区西北侧",
        "tel": "",
        "category": "基础设施:公共设施:公共厕所",
        "type": 0,
        "location": {
            "lat": 34.970555,
            "lng": 104.643888
        },
        "ad_info": {
            "adcode": 621122,
            "province": "甘肃省",
            "city": "定西市",
            "district": "陇西县"
        }
    },
    {
        "id": "17200542129547439015",
        "title": "陇西南服务区公共厕所",
        "address": "甘肃省定西市陇西县陇西南服务区与S42陇漳高速交叉口东南460米",
        "tel": "",
        "category": "基础设施:公共设施:公共厕所",
        "type": 0,
        "location": {
            "lat": 34.968932,
            "lng": 104.64307
        },
        "ad_info": {
            "adcode": 621122,
            "province": "甘肃省",
            "city": "定西市",
            "district": "陇西县"
        }
    },
    {
        "id": "6625554591514841381",
        "title": "陇西南服务区公共厕所",
        "address": "甘肃省定西市陇西县南安大道与陇漳高速交叉口正西方向444米左右",
        "tel": "",
        "category": "基础设施:公共设施:公共厕所",
        "type": 0,
        "location": {
            "lat": 34.969201,
            "lng": 104.642722
        },
        "ad_info": {
            "adcode": 621122,
            "province": "甘肃省",
            "city": "定西市",
            "district": "陇西县"
        }
    },
    {
        "id": "12517078638917749312",
        "title": "通安驿服务区第二公共厕所",
        "address": "甘肃省定西市陇西县S209与Y200交叉口东南方向721米左右",
        "tel": "",
        "category": "基础设施:公共设施:公共厕所",
        "type": 0,
        "location": {
            "lat": 35.198789,
            "lng": 104.726664
        },
        "ad_info": {
            "adcode": 621122,
            "province": "甘肃省",
            "city": "定西市",
            "district": "陇西县"
        }
    },
    {
        "id": "12441930738073243092",
        "title": "通安驿服务区第一公共厕所",
        "address": "甘肃省定西市陇西县通安驿服务区西侧",
        "tel": "",
        "category": "基础设施:公共设施:公共厕所",
        "type": 0,
        "location": {
            "lat": 35.199015,
            "lng": 104.726594
        },
        "ad_info": {
            "adcode": 621122,
            "province": "甘肃省",
            "city": "定西市",
            "district": "陇西县"
        }
    },
    {
        "id": "8889734179733174854",
        "title": "通安驿服务区第二公共厕所",
        "address": "甘肃省定西市陇西县S209与Y200交叉口东南方向753米左右",
        "tel": "",
        "category": "基础设施:公共设施:公共厕所",
        "type": 0,
        "location": {
            "lat": 35.199905,
            "lng": 104.728036
        },
        "ad_info": {
            "adcode": 621122,
            "province": "甘肃省",
            "city": "定西市",
            "district": "陇西县"
        }
    },
    {
        "id": "5822470228707325637",
        "title": "太石服务区公共厕所",
        "address": "甘肃省定西市临洮县S230与漫坪沟中桥交叉口正东方向1501米左右",
        "tel": "",
        "category": "基础设施:公共设施:公共厕所",
        "type": 0,
        "location": {
            "lat": 35.649888,
            "lng": 103.741518
        },
        "ad_info": {
            "adcode": 621124,
            "province": "甘肃省",
            "city": "定西市",
            "district": "临洮县"
        }
    },
    {
        "id": "9369054756667022509",
        "title": "佛归寺生态旅游园公共厕所",
        "address": "甘肃省定西市临洮县佛归寺生态旅游园(北侧)",
        "tel": "",
        "category": "基础设施:公共设施:公共厕所",
        "type": 0,
        "location": {
            "lat": 35.331781,
            "lng": 103.878482
        },
        "ad_info": {
            "adcode": 621124,
            "province": "甘肃省",
            "city": "定西市",
            "district": "临洮县"
        }
    },
    {
        "id": "2980778065828040046",
        "title": "上湾服务区公共厕所",
        "address": "甘肃省定西市渭源县兰渝线上湾服务区",
        "tel": "",
        "category": "基础设施:公共设施:公共厕所",
        "type": 0,
        "location": {
            "lat": 35.184615,
            "lng": 103.957307
        },
        "ad_info": {
            "adcode": 621123,
            "province": "甘肃省",
            "city": "定西市",
            "district": "渭源县"
        }
    },
    {
        "id": "7445519913687119836",
        "title": "公共厕所",
        "address": "甘肃省定西市通渭县襄瑞路与西城路交叉口正北方向43米左右",
        "tel": "",
        "category": "基础设施:公共设施:公共厕所",
        "type": 0,
        "location": {
            "lat": 35.216445,
            "lng": 105.240776
        },
        "ad_info": {
            "adcode": 621121,
            "province": "甘肃省",
            "city": "定西市",
            "district": "通渭县"
        }
    },
    {
        "id": "2014579955037692222",
        "title": "公共厕所",
        "address": "甘肃省定西市临洮县东大街与凤台北路交叉口东南方向238米左右",
        "tel": "",
        "category": "基础设施:公共设施:公共厕所",
        "type": 0,
        "location": {
            "lat": 35.372255,
            "lng": 103.872972
        },
        "ad_info": {
            "adcode": 621124,
            "province": "甘肃省",
            "city": "定西市",
            "district": "临洮县"
        }
    },
    {
        "id": "3576326563077406801",
        "title": "公共厕所",
        "address": "甘肃省定西市临洮县兰海高速与定临高速交叉口正西方向1056米左右",
        "tel": "",
        "category": "基础设施:公共设施:公共厕所",
        "type": 0,
        "location": {
            "lat": 35.335867,
            "lng": 103.842802
        },
        "ad_info": {
            "adcode": 621124,
            "province": "甘肃省",
            "city": "定西市",
            "district": "临洮县"
        }
    },
    {
        "id": "1216576308997293753",
        "title": "公共厕所",
        "address": "甘肃省定西市陇西县S228与王李段交叉口西南方向1385米左右",
        "tel": "",
        "category": "基础设施:公共设施:公共厕所",
        "type": 0,
        "location": {
            "lat": 35.047094,
            "lng": 104.564849
        },
        "ad_info": {
            "adcode": 621122,
            "province": "甘肃省",
            "city": "定西市",
            "district": "陇西县"
        }
    },
    {
        "id": "3579732827988793223",
        "title": "公共厕所",
        "address": "甘肃省定西市岷县北门街与岷州中路交叉口正东方向250米左右",
        "tel": "",
        "category": "基础设施:公共设施:公共厕所",
        "type": 0,
        "location": {
            "lat": 34.440062,
            "lng": 104.034993
        },
        "ad_info": {
            "adcode": 621126,
            "province": "甘肃省",
            "city": "定西市",
            "district": "岷县"
        }
    },
    {
        "id": "46780290626389515",
        "title": "公共厕所",
        "address": "甘肃省定西市岷县当归大道与站前路交叉口西北方向76米左右",
        "tel": "",
        "category": "基础设施:公共设施:公共厕所",
        "type": 0,
        "location": {
            "lat": 34.392893,
            "lng": 104.070699
        },
        "ad_info": {
            "adcode": 621126,
            "province": "甘肃省",
            "city": "定西市",
            "district": "岷县"
        }
    },
    {
        "id": "15724956386481763697",
        "title": "公共厕所",
        "address": "甘肃省定西市岷县S306洮水家园",
        "tel": "",
        "category": "基础设施:公共设施:公共厕所",
        "type": 0,
        "location": {
            "lat": 34.442626,
            "lng": 104.034022
        },
        "ad_info": {
            "adcode": 621126,
            "province": "甘肃省",
            "city": "定西市",
            "district": "岷县"
        }
    },
    {
        "id": "8097032795955509608",
        "title": "公共厕所",
        "address": "甘肃省定西市临洮县中国石油五里铺加油站西侧280米",
        "tel": "",
        "category": "基础设施:公共设施:公共厕所",
        "type": 0,
        "location": {
            "lat": 35.407964,
            "lng": 103.858577
        },
        "ad_info": {
            "adcode": 621124,
            "province": "甘肃省",
            "city": "定西市",
            "district": "临洮县"
        }
    },
    {
        "id": "17618757628807764554",
        "title": "南岔村电子商务公共",
        "address": "甘肃省定西市通渭县陇山镇路家石沟",
        "tel": "15379139538",
        "category": "基础设施:公共设施:公共厕所",
        "type": 0,
        "location": {
            "lat": 35.243446,
            "lng": 105.454829
        },
        "ad_info": {
            "adcode": 621121,
            "province": "甘肃省",
            "city": "定西市",
            "district": "通渭县"
        }
    },
    {
        "id": "10402452437861990260",
        "title": "公共厕所",
        "address": "甘肃省定西市渭源县庆坪路与首阳路交叉口东南方向139米左右",
        "tel": "",
        "category": "基础设施:公共设施:公共厕所",
        "type": 0,
        "location": {
            "lat": 35.130724,
            "lng": 104.211561
        },
        "ad_info": {
            "adcode": 621123,
            "province": "甘肃省",
            "city": "定西市",
            "district": "渭源县"
        }
    },
    {
        "id": "8100638272486414226",
        "title": "公共厕所",
        "address": "甘肃省定西市渭源县S569与Y183交叉口正西方向671米左右",
        "tel": "",
        "category": "基础设施:公共设施:公共厕所",
        "type": 0,
        "location": {
            "lat": 35.073671,
            "lng": 104.193471
        },
        "ad_info": {
            "adcode": 621123,
            "province": "甘肃省",
            "city": "定西市",
            "district": "渭源县"
        }
    },
    {
        "id": "8912047474688680795",
        "title": "公共厕所",
        "address": "甘肃省定西市安定区薯都大道以南(大碱沟公园)",
        "tel": "",
        "category": "基础设施:公共设施:公共厕所",
        "type": 0,
        "location": {
            "lat": 35.611862,
            "lng": 104.588695
        },
        "ad_info": {
            "adcode": 621102,
            "province": "甘肃省",
            "city": "定西市",
            "district": "安定区"
        }
    },
    {
        "id": "12027755295361384504",
        "title": "公共厕所",
        "address": "甘肃省定西市安定区友谊北路与校场街交叉口正南方向90米左右",
        "tel": "",
        "category": "基础设施:公共设施:公共厕所",
        "type": 0,
        "location": {
            "lat": 35.585021,
            "lng": 104.61889
        },
        "ad_info": {
            "adcode": 621102,
            "province": "甘肃省",
            "city": "定西市",
            "district": "安定区"
        }
    },
    {
        "id": "13449138268118155381",
        "title": "漳县服务区公共厕所",
        "address": "甘肃省定西市漳县漳县服务区与G75兰海高速交叉口西南440米",
        "tel": "",
        "category": "基础设施:公共设施:公共厕所",
        "type": 0,
        "location": {
            "lat": 34.843223,
            "lng": 104.291253
        },
        "ad_info": {
            "adcode": 621125,
            "province": "甘肃省",
            "city": "定西市",
            "district": "漳县"
        }
    },
    {
        "id": "8810562323736204633",
        "title": "太石服务区-公共厕所",
        "address": "甘肃省定西市临洮县S230与漫坪沟中桥交叉口东南方向1301米左右",
        "tel": "",
        "category": "基础设施:公共设施:公共厕所",
        "type": 0,
        "location": {
            "lat": 35.649152,
            "lng": 103.738771
        },
        "ad_info": {
            "adcode": 621124,
            "province": "甘肃省",
            "city": "定西市",
            "district": "临洮县"
        }
    },
    {
        "id": "711538803570767922",
        "title": "公共厕所",
        "address": "甘肃省定西市安定区临洮路与洮阳街交叉口正西方向51米左右",
        "tel": "",
        "category": "基础设施:公共设施:公共厕所",
        "type": 0,
        "location": {
            "lat": 35.59855,
            "lng": 104.5967
        },
        "ad_info": {
            "adcode": 621102,
            "province": "甘肃省",
            "city": "定西市",
            "district": "安定区"
        }
    },
    {
        "id": "1478811781088338043",
        "title": "通安驿服务区第二公共厕所",
        "address": "甘肃省定西市陇西县S209与Y200交叉口东南方向697米左右",
        "tel": "",
        "category": "基础设施:公共设施:公共厕所",
        "type": 0,
        "location": {
            "lat": 35.198954,
            "lng": 104.726481
        },
        "ad_info": {
            "adcode": 621122,
            "province": "甘肃省",
            "city": "定西市",
            "district": "陇西县"
        }
    },
    {
        "id": "297277645123392948",
        "title": "马营停车区公共厕所",
        "address": "甘肃省定西市通渭县S225与X082交叉口正东方向87米左右",
        "tel": "",
        "category": "基础设施:公共设施:公共厕所",
        "type": 0,
        "location": {
            "lat": 35.311918,
            "lng": 104.993079
        },
        "ad_info": {
            "adcode": 621121,
            "province": "甘肃省",
            "city": "定西市",
            "district": "通渭县"
        }
    },
    {
        "id": "8281176683460227846",
        "title": "公共厕所",
        "address": "甘肃省定西市安定区交通中路与交通南路交叉口东北方向91米左右",
        "tel": "",
        "category": "基础设施:公共设施:公共厕所",
        "type": 0,
        "location": {
            "lat": 35.581519,
            "lng": 104.631833
        },
        "ad_info": {
            "adcode": 621102,
            "province": "甘肃省",
            "city": "定西市",
            "district": "安定区"
        }
    },
    {
        "id": "15684323481213877408",
        "title": "公共厕所",
        "address": "甘肃省定西市临洮县临洮县文化馆",
        "tel": "",
        "category": "基础设施:公共设施:公共厕所",
        "type": 0,
        "location": {
            "lat": 35.392722,
            "lng": 103.85478
        },
        "ad_info": {
            "adcode": 621124,
            "province": "甘肃省",
            "city": "定西市",
            "district": "临洮县"
        }
    },
    {
        "id": "15899616048971250322",
        "title": "公共厕所",
        "address": "甘肃省定西市安定区交通中路与公交巷交叉口正西方向70米左右",
        "tel": "",
        "category": "基础设施:公共设施:公共厕所",
        "type": 0,
        "location": {
            "lat": 35.582969,
            "lng": 104.629063
        },
        "ad_info": {
            "adcode": 621102,
            "province": "甘肃省",
            "city": "定西市",
            "district": "安定区"
        }
    },
    {
        "id": "7683296532447134571",
        "title": "公共厕所",
        "address": "甘肃省定西市安定区交通北路与和平街交叉口东北方向406米左右",
        "tel": "",
        "category": "基础设施:公共设施:公共厕所",
        "type": 0,
        "location": {
            "lat": 35.595875,
            "lng": 104.626713
        },
        "ad_info": {
            "adcode": 621102,
            "province": "甘肃省",
            "city": "定西市",
            "district": "安定区"
        }
    },
    {
        "id": "17409964113094512772",
        "title": "十八里铺服务区公共厕所",
        "address": "甘肃省定西市安定区G312与交通路交叉口东南方向555米左右",
        "tel": "",
        "category": "基础设施:公共设施:公共厕所",
        "type": 0,
        "location": {
            "lat": 35.648021,
            "lng": 104.593986
        },
        "ad_info": {
            "adcode": 621102,
            "province": "甘肃省",
            "city": "定西市",
            "district": "安定区"
        }
    },
    {
        "id": "7948003597704879300",
        "title": "太石服务区公共厕所",
        "address": "甘肃省定西市临洮县兰海高速太石服务区",
        "tel": "",
        "category": "基础设施:公共设施:公共厕所",
        "type": 0,
        "location": {
            "lat": 35.648933,
            "lng": 103.738643
        },
        "ad_info": {
            "adcode": 621124,
            "province": "甘肃省",
            "city": "定西市",
            "district": "临洮县"
        }
    },
    {
        "id": "13154347608299997066",
        "title": "公共厕所",
        "address": "甘肃省定西市陇西县G310与S228交叉口东南方向158米左右",
        "tel": "",
        "category": "基础设施:公共设施:公共厕所",
        "type": 0,
        "location": {
            "lat": 35.012398,
            "lng": 104.622517
        },
        "ad_info": {
            "adcode": 621122,
            "province": "甘肃省",
            "city": "定西市",
            "district": "陇西县"
        }
    },
    {
        "id": "3942136484879881538",
        "title": "公共厕所",
        "address": "甘肃省定西市漳县G75兰海高速与漳县服务区交叉口北500米",
        "tel": "",
        "category": "基础设施:公共设施:公共厕所",
        "type": 0,
        "location": {
            "lat": 34.844979,
            "lng": 104.287688
        },
        "ad_info": {
            "adcode": 621125,
            "province": "甘肃省",
            "city": "定西市",
            "district": "漳县"
        }
    },
    {
        "id": "15204966137383098254",
        "title": "公共厕所",
        "address": "甘肃省定西市通渭县文昌街与西街交叉口西南180米",
        "tel": "",
        "category": "基础设施:公共设施:公共厕所",
        "type": 0,
        "location": {
            "lat": 35.204212,
            "lng": 105.246426
        },
        "ad_info": {
            "adcode": 621121,
            "province": "甘肃省",
            "city": "定西市",
            "district": "通渭县"
        }
    },
    {
        "id": "9662815820896693518",
        "title": "公共厕所",
        "address": "甘肃省定西市渭源县学府路与首阳路交叉口正西方向58米左右",
        "tel": "",
        "category": "基础设施:公共设施:公共厕所",
        "type": 0,
        "location": {
            "lat": 35.137845,
            "lng": 104.219514
        },
        "ad_info": {
            "adcode": 621123,
            "province": "甘肃省",
            "city": "定西市",
            "district": "渭源县"
        }
    },
    {
        "id": "14936819942841067692",
        "title": "公共厕所",
        "address": "甘肃省定西市岷县新华街与正南街交叉口正西方向63米左右",
        "tel": "",
        "category": "基础设施:公共设施:公共厕所",
        "type": 0,
        "location": {
            "lat": 34.434107,
            "lng": 104.034702
        },
        "ad_info": {
            "adcode": 621126,
            "province": "甘肃省",
            "city": "定西市",
            "district": "岷县"
        }
    },
    {
        "id": "890672270027793332",
        "title": "公共厕所",
        "address": "甘肃省定西市安定区同兴巷与解放路交叉口正西方向56米左右",
        "tel": "",
        "category": "基础设施:公共设施:公共厕所",
        "type": 0,
        "location": {
            "lat": 35.580087,
            "lng": 104.628286
        },
        "ad_info": {
            "adcode": 621102,
            "province": "甘肃省",
            "city": "定西市",
            "district": "安定区"
        }
    },
    {
        "id": "11874510629093016983",
        "title": "公共厕所",
        "address": "甘肃省定西市安定区凤翔路与恒正路交叉口正东方向117米左右",
        "tel": "",
        "category": "基础设施:公共设施:公共厕所",
        "type": 0,
        "location": {
            "lat": 35.570655,
            "lng": 104.627675
        },
        "ad_info": {
            "adcode": 621102,
            "province": "甘肃省",
            "city": "定西市",
            "district": "安定区"
        }
    },
    {
        "id": "14166223939240260057",
        "title": "公共厕所",
        "address": "甘肃省定西市安定区关川路与灞陵街交叉口正西方向138米左右",
        "tel": "",
        "category": "基础设施:公共设施:公共厕所",
        "type": 0,
        "location": {
            "lat": 35.606079,
            "lng": 104.601535
        },
        "ad_info": {
            "adcode": 621102,
            "province": "甘肃省",
            "city": "定西市",
            "district": "安定区"
        }
    },
    {
        "id": "5420248340952300032",
        "title": "公共厕所",
        "address": "甘肃省定西市渭源县福兰线昕陇家苑",
        "tel": "",
        "category": "基础设施:公共设施:公共厕所",
        "type": 0,
        "location": {
            "lat": 35.133017,
            "lng": 104.220706
        },
        "ad_info": {
            "adcode": 621123,
            "province": "甘肃省",
            "city": "定西市",
            "district": "渭源县"
        }
    },
    {
        "id": "5953602592189195362",
        "title": "通安驿服务区公共厕所",
        "address": "甘肃省定西市陇西县连霍高速通安驿服务区",
        "tel": "",
        "category": "基础设施:公共设施:公共厕所",
        "type": 0,
        "location": {
            "lat": 35.198582,
            "lng": 104.72874
        },
        "ad_info": {
            "adcode": 621122,
            "province": "甘肃省",
            "city": "定西市",
            "district": "陇西县"
        }
    },
    {
        "id": "5924037556177065566",
        "title": "公共厕所",
        "address": "甘肃省定西市陇西县文峰镇交通路陇西站",
        "tel": "",
        "category": "基础设施:公共设施:公共厕所",
        "type": 0,
        "location": {
            "lat": 34.952564,
            "lng": 104.704354
        },
        "ad_info": {
            "adcode": 621122,
            "province": "甘肃省",
            "city": "定西市",
            "district": "陇西县"
        }
    },
    {
        "id": "9644460095440680293",
        "title": "狼渡湿地草原公共厕所",
        "address": "甘肃省定西市岷县G316浪渡滩景区",
        "tel": "",
        "category": "基础设施:公共设施:公共厕所",
        "type": 0,
        "location": {
            "lat": 34.35716,
            "lng": 104.642332
        },
        "ad_info": {
            "adcode": 621126,
            "province": "甘肃省",
            "city": "定西市",
            "district": "岷县"
        }
    },
    {
        "id": "10446224718788171453",
        "title": "公共厕所",
        "address": "甘肃省定西市安定区志远巷与西岩路交叉口正南方向118米左右",
        "tel": "",
        "category": "基础设施:公共设施:公共厕所",
        "type": 0,
        "location": {
            "lat": 35.581048,
            "lng": 104.61161
        },
        "ad_info": {
            "adcode": 621102,
            "province": "甘肃省",
            "city": "定西市",
            "district": "安定区"
        }
    },
    {
        "id": "17597317120437510461",
        "title": "公共厕所",
        "address": "甘肃省定西市临洮县连共线甘肃昆仑燃气临洮CNG加气站",
        "tel": "",
        "category": "基础设施:公共设施:公共厕所",
        "type": 0,
        "location": {
            "lat": 35.396018,
            "lng": 103.873089
        },
        "ad_info": {
            "adcode": 621124,
            "province": "甘肃省",
            "city": "定西市",
            "district": "临洮县"
        }
    },
    {
        "id": "2551561448062222291",
        "title": "公共厕所",
        "address": "甘肃省定西市临洮县东大街与背斗巷交叉口正北方向66米左右",
        "tel": "",
        "category": "基础设施:公共设施:公共厕所",
        "type": 0,
        "location": {
            "lat": 35.375387,
            "lng": 103.859786
        },
        "ad_info": {
            "adcode": 621124,
            "province": "甘肃省",
            "city": "定西市",
            "district": "临洮县"
        }
    },
    {
        "id": "9577101910061986352",
        "title": "公共厕所",
        "address": "甘肃省定西市临洮县S230与感恩大道交叉口东北方向17米左右",
        "tel": "",
        "category": "基础设施:公共设施:公共厕所",
        "type": 0,
        "location": {
            "lat": 35.725363,
            "lng": 103.642957
        },
        "ad_info": {
            "adcode": 621124,
            "province": "甘肃省",
            "city": "定西市",
            "district": "临洮县"
        }
    },
    {
        "id": "2355771155674511019",
        "title": "公共厕所",
        "address": "甘肃省定西市陇西县县门街与襄武街交叉口西北方向60米左右",
        "tel": "",
        "category": "基础设施:公共设施:公共厕所",
        "type": 0,
        "location": {
            "lat": 35.004849,
            "lng": 104.635434
        },
        "ad_info": {
            "adcode": 621122,
            "province": "甘肃省",
            "city": "定西市",
            "district": "陇西县"
        }
    },
    {
        "id": "12956117139057645210",
        "title": "公共厕所",
        "address": "甘肃省定西市岷县驼峰山庄",
        "tel": "",
        "category": "基础设施:公共设施:公共厕所",
        "type": 0,
        "location": {
            "lat": 34.42768,
            "lng": 103.92087
        },
        "ad_info": {
            "adcode": 621126,
            "province": "甘肃省",
            "city": "定西市",
            "district": "岷县"
        }
    },
    {
        "id": "11198006454634751298",
        "title": "公共厕所",
        "address": "甘肃省定西市渭源县中街路与首阳路交叉口东南方向102米左右",
        "tel": "",
        "category": "基础设施:公共设施:公共厕所",
        "type": 0,
        "location": {
            "lat": 35.133733,
            "lng": 104.21575
        },
        "ad_info": {
            "adcode": 621123,
            "province": "甘肃省",
            "city": "定西市",
            "district": "渭源县"
        }
    },
    {
        "id": "12697001912972011888",
        "title": "公共厕所",
        "address": "甘肃省定西市安定区北城路与友谊北路交叉口东北方向53米左右",
        "tel": "",
        "category": "基础设施:公共设施:公共厕所",
        "type": 0,
        "location": {
            "lat": 35.583031,
            "lng": 104.619141
        },
        "ad_info": {
            "adcode": 621102,
            "province": "甘肃省",
            "city": "定西市",
            "district": "安定区"
        }
    },
    {
        "id": "3868301505805384421",
        "title": "城中公园-公共厕所",
        "address": "甘肃省定西市临洮县庙巷与背篼巷交叉口东南方向111米左右",
        "tel": "",
        "category": "基础设施:公共设施:公共厕所",
        "type": 0,
        "location": {
            "lat": 35.37631,
            "lng": 103.86149
        },
        "ad_info": {
            "adcode": 621124,
            "province": "甘肃省",
            "city": "定西市",
            "district": "临洮县"
        }
    }
]