[
    {
        "id": "14141454108195539546",
        "title": "公共厕所",
        "address": "安徽省宣城市泾县滨河大道88号",
        "tel": "",
        "category": "基础设施:公共设施:公共厕所",
        "type": 0,
        "location": {
            "lat": 30.7115,
            "lng": 118.557026
        },
        "ad_info": {
            "adcode": 341823,
            "province": "安徽省",
            "city": "宣城市",
            "district": "泾县"
        }
    },
    {
        "id": "7488214485505845158",
        "title": "公共厕所",
        "address": "安徽省宣城市泾县环城东路与高峰路交叉口西南方向93米左右",
        "tel": "",
        "category": "基础设施:公共设施:公共厕所",
        "type": 0,
        "location": {
            "lat": 30.686472,
            "lng": 118.410508
        },
        "ad_info": {
            "adcode": 341823,
            "province": "安徽省",
            "city": "宣城市",
            "district": "泾县"
        }
    },
    {
        "id": "1122417817642423360",
        "title": "公共厕所",
        "address": "安徽省宣城市泾县五里岗路与泾川大道交叉口正东方向313米左右",
        "tel": "",
        "category": "基础设施:公共设施:公共厕所",
        "type": 0,
        "location": {
            "lat": 30.677594,
            "lng": 118.424788
        },
        "ad_info": {
            "adcode": 341823,
            "province": "安徽省",
            "city": "宣城市",
            "district": "泾县"
        }
    },
    {
        "id": "7225012398479042754",
        "title": "公共厕所",
        "address": "安徽省宣城市泾县桃花潭中路与稼祥南路交叉口东南方向108米左右",
        "tel": "",
        "category": "基础设施:公共设施:公共厕所",
        "type": 0,
        "location": {
            "lat": 30.681908,
            "lng": 118.415941
        },
        "ad_info": {
            "adcode": 341823,
            "province": "安徽省",
            "city": "宣城市",
            "district": "泾县"
        }
    },
    {
        "id": "8416677269568839936",
        "title": "公共厕所",
        "address": "安徽省宣城市泾县千亩园路与建园路交叉口正南方向95米左右",
        "tel": "",
        "category": "基础设施:公共设施:公共厕所",
        "type": 0,
        "location": {
            "lat": 30.698317,
            "lng": 118.41446
        },
        "ad_info": {
            "adcode": 341823,
            "province": "安徽省",
            "city": "宣城市",
            "district": "泾县"
        }
    },
    {
        "id": "7780138538089192099",
        "title": "公共厕所",
        "address": "安徽省宣城市泾县沿滨路与青弋江南路交叉口西南方向91米左右",
        "tel": "",
        "category": "基础设施:公共设施:公共厕所",
        "type": 0,
        "location": {
            "lat": 30.691534,
            "lng": 118.406132
        },
        "ad_info": {
            "adcode": 341823,
            "province": "安徽省",
            "city": "宣城市",
            "district": "泾县"
        }
    },
    {
        "id": "8990530306023635647",
        "title": "公共厕所",
        "address": "安徽省宣城市泾县X063与平安街交叉口正南方向101米左右",
        "tel": "",
        "category": "基础设施:公共设施:公共厕所",
        "type": 0,
        "location": {
            "lat": 30.479283,
            "lng": 118.155603
        },
        "ad_info": {
            "adcode": 341823,
            "province": "安徽省",
            "city": "宣城市",
            "district": "泾县"
        }
    },
    {
        "id": "6184601552674347102",
        "title": "公共厕所",
        "address": "安徽省宣城市泾县云岭路与新华路交叉口正南方向104米左右",
        "tel": "",
        "category": "基础设施:公共设施:公共厕所",
        "type": 0,
        "location": {
            "lat": 30.690754,
            "lng": 118.407825
        },
        "ad_info": {
            "adcode": 341823,
            "province": "安徽省",
            "city": "宣城市",
            "district": "泾县"
        }
    },
    {
        "id": "5556493971334700828",
        "title": "公共厕所",
        "address": "安徽省宣城市泾县021乡道与073县道交叉口西南50米",
        "tel": "",
        "category": "基础设施:公共设施:公共厕所",
        "type": 0,
        "location": {
            "lat": 30.643176,
            "lng": 118.620953
        },
        "ad_info": {
            "adcode": 341823,
            "province": "安徽省",
            "city": "宣城市",
            "district": "泾县"
        }
    },
    {
        "id": "6278683024795205715",
        "title": "公共厕所",
        "address": "安徽省宣城市泾县S103与S217交叉口西北方向292米左右",
        "tel": "",
        "category": "基础设施:公共设施:公共厕所",
        "type": 0,
        "location": {
            "lat": 30.56911,
            "lng": 118.214089
        },
        "ad_info": {
            "adcode": 341823,
            "province": "安徽省",
            "city": "宣城市",
            "district": "泾县"
        }
    },
    {
        "id": "15218018615308369957",
        "title": "公共厕所",
        "address": "安徽省宣城市泾县X063与秀林路交叉口正北方向235米左右",
        "tel": "",
        "category": "基础设施:公共设施:公共厕所",
        "type": 0,
        "location": {
            "lat": 30.483781,
            "lng": 118.152554
        },
        "ad_info": {
            "adcode": 341823,
            "province": "安徽省",
            "city": "宣城市",
            "district": "泾县"
        }
    },
    {
        "id": "7129392778164346515",
        "title": "公共厕所",
        "address": "安徽省宣城市泾县环城南路与苏红东路交叉口东南方向55米左右",
        "tel": "",
        "category": "基础设施:公共设施:公共厕所",
        "type": 0,
        "location": {
            "lat": 30.684812,
            "lng": 118.409654
        },
        "ad_info": {
            "adcode": 341823,
            "province": "安徽省",
            "city": "宣城市",
            "district": "泾县"
        }
    },
    {
        "id": "278142578760390913",
        "title": "公共厕所",
        "address": "安徽省宣城市宣州区泰安路与祥和路交叉口东南方向131米左右",
        "tel": "",
        "category": "基础设施:公共设施:公共厕所",
        "type": 0,
        "location": {
            "lat": 30.920955,
            "lng": 118.737022
        },
        "ad_info": {
            "adcode": 341802,
            "province": "安徽省",
            "city": "宣城市",
            "district": "宣州区"
        }
    },
    {
        "id": "16728167603741964357",
        "title": "公共厕所",
        "address": "安徽省宣城市泾县S217与X069交叉口正南方向479米左右",
        "tel": "",
        "category": "基础设施:公共设施:公共厕所",
        "type": 0,
        "location": {
            "lat": 30.507912,
            "lng": 118.254012
        },
        "ad_info": {
            "adcode": 341823,
            "province": "安徽省",
            "city": "宣城市",
            "district": "泾县"
        }
    },
    {
        "id": "8990028131369313467",
        "title": "公共厕所",
        "address": "安徽省宣城市泾县归素民宿北侧80米",
        "tel": "",
        "category": "基础设施:公共设施:公共厕所",
        "type": 0,
        "location": {
            "lat": 30.595161,
            "lng": 118.615324
        },
        "ad_info": {
            "adcode": 341823,
            "province": "安徽省",
            "city": "宣城市",
            "district": "泾县"
        }
    },
    {
        "id": "544275679250833226",
        "title": "公共厕所",
        "address": "安徽省宣城市泾县S206与宣泾路交叉口正南方向90米左右",
        "tel": "",
        "category": "基础设施:公共设施:公共厕所",
        "type": 0,
        "location": {
            "lat": 30.750301,
            "lng": 118.546117
        },
        "ad_info": {
            "adcode": 341823,
            "province": "安徽省",
            "city": "宣城市",
            "district": "泾县"
        }
    },
    {
        "id": "9887824324976764422",
        "title": "公共厕所",
        "address": "安徽省宣城市泾县环城南路与苏红东路交叉口正西方向81米左右",
        "tel": "",
        "category": "基础设施:公共设施:公共厕所",
        "type": 0,
        "location": {
            "lat": 30.685392,
            "lng": 118.408458
        },
        "ad_info": {
            "adcode": 341823,
            "province": "安徽省",
            "city": "宣城市",
            "district": "泾县"
        }
    },
    {
        "id": "5360017899059700057",
        "title": "公共厕所",
        "address": "安徽省宣城市泾县S206与青狮路交叉口正北方向220米左右",
        "tel": "",
        "category": "基础设施:公共设施:公共厕所",
        "type": 0,
        "location": {
            "lat": 30.720135,
            "lng": 118.414135
        },
        "ad_info": {
            "adcode": 341823,
            "province": "安徽省",
            "city": "宣城市",
            "district": "泾县"
        }
    },
    {
        "id": "13795951894338081997",
        "title": "公共厕所",
        "address": "安徽省宣城市宣州区法制路与菜场街交叉口正南方向113米左右",
        "tel": "",
        "category": "基础设施:公共设施:公共厕所",
        "type": 0,
        "location": {
            "lat": 30.947274,
            "lng": 118.757806
        },
        "ad_info": {
            "adcode": 341802,
            "province": "安徽省",
            "city": "宣城市",
            "district": "宣州区"
        }
    },
    {
        "id": "12201528778054298078",
        "title": "公共厕所",
        "address": "安徽省宣城市泾县苏红西路与青弋江南路交叉口正西方向28米左右",
        "tel": "",
        "category": "基础设施:公共设施:公共厕所",
        "type": 0,
        "location": {
            "lat": 30.688171,
            "lng": 118.402709
        },
        "ad_info": {
            "adcode": 341823,
            "province": "安徽省",
            "city": "宣城市",
            "district": "泾县"
        }
    },
    {
        "id": "10148403432131562794",
        "title": "公共厕所",
        "address": "安徽省宣城市宣州区G329与玉粒路交叉口东南方向127米左右",
        "tel": "",
        "category": "基础设施:公共设施:公共厕所",
        "type": 0,
        "location": {
            "lat": 30.899666,
            "lng": 118.886938
        },
        "ad_info": {
            "adcode": 341802,
            "province": "安徽省",
            "city": "宣城市",
            "district": "宣州区"
        }
    },
    {
        "id": "8896742229472499672",
        "title": "公共厕所",
        "address": "安徽省宣城市宣州区卜村南路与龙川路交叉口正北方向116米左右",
        "tel": "",
        "category": "基础设施:公共设施:公共厕所",
        "type": 0,
        "location": {
            "lat": 30.941147,
            "lng": 118.784567
        },
        "ad_info": {
            "adcode": 341802,
            "province": "安徽省",
            "city": "宣城市",
            "district": "宣州区"
        }
    },
    {
        "id": "2404628417171733991",
        "title": "公共厕所",
        "address": "安徽省宣城市泾县云岭路与苏红东路交叉口正南方向119米左右",
        "tel": "",
        "category": "基础设施:公共设施:公共厕所",
        "type": 0,
        "location": {
            "lat": 30.686165,
            "lng": 118.40491
        },
        "ad_info": {
            "adcode": 341823,
            "province": "安徽省",
            "city": "宣城市",
            "district": "泾县"
        }
    },
    {
        "id": "1644833133924153510",
        "title": "公共厕所",
        "address": "安徽省宣城市泾县环城南路与苏红东路交叉口西北方向83米左右",
        "tel": "",
        "category": "基础设施:公共设施:公共厕所",
        "type": 0,
        "location": {
            "lat": 30.685851,
            "lng": 118.408857
        },
        "ad_info": {
            "adcode": 341823,
            "province": "安徽省",
            "city": "宣城市",
            "district": "泾县"
        }
    },
    {
        "id": "13158315927936035541",
        "title": "公共厕所",
        "address": "安徽省宣城市宣州区九同路与梅溪路交叉口西北方向161米左右",
        "tel": "",
        "category": "基础设施:公共设施:公共厕所",
        "type": 0,
        "location": {
            "lat": 30.941387,
            "lng": 118.748931
        },
        "ad_info": {
            "adcode": 341802,
            "province": "安徽省",
            "city": "宣城市",
            "district": "宣州区"
        }
    },
    {
        "id": "9867754414936778106",
        "title": "公共厕所",
        "address": "安徽省宣城市旌德县和平路与解放街交叉口正西方向96米左右",
        "tel": "",
        "category": "基础设施:公共设施:公共厕所",
        "type": 0,
        "location": {
            "lat": 30.289926,
            "lng": 118.542096
        },
        "ad_info": {
            "adcode": 341825,
            "province": "安徽省",
            "city": "宣城市",
            "district": "旌德县"
        }
    },
    {
        "id": "17722974134276913308",
        "title": "公共厕所",
        "address": "安徽省宣城市宣州区宛溪南路与龙首路交叉口西南方向64米左右",
        "tel": "",
        "category": "基础设施:公共设施:公共厕所",
        "type": 0,
        "location": {
            "lat": 30.935393,
            "lng": 118.761785
        },
        "ad_info": {
            "adcode": 341802,
            "province": "安徽省",
            "city": "宣城市",
            "district": "宣州区"
        }
    },
    {
        "id": "618447975509490132",
        "title": "公共厕所",
        "address": "安徽省宣城市宣州区站东大街宣城站东广场(东南角)",
        "tel": "",
        "category": "基础设施:公共设施:公共厕所",
        "type": 0,
        "location": {
            "lat": 30.948322,
            "lng": 118.776073
        },
        "ad_info": {
            "adcode": 341802,
            "province": "安徽省",
            "city": "宣城市",
            "district": "宣州区"
        }
    },
    {
        "id": "6848163133837304916",
        "title": "公共厕所",
        "address": "安徽省宣城市宣州区宛陵路辅路与南漪湖大道交叉口东180米",
        "tel": "",
        "category": "基础设施:公共设施:公共厕所",
        "type": 0,
        "location": {
            "lat": 30.9638,
            "lng": 118.81735
        },
        "ad_info": {
            "adcode": 341802,
            "province": "安徽省",
            "city": "宣城市",
            "district": "宣州区"
        }
    },
    {
        "id": "7378681069784228461",
        "title": "公共厕所",
        "address": "安徽省宣城市宣州区宛陵湖湿地公园",
        "tel": "",
        "category": "基础设施:公共设施:公共厕所",
        "type": 0,
        "location": {
            "lat": 30.928953,
            "lng": 118.757562
        },
        "ad_info": {
            "adcode": 341802,
            "province": "安徽省",
            "city": "宣城市",
            "district": "宣州区"
        }
    },
    {
        "id": "4313210547550170078",
        "title": "公共厕所",
        "address": "安徽省宣城市宣州区昭亭南路与梅园路交叉口东南方向79米左右",
        "tel": "",
        "category": "基础设施:公共设施:公共厕所",
        "type": 0,
        "location": {
            "lat": 30.937798,
            "lng": 118.743236
        },
        "ad_info": {
            "adcode": 341802,
            "province": "安徽省",
            "city": "宣城市",
            "district": "宣州区"
        }
    },
    {
        "id": "1468179237912193750",
        "title": "公共厕所",
        "address": "安徽省宣城市宣州区响山路与竹苑路交叉口西北方向100米左右",
        "tel": "",
        "category": "基础设施:公共设施:公共厕所",
        "type": 0,
        "location": {
            "lat": 30.916715,
            "lng": 118.778355
        },
        "ad_info": {
            "adcode": 341802,
            "province": "安徽省",
            "city": "宣城市",
            "district": "宣州区"
        }
    },
    {
        "id": "426130569364151717",
        "title": "公共厕所",
        "address": "安徽省宣城市宣州区响山路与圣俞路交叉口东南方向130米左右",
        "tel": "",
        "category": "基础设施:公共设施:公共厕所",
        "type": 0,
        "location": {
            "lat": 30.918921,
            "lng": 118.77739
        },
        "ad_info": {
            "adcode": 341802,
            "province": "安徽省",
            "city": "宣城市",
            "district": "宣州区"
        }
    },
    {
        "id": "15960755826962443190",
        "title": "公共厕所",
        "address": "安徽省宣城市宣州区向阳大道与张果路交叉口东南方向177米左右",
        "tel": "",
        "category": "基础设施:公共设施:公共厕所",
        "type": 0,
        "location": {
            "lat": 30.929034,
            "lng": 118.773907
        },
        "ad_info": {
            "adcode": 341802,
            "province": "安徽省",
            "city": "宣城市",
            "district": "宣州区"
        }
    },
    {
        "id": "3190812661677167174",
        "title": "公共厕所",
        "address": "安徽省宣城市宣州区宛溪南路与稻宝路交叉口正南方向87米左右",
        "tel": "",
        "category": "基础设施:公共设施:公共厕所",
        "type": 0,
        "location": {
            "lat": 30.935894,
            "lng": 118.764537
        },
        "ad_info": {
            "adcode": 341802,
            "province": "安徽省",
            "city": "宣城市",
            "district": "宣州区"
        }
    },
    {
        "id": "7486432574229210851",
        "title": "公共厕所",
        "address": "安徽省宣城市郎溪县分流西路与白石涧路交叉口东北方向108米左右",
        "tel": "",
        "category": "基础设施:公共设施:公共厕所",
        "type": 0,
        "location": {
            "lat": 31.206821,
            "lng": 119.192191
        },
        "ad_info": {
            "adcode": 341821,
            "province": "安徽省",
            "city": "宣城市",
            "district": "郎溪县"
        }
    },
    {
        "id": "11399581045424857031",
        "title": "公共厕所",
        "address": "安徽省宣城市郎溪县X024与十夏路交叉口正西方向44米左右",
        "tel": "",
        "category": "基础设施:公共设施:公共厕所",
        "type": 0,
        "location": {
            "lat": 31.22561,
            "lng": 119.125353
        },
        "ad_info": {
            "adcode": 341821,
            "province": "安徽省",
            "city": "宣城市",
            "district": "郎溪县"
        }
    },
    {
        "id": "1287695151499255138",
        "title": "公共厕所",
        "address": "安徽省宣城市宣州区兰香街与粮台街交叉口东南方向212米左右",
        "tel": "",
        "category": "基础设施:公共设施:公共厕所",
        "type": 0,
        "location": {
            "lat": 30.952811,
            "lng": 118.827325
        },
        "ad_info": {
            "adcode": 341802,
            "province": "安徽省",
            "city": "宣城市",
            "district": "宣州区"
        }
    },
    {
        "id": "1284254813777553756",
        "title": "公共厕所",
        "address": "安徽省宣城市旌德县何山路与和平路交叉口正南方向147米左右",
        "tel": "",
        "category": "基础设施:公共设施:公共厕所",
        "type": 0,
        "location": {
            "lat": 30.288805,
            "lng": 118.549494
        },
        "ad_info": {
            "adcode": 341825,
            "province": "安徽省",
            "city": "宣城市",
            "district": "旌德县"
        }
    },
    {
        "id": "16384141619595556320",
        "title": "公共厕所",
        "address": "安徽省宣城市宣州区城玉巷与明珠巷交叉口东北260米",
        "tel": "",
        "category": "基础设施:公共设施:公共厕所",
        "type": 0,
        "location": {
            "lat": 30.946342,
            "lng": 118.773675
        },
        "ad_info": {
            "adcode": 341802,
            "province": "安徽省",
            "city": "宣城市",
            "district": "宣州区"
        }
    },
    {
        "id": "4555367613746706339",
        "title": "公共厕所",
        "address": "安徽省宣城市郎溪县伍员路与桑园路交叉口西北方向76米左右",
        "tel": "",
        "category": "基础设施:公共设施:公共厕所",
        "type": 0,
        "location": {
            "lat": 31.134094,
            "lng": 119.176328
        },
        "ad_info": {
            "adcode": 341821,
            "province": "安徽省",
            "city": "宣城市",
            "district": "郎溪县"
        }
    },
    {
        "id": "8527165227431776696",
        "title": "公共厕所",
        "address": "安徽省宣城市郎溪县S239与Y002交叉口正北方向409米左右",
        "tel": "",
        "category": "基础设施:公共设施:公共厕所",
        "type": 0,
        "location": {
            "lat": 31.263316,
            "lng": 119.220391
        },
        "ad_info": {
            "adcode": 341821,
            "province": "安徽省",
            "city": "宣城市",
            "district": "郎溪县"
        }
    },
    {
        "id": "5062318767682579991",
        "title": "公共厕所",
        "address": "安徽省宣城市泾县幕溪南路与贺村东路交叉口正南方向99米左右",
        "tel": "",
        "category": "基础设施:公共设施:公共厕所",
        "type": 0,
        "location": {
            "lat": 30.681221,
            "lng": 118.442321
        },
        "ad_info": {
            "adcode": 341823,
            "province": "安徽省",
            "city": "宣城市",
            "district": "泾县"
        }
    },
    {
        "id": "1057774675759554281",
        "title": "公共厕所",
        "address": "安徽省宣城市宣州区G318与天湖大道交叉口正西方向362米左右",
        "tel": "",
        "category": "基础设施:公共设施:公共厕所",
        "type": 0,
        "location": {
            "lat": 30.923291,
            "lng": 118.596678
        },
        "ad_info": {
            "adcode": 341802,
            "province": "安徽省",
            "city": "宣城市",
            "district": "宣州区"
        }
    },
    {
        "id": "5644999064103744299",
        "title": "公共厕所",
        "address": "安徽省宣城市广德市广阳路与长安路交叉口东南方向27米左右",
        "tel": "",
        "category": "基础设施:公共设施:公共厕所",
        "type": 0,
        "location": {
            "lat": 30.888688,
            "lng": 119.452507
        },
        "ad_info": {
            "adcode": 341882,
            "province": "安徽省",
            "city": "宣城市",
            "district": "广德市"
        }
    },
    {
        "id": "4424842346952345916",
        "title": "公共厕所",
        "address": "安徽省宣城市绩溪县中王路",
        "tel": "",
        "category": "基础设施:公共设施:公共厕所",
        "type": 0,
        "location": {
            "lat": 30.071432,
            "lng": 118.585737
        },
        "ad_info": {
            "adcode": 341824,
            "province": "安徽省",
            "city": "宣城市",
            "district": "绩溪县"
        }
    },
    {
        "id": "7635940496510059879",
        "title": "公共厕所",
        "address": "安徽省宣城市绩溪县G233与S215交叉口正西方向471米左右",
        "tel": "",
        "category": "基础设施:公共设施:公共厕所",
        "type": 0,
        "location": {
            "lat": 29.98178,
            "lng": 118.531102
        },
        "ad_info": {
            "adcode": 341824,
            "province": "安徽省",
            "city": "宣城市",
            "district": "绩溪县"
        }
    },
    {
        "id": "4678873704067904918",
        "title": "公共厕所",
        "address": "安徽省宣城市旌德县城南路与城西路交叉口东南方向32米左右",
        "tel": "",
        "category": "基础设施:公共设施:公共厕所",
        "type": 0,
        "location": {
            "lat": 30.283875,
            "lng": 118.539486
        },
        "ad_info": {
            "adcode": 341825,
            "province": "安徽省",
            "city": "宣城市",
            "district": "旌德县"
        }
    },
    {
        "id": "9254775764820618951",
        "title": "公共厕所",
        "address": "安徽省宣城市绩溪县中国名山小九华西侧",
        "tel": "",
        "category": "基础设施:公共设施:公共厕所",
        "type": 0,
        "location": {
            "lat": 30.214294,
            "lng": 118.890236
        },
        "ad_info": {
            "adcode": 341824,
            "province": "安徽省",
            "city": "宣城市",
            "district": "绩溪县"
        }
    },
    {
        "id": "11259277182671867603",
        "title": "公共厕所",
        "address": "安徽省宣城市广德市万桂山南路8号",
        "tel": "",
        "category": "基础设施:公共设施:公共厕所",
        "type": 0,
        "location": {
            "lat": 30.880424,
            "lng": 119.425263
        },
        "ad_info": {
            "adcode": 341882,
            "province": "安徽省",
            "city": "宣城市",
            "district": "广德市"
        }
    },
    {
        "id": "3864669484933321970",
        "title": "公共厕所",
        "address": "安徽省宣城市宁国市山门北路塞纳河畔·开源大酒店",
        "tel": "",
        "category": "基础设施:公共设施:公共厕所",
        "type": 0,
        "location": {
            "lat": 30.624772,
            "lng": 118.974591
        },
        "ad_info": {
            "adcode": 341881,
            "province": "安徽省",
            "city": "宣城市",
            "district": "宁国市"
        }
    },
    {
        "id": "775656335904718892",
        "title": "公共厕所",
        "address": "安徽省宣城市广德市桐汭西路与爱民路交叉口西北方向194米左右",
        "tel": "",
        "category": "基础设施:公共设施:公共厕所",
        "type": 0,
        "location": {
            "lat": 30.877437,
            "lng": 119.409791
        },
        "ad_info": {
            "adcode": 341882,
            "province": "安徽省",
            "city": "宣城市",
            "district": "广德市"
        }
    },
    {
        "id": "12532217443301948246",
        "title": "公共厕所",
        "address": "安徽省宣城市宣州区大坝塘路与敬亭路交叉口东北方向40米左右",
        "tel": "",
        "category": "基础设施:公共设施:公共厕所",
        "type": 0,
        "location": {
            "lat": 30.94872,
            "lng": 118.75131
        },
        "ad_info": {
            "adcode": 341802,
            "province": "安徽省",
            "city": "宣城市",
            "district": "宣州区"
        }
    },
    {
        "id": "18117383123981521332",
        "title": "公共厕所",
        "address": "安徽省宣城市广德市升平街与环城南路交叉口东北方向120米左右",
        "tel": "",
        "category": "基础设施:公共设施:公共厕所",
        "type": 0,
        "location": {
            "lat": 30.887814,
            "lng": 119.415408
        },
        "ad_info": {
            "adcode": 341882,
            "province": "安徽省",
            "city": "宣城市",
            "district": "广德市"
        }
    },
    {
        "id": "8329606463193726060",
        "title": "旅游公共厕所",
        "address": "安徽省宣城市泾县S208与S345交叉口西南方向466米左右",
        "tel": "",
        "category": "基础设施:公共设施:公共厕所",
        "type": 0,
        "location": {
            "lat": 30.538366,
            "lng": 118.551235
        },
        "ad_info": {
            "adcode": 341823,
            "province": "安徽省",
            "city": "宣城市",
            "district": "泾县"
        }
    },
    {
        "id": "2831148530004426841",
        "title": "公共厕所",
        "address": "安徽省宣城市绩溪县清凉峰路与锦屏路交叉口东南方向305米左右",
        "tel": "",
        "category": "基础设施:公共设施:公共厕所",
        "type": 0,
        "location": {
            "lat": 30.055211,
            "lng": 118.583523
        },
        "ad_info": {
            "adcode": 341824,
            "province": "安徽省",
            "city": "宣城市",
            "district": "绩溪县"
        }
    },
    {
        "id": "17973769571590802853",
        "title": "公共厕所",
        "address": "安徽省宣城市广德市复兴北街与复兴街交叉口正北方向133米左右",
        "tel": "",
        "category": "基础设施:公共设施:公共厕所",
        "type": 0,
        "location": {
            "lat": 30.898823,
            "lng": 119.418943
        },
        "ad_info": {
            "adcode": 341882,
            "province": "安徽省",
            "city": "宣城市",
            "district": "广德市"
        }
    },
    {
        "id": "3271471106151294497",
        "title": "公共厕所",
        "address": "安徽省宣城市宁国市新河路与河沥溪路交叉口东南方向169米左右",
        "tel": "",
        "category": "基础设施:公共设施:公共厕所",
        "type": 0,
        "location": {
            "lat": 30.637265,
            "lng": 119.009322
        },
        "ad_info": {
            "adcode": 341881,
            "province": "安徽省",
            "city": "宣城市",
            "district": "宁国市"
        }
    },
    {
        "id": "1218486980133105692",
        "title": "公共厕所",
        "address": "安徽省宣城市广德市团结西路与松涛路交叉口正北方向64米左右",
        "tel": "",
        "category": "基础设施:公共设施:公共厕所",
        "type": 0,
        "location": {
            "lat": 30.891714,
            "lng": 119.400745
        },
        "ad_info": {
            "adcode": 341882,
            "province": "安徽省",
            "city": "宣城市",
            "district": "广德市"
        }
    },
    {
        "id": "9380824745565979057",
        "title": "公共厕所",
        "address": "安徽省宣城市广德市复兴街与景贤街交叉口正东方向129米左右",
        "tel": "",
        "category": "基础设施:公共设施:公共厕所",
        "type": 0,
        "location": {
            "lat": 30.893315,
            "lng": 119.419898
        },
        "ad_info": {
            "adcode": 341882,
            "province": "安徽省",
            "city": "宣城市",
            "district": "广德市"
        }
    },
    {
        "id": "15993759023602819983",
        "title": "公共厕所",
        "address": "安徽省宣城市绩溪县良安路与适之街交叉口东南方向140米左右",
        "tel": "",
        "category": "基础设施:公共设施:公共厕所",
        "type": 0,
        "location": {
            "lat": 30.069573,
            "lng": 118.596247
        },
        "ad_info": {
            "adcode": 341824,
            "province": "安徽省",
            "city": "宣城市",
            "district": "绩溪县"
        }
    },
    {
        "id": "11346507279035027733",
        "title": "公共厕所",
        "address": "安徽省宣城市广德市万桂山南路法治文化公园(东侧)",
        "tel": "",
        "category": "基础设施:公共设施:公共厕所",
        "type": 0,
        "location": {
            "lat": 30.883021,
            "lng": 119.423041
        },
        "ad_info": {
            "adcode": 341882,
            "province": "安徽省",
            "city": "宣城市",
            "district": "广德市"
        }
    },
    {
        "id": "8101948276927153310",
        "title": "公共厕所",
        "address": "安徽省宣城市广德市G235与光藻西路交叉口正西方向265米左右",
        "tel": "",
        "category": "基础设施:公共设施:公共厕所",
        "type": 0,
        "location": {
            "lat": 30.896254,
            "lng": 119.390875
        },
        "ad_info": {
            "adcode": 341882,
            "province": "安徽省",
            "city": "宣城市",
            "district": "广德市"
        }
    },
    {
        "id": "8720983621325341956",
        "title": "旅游厕所",
        "address": "安徽省宣城市宣州区朝阳路与金宝路交叉口正东方向88米左右",
        "tel": "",
        "category": "基础设施:公共设施:公共厕所",
        "type": 0,
        "location": {
            "lat": 31.224339,
            "lng": 118.793622
        },
        "ad_info": {
            "adcode": 341802,
            "province": "安徽省",
            "city": "宣城市",
            "district": "宣州区"
        }
    },
    {
        "id": "7329751542095860704",
        "title": "公共厕所",
        "address": "安徽省宣城市广德市草街与迎春街交叉口正西方向159米左右",
        "tel": "",
        "category": "基础设施:公共设施:公共厕所",
        "type": 0,
        "location": {
            "lat": 30.892632,
            "lng": 119.420368
        },
        "ad_info": {
            "adcode": 341882,
            "province": "安徽省",
            "city": "宣城市",
            "district": "广德市"
        }
    },
    {
        "id": "3442293774542992473",
        "title": "公共厕所",
        "address": "安徽省宣城市广德市万桂山中路与万桂山南路交叉口东北方向146米左右",
        "tel": "",
        "category": "基础设施:公共设施:公共厕所",
        "type": 0,
        "location": {
            "lat": 30.884828,
            "lng": 119.424786
        },
        "ad_info": {
            "adcode": 341882,
            "province": "安徽省",
            "city": "宣城市",
            "district": "广德市"
        }
    },
    {
        "id": "11743502517453418213",
        "title": "公共厕所",
        "address": "安徽省宣城市广德市增谷路与环城西路交叉口正南方向123米左右",
        "tel": "",
        "category": "基础设施:公共设施:公共厕所",
        "type": 0,
        "location": {
            "lat": 30.895137,
            "lng": 119.416986
        },
        "ad_info": {
            "adcode": 341882,
            "province": "安徽省",
            "city": "宣城市",
            "district": "广德市"
        }
    },
    {
        "id": "671045361688185633",
        "title": "公共厕所",
        "address": "安徽省宣城市郎溪县中港路与健康巷交叉口正南方向39米左右",
        "tel": "",
        "category": "基础设施:公共设施:公共厕所",
        "type": 0,
        "location": {
            "lat": 31.129722,
            "lng": 119.184245
        },
        "ad_info": {
            "adcode": 341821,
            "province": "安徽省",
            "city": "宣城市",
            "district": "郎溪县"
        }
    },
    {
        "id": "11699689544026148033",
        "title": "无障碍公共厕所",
        "address": "安徽省宣城市宣州区澄江北路与陶然路交叉口正北方向126米左右",
        "tel": "",
        "category": "基础设施:公共设施:公共厕所",
        "type": 0,
        "location": {
            "lat": 30.958216,
            "lng": 118.757039
        },
        "ad_info": {
            "adcode": 341802,
            "province": "安徽省",
            "city": "宣城市",
            "district": "宣州区"
        }
    },
    {
        "id": "4383608326838930676",
        "title": "公共厕所",
        "address": "安徽省宣城市广德市横山中路与环城西路交叉口正南方向87米左右",
        "tel": "",
        "category": "基础设施:公共设施:公共厕所",
        "type": 0,
        "location": {
            "lat": 30.891997,
            "lng": 119.413286
        },
        "ad_info": {
            "adcode": 341882,
            "province": "安徽省",
            "city": "宣城市",
            "district": "广德市"
        }
    },
    {
        "id": "8599909712509345900",
        "title": "公共厕所",
        "address": "安徽省宣城市宁国市南河东巷与南河西巷交叉口东南方向28米左右",
        "tel": "",
        "category": "基础设施:公共设施:公共厕所",
        "type": 0,
        "location": {
            "lat": 30.619728,
            "lng": 118.984173
        },
        "ad_info": {
            "adcode": 341881,
            "province": "安徽省",
            "city": "宣城市",
            "district": "宁国市"
        }
    },
    {
        "id": "18000093104434631771",
        "title": "公共厕所",
        "address": "安徽省宣城市郎溪县伍员路与宁芜路交叉口正西方向123米左右",
        "tel": "",
        "category": "基础设施:公共设施:公共厕所",
        "type": 0,
        "location": {
            "lat": 31.132393,
            "lng": 119.191901
        },
        "ad_info": {
            "adcode": 341821,
            "province": "安徽省",
            "city": "宣城市",
            "district": "郎溪县"
        }
    },
    {
        "id": "13129788210535967379",
        "title": "公共厕所",
        "address": "安徽省宣城市广德市振兴路与长石路交叉口正东方向27米左右",
        "tel": "",
        "category": "基础设施:公共设施:公共厕所",
        "type": 0,
        "location": {
            "lat": 30.865223,
            "lng": 119.526214
        },
        "ad_info": {
            "adcode": 341882,
            "province": "安徽省",
            "city": "宣城市",
            "district": "广德市"
        }
    },
    {
        "id": "12682112478116722729",
        "title": "公共厕所",
        "address": "安徽省宣城市广德市增谷路与环城西路交叉口正南方向98米左右",
        "tel": "",
        "category": "基础设施:公共设施:公共厕所",
        "type": 0,
        "location": {
            "lat": 30.895357,
            "lng": 119.416671
        },
        "ad_info": {
            "adcode": 341882,
            "province": "安徽省",
            "city": "宣城市",
            "district": "广德市"
        }
    },
    {
        "id": "4254516550093339810",
        "title": "公共厕所",
        "address": "安徽省宣城市宣州区林海路与清溪路交叉口西北方向76米左右",
        "tel": "",
        "category": "基础设施:公共设施:公共厕所",
        "type": 0,
        "location": {
            "lat": 30.930408,
            "lng": 118.737031
        },
        "ad_info": {
            "adcode": 341802,
            "province": "安徽省",
            "city": "宣城市",
            "district": "宣州区"
        }
    },
    {
        "id": "2972258792302798284",
        "title": "公共厕所",
        "address": "安徽省宣城市广德市Y006与小王村桥交叉口西南方向1648米左右",
        "tel": "",
        "category": "基础设施:公共设施:公共厕所",
        "type": 0,
        "location": {
            "lat": 30.805043,
            "lng": 119.394835
        },
        "ad_info": {
            "adcode": 341882,
            "province": "安徽省",
            "city": "宣城市",
            "district": "广德市"
        }
    },
    {
        "id": "6792169419586155371",
        "title": "公共厕所",
        "address": "安徽省宣城市广德市桐汭西路与熙春路交叉口正北方向104米左右",
        "tel": "",
        "category": "基础设施:公共设施:公共厕所",
        "type": 0,
        "location": {
            "lat": 30.885565,
            "lng": 119.427509
        },
        "ad_info": {
            "adcode": 341882,
            "province": "安徽省",
            "city": "宣城市",
            "district": "广德市"
        }
    },
    {
        "id": "756887584587813400",
        "title": "公共厕所",
        "address": "安徽省宣城市广德市G233与柏垫大桥交叉口东北方向254米左右",
        "tel": "",
        "category": "基础设施:公共设施:公共厕所",
        "type": 0,
        "location": {
            "lat": 30.782289,
            "lng": 119.254617
        },
        "ad_info": {
            "adcode": 341882,
            "province": "安徽省",
            "city": "宣城市",
            "district": "广德市"
        }
    },
    {
        "id": "12331289747009397862",
        "title": "公共厕所",
        "address": "安徽省宣城市宁国市G329与S467交叉口正西方向159米左右",
        "tel": "",
        "category": "基础设施:公共设施:公共厕所",
        "type": 0,
        "location": {
            "lat": 30.501887,
            "lng": 119.114011
        },
        "ad_info": {
            "adcode": 341881,
            "province": "安徽省",
            "city": "宣城市",
            "district": "宁国市"
        }
    },
    {
        "id": "13671498814519956491",
        "title": "公共厕所",
        "address": "安徽省宣城市宣州区张果路与稻香路交叉口正北方向129米左右",
        "tel": "",
        "category": "基础设施:公共设施:公共厕所",
        "type": 0,
        "location": {
            "lat": 30.93896,
            "lng": 118.772801
        },
        "ad_info": {
            "adcode": 341802,
            "province": "安徽省",
            "city": "宣城市",
            "district": "宣州区"
        }
    },
    {
        "id": "12139002113819758184",
        "title": "公共厕所",
        "address": "安徽省宣城市宁国市兴宁路与宜黄线交叉口正北方向80米左右",
        "tel": "",
        "category": "基础设施:公共设施:公共厕所",
        "type": 0,
        "location": {
            "lat": 30.636001,
            "lng": 119.028894
        },
        "ad_info": {
            "adcode": 341881,
            "province": "安徽省",
            "city": "宣城市",
            "district": "宁国市"
        }
    },
    {
        "id": "6141664302674963526",
        "title": "公共厕所",
        "address": "安徽省宣城市广德市桃州镇横山北路广德站",
        "tel": "",
        "category": "基础设施:公共设施:公共厕所",
        "type": 0,
        "location": {
            "lat": 30.911957,
            "lng": 119.409711
        },
        "ad_info": {
            "adcode": 341882,
            "province": "安徽省",
            "city": "宣城市",
            "district": "广德市"
        }
    },
    {
        "id": "18406952333463395673",
        "title": "公共厕所",
        "address": "安徽省宣城市广德市G233与南大木桥交叉口正西方向1816米左右",
        "tel": "",
        "category": "基础设施:公共设施:公共厕所",
        "type": 0,
        "location": {
            "lat": 30.844966,
            "lng": 119.365078
        },
        "ad_info": {
            "adcode": 341882,
            "province": "安徽省",
            "city": "宣城市",
            "district": "广德市"
        }
    },
    {
        "id": "17370605759060788909",
        "title": "公共厕所",
        "address": "安徽省宣城市广德市草街与迎春街交叉口正北方向162米左右",
        "tel": "",
        "category": "基础设施:公共设施:公共厕所",
        "type": 0,
        "location": {
            "lat": 30.894119,
            "lng": 119.421782
        },
        "ad_info": {
            "adcode": 341882,
            "province": "安徽省",
            "city": "宣城市",
            "district": "广德市"
        }
    },
    {
        "id": "2299347916696207938",
        "title": "公共厕所",
        "address": "安徽省宣城市宁国市津河东路与津河路交叉口正南方向34米左右",
        "tel": "",
        "category": "基础设施:公共设施:公共厕所",
        "type": 0,
        "location": {
            "lat": 30.626236,
            "lng": 118.990402
        },
        "ad_info": {
            "adcode": 341881,
            "province": "安徽省",
            "city": "宣城市",
            "district": "宁国市"
        }
    },
    {
        "id": "11424953606095521682",
        "title": "公共厕所",
        "address": "安徽省宣城市宁国市南后巷与宁城北路交叉口东南方向50米左右",
        "tel": "",
        "category": "基础设施:公共设施:公共厕所",
        "type": 0,
        "location": {
            "lat": 30.621173,
            "lng": 118.983732
        },
        "ad_info": {
            "adcode": 341881,
            "province": "安徽省",
            "city": "宣城市",
            "district": "宁国市"
        }
    },
    {
        "id": "17168359186110758016",
        "title": "公共厕所",
        "address": "安徽省宣城市广德市新杭镇乌金大道100号",
        "tel": "",
        "category": "基础设施:公共设施:公共厕所",
        "type": 0,
        "location": {
            "lat": 31.071806,
            "lng": 119.570397
        },
        "ad_info": {
            "adcode": 341882,
            "province": "安徽省",
            "city": "宣城市",
            "district": "广德市"
        }
    },
    {
        "id": "8211122133734386070",
        "title": "绿锦服务区公共厕所",
        "address": "安徽省宣城市宣州区G50沪渝高速与绿锦服务区交叉口西北260米",
        "tel": "",
        "category": "基础设施:公共设施:公共厕所",
        "type": 0,
        "location": {
            "lat": 30.91738,
            "lng": 118.723479
        },
        "ad_info": {
            "adcode": 341802,
            "province": "安徽省",
            "city": "宣城市",
            "district": "宣州区"
        }
    },
    {
        "id": "6818944708407225110",
        "title": "公共厕所",
        "address": "安徽省宣城市宣州区天平路银城中心菜市场",
        "tel": "",
        "category": "基础设施:公共设施:公共厕所",
        "type": 0,
        "location": {
            "lat": 30.959872,
            "lng": 118.747451
        },
        "ad_info": {
            "adcode": 341802,
            "province": "安徽省",
            "city": "宣城市",
            "district": "宣州区"
        }
    },
    {
        "id": "9541345421704723794",
        "title": "公共厕所",
        "address": "安徽省宣城市宁国市人民路与西立桥巷交叉口东南方向108米左右",
        "tel": "",
        "category": "基础设施:公共设施:公共厕所",
        "type": 0,
        "location": {
            "lat": 30.631766,
            "lng": 118.993045
        },
        "ad_info": {
            "adcode": 341881,
            "province": "安徽省",
            "city": "宣城市",
            "district": "宁国市"
        }
    },
    {
        "id": "1880630206235997294",
        "title": "公共厕所",
        "address": "安徽省宣城市宁国市宁城北路与锦苑广场商业街交叉口东南方向38米左右",
        "tel": "",
        "category": "基础设施:公共设施:公共厕所",
        "type": 0,
        "location": {
            "lat": 30.625798,
            "lng": 118.982634
        },
        "ad_info": {
            "adcode": 341881,
            "province": "安徽省",
            "city": "宣城市",
            "district": "宁国市"
        }
    },
    {
        "id": "14019637292541156019",
        "title": "公共厕所",
        "address": "安徽省宣城市旌德县烟草专卖局(城西路西)",
        "tel": "",
        "category": "基础设施:公共设施:公共厕所",
        "type": 0,
        "location": {
            "lat": 30.291322,
            "lng": 118.539143
        },
        "ad_info": {
            "adcode": 341825,
            "province": "安徽省",
            "city": "宣城市",
            "district": "旌德县"
        }
    },
    {
        "id": "10493550252125872362",
        "title": "公共厕所",
        "address": "安徽省宣城市宁国市宁国中学(新校区)东北侧250米",
        "tel": "",
        "category": "基础设施:公共设施:公共厕所",
        "type": 0,
        "location": {
            "lat": 30.642976,
            "lng": 118.998361
        },
        "ad_info": {
            "adcode": 341881,
            "province": "安徽省",
            "city": "宣城市",
            "district": "宁国市"
        }
    },
    {
        "id": "7391598950994748017",
        "title": "公共厕所",
        "address": "安徽省宣城市广德市G233与溧阳1号公路外联络线交叉口正南方向430米左右",
        "tel": "",
        "category": "基础设施:公共设施:公共厕所",
        "type": 0,
        "location": {
            "lat": 31.193836,
            "lng": 119.398981
        },
        "ad_info": {
            "adcode": 341882,
            "province": "安徽省",
            "city": "宣城市",
            "district": "广德市"
        }
    },
    {
        "id": "8889770999478123212",
        "title": "公共厕所",
        "address": "安徽省宣城市广德市新杭镇砖桥小学西南侧260米",
        "tel": "",
        "category": "基础设施:公共设施:公共厕所",
        "type": 0,
        "location": {
            "lat": 31.113939,
            "lng": 119.493862
        },
        "ad_info": {
            "adcode": 341882,
            "province": "安徽省",
            "city": "宣城市",
            "district": "广德市"
        }
    },
    {
        "id": "10751128123833361280",
        "title": "公共厕所",
        "address": "安徽省宣城市宁国市Y008与滨河路交叉口正北方向75米左右",
        "tel": "",
        "category": "基础设施:公共设施:公共厕所",
        "type": 0,
        "location": {
            "lat": 30.484861,
            "lng": 119.163563
        },
        "ad_info": {
            "adcode": 341881,
            "province": "安徽省",
            "city": "宣城市",
            "district": "宁国市"
        }
    },
    {
        "id": "12436798257038279267",
        "title": "公共厕所",
        "address": "安徽省宣城市宁国市外环南路佳佳创业园",
        "tel": "",
        "category": "基础设施:公共设施:公共厕所",
        "type": 0,
        "location": {
            "lat": 30.58596,
            "lng": 118.960351
        },
        "ad_info": {
            "adcode": 341881,
            "province": "安徽省",
            "city": "宣城市",
            "district": "宁国市"
        }
    },
    {
        "id": "13814271057782466722",
        "title": "公共厕所",
        "address": "安徽省宣城市宣州区S207与Y010交叉口正北方向1054米左右",
        "tel": "",
        "category": "基础设施:公共设施:公共厕所",
        "type": 0,
        "location": {
            "lat": 30.706513,
            "lng": 118.699767
        },
        "ad_info": {
            "adcode": 341802,
            "province": "安徽省",
            "city": "宣城市",
            "district": "宣州区"
        }
    },
    {
        "id": "11684447229078263943",
        "title": "公共厕所",
        "address": "安徽省宣城市宁国市Y029与潘家庄路交叉口正东方向1107米左右",
        "tel": "",
        "category": "基础设施:公共设施:公共厕所",
        "type": 0,
        "location": {
            "lat": 30.654461,
            "lng": 118.926503
        },
        "ad_info": {
            "adcode": 341881,
            "province": "安徽省",
            "city": "宣城市",
            "district": "宁国市"
        }
    },
    {
        "id": "9499932625523080930",
        "title": "公共厕所",
        "address": "安徽省宣城市宁国市233国道与Z045交叉口东北220米",
        "tel": "",
        "category": "基础设施:公共设施:公共厕所",
        "type": 0,
        "location": {
            "lat": 30.668645,
            "lng": 119.055679
        },
        "ad_info": {
            "adcode": 341881,
            "province": "安徽省",
            "city": "宣城市",
            "district": "宁国市"
        }
    },
    {
        "id": "13271566239461865495",
        "title": "公共厕所",
        "address": "安徽省宣城市宁国市甲路街226号",
        "tel": "",
        "category": "基础设施:公共设施:公共厕所",
        "type": 0,
        "location": {
            "lat": 30.420337,
            "lng": 118.849942
        },
        "ad_info": {
            "adcode": 341881,
            "province": "安徽省",
            "city": "宣城市",
            "district": "宁国市"
        }
    },
    {
        "id": "1452725141933431260",
        "title": "公共厕所",
        "address": "安徽省宣城市宁国市黄岗村新时代文明实践站南侧50米",
        "tel": "",
        "category": "基础设施:公共设施:公共厕所",
        "type": 0,
        "location": {
            "lat": 30.455062,
            "lng": 119.14047
        },
        "ad_info": {
            "adcode": 341881,
            "province": "安徽省",
            "city": "宣城市",
            "district": "宁国市"
        }
    },
    {
        "id": "11015030733223346257",
        "title": "公共厕所",
        "address": "安徽省宣城市广德市桃州路与民主路交叉口正西方向65米左右",
        "tel": "",
        "category": "基础设施:公共设施:公共厕所",
        "type": 0,
        "location": {
            "lat": 30.892307,
            "lng": 119.417612
        },
        "ad_info": {
            "adcode": 341882,
            "province": "安徽省",
            "city": "宣城市",
            "district": "广德市"
        }
    },
    {
        "id": "11426920232900505228",
        "title": "公共厕所",
        "address": "安徽省宣城市广德市万桂山中路金桂花园",
        "tel": "",
        "category": "基础设施:公共设施:公共厕所",
        "type": 0,
        "location": {
            "lat": 30.890546,
            "lng": 119.421693
        },
        "ad_info": {
            "adcode": 341882,
            "province": "安徽省",
            "city": "宣城市",
            "district": "广德市"
        }
    },
    {
        "id": "12274821716523726328",
        "title": "中睿公共卫生间",
        "address": "安徽省宣城市宁国市宁中东巷与津河西路交叉口正西方向77米左右",
        "tel": "",
        "category": "基础设施:公共设施:公共厕所",
        "type": 0,
        "location": {
            "lat": 30.624264,
            "lng": 118.980471
        },
        "ad_info": {
            "adcode": 341881,
            "province": "安徽省",
            "city": "宣城市",
            "district": "宁国市"
        }
    },
    {
        "id": "2928013629532784013",
        "title": "水东服务区公共厕所",
        "address": "安徽省宣城市宣州区宣桐高速水东服务区停车场",
        "tel": "",
        "category": "基础设施:公共设施:公共厕所",
        "type": 0,
        "location": {
            "lat": 30.768067,
            "lng": 118.954204
        },
        "ad_info": {
            "adcode": 341802,
            "province": "安徽省",
            "city": "宣城市",
            "district": "宣州区"
        }
    },
    {
        "id": "12588130626249281086",
        "title": "寒亭服务区公共厕所",
        "address": "安徽省宣城市宣州区中国石化寒亭服务区加油站西南侧220米",
        "tel": "",
        "category": "基础设施:公共设施:公共厕所",
        "type": 0,
        "location": {
            "lat": 30.96208,
            "lng": 118.572841
        },
        "ad_info": {
            "adcode": 341802,
            "province": "安徽省",
            "city": "宣城市",
            "district": "宣州区"
        }
    },
    {
        "id": "14762262639087269223",
        "title": "公共厕所",
        "address": "安徽省宣城市广德市增谷路与景贤街交叉口正北方向19米左右",
        "tel": "",
        "category": "基础设施:公共设施:公共厕所",
        "type": 0,
        "location": {
            "lat": 30.894196,
            "lng": 119.415761
        },
        "ad_info": {
            "adcode": 341882,
            "province": "安徽省",
            "city": "宣城市",
            "district": "广德市"
        }
    },
    {
        "id": "7347814197463619502",
        "title": "公共厕所",
        "address": "安徽省宣城市宁国市南后巷兴盛苑",
        "tel": "",
        "category": "基础设施:公共设施:公共厕所",
        "type": 0,
        "location": {
            "lat": 30.621173,
            "lng": 118.982817
        },
        "ad_info": {
            "adcode": 341881,
            "province": "安徽省",
            "city": "宣城市",
            "district": "宁国市"
        }
    },
    {
        "id": "13219944526906539303",
        "title": "郎溪服务区公共厕所",
        "address": "安徽省宣城市郎溪县与G4012溧宁高速交叉口南440米",
        "tel": "",
        "category": "基础设施:公共设施:公共厕所",
        "type": 0,
        "location": {
            "lat": 30.977256,
            "lng": 119.215813
        },
        "ad_info": {
            "adcode": 341821,
            "province": "安徽省",
            "city": "宣城市",
            "district": "郎溪县"
        }
    },
    {
        "id": "11516123842458652621",
        "title": "广德服务区第一公共厕所",
        "address": "安徽省宣城市广德市广德服务区超市(215省道北)",
        "tel": "",
        "category": "基础设施:公共设施:公共厕所",
        "type": 0,
        "location": {
            "lat": 30.872342,
            "lng": 119.402578
        },
        "ad_info": {
            "adcode": 341882,
            "province": "安徽省",
            "city": "宣城市",
            "district": "广德市"
        }
    },
    {
        "id": "14185276329784637755",
        "title": "华阳服务区公共厕所",
        "address": "安徽省宣城市绩溪县华阳服务区与G4012溧宁高速交叉口西400米",
        "tel": "",
        "category": "基础设施:公共设施:公共厕所",
        "type": 0,
        "location": {
            "lat": 30.062677,
            "lng": 118.544273
        },
        "ad_info": {
            "adcode": 341824,
            "province": "安徽省",
            "city": "宣城市",
            "district": "绩溪县"
        }
    },
    {
        "id": "449358299866110145",
        "title": "金沙服务区公共厕所",
        "address": "安徽省宣城市绩溪县G233与X088交叉口东北方向763米左右",
        "tel": "",
        "category": "基础设施:公共设施:公共厕所",
        "type": 0,
        "location": {
            "lat": 30.287972,
            "lng": 118.754732
        },
        "ad_info": {
            "adcode": 341824,
            "province": "安徽省",
            "city": "宣城市",
            "district": "绩溪县"
        }
    },
    {
        "id": "4929421876610737627",
        "title": "广播大院公共厕所",
        "address": "安徽省宣城市宣州区豆腐巷广播大院",
        "tel": "",
        "category": "基础设施:公共设施:公共厕所",
        "type": 0,
        "location": {
            "lat": 30.948687,
            "lng": 118.75949
        },
        "ad_info": {
            "adcode": 341802,
            "province": "安徽省",
            "city": "宣城市",
            "district": "宣州区"
        }
    },
    {
        "id": "9274685492091104331",
        "title": "广德服务区公共厕所",
        "address": "安徽省宣城市广德市沪渝高速广德服务区",
        "tel": "",
        "category": "基础设施:公共设施:公共厕所",
        "type": 0,
        "location": {
            "lat": 30.872162,
            "lng": 119.399411
        },
        "ad_info": {
            "adcode": 341882,
            "province": "安徽省",
            "city": "宣城市",
            "district": "广德市"
        }
    },
    {
        "id": "10687890124598195890",
        "title": "月湾服务区公共厕所",
        "address": "安徽省宣城市广德市月湾服务区与G4012溧宁高速交叉口西南440米",
        "tel": "",
        "category": "基础设施:公共设施:公共厕所",
        "type": 0,
        "location": {
            "lat": 30.749266,
            "lng": 119.156275
        },
        "ad_info": {
            "adcode": 341882,
            "province": "安徽省",
            "city": "宣城市",
            "district": "广德市"
        }
    },
    {
        "id": "14963052759220470098",
        "title": "宁国服务区公共厕所",
        "address": "安徽省宣城市宁国市S01溧黄高速附近",
        "tel": "",
        "category": "基础设施:公共设施:公共厕所",
        "type": 0,
        "location": {
            "lat": 30.550823,
            "lng": 119.006629
        },
        "ad_info": {
            "adcode": 341881,
            "province": "安徽省",
            "city": "宣城市",
            "district": "宁国市"
        }
    },
    {
        "id": "6465101333335548738",
        "title": "公共厕所",
        "address": "安徽省宣城市绩溪县X085",
        "tel": "",
        "category": "基础设施:公共设施:公共厕所",
        "type": 0,
        "location": {
            "lat": 30.31315,
            "lng": 118.661895
        },
        "ad_info": {
            "adcode": 341824,
            "province": "安徽省",
            "city": "宣城市",
            "district": "绩溪县"
        }
    },
    {
        "id": "1963934106811751727",
        "title": "华阳服务区公共厕所",
        "address": "安徽省宣城市绩溪县华阳镇溪马溧阳高速公路华阳服务区",
        "tel": "",
        "category": "基础设施:公共设施:公共厕所",
        "type": 0,
        "location": {
            "lat": 30.060879,
            "lng": 118.544607
        },
        "ad_info": {
            "adcode": 341824,
            "province": "安徽省",
            "city": "宣城市",
            "district": "绩溪县"
        }
    },
    {
        "id": "17801658092264467997",
        "title": "中溪服务区公共厕所",
        "address": "安徽省宣城市宁国市G329与S467交叉口东北方向985米左右",
        "tel": "",
        "category": "基础设施:公共设施:公共厕所",
        "type": 0,
        "location": {
            "lat": 30.505705,
            "lng": 119.124715
        },
        "ad_info": {
            "adcode": 341881,
            "province": "安徽省",
            "city": "宣城市",
            "district": "宁国市"
        }
    },
    {
        "id": "6701085710553728713",
        "title": "竹文化广场免费公共厕所",
        "address": "安徽省宣城市广德市桐汭西路与气象路交叉口正东方向63米左右",
        "tel": "",
        "category": "基础设施:公共设施:公共厕所",
        "type": 0,
        "location": {
            "lat": 30.879847,
            "lng": 119.41725
        },
        "ad_info": {
            "adcode": 341882,
            "province": "安徽省",
            "city": "宣城市",
            "district": "广德市"
        }
    },
    {
        "id": "16556767078357094578",
        "title": "公共厕所",
        "address": "安徽省宣城市宁国市G329与梅宏路交叉口西北方向270米左右",
        "tel": "",
        "category": "基础设施:公共设施:公共厕所",
        "type": 0,
        "location": {
            "lat": 30.570951,
            "lng": 119.084638
        },
        "ad_info": {
            "adcode": 341881,
            "province": "安徽省",
            "city": "宣城市",
            "district": "宁国市"
        }
    },
    {
        "id": "782609969460845624",
        "title": "公共厕所",
        "address": "安徽省宣城市宣州区大坝塘路94号",
        "tel": "",
        "category": "基础设施:公共设施:公共厕所",
        "type": 0,
        "location": {
            "lat": 30.95092,
            "lng": 118.753087
        },
        "ad_info": {
            "adcode": 341802,
            "province": "安徽省",
            "city": "宣城市",
            "district": "宣州区"
        }
    },
    {
        "id": "8890200507065175019",
        "title": "公共厕所",
        "address": "安徽省宣城市宣州区敬亭路与新华路交叉口正北方向65米左右",
        "tel": "",
        "category": "基础设施:公共设施:公共厕所",
        "type": 0,
        "location": {
            "lat": 30.955805,
            "lng": 118.748288
        },
        "ad_info": {
            "adcode": 341802,
            "province": "安徽省",
            "city": "宣城市",
            "district": "宣州区"
        }
    },
    {
        "id": "5166438726378362422",
        "title": "公共厕所",
        "address": "安徽省宣城市宁国市宁国大道与明德路交叉口西南方向128米左右",
        "tel": "",
        "category": "基础设施:公共设施:公共厕所",
        "type": 0,
        "location": {
            "lat": 30.638277,
            "lng": 118.980639
        },
        "ad_info": {
            "adcode": 341881,
            "province": "安徽省",
            "city": "宣城市",
            "district": "宁国市"
        }
    },
    {
        "id": "17920379502288569071",
        "title": "公共厕所",
        "address": "安徽省宣城市广德市复兴北街与复兴街交叉口正南方向210米左右",
        "tel": "",
        "category": "基础设施:公共设施:公共厕所",
        "type": 0,
        "location": {
            "lat": 30.89589,
            "lng": 119.419411
        },
        "ad_info": {
            "adcode": 341882,
            "province": "安徽省",
            "city": "宣城市",
            "district": "广德市"
        }
    },
    {
        "id": "16250544801501538415",
        "title": "南漪湖服务区公共厕所",
        "address": "安徽省宣城市宣州区S03宣狸高速与南漪湖服务区交叉口西南480米",
        "tel": "",
        "category": "基础设施:公共设施:公共厕所",
        "type": 0,
        "location": {
            "lat": 31.164196,
            "lng": 118.945181
        },
        "ad_info": {
            "adcode": 341802,
            "province": "安徽省",
            "city": "宣城市",
            "district": "宣州区"
        }
    },
    {
        "id": "16129435982420602862",
        "title": "公共厕所",
        "address": "安徽省宣城市宁国市迎宾路与青龙东路交叉口正东方向150米左右",
        "tel": "",
        "category": "基础设施:公共设施:公共厕所",
        "type": 0,
        "location": {
            "lat": 30.634849,
            "lng": 118.992244
        },
        "ad_info": {
            "adcode": 341881,
            "province": "安徽省",
            "city": "宣城市",
            "district": "宁国市"
        }
    },
    {
        "id": "8058176585796632173",
        "title": "公共厕所",
        "address": "安徽省宣城市广德市复兴北街与复兴街交叉口东南方向311米左右",
        "tel": "",
        "category": "基础设施:公共设施:公共厕所",
        "type": 0,
        "location": {
            "lat": 30.895971,
            "lng": 119.421217
        },
        "ad_info": {
            "adcode": 341882,
            "province": "安徽省",
            "city": "宣城市",
            "district": "广德市"
        }
    },
    {
        "id": "2210708616859480298",
        "title": "公共厕所",
        "address": "安徽省宣城市宣州区叠嶂西路西林新村",
        "tel": "",
        "category": "基础设施:公共设施:公共厕所",
        "type": 0,
        "location": {
            "lat": 30.94424,
            "lng": 118.748837
        },
        "ad_info": {
            "adcode": 341802,
            "province": "安徽省",
            "city": "宣城市",
            "district": "宣州区"
        }
    },
    {
        "id": "7726271744506815500",
        "title": "公共厕所",
        "address": "安徽省宣城市泾县体育路与裕隆路交叉口西南方向144米左右",
        "tel": "",
        "category": "基础设施:公共设施:公共厕所",
        "type": 0,
        "location": {
            "lat": 30.672462,
            "lng": 118.405086
        },
        "ad_info": {
            "adcode": 341823,
            "province": "安徽省",
            "city": "宣城市",
            "district": "泾县"
        }
    },
    {
        "id": "11068049218657537228",
        "title": "公共厕所",
        "address": "安徽省宣城市绩溪县S346与逍遥河桥交叉口正南方向38米左右",
        "tel": "",
        "category": "基础设施:公共设施:公共厕所",
        "type": 0,
        "location": {
            "lat": 30.1425,
            "lng": 118.753092
        },
        "ad_info": {
            "adcode": 341824,
            "province": "安徽省",
            "city": "宣城市",
            "district": "绩溪县"
        }
    },
    {
        "id": "10011569915257719984",
        "title": "无障碍公共厕所",
        "address": "安徽省宣城市泾县环城南路与茂林路交叉口正北方向94米左右",
        "tel": "",
        "category": "基础设施:公共设施:公共厕所",
        "type": 0,
        "location": {
            "lat": 30.683837,
            "lng": 118.403127
        },
        "ad_info": {
            "adcode": 341823,
            "province": "安徽省",
            "city": "宣城市",
            "district": "泾县"
        }
    },
    {
        "id": "6981408941012156500",
        "title": "公共厕所",
        "address": "安徽省宣城市宁国市054县道东50米",
        "tel": "",
        "category": "基础设施:公共设施:公共厕所",
        "type": 0,
        "location": {
            "lat": 30.424726,
            "lng": 119.267361
        },
        "ad_info": {
            "adcode": 341881,
            "province": "安徽省",
            "city": "宣城市",
            "district": "宁国市"
        }
    },
    {
        "id": "3287806791229390870",
        "title": "公共厕所",
        "address": "安徽省宣城市泾县云岭路与桃花潭路交叉口东南方向233米左右",
        "tel": "",
        "category": "基础设施:公共设施:公共厕所",
        "type": 0,
        "location": {
            "lat": 30.687908,
            "lng": 118.408464
        },
        "ad_info": {
            "adcode": 341823,
            "province": "安徽省",
            "city": "宣城市",
            "district": "泾县"
        }
    },
    {
        "id": "18199148014622320578",
        "title": "公共厕所",
        "address": "安徽省宣城市旌德县华翔路(旌德站)",
        "tel": "",
        "category": "基础设施:公共设施:公共厕所",
        "type": 0,
        "location": {
            "lat": 30.293161,
            "lng": 118.528808
        },
        "ad_info": {
            "adcode": 341825,
            "province": "安徽省",
            "city": "宣城市",
            "district": "旌德县"
        }
    },
    {
        "id": "4599566216762493278",
        "title": "公共厕所",
        "address": "安徽省宣城市泾县幕桥路与新昌路交叉口东北方向639米左右",
        "tel": "",
        "category": "基础设施:公共设施:公共厕所",
        "type": 0,
        "location": {
            "lat": 30.705946,
            "lng": 118.447877
        },
        "ad_info": {
            "adcode": 341823,
            "province": "安徽省",
            "city": "宣城市",
            "district": "泾县"
        }
    },
    {
        "id": "15340419483749705037",
        "title": "公共厕所",
        "address": "安徽省宣城市泾县星潭路与种墨园路交叉口东南方向31米左右",
        "tel": "",
        "category": "基础设施:公共设施:公共厕所",
        "type": 0,
        "location": {
            "lat": 30.687477,
            "lng": 118.418696
        },
        "ad_info": {
            "adcode": 341823,
            "province": "安徽省",
            "city": "宣城市",
            "district": "泾县"
        }
    },
    {
        "id": "17045952979884312350",
        "title": "公共厕所",
        "address": "安徽省宣城市宣州区G329与S104交叉口东南方向193米左右",
        "tel": "",
        "category": "基础设施:公共设施:公共厕所",
        "type": 0,
        "location": {
            "lat": 30.925103,
            "lng": 118.850673
        },
        "ad_info": {
            "adcode": 341802,
            "province": "安徽省",
            "city": "宣城市",
            "district": "宣州区"
        }
    },
    {
        "id": "18422660203579639523",
        "title": "公共厕所",
        "address": "安徽省宣城市宣州区322省道东50米",
        "tel": "",
        "category": "基础设施:公共设施:公共厕所",
        "type": 0,
        "location": {
            "lat": 30.852499,
            "lng": 118.641052
        },
        "ad_info": {
            "adcode": 341802,
            "province": "安徽省",
            "city": "宣城市",
            "district": "宣州区"
        }
    },
    {
        "id": "17992400585401720301",
        "title": "公共厕所",
        "address": "安徽省宣城市泾县G205与X068交叉口正南方向136米左右",
        "tel": "",
        "category": "基础设施:公共设施:公共厕所",
        "type": 0,
        "location": {
            "lat": 30.836499,
            "lng": 118.414653
        },
        "ad_info": {
            "adcode": 341823,
            "province": "安徽省",
            "city": "宣城市",
            "district": "泾县"
        }
    },
    {
        "id": "11534221885937123036",
        "title": "公共厕所",
        "address": "安徽省宣城市泾县中山北路19号",
        "tel": "",
        "category": "基础设施:公共设施:公共厕所",
        "type": 0,
        "location": {
            "lat": 30.684662,
            "lng": 118.406538
        },
        "ad_info": {
            "adcode": 341823,
            "province": "安徽省",
            "city": "宣城市",
            "district": "泾县"
        }
    },
    {
        "id": "1582455681034667148",
        "title": "公共厕所",
        "address": "安徽省宣城市广德市五合路与开心大道交叉口西南方向47米左右",
        "tel": "",
        "category": "基础设施:公共设施:公共厕所",
        "type": 0,
        "location": {
            "lat": 30.705183,
            "lng": 119.17675
        },
        "ad_info": {
            "adcode": 341882,
            "province": "安徽省",
            "city": "宣城市",
            "district": "广德市"
        }
    },
    {
        "id": "18083414000547350073",
        "title": "公共厕所",
        "address": "安徽省宣城市绩溪县来苏路",
        "tel": "",
        "category": "基础设施:公共设施:公共厕所",
        "type": 0,
        "location": {
            "lat": 30.062781,
            "lng": 118.58552
        },
        "ad_info": {
            "adcode": 341824,
            "province": "安徽省",
            "city": "宣城市",
            "district": "绩溪县"
        }
    },
    {
        "id": "6862628171557620163",
        "title": "公共厕所(星隆国际广场)",
        "address": "安徽省宣城市宣州区水阳江大道与熏化路交汇处星隆国际广场F1层",
        "tel": "",
        "category": "基础设施:公共设施:公共厕所",
        "type": 0,
        "location": {
            "lat": 30.932478,
            "lng": 118.748744
        },
        "ad_info": {
            "adcode": 341802,
            "province": "安徽省",
            "city": "宣城市",
            "district": "宣州区"
        }
    },
    {
        "id": "13434306210700235388",
        "title": "公共厕所",
        "address": "安徽省宣城市广德市经济开发区社区卫生服务中心西南侧180米",
        "tel": "",
        "category": "基础设施:公共设施:公共厕所",
        "type": 0,
        "location": {
            "lat": 30.901371,
            "lng": 119.514183
        },
        "ad_info": {
            "adcode": 341882,
            "province": "安徽省",
            "city": "宣城市",
            "district": "广德市"
        }
    },
    {
        "id": "13703934312322117189",
        "title": "公共厕所",
        "address": "安徽省宣城市绩溪县东山路",
        "tel": "",
        "category": "基础设施:公共设施:公共厕所",
        "type": 0,
        "location": {
            "lat": 30.06959,
            "lng": 118.603534
        },
        "ad_info": {
            "adcode": 341824,
            "province": "安徽省",
            "city": "宣城市",
            "district": "绩溪县"
        }
    },
    {
        "id": "10392593517247028573",
        "title": "公共厕所",
        "address": "安徽省宣城市宣州区宛溪南路辅路与鳌峰中路交叉口西南方向100米左右",
        "tel": "",
        "category": "基础设施:公共设施:公共厕所",
        "type": 0,
        "location": {
            "lat": 30.941133,
            "lng": 118.766561
        },
        "ad_info": {
            "adcode": 341802,
            "province": "安徽省",
            "city": "宣城市",
            "district": "宣州区"
        }
    },
    {
        "id": "17301733225784643289",
        "title": "公共厕所",
        "address": "安徽省宣城市广德市环城西路丽正小区",
        "tel": "",
        "category": "基础设施:公共设施:公共厕所",
        "type": 0,
        "location": {
            "lat": 30.890434,
            "lng": 119.414736
        },
        "ad_info": {
            "adcode": 341882,
            "province": "安徽省",
            "city": "宣城市",
            "district": "广德市"
        }
    },
    {
        "id": "4874915088256627129",
        "title": "旅游厕所",
        "address": "安徽省宣城市绩溪县X086",
        "tel": "",
        "category": "基础设施:公共设施:公共厕所",
        "type": 0,
        "location": {
            "lat": 30.047432,
            "lng": 118.59992
        },
        "ad_info": {
            "adcode": 341824,
            "province": "安徽省",
            "city": "宣城市",
            "district": "绩溪县"
        }
    },
    {
        "id": "17003439036478944543",
        "title": "公共厕所",
        "address": "安徽省宣城市宁国市凤形路与南山西路交叉口西北方向92米左右",
        "tel": "",
        "category": "基础设施:公共设施:公共厕所",
        "type": 0,
        "location": {
            "lat": 30.604281,
            "lng": 118.968868
        },
        "ad_info": {
            "adcode": 341881,
            "province": "安徽省",
            "city": "宣城市",
            "district": "宁国市"
        }
    },
    {
        "id": "1912352978536702489",
        "title": "公共厕所",
        "address": "安徽省宣城市宣州区宛陵西路与昭亭中路交叉口东北方向162米左右",
        "tel": "",
        "category": "基础设施:公共设施:公共厕所",
        "type": 0,
        "location": {
            "lat": 30.953818,
            "lng": 118.744476
        },
        "ad_info": {
            "adcode": 341802,
            "province": "安徽省",
            "city": "宣城市",
            "district": "宣州区"
        }
    },
    {
        "id": "16592677211643376472",
        "title": "公共厕所",
        "address": "安徽省宣城市泾县幕桥路与绿城路交叉口东北方向311米左右",
        "tel": "",
        "category": "基础设施:公共设施:公共厕所",
        "type": 0,
        "location": {
            "lat": 30.697054,
            "lng": 118.426403
        },
        "ad_info": {
            "adcode": 341823,
            "province": "安徽省",
            "city": "宣城市",
            "district": "泾县"
        }
    },
    {
        "id": "10910043866483411827",
        "title": "公共厕所",
        "address": "安徽省宣城市宁国市外环东路东郊加油站",
        "tel": "",
        "category": "基础设施:公共设施:公共厕所",
        "type": 0,
        "location": {
            "lat": 30.61325,
            "lng": 119.011415
        },
        "ad_info": {
            "adcode": 341881,
            "province": "安徽省",
            "city": "宣城市",
            "district": "宁国市"
        }
    },
    {
        "id": "17471578660905544589",
        "title": "公共厕所",
        "address": "安徽省宣城市广德市G235与誓节大桥交叉口东南方向756米左右",
        "tel": "",
        "category": "基础设施:公共设施:公共厕所",
        "type": 0,
        "location": {
            "lat": 30.934573,
            "lng": 119.233733
        },
        "ad_info": {
            "adcode": 341882,
            "province": "安徽省",
            "city": "宣城市",
            "district": "广德市"
        }
    },
    {
        "id": "11410364952363677233",
        "title": "公共厕所",
        "address": "安徽省宣城市广德市万桂山中路与迎春街交叉口东北方向174米左右",
        "tel": "",
        "category": "基础设施:公共设施:公共厕所",
        "type": 0,
        "location": {
            "lat": 30.893743,
            "lng": 119.42398
        },
        "ad_info": {
            "adcode": 341882,
            "province": "安徽省",
            "city": "宣城市",
            "district": "广德市"
        }
    },
    {
        "id": "7401217102638087140",
        "title": "公共厕所",
        "address": "安徽省宣城市泾县城东路与高峰路交叉口正北方向123米左右",
        "tel": "",
        "category": "基础设施:公共设施:公共厕所",
        "type": 0,
        "location": {
            "lat": 30.68681,
            "lng": 118.412767
        },
        "ad_info": {
            "adcode": 341823,
            "province": "安徽省",
            "city": "宣城市",
            "district": "泾县"
        }
    },
    {
        "id": "607572824460695594",
        "title": "公共厕所",
        "address": "安徽省宣城市宣州区G318与外窑路交叉口正东方向171米左右",
        "tel": "",
        "category": "基础设施:公共设施:公共厕所",
        "type": 0,
        "location": {
            "lat": 30.894309,
            "lng": 118.51484
        },
        "ad_info": {
            "adcode": 341802,
            "province": "安徽省",
            "city": "宣城市",
            "district": "宣州区"
        }
    },
    {
        "id": "14978804066729349646",
        "title": "公共厕所",
        "address": "安徽省宣城市广德市东亭乡高峰村大溪坞驿站",
        "tel": "",
        "category": "基础设施:公共设施:公共厕所",
        "type": 0,
        "location": {
            "lat": 30.818782,
            "lng": 119.490762
        },
        "ad_info": {
            "adcode": 341882,
            "province": "安徽省",
            "city": "宣城市",
            "district": "广德市"
        }
    },
    {
        "id": "15761611463161649419",
        "title": "公共厕所",
        "address": "安徽省宣城市宣州区锦城南路与龙首路交叉口正东方向41米左右",
        "tel": "",
        "category": "基础设施:公共设施:公共厕所",
        "type": 0,
        "location": {
            "lat": 30.94304,
            "lng": 118.761115
        },
        "ad_info": {
            "adcode": 341802,
            "province": "安徽省",
            "city": "宣城市",
            "district": "宣州区"
        }
    },
    {
        "id": "17629241315443927616",
        "title": "公共厕所",
        "address": "安徽省宣城市宁国市仙霞北路与仙霞路交叉口西南方向189米左右",
        "tel": "",
        "category": "基础设施:公共设施:公共厕所",
        "type": 0,
        "location": {
            "lat": 30.628015,
            "lng": 118.966464
        },
        "ad_info": {
            "adcode": 341881,
            "province": "安徽省",
            "city": "宣城市",
            "district": "宁国市"
        }
    },
    {
        "id": "4410246940577377446",
        "title": "公共厕所(星隆国际广场)",
        "address": "安徽省宣城市宣州区水阳江大道与熏化路交汇处星隆国际广场F2层",
        "tel": "",
        "category": "基础设施:公共设施:公共厕所",
        "type": 0,
        "location": {
            "lat": 30.932453,
            "lng": 118.748735
        },
        "ad_info": {
            "adcode": 341802,
            "province": "安徽省",
            "city": "宣城市",
            "district": "宣州区"
        }
    },
    {
        "id": "6691798806775073459",
        "title": "公共卫生间",
        "address": "安徽省宣城市宣州区为民路与双塔路交叉口西南方向51米左右",
        "tel": "",
        "category": "基础设施:公共设施:公共厕所",
        "type": 0,
        "location": {
            "lat": 30.960508,
            "lng": 118.741271
        },
        "ad_info": {
            "adcode": 341802,
            "province": "安徽省",
            "city": "宣城市",
            "district": "宣州区"
        }
    },
    {
        "id": "2056957413800642555",
        "title": "公共厕所",
        "address": "安徽省宣城市旌德县城西路中国石化加油站旌德南门站东南侧",
        "tel": "",
        "category": "基础设施:公共设施:公共厕所",
        "type": 0,
        "location": {
            "lat": 30.280385,
            "lng": 118.537148
        },
        "ad_info": {
            "adcode": 341825,
            "province": "安徽省",
            "city": "宣城市",
            "district": "旌德县"
        }
    },
    {
        "id": "15556765331062350474",
        "title": "公共厕所",
        "address": "安徽省宣城市绩溪县S207与冯村路交叉口正北方向88米左右",
        "tel": "",
        "category": "基础设施:公共设施:公共厕所",
        "type": 0,
        "location": {
            "lat": 30.180535,
            "lng": 118.51039
        },
        "ad_info": {
            "adcode": 341824,
            "province": "安徽省",
            "city": "宣城市",
            "district": "绩溪县"
        }
    },
    {
        "id": "12465392495754560422",
        "title": "公共厕所",
        "address": "安徽省宣城市宁国市S345与青龙西路交叉口正南方向49米左右",
        "tel": "",
        "category": "基础设施:公共设施:公共厕所",
        "type": 0,
        "location": {
            "lat": 30.635274,
            "lng": 118.957675
        },
        "ad_info": {
            "adcode": 341881,
            "province": "安徽省",
            "city": "宣城市",
            "district": "宁国市"
        }
    },
    {
        "id": "10095907131585907058",
        "title": "公共厕所",
        "address": "安徽省宣城市宣州区锦城南路与鳌峰中路交叉口正南方向205米左右",
        "tel": "",
        "category": "基础设施:公共设施:公共厕所",
        "type": 0,
        "location": {
            "lat": 30.939228,
            "lng": 118.76074
        },
        "ad_info": {
            "adcode": 341802,
            "province": "安徽省",
            "city": "宣城市",
            "district": "宣州区"
        }
    },
    {
        "id": "10463141084020451416",
        "title": "公共厕所",
        "address": "安徽省宣城市宁国市沙埠小学西侧250米",
        "tel": "",
        "category": "基础设施:公共设施:公共厕所",
        "type": 0,
        "location": {
            "lat": 30.589785,
            "lng": 119.062045
        },
        "ad_info": {
            "adcode": 341881,
            "province": "安徽省",
            "city": "宣城市",
            "district": "宁国市"
        }
    },
    {
        "id": "2956378042694211451",
        "title": "公共厕所",
        "address": "安徽省宣城市绩溪县G233与S215交叉口西南方向538米左右",
        "tel": "",
        "category": "基础设施:公共设施:公共厕所",
        "type": 0,
        "location": {
            "lat": 29.980922,
            "lng": 118.530797
        },
        "ad_info": {
            "adcode": 341824,
            "province": "安徽省",
            "city": "宣城市",
            "district": "绩溪县"
        }
    },
    {
        "id": "14692931897141472123",
        "title": "公共厕所",
        "address": "安徽省宣城市宁国市奉圣路与玉屏路交叉口正北方向160米左右",
        "tel": "",
        "category": "基础设施:公共设施:公共厕所",
        "type": 0,
        "location": {
            "lat": 30.63174,
            "lng": 118.965831
        },
        "ad_info": {
            "adcode": 341881,
            "province": "安徽省",
            "city": "宣城市",
            "district": "宁国市"
        }
    },
    {
        "id": "4503738684154160905",
        "title": "公共厕所",
        "address": "安徽省宣城市宣州区梅溪路与状元南路交叉口东南方向153米左右",
        "tel": "",
        "category": "基础设施:公共设施:公共厕所",
        "type": 0,
        "location": {
            "lat": 30.936275,
            "lng": 118.759135
        },
        "ad_info": {
            "adcode": 341802,
            "province": "安徽省",
            "city": "宣城市",
            "district": "宣州区"
        }
    },
    {
        "id": "13131381314632142470",
        "title": "公共厕所",
        "address": "安徽省宣城市宣州区G318与S207交叉口东北方向758米左右",
        "tel": "",
        "category": "基础设施:公共设施:公共厕所",
        "type": 0,
        "location": {
            "lat": 30.900416,
            "lng": 118.532105
        },
        "ad_info": {
            "adcode": 341802,
            "province": "安徽省",
            "city": "宣城市",
            "district": "宣州区"
        }
    },
    {
        "id": "17106684745039978209",
        "title": "水东服务区公共厕所",
        "address": "安徽省宣城市宣州区S01与宣桐高速交叉口正南方向158米",
        "tel": "",
        "category": "基础设施:公共设施:公共厕所",
        "type": 0,
        "location": {
            "lat": 30.767636,
            "lng": 118.952059
        },
        "ad_info": {
            "adcode": 341802,
            "province": "安徽省",
            "city": "宣城市",
            "district": "宣州区"
        }
    },
    {
        "id": "7692850845649095050",
        "title": "公共厕所",
        "address": "安徽省宣城市宁国市外环南路与宜黄线交叉口正北方向493米左右",
        "tel": "",
        "category": "基础设施:公共设施:公共厕所",
        "type": 0,
        "location": {
            "lat": 30.599881,
            "lng": 118.994634
        },
        "ad_info": {
            "adcode": 341881,
            "province": "安徽省",
            "city": "宣城市",
            "district": "宁国市"
        }
    },
    {
        "id": "2845682472215849519",
        "title": "公共厕所",
        "address": "安徽省宣城市泾县兰石路与青弋江北路交叉口东北方向230米左右",
        "tel": "",
        "category": "基础设施:公共设施:公共厕所",
        "type": 0,
        "location": {
            "lat": 30.697233,
            "lng": 118.412292
        },
        "ad_info": {
            "adcode": 341823,
            "province": "安徽省",
            "city": "宣城市",
            "district": "泾县"
        }
    },
    {
        "id": "16967358054161938515",
        "title": "公共厕所",
        "address": "安徽省宣城市广德市爱民路83号",
        "tel": "",
        "category": "基础设施:公共设施:公共厕所",
        "type": 0,
        "location": {
            "lat": 30.876101,
            "lng": 119.419636
        },
        "ad_info": {
            "adcode": 341882,
            "province": "安徽省",
            "city": "宣城市",
            "district": "广德市"
        }
    },
    {
        "id": "14345515190881160471",
        "title": "公共厕所",
        "address": "安徽省宣城市宁国市凤凰路与汪溪路交叉口正北方向416米左右",
        "tel": "",
        "category": "基础设施:公共设施:公共厕所",
        "type": 0,
        "location": {
            "lat": 30.663141,
            "lng": 118.97583
        },
        "ad_info": {
            "adcode": 341881,
            "province": "安徽省",
            "city": "宣城市",
            "district": "宁国市"
        }
    },
    {
        "id": "5964618798620199291",
        "title": "南漪湖服务区-公共厕所",
        "address": "安徽省宣城市宣州区S03宣狸高速与南漪湖服务区交叉口南500米",
        "tel": "",
        "category": "基础设施:公共设施:公共厕所",
        "type": 0,
        "location": {
            "lat": 31.163456,
            "lng": 118.947952
        },
        "ad_info": {
            "adcode": 341802,
            "province": "安徽省",
            "city": "宣城市",
            "district": "宣州区"
        }
    },
    {
        "id": "4300413551696026214",
        "title": "公共厕所",
        "address": "安徽省宣城市广德市横山中路与环城西路交叉口西北方向108米左右",
        "tel": "",
        "category": "基础设施:公共设施:公共厕所",
        "type": 0,
        "location": {
            "lat": 30.893619,
            "lng": 119.412711
        },
        "ad_info": {
            "adcode": 341882,
            "province": "安徽省",
            "city": "宣城市",
            "district": "广德市"
        }
    },
    {
        "id": "12769870935710143044",
        "title": "公共厕所",
        "address": "安徽省宣城市宁国市东津路与滨河路交叉口正北方向44米左右",
        "tel": "",
        "category": "基础设施:公共设施:公共厕所",
        "type": 0,
        "location": {
            "lat": 30.634313,
            "lng": 119.002621
        },
        "ad_info": {
            "adcode": 341881,
            "province": "安徽省",
            "city": "宣城市",
            "district": "宁国市"
        }
    },
    {
        "id": "13889881315986265780",
        "title": "公共厕所",
        "address": "安徽省宣城市宣州区宛溪南路与鳌峰东路交叉口东南方向151米左右",
        "tel": "",
        "category": "基础设施:公共设施:公共厕所",
        "type": 0,
        "location": {
            "lat": 30.940549,
            "lng": 118.769057
        },
        "ad_info": {
            "adcode": 341802,
            "province": "安徽省",
            "city": "宣城市",
            "district": "宣州区"
        }
    },
    {
        "id": "13450154675256094087",
        "title": "公共厕所",
        "address": "安徽省宣城市泾县S206与皖能路交叉口正西方向207米左右",
        "tel": "",
        "category": "基础设施:公共设施:公共厕所",
        "type": 0,
        "location": {
            "lat": 30.686796,
            "lng": 118.368483
        },
        "ad_info": {
            "adcode": 341823,
            "province": "安徽省",
            "city": "宣城市",
            "district": "泾县"
        }
    },
    {
        "id": "3405543428894231029",
        "title": "公共厕所",
        "address": "安徽省宣城市广德市东关街与迎春街交叉口东南方向83米左右",
        "tel": "",
        "category": "基础设施:公共设施:公共厕所",
        "type": 0,
        "location": {
            "lat": 30.890869,
            "lng": 119.42737
        },
        "ad_info": {
            "adcode": 341882,
            "province": "安徽省",
            "city": "宣城市",
            "district": "广德市"
        }
    },
    {
        "id": "10174370203984441462",
        "title": "中村旅游厕所",
        "address": "安徽省宣城市绩溪县X091",
        "tel": "",
        "category": "基础设施:公共设施:公共厕所",
        "type": 0,
        "location": {
            "lat": 30.195433,
            "lng": 118.611197
        },
        "ad_info": {
            "adcode": 341824,
            "province": "安徽省",
            "city": "宣城市",
            "district": "绩溪县"
        }
    },
    {
        "id": "16651782611996540460",
        "title": "公共厕所",
        "address": "安徽省宣城市宣州区文苑路与竹苑路交叉口西南方向138米左右",
        "tel": "",
        "category": "基础设施:公共设施:公共厕所",
        "type": 0,
        "location": {
            "lat": 30.91365,
            "lng": 118.773524
        },
        "ad_info": {
            "adcode": 341802,
            "province": "安徽省",
            "city": "宣城市",
            "district": "宣州区"
        }
    },
    {
        "id": "14216141033518456118",
        "title": "公共厕所",
        "address": "安徽省宣城市宣州区元宝街与教委巷交叉口东南方向82米左右",
        "tel": "",
        "category": "基础设施:公共设施:公共厕所",
        "type": 0,
        "location": {
            "lat": 30.94283,
            "lng": 118.757744
        },
        "ad_info": {
            "adcode": 341802,
            "province": "安徽省",
            "city": "宣城市",
            "district": "宣州区"
        }
    },
    {
        "id": "2366459779567258986",
        "title": "公共厕所",
        "address": "安徽省宣城市宣州区阳德路辅路与卜村南路交叉口东南160米",
        "tel": "",
        "category": "基础设施:公共设施:公共厕所",
        "type": 0,
        "location": {
            "lat": 30.95129,
            "lng": 118.784939
        },
        "ad_info": {
            "adcode": 341802,
            "province": "安徽省",
            "city": "宣城市",
            "district": "宣州区"
        }
    },
    {
        "id": "15815351305807098828",
        "title": "公共厕所",
        "address": "安徽省宣城市郎溪县G235与新安路交叉口正南方向397米左右",
        "tel": "",
        "category": "基础设施:公共设施:公共厕所",
        "type": 0,
        "location": {
            "lat": 31.025181,
            "lng": 119.152552
        },
        "ad_info": {
            "adcode": 341821,
            "province": "安徽省",
            "city": "宣城市",
            "district": "郎溪县"
        }
    },
    {
        "id": "552623203232194326",
        "title": "公共厕所",
        "address": "安徽省宣城市泾县交通路与环城东路交叉口东北方向27米左右",
        "tel": "",
        "category": "基础设施:公共设施:公共厕所",
        "type": 0,
        "location": {
            "lat": 30.686333,
            "lng": 118.411518
        },
        "ad_info": {
            "adcode": 341823,
            "province": "安徽省",
            "city": "宣城市",
            "district": "泾县"
        }
    },
    {
        "id": "12821543907005216816",
        "title": "星河园公共厕所",
        "address": "安徽省宣城市宁国市中溪北路与中溪南路交叉口正北方向57米左右",
        "tel": "",
        "category": "基础设施:公共设施:公共厕所",
        "type": 0,
        "location": {
            "lat": 30.619381,
            "lng": 118.980047
        },
        "ad_info": {
            "adcode": 341881,
            "province": "安徽省",
            "city": "宣城市",
            "district": "宁国市"
        }
    },
    {
        "id": "13817387959424490487",
        "title": "公共厕所",
        "address": "安徽省宣城市绩溪县徽山大道",
        "tel": "",
        "category": "基础设施:公共设施:公共厕所",
        "type": 0,
        "location": {
            "lat": 30.079566,
            "lng": 118.597665
        },
        "ad_info": {
            "adcode": 341824,
            "province": "安徽省",
            "city": "宣城市",
            "district": "绩溪县"
        }
    },
    {
        "id": "12971416420473521231",
        "title": "公共卫生间",
        "address": "安徽省宣城市宁国市东马路",
        "tel": "",
        "category": "基础设施:公共设施:公共厕所",
        "type": 0,
        "location": {
            "lat": 30.460952,
            "lng": 119.118165
        },
        "ad_info": {
            "adcode": 341881,
            "province": "安徽省",
            "city": "宣城市",
            "district": "宁国市"
        }
    },
    {
        "id": "9251957324464825366",
        "title": "公共厕所",
        "address": "安徽省宣城市宁国市西村卫生室北侧220米",
        "tel": "",
        "category": "基础设施:公共设施:公共厕所",
        "type": 0,
        "location": {
            "lat": 30.69514,
            "lng": 118.957451
        },
        "ad_info": {
            "adcode": 341881,
            "province": "安徽省",
            "city": "宣城市",
            "district": "宁国市"
        }
    },
    {
        "id": "12867915878871346935",
        "title": "公厕",
        "address": "安徽省宣城市泾县X073",
        "tel": "",
        "category": "基础设施:公共设施:公共厕所",
        "type": 0,
        "location": {
            "lat": 30.712256,
            "lng": 118.554197
        },
        "ad_info": {
            "adcode": 341823,
            "province": "安徽省",
            "city": "宣城市",
            "district": "泾县"
        }
    },
    {
        "id": "11395977080635263516",
        "title": "旅游公共厕所",
        "address": "安徽省宣城市旌德县G205与板桥小桥交叉口东北方向93米左右",
        "tel": "",
        "category": "基础设施:公共设施:公共厕所",
        "type": 0,
        "location": {
            "lat": 30.230283,
            "lng": 118.374961
        },
        "ad_info": {
            "adcode": 341825,
            "province": "安徽省",
            "city": "宣城市",
            "district": "旌德县"
        }
    },
    {
        "id": "3264875627092453702",
        "title": "公共厕所(浙川村村委会)",
        "address": "安徽省宣城市绩溪县华浪线与吉浙线交叉口正西方向791米左右",
        "tel": "",
        "category": "基础设施:公共设施:公共厕所",
        "type": 0,
        "location": {
            "lat": 30.15052,
            "lng": 118.86428
        },
        "ad_info": {
            "adcode": 341824,
            "province": "安徽省",
            "city": "宣城市",
            "district": "绩溪县"
        }
    },
    {
        "id": "52781567637946989",
        "title": "公共厕所",
        "address": "安徽省宣城市宁国市东津路与治安巷交叉口西北方向257米左右",
        "tel": "",
        "category": "基础设施:公共设施:公共厕所",
        "type": 0,
        "location": {
            "lat": 30.634237,
            "lng": 118.998942
        },
        "ad_info": {
            "adcode": 341881,
            "province": "安徽省",
            "city": "宣城市",
            "district": "宁国市"
        }
    },
    {
        "id": "13015138391135234948",
        "title": "公共厕所",
        "address": "安徽省宣城市广德市太极大道与清吉路交叉口西北方向45米左右",
        "tel": "",
        "category": "基础设施:公共设施:公共厕所",
        "type": 0,
        "location": {
            "lat": 30.898124,
            "lng": 119.409396
        },
        "ad_info": {
            "adcode": 341882,
            "province": "安徽省",
            "city": "宣城市",
            "district": "广德市"
        }
    },
    {
        "id": "3428421553559400126",
        "title": "公共厕所",
        "address": "安徽省宣城市广德市横山中路与环城西路交叉口正北方向87米左右",
        "tel": "",
        "category": "基础设施:公共设施:公共厕所",
        "type": 0,
        "location": {
            "lat": 30.896937,
            "lng": 119.414143
        },
        "ad_info": {
            "adcode": 341882,
            "province": "安徽省",
            "city": "宣城市",
            "district": "广德市"
        }
    },
    {
        "id": "2082566501488865578",
        "title": "男洗手间(八佰伴)",
        "address": "安徽省宣城市宣州区叠嶂西路68号国购广场(宣城店)八佰伴(叠嶂西路店)F2",
        "tel": "",
        "category": "基础设施:公共设施:男洗手间",
        "type": 0,
        "location": {
            "lat": 30.945085,
            "lng": 118.75392
        },
        "ad_info": {
            "adcode": 341802,
            "province": "安徽省",
            "city": "宣城市",
            "district": "宣州区"
        }
    },
    {
        "id": "13889881315986265780",
        "title": "公共厕所",
        "address": "安徽省宣城市宣州区宛溪南路与鳌峰东路交叉口东南方向151米左右",
        "tel": "",
        "category": "基础设施:公共设施:公共厕所",
        "type": 0,
        "location": {
            "lat": 30.940549,
            "lng": 118.769057
        },
        "ad_info": {
            "adcode": 341802,
            "province": "安徽省",
            "city": "宣城市",
            "district": "宣州区"
        }
    },
    {
        "id": "13450154675256094087",
        "title": "公共厕所",
        "address": "安徽省宣城市泾县S206与皖能路交叉口正西方向207米左右",
        "tel": "",
        "category": "基础设施:公共设施:公共厕所",
        "type": 0,
        "location": {
            "lat": 30.686796,
            "lng": 118.368483
        },
        "ad_info": {
            "adcode": 341823,
            "province": "安徽省",
            "city": "宣城市",
            "district": "泾县"
        }
    },
    {
        "id": "3405543428894231029",
        "title": "公共厕所",
        "address": "安徽省宣城市广德市东关街与迎春街交叉口东南方向83米左右",
        "tel": "",
        "category": "基础设施:公共设施:公共厕所",
        "type": 0,
        "location": {
            "lat": 30.890869,
            "lng": 119.42737
        },
        "ad_info": {
            "adcode": 341882,
            "province": "安徽省",
            "city": "宣城市",
            "district": "广德市"
        }
    },
    {
        "id": "10174370203984441462",
        "title": "中村旅游厕所",
        "address": "安徽省宣城市绩溪县X091",
        "tel": "",
        "category": "基础设施:公共设施:公共厕所",
        "type": 0,
        "location": {
            "lat": 30.195433,
            "lng": 118.611197
        },
        "ad_info": {
            "adcode": 341824,
            "province": "安徽省",
            "city": "宣城市",
            "district": "绩溪县"
        }
    },
    {
        "id": "16651782611996540460",
        "title": "公共厕所",
        "address": "安徽省宣城市宣州区文苑路与竹苑路交叉口西南方向138米左右",
        "tel": "",
        "category": "基础设施:公共设施:公共厕所",
        "type": 0,
        "location": {
            "lat": 30.91365,
            "lng": 118.773524
        },
        "ad_info": {
            "adcode": 341802,
            "province": "安徽省",
            "city": "宣城市",
            "district": "宣州区"
        }
    },
    {
        "id": "14216141033518456118",
        "title": "公共厕所",
        "address": "安徽省宣城市宣州区元宝街与教委巷交叉口东南方向82米左右",
        "tel": "",
        "category": "基础设施:公共设施:公共厕所",
        "type": 0,
        "location": {
            "lat": 30.94283,
            "lng": 118.757744
        },
        "ad_info": {
            "adcode": 341802,
            "province": "安徽省",
            "city": "宣城市",
            "district": "宣州区"
        }
    },
    {
        "id": "2366459779567258986",
        "title": "公共厕所",
        "address": "安徽省宣城市宣州区阳德路辅路与卜村南路交叉口东南160米",
        "tel": "",
        "category": "基础设施:公共设施:公共厕所",
        "type": 0,
        "location": {
            "lat": 30.95129,
            "lng": 118.784939
        },
        "ad_info": {
            "adcode": 341802,
            "province": "安徽省",
            "city": "宣城市",
            "district": "宣州区"
        }
    },
    {
        "id": "15815351305807098828",
        "title": "公共厕所",
        "address": "安徽省宣城市郎溪县G235与新安路交叉口正南方向397米左右",
        "tel": "",
        "category": "基础设施:公共设施:公共厕所",
        "type": 0,
        "location": {
            "lat": 31.025181,
            "lng": 119.152552
        },
        "ad_info": {
            "adcode": 341821,
            "province": "安徽省",
            "city": "宣城市",
            "district": "郎溪县"
        }
    },
    {
        "id": "552623203232194326",
        "title": "公共厕所",
        "address": "安徽省宣城市泾县交通路与环城东路交叉口东北方向27米左右",
        "tel": "",
        "category": "基础设施:公共设施:公共厕所",
        "type": 0,
        "location": {
            "lat": 30.686333,
            "lng": 118.411518
        },
        "ad_info": {
            "adcode": 341823,
            "province": "安徽省",
            "city": "宣城市",
            "district": "泾县"
        }
    },
    {
        "id": "12821543907005216816",
        "title": "星河园公共厕所",
        "address": "安徽省宣城市宁国市中溪北路与中溪南路交叉口正北方向57米左右",
        "tel": "",
        "category": "基础设施:公共设施:公共厕所",
        "type": 0,
        "location": {
            "lat": 30.619381,
            "lng": 118.980047
        },
        "ad_info": {
            "adcode": 341881,
            "province": "安徽省",
            "city": "宣城市",
            "district": "宁国市"
        }
    },
    {
        "id": "13817387959424490487",
        "title": "公共厕所",
        "address": "安徽省宣城市绩溪县徽山大道",
        "tel": "",
        "category": "基础设施:公共设施:公共厕所",
        "type": 0,
        "location": {
            "lat": 30.079566,
            "lng": 118.597665
        },
        "ad_info": {
            "adcode": 341824,
            "province": "安徽省",
            "city": "宣城市",
            "district": "绩溪县"
        }
    },
    {
        "id": "12971416420473521231",
        "title": "公共卫生间",
        "address": "安徽省宣城市宁国市东马路",
        "tel": "",
        "category": "基础设施:公共设施:公共厕所",
        "type": 0,
        "location": {
            "lat": 30.460952,
            "lng": 119.118165
        },
        "ad_info": {
            "adcode": 341881,
            "province": "安徽省",
            "city": "宣城市",
            "district": "宁国市"
        }
    },
    {
        "id": "9251957324464825366",
        "title": "公共厕所",
        "address": "安徽省宣城市宁国市西村卫生室北侧220米",
        "tel": "",
        "category": "基础设施:公共设施:公共厕所",
        "type": 0,
        "location": {
            "lat": 30.69514,
            "lng": 118.957451
        },
        "ad_info": {
            "adcode": 341881,
            "province": "安徽省",
            "city": "宣城市",
            "district": "宁国市"
        }
    },
    {
        "id": "12867915878871346935",
        "title": "公厕",
        "address": "安徽省宣城市泾县X073",
        "tel": "",
        "category": "基础设施:公共设施:公共厕所",
        "type": 0,
        "location": {
            "lat": 30.712256,
            "lng": 118.554197
        },
        "ad_info": {
            "adcode": 341823,
            "province": "安徽省",
            "city": "宣城市",
            "district": "泾县"
        }
    },
    {
        "id": "11395977080635263516",
        "title": "旅游公共厕所",
        "address": "安徽省宣城市旌德县G205与板桥小桥交叉口东北方向93米左右",
        "tel": "",
        "category": "基础设施:公共设施:公共厕所",
        "type": 0,
        "location": {
            "lat": 30.230283,
            "lng": 118.374961
        },
        "ad_info": {
            "adcode": 341825,
            "province": "安徽省",
            "city": "宣城市",
            "district": "旌德县"
        }
    },
    {
        "id": "3264875627092453702",
        "title": "公共厕所(浙川村村委会)",
        "address": "安徽省宣城市绩溪县华浪线与吉浙线交叉口正西方向791米左右",
        "tel": "",
        "category": "基础设施:公共设施:公共厕所",
        "type": 0,
        "location": {
            "lat": 30.15052,
            "lng": 118.86428
        },
        "ad_info": {
            "adcode": 341824,
            "province": "安徽省",
            "city": "宣城市",
            "district": "绩溪县"
        }
    },
    {
        "id": "52781567637946989",
        "title": "公共厕所",
        "address": "安徽省宣城市宁国市东津路与治安巷交叉口西北方向257米左右",
        "tel": "",
        "category": "基础设施:公共设施:公共厕所",
        "type": 0,
        "location": {
            "lat": 30.634237,
            "lng": 118.998942
        },
        "ad_info": {
            "adcode": 341881,
            "province": "安徽省",
            "city": "宣城市",
            "district": "宁国市"
        }
    },
    {
        "id": "13015138391135234948",
        "title": "公共厕所",
        "address": "安徽省宣城市广德市太极大道与清吉路交叉口西北方向45米左右",
        "tel": "",
        "category": "基础设施:公共设施:公共厕所",
        "type": 0,
        "location": {
            "lat": 30.898124,
            "lng": 119.409396
        },
        "ad_info": {
            "adcode": 341882,
            "province": "安徽省",
            "city": "宣城市",
            "district": "广德市"
        }
    },
    {
        "id": "3428421553559400126",
        "title": "公共厕所",
        "address": "安徽省宣城市广德市横山中路与环城西路交叉口正北方向87米左右",
        "tel": "",
        "category": "基础设施:公共设施:公共厕所",
        "type": 0,
        "location": {
            "lat": 30.896937,
            "lng": 119.414143
        },
        "ad_info": {
            "adcode": 341882,
            "province": "安徽省",
            "city": "宣城市",
            "district": "广德市"
        }
    },
    {
        "id": "2082566501488865578",
        "title": "男洗手间(八佰伴)",
        "address": "安徽省宣城市宣州区叠嶂西路68号国购广场(宣城店)八佰伴(叠嶂西路店)F2",
        "tel": "",
        "category": "基础设施:公共设施:男洗手间",
        "type": 0,
        "location": {
            "lat": 30.945085,
            "lng": 118.75392
        },
        "ad_info": {
            "adcode": 341802,
            "province": "安徽省",
            "city": "宣城市",
            "district": "宣州区"
        }
    },
    {
        "id": "13889881315986265780",
        "title": "公共厕所",
        "address": "安徽省宣城市宣州区宛溪南路与鳌峰东路交叉口东南方向151米左右",
        "tel": "",
        "category": "基础设施:公共设施:公共厕所",
        "type": 0,
        "location": {
            "lat": 30.940549,
            "lng": 118.769057
        },
        "ad_info": {
            "adcode": 341802,
            "province": "安徽省",
            "city": "宣城市",
            "district": "宣州区"
        }
    },
    {
        "id": "13450154675256094087",
        "title": "公共厕所",
        "address": "安徽省宣城市泾县S206与皖能路交叉口正西方向207米左右",
        "tel": "",
        "category": "基础设施:公共设施:公共厕所",
        "type": 0,
        "location": {
            "lat": 30.686796,
            "lng": 118.368483
        },
        "ad_info": {
            "adcode": 341823,
            "province": "安徽省",
            "city": "宣城市",
            "district": "泾县"
        }
    },
    {
        "id": "3405543428894231029",
        "title": "公共厕所",
        "address": "安徽省宣城市广德市东关街与迎春街交叉口东南方向83米左右",
        "tel": "",
        "category": "基础设施:公共设施:公共厕所",
        "type": 0,
        "location": {
            "lat": 30.890869,
            "lng": 119.42737
        },
        "ad_info": {
            "adcode": 341882,
            "province": "安徽省",
            "city": "宣城市",
            "district": "广德市"
        }
    },
    {
        "id": "10174370203984441462",
        "title": "中村旅游厕所",
        "address": "安徽省宣城市绩溪县X091",
        "tel": "",
        "category": "基础设施:公共设施:公共厕所",
        "type": 0,
        "location": {
            "lat": 30.195433,
            "lng": 118.611197
        },
        "ad_info": {
            "adcode": 341824,
            "province": "安徽省",
            "city": "宣城市",
            "district": "绩溪县"
        }
    },
    {
        "id": "16651782611996540460",
        "title": "公共厕所",
        "address": "安徽省宣城市宣州区文苑路与竹苑路交叉口西南方向138米左右",
        "tel": "",
        "category": "基础设施:公共设施:公共厕所",
        "type": 0,
        "location": {
            "lat": 30.91365,
            "lng": 118.773524
        },
        "ad_info": {
            "adcode": 341802,
            "province": "安徽省",
            "city": "宣城市",
            "district": "宣州区"
        }
    },
    {
        "id": "14216141033518456118",
        "title": "公共厕所",
        "address": "安徽省宣城市宣州区元宝街与教委巷交叉口东南方向82米左右",
        "tel": "",
        "category": "基础设施:公共设施:公共厕所",
        "type": 0,
        "location": {
            "lat": 30.94283,
            "lng": 118.757744
        },
        "ad_info": {
            "adcode": 341802,
            "province": "安徽省",
            "city": "宣城市",
            "district": "宣州区"
        }
    },
    {
        "id": "2366459779567258986",
        "title": "公共厕所",
        "address": "安徽省宣城市宣州区阳德路辅路与卜村南路交叉口东南160米",
        "tel": "",
        "category": "基础设施:公共设施:公共厕所",
        "type": 0,
        "location": {
            "lat": 30.95129,
            "lng": 118.784939
        },
        "ad_info": {
            "adcode": 341802,
            "province": "安徽省",
            "city": "宣城市",
            "district": "宣州区"
        }
    },
    {
        "id": "15815351305807098828",
        "title": "公共厕所",
        "address": "安徽省宣城市郎溪县G235与新安路交叉口正南方向397米左右",
        "tel": "",
        "category": "基础设施:公共设施:公共厕所",
        "type": 0,
        "location": {
            "lat": 31.025181,
            "lng": 119.152552
        },
        "ad_info": {
            "adcode": 341821,
            "province": "安徽省",
            "city": "宣城市",
            "district": "郎溪县"
        }
    },
    {
        "id": "552623203232194326",
        "title": "公共厕所",
        "address": "安徽省宣城市泾县交通路与环城东路交叉口东北方向27米左右",
        "tel": "",
        "category": "基础设施:公共设施:公共厕所",
        "type": 0,
        "location": {
            "lat": 30.686333,
            "lng": 118.411518
        },
        "ad_info": {
            "adcode": 341823,
            "province": "安徽省",
            "city": "宣城市",
            "district": "泾县"
        }
    },
    {
        "id": "12821543907005216816",
        "title": "星河园公共厕所",
        "address": "安徽省宣城市宁国市中溪北路与中溪南路交叉口正北方向57米左右",
        "tel": "",
        "category": "基础设施:公共设施:公共厕所",
        "type": 0,
        "location": {
            "lat": 30.619381,
            "lng": 118.980047
        },
        "ad_info": {
            "adcode": 341881,
            "province": "安徽省",
            "city": "宣城市",
            "district": "宁国市"
        }
    },
    {
        "id": "13817387959424490487",
        "title": "公共厕所",
        "address": "安徽省宣城市绩溪县徽山大道",
        "tel": "",
        "category": "基础设施:公共设施:公共厕所",
        "type": 0,
        "location": {
            "lat": 30.079566,
            "lng": 118.597665
        },
        "ad_info": {
            "adcode": 341824,
            "province": "安徽省",
            "city": "宣城市",
            "district": "绩溪县"
        }
    },
    {
        "id": "12971416420473521231",
        "title": "公共卫生间",
        "address": "安徽省宣城市宁国市东马路",
        "tel": "",
        "category": "基础设施:公共设施:公共厕所",
        "type": 0,
        "location": {
            "lat": 30.460952,
            "lng": 119.118165
        },
        "ad_info": {
            "adcode": 341881,
            "province": "安徽省",
            "city": "宣城市",
            "district": "宁国市"
        }
    },
    {
        "id": "9251957324464825366",
        "title": "公共厕所",
        "address": "安徽省宣城市宁国市西村卫生室北侧220米",
        "tel": "",
        "category": "基础设施:公共设施:公共厕所",
        "type": 0,
        "location": {
            "lat": 30.69514,
            "lng": 118.957451
        },
        "ad_info": {
            "adcode": 341881,
            "province": "安徽省",
            "city": "宣城市",
            "district": "宁国市"
        }
    },
    {
        "id": "12867915878871346935",
        "title": "公厕",
        "address": "安徽省宣城市泾县X073",
        "tel": "",
        "category": "基础设施:公共设施:公共厕所",
        "type": 0,
        "location": {
            "lat": 30.712256,
            "lng": 118.554197
        },
        "ad_info": {
            "adcode": 341823,
            "province": "安徽省",
            "city": "宣城市",
            "district": "泾县"
        }
    },
    {
        "id": "11395977080635263516",
        "title": "旅游公共厕所",
        "address": "安徽省宣城市旌德县G205与板桥小桥交叉口东北方向93米左右",
        "tel": "",
        "category": "基础设施:公共设施:公共厕所",
        "type": 0,
        "location": {
            "lat": 30.230283,
            "lng": 118.374961
        },
        "ad_info": {
            "adcode": 341825,
            "province": "安徽省",
            "city": "宣城市",
            "district": "旌德县"
        }
    },
    {
        "id": "3264875627092453702",
        "title": "公共厕所(浙川村村委会)",
        "address": "安徽省宣城市绩溪县华浪线与吉浙线交叉口正西方向791米左右",
        "tel": "",
        "category": "基础设施:公共设施:公共厕所",
        "type": 0,
        "location": {
            "lat": 30.15052,
            "lng": 118.86428
        },
        "ad_info": {
            "adcode": 341824,
            "province": "安徽省",
            "city": "宣城市",
            "district": "绩溪县"
        }
    },
    {
        "id": "52781567637946989",
        "title": "公共厕所",
        "address": "安徽省宣城市宁国市东津路与治安巷交叉口西北方向257米左右",
        "tel": "",
        "category": "基础设施:公共设施:公共厕所",
        "type": 0,
        "location": {
            "lat": 30.634237,
            "lng": 118.998942
        },
        "ad_info": {
            "adcode": 341881,
            "province": "安徽省",
            "city": "宣城市",
            "district": "宁国市"
        }
    },
    {
        "id": "13015138391135234948",
        "title": "公共厕所",
        "address": "安徽省宣城市广德市太极大道与清吉路交叉口西北方向45米左右",
        "tel": "",
        "category": "基础设施:公共设施:公共厕所",
        "type": 0,
        "location": {
            "lat": 30.898124,
            "lng": 119.409396
        },
        "ad_info": {
            "adcode": 341882,
            "province": "安徽省",
            "city": "宣城市",
            "district": "广德市"
        }
    },
    {
        "id": "3428421553559400126",
        "title": "公共厕所",
        "address": "安徽省宣城市广德市横山中路与环城西路交叉口正北方向87米左右",
        "tel": "",
        "category": "基础设施:公共设施:公共厕所",
        "type": 0,
        "location": {
            "lat": 30.896937,
            "lng": 119.414143
        },
        "ad_info": {
            "adcode": 341882,
            "province": "安徽省",
            "city": "宣城市",
            "district": "广德市"
        }
    },
    {
        "id": "2082566501488865578",
        "title": "男洗手间(八佰伴)",
        "address": "安徽省宣城市宣州区叠嶂西路68号国购广场(宣城店)八佰伴(叠嶂西路店)F2",
        "tel": "",
        "category": "基础设施:公共设施:男洗手间",
        "type": 0,
        "location": {
            "lat": 30.945085,
            "lng": 118.75392
        },
        "ad_info": {
            "adcode": 341802,
            "province": "安徽省",
            "city": "宣城市",
            "district": "宣州区"
        }
    },
    {
        "id": "13889881315986265780",
        "title": "公共厕所",
        "address": "安徽省宣城市宣州区宛溪南路与鳌峰东路交叉口东南方向151米左右",
        "tel": "",
        "category": "基础设施:公共设施:公共厕所",
        "type": 0,
        "location": {
            "lat": 30.940549,
            "lng": 118.769057
        },
        "ad_info": {
            "adcode": 341802,
            "province": "安徽省",
            "city": "宣城市",
            "district": "宣州区"
        }
    },
    {
        "id": "13450154675256094087",
        "title": "公共厕所",
        "address": "安徽省宣城市泾县S206与皖能路交叉口正西方向207米左右",
        "tel": "",
        "category": "基础设施:公共设施:公共厕所",
        "type": 0,
        "location": {
            "lat": 30.686796,
            "lng": 118.368483
        },
        "ad_info": {
            "adcode": 341823,
            "province": "安徽省",
            "city": "宣城市",
            "district": "泾县"
        }
    },
    {
        "id": "3405543428894231029",
        "title": "公共厕所",
        "address": "安徽省宣城市广德市东关街与迎春街交叉口东南方向83米左右",
        "tel": "",
        "category": "基础设施:公共设施:公共厕所",
        "type": 0,
        "location": {
            "lat": 30.890869,
            "lng": 119.42737
        },
        "ad_info": {
            "adcode": 341882,
            "province": "安徽省",
            "city": "宣城市",
            "district": "广德市"
        }
    },
    {
        "id": "10174370203984441462",
        "title": "中村旅游厕所",
        "address": "安徽省宣城市绩溪县X091",
        "tel": "",
        "category": "基础设施:公共设施:公共厕所",
        "type": 0,
        "location": {
            "lat": 30.195433,
            "lng": 118.611197
        },
        "ad_info": {
            "adcode": 341824,
            "province": "安徽省",
            "city": "宣城市",
            "district": "绩溪县"
        }
    },
    {
        "id": "16651782611996540460",
        "title": "公共厕所",
        "address": "安徽省宣城市宣州区文苑路与竹苑路交叉口西南方向138米左右",
        "tel": "",
        "category": "基础设施:公共设施:公共厕所",
        "type": 0,
        "location": {
            "lat": 30.91365,
            "lng": 118.773524
        },
        "ad_info": {
            "adcode": 341802,
            "province": "安徽省",
            "city": "宣城市",
            "district": "宣州区"
        }
    },
    {
        "id": "14216141033518456118",
        "title": "公共厕所",
        "address": "安徽省宣城市宣州区元宝街与教委巷交叉口东南方向82米左右",
        "tel": "",
        "category": "基础设施:公共设施:公共厕所",
        "type": 0,
        "location": {
            "lat": 30.94283,
            "lng": 118.757744
        },
        "ad_info": {
            "adcode": 341802,
            "province": "安徽省",
            "city": "宣城市",
            "district": "宣州区"
        }
    },
    {
        "id": "2366459779567258986",
        "title": "公共厕所",
        "address": "安徽省宣城市宣州区阳德路辅路与卜村南路交叉口东南160米",
        "tel": "",
        "category": "基础设施:公共设施:公共厕所",
        "type": 0,
        "location": {
            "lat": 30.95129,
            "lng": 118.784939
        },
        "ad_info": {
            "adcode": 341802,
            "province": "安徽省",
            "city": "宣城市",
            "district": "宣州区"
        }
    },
    {
        "id": "15815351305807098828",
        "title": "公共厕所",
        "address": "安徽省宣城市郎溪县G235与新安路交叉口正南方向397米左右",
        "tel": "",
        "category": "基础设施:公共设施:公共厕所",
        "type": 0,
        "location": {
            "lat": 31.025181,
            "lng": 119.152552
        },
        "ad_info": {
            "adcode": 341821,
            "province": "安徽省",
            "city": "宣城市",
            "district": "郎溪县"
        }
    },
    {
        "id": "552623203232194326",
        "title": "公共厕所",
        "address": "安徽省宣城市泾县交通路与环城东路交叉口东北方向27米左右",
        "tel": "",
        "category": "基础设施:公共设施:公共厕所",
        "type": 0,
        "location": {
            "lat": 30.686333,
            "lng": 118.411518
        },
        "ad_info": {
            "adcode": 341823,
            "province": "安徽省",
            "city": "宣城市",
            "district": "泾县"
        }
    },
    {
        "id": "12821543907005216816",
        "title": "星河园公共厕所",
        "address": "安徽省宣城市宁国市中溪北路与中溪南路交叉口正北方向57米左右",
        "tel": "",
        "category": "基础设施:公共设施:公共厕所",
        "type": 0,
        "location": {
            "lat": 30.619381,
            "lng": 118.980047
        },
        "ad_info": {
            "adcode": 341881,
            "province": "安徽省",
            "city": "宣城市",
            "district": "宁国市"
        }
    },
    {
        "id": "13817387959424490487",
        "title": "公共厕所",
        "address": "安徽省宣城市绩溪县徽山大道",
        "tel": "",
        "category": "基础设施:公共设施:公共厕所",
        "type": 0,
        "location": {
            "lat": 30.079566,
            "lng": 118.597665
        },
        "ad_info": {
            "adcode": 341824,
            "province": "安徽省",
            "city": "宣城市",
            "district": "绩溪县"
        }
    },
    {
        "id": "12971416420473521231",
        "title": "公共卫生间",
        "address": "安徽省宣城市宁国市东马路",
        "tel": "",
        "category": "基础设施:公共设施:公共厕所",
        "type": 0,
        "location": {
            "lat": 30.460952,
            "lng": 119.118165
        },
        "ad_info": {
            "adcode": 341881,
            "province": "安徽省",
            "city": "宣城市",
            "district": "宁国市"
        }
    },
    {
        "id": "9251957324464825366",
        "title": "公共厕所",
        "address": "安徽省宣城市宁国市西村卫生室北侧220米",
        "tel": "",
        "category": "基础设施:公共设施:公共厕所",
        "type": 0,
        "location": {
            "lat": 30.69514,
            "lng": 118.957451
        },
        "ad_info": {
            "adcode": 341881,
            "province": "安徽省",
            "city": "宣城市",
            "district": "宁国市"
        }
    },
    {
        "id": "12867915878871346935",
        "title": "公厕",
        "address": "安徽省宣城市泾县X073",
        "tel": "",
        "category": "基础设施:公共设施:公共厕所",
        "type": 0,
        "location": {
            "lat": 30.712256,
            "lng": 118.554197
        },
        "ad_info": {
            "adcode": 341823,
            "province": "安徽省",
            "city": "宣城市",
            "district": "泾县"
        }
    },
    {
        "id": "11395977080635263516",
        "title": "旅游公共厕所",
        "address": "安徽省宣城市旌德县G205与板桥小桥交叉口东北方向93米左右",
        "tel": "",
        "category": "基础设施:公共设施:公共厕所",
        "type": 0,
        "location": {
            "lat": 30.230283,
            "lng": 118.374961
        },
        "ad_info": {
            "adcode": 341825,
            "province": "安徽省",
            "city": "宣城市",
            "district": "旌德县"
        }
    },
    {
        "id": "3264875627092453702",
        "title": "公共厕所(浙川村村委会)",
        "address": "安徽省宣城市绩溪县华浪线与吉浙线交叉口正西方向791米左右",
        "tel": "",
        "category": "基础设施:公共设施:公共厕所",
        "type": 0,
        "location": {
            "lat": 30.15052,
            "lng": 118.86428
        },
        "ad_info": {
            "adcode": 341824,
            "province": "安徽省",
            "city": "宣城市",
            "district": "绩溪县"
        }
    },
    {
        "id": "52781567637946989",
        "title": "公共厕所",
        "address": "安徽省宣城市宁国市东津路与治安巷交叉口西北方向257米左右",
        "tel": "",
        "category": "基础设施:公共设施:公共厕所",
        "type": 0,
        "location": {
            "lat": 30.634237,
            "lng": 118.998942
        },
        "ad_info": {
            "adcode": 341881,
            "province": "安徽省",
            "city": "宣城市",
            "district": "宁国市"
        }
    },
    {
        "id": "13015138391135234948",
        "title": "公共厕所",
        "address": "安徽省宣城市广德市太极大道与清吉路交叉口西北方向45米左右",
        "tel": "",
        "category": "基础设施:公共设施:公共厕所",
        "type": 0,
        "location": {
            "lat": 30.898124,
            "lng": 119.409396
        },
        "ad_info": {
            "adcode": 341882,
            "province": "安徽省",
            "city": "宣城市",
            "district": "广德市"
        }
    },
    {
        "id": "3428421553559400126",
        "title": "公共厕所",
        "address": "安徽省宣城市广德市横山中路与环城西路交叉口正北方向87米左右",
        "tel": "",
        "category": "基础设施:公共设施:公共厕所",
        "type": 0,
        "location": {
            "lat": 30.896937,
            "lng": 119.414143
        },
        "ad_info": {
            "adcode": 341882,
            "province": "安徽省",
            "city": "宣城市",
            "district": "广德市"
        }
    },
    {
        "id": "2082566501488865578",
        "title": "男洗手间(八佰伴)",
        "address": "安徽省宣城市宣州区叠嶂西路68号国购广场(宣城店)八佰伴(叠嶂西路店)F2",
        "tel": "",
        "category": "基础设施:公共设施:男洗手间",
        "type": 0,
        "location": {
            "lat": 30.945085,
            "lng": 118.75392
        },
        "ad_info": {
            "adcode": 341802,
            "province": "安徽省",
            "city": "宣城市",
            "district": "宣州区"
        }
    },
    {
        "id": "13889881315986265780",
        "title": "公共厕所",
        "address": "安徽省宣城市宣州区宛溪南路与鳌峰东路交叉口东南方向151米左右",
        "tel": "",
        "category": "基础设施:公共设施:公共厕所",
        "type": 0,
        "location": {
            "lat": 30.940549,
            "lng": 118.769057
        },
        "ad_info": {
            "adcode": 341802,
            "province": "安徽省",
            "city": "宣城市",
            "district": "宣州区"
        }
    },
    {
        "id": "13450154675256094087",
        "title": "公共厕所",
        "address": "安徽省宣城市泾县S206与皖能路交叉口正西方向207米左右",
        "tel": "",
        "category": "基础设施:公共设施:公共厕所",
        "type": 0,
        "location": {
            "lat": 30.686796,
            "lng": 118.368483
        },
        "ad_info": {
            "adcode": 341823,
            "province": "安徽省",
            "city": "宣城市",
            "district": "泾县"
        }
    },
    {
        "id": "3405543428894231029",
        "title": "公共厕所",
        "address": "安徽省宣城市广德市东关街与迎春街交叉口东南方向83米左右",
        "tel": "",
        "category": "基础设施:公共设施:公共厕所",
        "type": 0,
        "location": {
            "lat": 30.890869,
            "lng": 119.42737
        },
        "ad_info": {
            "adcode": 341882,
            "province": "安徽省",
            "city": "宣城市",
            "district": "广德市"
        }
    },
    {
        "id": "10174370203984441462",
        "title": "中村旅游厕所",
        "address": "安徽省宣城市绩溪县X091",
        "tel": "",
        "category": "基础设施:公共设施:公共厕所",
        "type": 0,
        "location": {
            "lat": 30.195433,
            "lng": 118.611197
        },
        "ad_info": {
            "adcode": 341824,
            "province": "安徽省",
            "city": "宣城市",
            "district": "绩溪县"
        }
    },
    {
        "id": "16651782611996540460",
        "title": "公共厕所",
        "address": "安徽省宣城市宣州区文苑路与竹苑路交叉口西南方向138米左右",
        "tel": "",
        "category": "基础设施:公共设施:公共厕所",
        "type": 0,
        "location": {
            "lat": 30.91365,
            "lng": 118.773524
        },
        "ad_info": {
            "adcode": 341802,
            "province": "安徽省",
            "city": "宣城市",
            "district": "宣州区"
        }
    },
    {
        "id": "14216141033518456118",
        "title": "公共厕所",
        "address": "安徽省宣城市宣州区元宝街与教委巷交叉口东南方向82米左右",
        "tel": "",
        "category": "基础设施:公共设施:公共厕所",
        "type": 0,
        "location": {
            "lat": 30.94283,
            "lng": 118.757744
        },
        "ad_info": {
            "adcode": 341802,
            "province": "安徽省",
            "city": "宣城市",
            "district": "宣州区"
        }
    },
    {
        "id": "2366459779567258986",
        "title": "公共厕所",
        "address": "安徽省宣城市宣州区阳德路辅路与卜村南路交叉口东南160米",
        "tel": "",
        "category": "基础设施:公共设施:公共厕所",
        "type": 0,
        "location": {
            "lat": 30.95129,
            "lng": 118.784939
        },
        "ad_info": {
            "adcode": 341802,
            "province": "安徽省",
            "city": "宣城市",
            "district": "宣州区"
        }
    },
    {
        "id": "15815351305807098828",
        "title": "公共厕所",
        "address": "安徽省宣城市郎溪县G235与新安路交叉口正南方向397米左右",
        "tel": "",
        "category": "基础设施:公共设施:公共厕所",
        "type": 0,
        "location": {
            "lat": 31.025181,
            "lng": 119.152552
        },
        "ad_info": {
            "adcode": 341821,
            "province": "安徽省",
            "city": "宣城市",
            "district": "郎溪县"
        }
    },
    {
        "id": "552623203232194326",
        "title": "公共厕所",
        "address": "安徽省宣城市泾县交通路与环城东路交叉口东北方向27米左右",
        "tel": "",
        "category": "基础设施:公共设施:公共厕所",
        "type": 0,
        "location": {
            "lat": 30.686333,
            "lng": 118.411518
        },
        "ad_info": {
            "adcode": 341823,
            "province": "安徽省",
            "city": "宣城市",
            "district": "泾县"
        }
    },
    {
        "id": "12821543907005216816",
        "title": "星河园公共厕所",
        "address": "安徽省宣城市宁国市中溪北路与中溪南路交叉口正北方向57米左右",
        "tel": "",
        "category": "基础设施:公共设施:公共厕所",
        "type": 0,
        "location": {
            "lat": 30.619381,
            "lng": 118.980047
        },
        "ad_info": {
            "adcode": 341881,
            "province": "安徽省",
            "city": "宣城市",
            "district": "宁国市"
        }
    },
    {
        "id": "13817387959424490487",
        "title": "公共厕所",
        "address": "安徽省宣城市绩溪县徽山大道",
        "tel": "",
        "category": "基础设施:公共设施:公共厕所",
        "type": 0,
        "location": {
            "lat": 30.079566,
            "lng": 118.597665
        },
        "ad_info": {
            "adcode": 341824,
            "province": "安徽省",
            "city": "宣城市",
            "district": "绩溪县"
        }
    },
    {
        "id": "12971416420473521231",
        "title": "公共卫生间",
        "address": "安徽省宣城市宁国市东马路",
        "tel": "",
        "category": "基础设施:公共设施:公共厕所",
        "type": 0,
        "location": {
            "lat": 30.460952,
            "lng": 119.118165
        },
        "ad_info": {
            "adcode": 341881,
            "province": "安徽省",
            "city": "宣城市",
            "district": "宁国市"
        }
    },
    {
        "id": "9251957324464825366",
        "title": "公共厕所",
        "address": "安徽省宣城市宁国市西村卫生室北侧220米",
        "tel": "",
        "category": "基础设施:公共设施:公共厕所",
        "type": 0,
        "location": {
            "lat": 30.69514,
            "lng": 118.957451
        },
        "ad_info": {
            "adcode": 341881,
            "province": "安徽省",
            "city": "宣城市",
            "district": "宁国市"
        }
    },
    {
        "id": "12867915878871346935",
        "title": "公厕",
        "address": "安徽省宣城市泾县X073",
        "tel": "",
        "category": "基础设施:公共设施:公共厕所",
        "type": 0,
        "location": {
            "lat": 30.712256,
            "lng": 118.554197
        },
        "ad_info": {
            "adcode": 341823,
            "province": "安徽省",
            "city": "宣城市",
            "district": "泾县"
        }
    },
    {
        "id": "11395977080635263516",
        "title": "旅游公共厕所",
        "address": "安徽省宣城市旌德县G205与板桥小桥交叉口东北方向93米左右",
        "tel": "",
        "category": "基础设施:公共设施:公共厕所",
        "type": 0,
        "location": {
            "lat": 30.230283,
            "lng": 118.374961
        },
        "ad_info": {
            "adcode": 341825,
            "province": "安徽省",
            "city": "宣城市",
            "district": "旌德县"
        }
    },
    {
        "id": "3264875627092453702",
        "title": "公共厕所(浙川村村委会)",
        "address": "安徽省宣城市绩溪县华浪线与吉浙线交叉口正西方向791米左右",
        "tel": "",
        "category": "基础设施:公共设施:公共厕所",
        "type": 0,
        "location": {
            "lat": 30.15052,
            "lng": 118.86428
        },
        "ad_info": {
            "adcode": 341824,
            "province": "安徽省",
            "city": "宣城市",
            "district": "绩溪县"
        }
    },
    {
        "id": "52781567637946989",
        "title": "公共厕所",
        "address": "安徽省宣城市宁国市东津路与治安巷交叉口西北方向257米左右",
        "tel": "",
        "category": "基础设施:公共设施:公共厕所",
        "type": 0,
        "location": {
            "lat": 30.634237,
            "lng": 118.998942
        },
        "ad_info": {
            "adcode": 341881,
            "province": "安徽省",
            "city": "宣城市",
            "district": "宁国市"
        }
    },
    {
        "id": "13015138391135234948",
        "title": "公共厕所",
        "address": "安徽省宣城市广德市太极大道与清吉路交叉口西北方向45米左右",
        "tel": "",
        "category": "基础设施:公共设施:公共厕所",
        "type": 0,
        "location": {
            "lat": 30.898124,
            "lng": 119.409396
        },
        "ad_info": {
            "adcode": 341882,
            "province": "安徽省",
            "city": "宣城市",
            "district": "广德市"
        }
    },
    {
        "id": "3428421553559400126",
        "title": "公共厕所",
        "address": "安徽省宣城市广德市横山中路与环城西路交叉口正北方向87米左右",
        "tel": "",
        "category": "基础设施:公共设施:公共厕所",
        "type": 0,
        "location": {
            "lat": 30.896937,
            "lng": 119.414143
        },
        "ad_info": {
            "adcode": 341882,
            "province": "安徽省",
            "city": "宣城市",
            "district": "广德市"
        }
    },
    {
        "id": "2082566501488865578",
        "title": "男洗手间(八佰伴)",
        "address": "安徽省宣城市宣州区叠嶂西路68号国购广场(宣城店)八佰伴(叠嶂西路店)F2",
        "tel": "",
        "category": "基础设施:公共设施:男洗手间",
        "type": 0,
        "location": {
            "lat": 30.945085,
            "lng": 118.75392
        },
        "ad_info": {
            "adcode": 341802,
            "province": "安徽省",
            "city": "宣城市",
            "district": "宣州区"
        }
    },
    {
        "id": "13889881315986265780",
        "title": "公共厕所",
        "address": "安徽省宣城市宣州区宛溪南路与鳌峰东路交叉口东南方向151米左右",
        "tel": "",
        "category": "基础设施:公共设施:公共厕所",
        "type": 0,
        "location": {
            "lat": 30.940549,
            "lng": 118.769057
        },
        "ad_info": {
            "adcode": 341802,
            "province": "安徽省",
            "city": "宣城市",
            "district": "宣州区"
        }
    },
    {
        "id": "13450154675256094087",
        "title": "公共厕所",
        "address": "安徽省宣城市泾县S206与皖能路交叉口正西方向207米左右",
        "tel": "",
        "category": "基础设施:公共设施:公共厕所",
        "type": 0,
        "location": {
            "lat": 30.686796,
            "lng": 118.368483
        },
        "ad_info": {
            "adcode": 341823,
            "province": "安徽省",
            "city": "宣城市",
            "district": "泾县"
        }
    },
    {
        "id": "3405543428894231029",
        "title": "公共厕所",
        "address": "安徽省宣城市广德市东关街与迎春街交叉口东南方向83米左右",
        "tel": "",
        "category": "基础设施:公共设施:公共厕所",
        "type": 0,
        "location": {
            "lat": 30.890869,
            "lng": 119.42737
        },
        "ad_info": {
            "adcode": 341882,
            "province": "安徽省",
            "city": "宣城市",
            "district": "广德市"
        }
    },
    {
        "id": "10174370203984441462",
        "title": "中村旅游厕所",
        "address": "安徽省宣城市绩溪县X091",
        "tel": "",
        "category": "基础设施:公共设施:公共厕所",
        "type": 0,
        "location": {
            "lat": 30.195433,
            "lng": 118.611197
        },
        "ad_info": {
            "adcode": 341824,
            "province": "安徽省",
            "city": "宣城市",
            "district": "绩溪县"
        }
    },
    {
        "id": "16651782611996540460",
        "title": "公共厕所",
        "address": "安徽省宣城市宣州区文苑路与竹苑路交叉口西南方向138米左右",
        "tel": "",
        "category": "基础设施:公共设施:公共厕所",
        "type": 0,
        "location": {
            "lat": 30.91365,
            "lng": 118.773524
        },
        "ad_info": {
            "adcode": 341802,
            "province": "安徽省",
            "city": "宣城市",
            "district": "宣州区"
        }
    },
    {
        "id": "14216141033518456118",
        "title": "公共厕所",
        "address": "安徽省宣城市宣州区元宝街与教委巷交叉口东南方向82米左右",
        "tel": "",
        "category": "基础设施:公共设施:公共厕所",
        "type": 0,
        "location": {
            "lat": 30.94283,
            "lng": 118.757744
        },
        "ad_info": {
            "adcode": 341802,
            "province": "安徽省",
            "city": "宣城市",
            "district": "宣州区"
        }
    },
    {
        "id": "2366459779567258986",
        "title": "公共厕所",
        "address": "安徽省宣城市宣州区阳德路辅路与卜村南路交叉口东南160米",
        "tel": "",
        "category": "基础设施:公共设施:公共厕所",
        "type": 0,
        "location": {
            "lat": 30.95129,
            "lng": 118.784939
        },
        "ad_info": {
            "adcode": 341802,
            "province": "安徽省",
            "city": "宣城市",
            "district": "宣州区"
        }
    },
    {
        "id": "15815351305807098828",
        "title": "公共厕所",
        "address": "安徽省宣城市郎溪县G235与新安路交叉口正南方向397米左右",
        "tel": "",
        "category": "基础设施:公共设施:公共厕所",
        "type": 0,
        "location": {
            "lat": 31.025181,
            "lng": 119.152552
        },
        "ad_info": {
            "adcode": 341821,
            "province": "安徽省",
            "city": "宣城市",
            "district": "郎溪县"
        }
    },
    {
        "id": "552623203232194326",
        "title": "公共厕所",
        "address": "安徽省宣城市泾县交通路与环城东路交叉口东北方向27米左右",
        "tel": "",
        "category": "基础设施:公共设施:公共厕所",
        "type": 0,
        "location": {
            "lat": 30.686333,
            "lng": 118.411518
        },
        "ad_info": {
            "adcode": 341823,
            "province": "安徽省",
            "city": "宣城市",
            "district": "泾县"
        }
    },
    {
        "id": "12821543907005216816",
        "title": "星河园公共厕所",
        "address": "安徽省宣城市宁国市中溪北路与中溪南路交叉口正北方向57米左右",
        "tel": "",
        "category": "基础设施:公共设施:公共厕所",
        "type": 0,
        "location": {
            "lat": 30.619381,
            "lng": 118.980047
        },
        "ad_info": {
            "adcode": 341881,
            "province": "安徽省",
            "city": "宣城市",
            "district": "宁国市"
        }
    },
    {
        "id": "13817387959424490487",
        "title": "公共厕所",
        "address": "安徽省宣城市绩溪县徽山大道",
        "tel": "",
        "category": "基础设施:公共设施:公共厕所",
        "type": 0,
        "location": {
            "lat": 30.079566,
            "lng": 118.597665
        },
        "ad_info": {
            "adcode": 341824,
            "province": "安徽省",
            "city": "宣城市",
            "district": "绩溪县"
        }
    },
    {
        "id": "12971416420473521231",
        "title": "公共卫生间",
        "address": "安徽省宣城市宁国市东马路",
        "tel": "",
        "category": "基础设施:公共设施:公共厕所",
        "type": 0,
        "location": {
            "lat": 30.460952,
            "lng": 119.118165
        },
        "ad_info": {
            "adcode": 341881,
            "province": "安徽省",
            "city": "宣城市",
            "district": "宁国市"
        }
    },
    {
        "id": "9251957324464825366",
        "title": "公共厕所",
        "address": "安徽省宣城市宁国市西村卫生室北侧220米",
        "tel": "",
        "category": "基础设施:公共设施:公共厕所",
        "type": 0,
        "location": {
            "lat": 30.69514,
            "lng": 118.957451
        },
        "ad_info": {
            "adcode": 341881,
            "province": "安徽省",
            "city": "宣城市",
            "district": "宁国市"
        }
    },
    {
        "id": "12867915878871346935",
        "title": "公厕",
        "address": "安徽省宣城市泾县X073",
        "tel": "",
        "category": "基础设施:公共设施:公共厕所",
        "type": 0,
        "location": {
            "lat": 30.712256,
            "lng": 118.554197
        },
        "ad_info": {
            "adcode": 341823,
            "province": "安徽省",
            "city": "宣城市",
            "district": "泾县"
        }
    },
    {
        "id": "11395977080635263516",
        "title": "旅游公共厕所",
        "address": "安徽省宣城市旌德县G205与板桥小桥交叉口东北方向93米左右",
        "tel": "",
        "category": "基础设施:公共设施:公共厕所",
        "type": 0,
        "location": {
            "lat": 30.230283,
            "lng": 118.374961
        },
        "ad_info": {
            "adcode": 341825,
            "province": "安徽省",
            "city": "宣城市",
            "district": "旌德县"
        }
    },
    {
        "id": "3264875627092453702",
        "title": "公共厕所(浙川村村委会)",
        "address": "安徽省宣城市绩溪县华浪线与吉浙线交叉口正西方向791米左右",
        "tel": "",
        "category": "基础设施:公共设施:公共厕所",
        "type": 0,
        "location": {
            "lat": 30.15052,
            "lng": 118.86428
        },
        "ad_info": {
            "adcode": 341824,
            "province": "安徽省",
            "city": "宣城市",
            "district": "绩溪县"
        }
    },
    {
        "id": "52781567637946989",
        "title": "公共厕所",
        "address": "安徽省宣城市宁国市东津路与治安巷交叉口西北方向257米左右",
        "tel": "",
        "category": "基础设施:公共设施:公共厕所",
        "type": 0,
        "location": {
            "lat": 30.634237,
            "lng": 118.998942
        },
        "ad_info": {
            "adcode": 341881,
            "province": "安徽省",
            "city": "宣城市",
            "district": "宁国市"
        }
    },
    {
        "id": "13015138391135234948",
        "title": "公共厕所",
        "address": "安徽省宣城市广德市太极大道与清吉路交叉口西北方向45米左右",
        "tel": "",
        "category": "基础设施:公共设施:公共厕所",
        "type": 0,
        "location": {
            "lat": 30.898124,
            "lng": 119.409396
        },
        "ad_info": {
            "adcode": 341882,
            "province": "安徽省",
            "city": "宣城市",
            "district": "广德市"
        }
    },
    {
        "id": "3428421553559400126",
        "title": "公共厕所",
        "address": "安徽省宣城市广德市横山中路与环城西路交叉口正北方向87米左右",
        "tel": "",
        "category": "基础设施:公共设施:公共厕所",
        "type": 0,
        "location": {
            "lat": 30.896937,
            "lng": 119.414143
        },
        "ad_info": {
            "adcode": 341882,
            "province": "安徽省",
            "city": "宣城市",
            "district": "广德市"
        }
    },
    {
        "id": "2082566501488865578",
        "title": "男洗手间(八佰伴)",
        "address": "安徽省宣城市宣州区叠嶂西路68号国购广场(宣城店)八佰伴(叠嶂西路店)F2",
        "tel": "",
        "category": "基础设施:公共设施:男洗手间",
        "type": 0,
        "location": {
            "lat": 30.945085,
            "lng": 118.75392
        },
        "ad_info": {
            "adcode": 341802,
            "province": "安徽省",
            "city": "宣城市",
            "district": "宣州区"
        }
    },
    {
        "id": "13889881315986265780",
        "title": "公共厕所",
        "address": "安徽省宣城市宣州区宛溪南路与鳌峰东路交叉口东南方向151米左右",
        "tel": "",
        "category": "基础设施:公共设施:公共厕所",
        "type": 0,
        "location": {
            "lat": 30.940549,
            "lng": 118.769057
        },
        "ad_info": {
            "adcode": 341802,
            "province": "安徽省",
            "city": "宣城市",
            "district": "宣州区"
        }
    },
    {
        "id": "13450154675256094087",
        "title": "公共厕所",
        "address": "安徽省宣城市泾县S206与皖能路交叉口正西方向207米左右",
        "tel": "",
        "category": "基础设施:公共设施:公共厕所",
        "type": 0,
        "location": {
            "lat": 30.686796,
            "lng": 118.368483
        },
        "ad_info": {
            "adcode": 341823,
            "province": "安徽省",
            "city": "宣城市",
            "district": "泾县"
        }
    },
    {
        "id": "3405543428894231029",
        "title": "公共厕所",
        "address": "安徽省宣城市广德市东关街与迎春街交叉口东南方向83米左右",
        "tel": "",
        "category": "基础设施:公共设施:公共厕所",
        "type": 0,
        "location": {
            "lat": 30.890869,
            "lng": 119.42737
        },
        "ad_info": {
            "adcode": 341882,
            "province": "安徽省",
            "city": "宣城市",
            "district": "广德市"
        }
    },
    {
        "id": "10174370203984441462",
        "title": "中村旅游厕所",
        "address": "安徽省宣城市绩溪县X091",
        "tel": "",
        "category": "基础设施:公共设施:公共厕所",
        "type": 0,
        "location": {
            "lat": 30.195433,
            "lng": 118.611197
        },
        "ad_info": {
            "adcode": 341824,
            "province": "安徽省",
            "city": "宣城市",
            "district": "绩溪县"
        }
    },
    {
        "id": "16651782611996540460",
        "title": "公共厕所",
        "address": "安徽省宣城市宣州区文苑路与竹苑路交叉口西南方向138米左右",
        "tel": "",
        "category": "基础设施:公共设施:公共厕所",
        "type": 0,
        "location": {
            "lat": 30.91365,
            "lng": 118.773524
        },
        "ad_info": {
            "adcode": 341802,
            "province": "安徽省",
            "city": "宣城市",
            "district": "宣州区"
        }
    },
    {
        "id": "14216141033518456118",
        "title": "公共厕所",
        "address": "安徽省宣城市宣州区元宝街与教委巷交叉口东南方向82米左右",
        "tel": "",
        "category": "基础设施:公共设施:公共厕所",
        "type": 0,
        "location": {
            "lat": 30.94283,
            "lng": 118.757744
        },
        "ad_info": {
            "adcode": 341802,
            "province": "安徽省",
            "city": "宣城市",
            "district": "宣州区"
        }
    },
    {
        "id": "2366459779567258986",
        "title": "公共厕所",
        "address": "安徽省宣城市宣州区阳德路辅路与卜村南路交叉口东南160米",
        "tel": "",
        "category": "基础设施:公共设施:公共厕所",
        "type": 0,
        "location": {
            "lat": 30.95129,
            "lng": 118.784939
        },
        "ad_info": {
            "adcode": 341802,
            "province": "安徽省",
            "city": "宣城市",
            "district": "宣州区"
        }
    },
    {
        "id": "15815351305807098828",
        "title": "公共厕所",
        "address": "安徽省宣城市郎溪县G235与新安路交叉口正南方向397米左右",
        "tel": "",
        "category": "基础设施:公共设施:公共厕所",
        "type": 0,
        "location": {
            "lat": 31.025181,
            "lng": 119.152552
        },
        "ad_info": {
            "adcode": 341821,
            "province": "安徽省",
            "city": "宣城市",
            "district": "郎溪县"
        }
    },
    {
        "id": "552623203232194326",
        "title": "公共厕所",
        "address": "安徽省宣城市泾县交通路与环城东路交叉口东北方向27米左右",
        "tel": "",
        "category": "基础设施:公共设施:公共厕所",
        "type": 0,
        "location": {
            "lat": 30.686333,
            "lng": 118.411518
        },
        "ad_info": {
            "adcode": 341823,
            "province": "安徽省",
            "city": "宣城市",
            "district": "泾县"
        }
    },
    {
        "id": "12821543907005216816",
        "title": "星河园公共厕所",
        "address": "安徽省宣城市宁国市中溪北路与中溪南路交叉口正北方向57米左右",
        "tel": "",
        "category": "基础设施:公共设施:公共厕所",
        "type": 0,
        "location": {
            "lat": 30.619381,
            "lng": 118.980047
        },
        "ad_info": {
            "adcode": 341881,
            "province": "安徽省",
            "city": "宣城市",
            "district": "宁国市"
        }
    },
    {
        "id": "13817387959424490487",
        "title": "公共厕所",
        "address": "安徽省宣城市绩溪县徽山大道",
        "tel": "",
        "category": "基础设施:公共设施:公共厕所",
        "type": 0,
        "location": {
            "lat": 30.079566,
            "lng": 118.597665
        },
        "ad_info": {
            "adcode": 341824,
            "province": "安徽省",
            "city": "宣城市",
            "district": "绩溪县"
        }
    },
    {
        "id": "12971416420473521231",
        "title": "公共卫生间",
        "address": "安徽省宣城市宁国市东马路",
        "tel": "",
        "category": "基础设施:公共设施:公共厕所",
        "type": 0,
        "location": {
            "lat": 30.460952,
            "lng": 119.118165
        },
        "ad_info": {
            "adcode": 341881,
            "province": "安徽省",
            "city": "宣城市",
            "district": "宁国市"
        }
    },
    {
        "id": "9251957324464825366",
        "title": "公共厕所",
        "address": "安徽省宣城市宁国市西村卫生室北侧220米",
        "tel": "",
        "category": "基础设施:公共设施:公共厕所",
        "type": 0,
        "location": {
            "lat": 30.69514,
            "lng": 118.957451
        },
        "ad_info": {
            "adcode": 341881,
            "province": "安徽省",
            "city": "宣城市",
            "district": "宁国市"
        }
    },
    {
        "id": "12867915878871346935",
        "title": "公厕",
        "address": "安徽省宣城市泾县X073",
        "tel": "",
        "category": "基础设施:公共设施:公共厕所",
        "type": 0,
        "location": {
            "lat": 30.712256,
            "lng": 118.554197
        },
        "ad_info": {
            "adcode": 341823,
            "province": "安徽省",
            "city": "宣城市",
            "district": "泾县"
        }
    },
    {
        "id": "11395977080635263516",
        "title": "旅游公共厕所",
        "address": "安徽省宣城市旌德县G205与板桥小桥交叉口东北方向93米左右",
        "tel": "",
        "category": "基础设施:公共设施:公共厕所",
        "type": 0,
        "location": {
            "lat": 30.230283,
            "lng": 118.374961
        },
        "ad_info": {
            "adcode": 341825,
            "province": "安徽省",
            "city": "宣城市",
            "district": "旌德县"
        }
    },
    {
        "id": "3264875627092453702",
        "title": "公共厕所(浙川村村委会)",
        "address": "安徽省宣城市绩溪县华浪线与吉浙线交叉口正西方向791米左右",
        "tel": "",
        "category": "基础设施:公共设施:公共厕所",
        "type": 0,
        "location": {
            "lat": 30.15052,
            "lng": 118.86428
        },
        "ad_info": {
            "adcode": 341824,
            "province": "安徽省",
            "city": "宣城市",
            "district": "绩溪县"
        }
    },
    {
        "id": "52781567637946989",
        "title": "公共厕所",
        "address": "安徽省宣城市宁国市东津路与治安巷交叉口西北方向257米左右",
        "tel": "",
        "category": "基础设施:公共设施:公共厕所",
        "type": 0,
        "location": {
            "lat": 30.634237,
            "lng": 118.998942
        },
        "ad_info": {
            "adcode": 341881,
            "province": "安徽省",
            "city": "宣城市",
            "district": "宁国市"
        }
    },
    {
        "id": "13015138391135234948",
        "title": "公共厕所",
        "address": "安徽省宣城市广德市太极大道与清吉路交叉口西北方向45米左右",
        "tel": "",
        "category": "基础设施:公共设施:公共厕所",
        "type": 0,
        "location": {
            "lat": 30.898124,
            "lng": 119.409396
        },
        "ad_info": {
            "adcode": 341882,
            "province": "安徽省",
            "city": "宣城市",
            "district": "广德市"
        }
    },
    {
        "id": "3428421553559400126",
        "title": "公共厕所",
        "address": "安徽省宣城市广德市横山中路与环城西路交叉口正北方向87米左右",
        "tel": "",
        "category": "基础设施:公共设施:公共厕所",
        "type": 0,
        "location": {
            "lat": 30.896937,
            "lng": 119.414143
        },
        "ad_info": {
            "adcode": 341882,
            "province": "安徽省",
            "city": "宣城市",
            "district": "广德市"
        }
    },
    {
        "id": "2082566501488865578",
        "title": "男洗手间(八佰伴)",
        "address": "安徽省宣城市宣州区叠嶂西路68号国购广场(宣城店)八佰伴(叠嶂西路店)F2",
        "tel": "",
        "category": "基础设施:公共设施:男洗手间",
        "type": 0,
        "location": {
            "lat": 30.945085,
            "lng": 118.75392
        },
        "ad_info": {
            "adcode": 341802,
            "province": "安徽省",
            "city": "宣城市",
            "district": "宣州区"
        }
    },
    {
        "id": "13889881315986265780",
        "title": "公共厕所",
        "address": "安徽省宣城市宣州区宛溪南路与鳌峰东路交叉口东南方向151米左右",
        "tel": "",
        "category": "基础设施:公共设施:公共厕所",
        "type": 0,
        "location": {
            "lat": 30.940549,
            "lng": 118.769057
        },
        "ad_info": {
            "adcode": 341802,
            "province": "安徽省",
            "city": "宣城市",
            "district": "宣州区"
        }
    },
    {
        "id": "13450154675256094087",
        "title": "公共厕所",
        "address": "安徽省宣城市泾县S206与皖能路交叉口正西方向207米左右",
        "tel": "",
        "category": "基础设施:公共设施:公共厕所",
        "type": 0,
        "location": {
            "lat": 30.686796,
            "lng": 118.368483
        },
        "ad_info": {
            "adcode": 341823,
            "province": "安徽省",
            "city": "宣城市",
            "district": "泾县"
        }
    },
    {
        "id": "3405543428894231029",
        "title": "公共厕所",
        "address": "安徽省宣城市广德市东关街与迎春街交叉口东南方向83米左右",
        "tel": "",
        "category": "基础设施:公共设施:公共厕所",
        "type": 0,
        "location": {
            "lat": 30.890869,
            "lng": 119.42737
        },
        "ad_info": {
            "adcode": 341882,
            "province": "安徽省",
            "city": "宣城市",
            "district": "广德市"
        }
    },
    {
        "id": "10174370203984441462",
        "title": "中村旅游厕所",
        "address": "安徽省宣城市绩溪县X091",
        "tel": "",
        "category": "基础设施:公共设施:公共厕所",
        "type": 0,
        "location": {
            "lat": 30.195433,
            "lng": 118.611197
        },
        "ad_info": {
            "adcode": 341824,
            "province": "安徽省",
            "city": "宣城市",
            "district": "绩溪县"
        }
    },
    {
        "id": "16651782611996540460",
        "title": "公共厕所",
        "address": "安徽省宣城市宣州区文苑路与竹苑路交叉口西南方向138米左右",
        "tel": "",
        "category": "基础设施:公共设施:公共厕所",
        "type": 0,
        "location": {
            "lat": 30.91365,
            "lng": 118.773524
        },
        "ad_info": {
            "adcode": 341802,
            "province": "安徽省",
            "city": "宣城市",
            "district": "宣州区"
        }
    },
    {
        "id": "14216141033518456118",
        "title": "公共厕所",
        "address": "安徽省宣城市宣州区元宝街与教委巷交叉口东南方向82米左右",
        "tel": "",
        "category": "基础设施:公共设施:公共厕所",
        "type": 0,
        "location": {
            "lat": 30.94283,
            "lng": 118.757744
        },
        "ad_info": {
            "adcode": 341802,
            "province": "安徽省",
            "city": "宣城市",
            "district": "宣州区"
        }
    },
    {
        "id": "2366459779567258986",
        "title": "公共厕所",
        "address": "安徽省宣城市宣州区阳德路辅路与卜村南路交叉口东南160米",
        "tel": "",
        "category": "基础设施:公共设施:公共厕所",
        "type": 0,
        "location": {
            "lat": 30.95129,
            "lng": 118.784939
        },
        "ad_info": {
            "adcode": 341802,
            "province": "安徽省",
            "city": "宣城市",
            "district": "宣州区"
        }
    },
    {
        "id": "15815351305807098828",
        "title": "公共厕所",
        "address": "安徽省宣城市郎溪县G235与新安路交叉口正南方向397米左右",
        "tel": "",
        "category": "基础设施:公共设施:公共厕所",
        "type": 0,
        "location": {
            "lat": 31.025181,
            "lng": 119.152552
        },
        "ad_info": {
            "adcode": 341821,
            "province": "安徽省",
            "city": "宣城市",
            "district": "郎溪县"
        }
    },
    {
        "id": "552623203232194326",
        "title": "公共厕所",
        "address": "安徽省宣城市泾县交通路与环城东路交叉口东北方向27米左右",
        "tel": "",
        "category": "基础设施:公共设施:公共厕所",
        "type": 0,
        "location": {
            "lat": 30.686333,
            "lng": 118.411518
        },
        "ad_info": {
            "adcode": 341823,
            "province": "安徽省",
            "city": "宣城市",
            "district": "泾县"
        }
    },
    {
        "id": "12821543907005216816",
        "title": "星河园公共厕所",
        "address": "安徽省宣城市宁国市中溪北路与中溪南路交叉口正北方向57米左右",
        "tel": "",
        "category": "基础设施:公共设施:公共厕所",
        "type": 0,
        "location": {
            "lat": 30.619381,
            "lng": 118.980047
        },
        "ad_info": {
            "adcode": 341881,
            "province": "安徽省",
            "city": "宣城市",
            "district": "宁国市"
        }
    },
    {
        "id": "13817387959424490487",
        "title": "公共厕所",
        "address": "安徽省宣城市绩溪县徽山大道",
        "tel": "",
        "category": "基础设施:公共设施:公共厕所",
        "type": 0,
        "location": {
            "lat": 30.079566,
            "lng": 118.597665
        },
        "ad_info": {
            "adcode": 341824,
            "province": "安徽省",
            "city": "宣城市",
            "district": "绩溪县"
        }
    },
    {
        "id": "12971416420473521231",
        "title": "公共卫生间",
        "address": "安徽省宣城市宁国市东马路",
        "tel": "",
        "category": "基础设施:公共设施:公共厕所",
        "type": 0,
        "location": {
            "lat": 30.460952,
            "lng": 119.118165
        },
        "ad_info": {
            "adcode": 341881,
            "province": "安徽省",
            "city": "宣城市",
            "district": "宁国市"
        }
    },
    {
        "id": "9251957324464825366",
        "title": "公共厕所",
        "address": "安徽省宣城市宁国市西村卫生室北侧220米",
        "tel": "",
        "category": "基础设施:公共设施:公共厕所",
        "type": 0,
        "location": {
            "lat": 30.69514,
            "lng": 118.957451
        },
        "ad_info": {
            "adcode": 341881,
            "province": "安徽省",
            "city": "宣城市",
            "district": "宁国市"
        }
    },
    {
        "id": "12867915878871346935",
        "title": "公厕",
        "address": "安徽省宣城市泾县X073",
        "tel": "",
        "category": "基础设施:公共设施:公共厕所",
        "type": 0,
        "location": {
            "lat": 30.712256,
            "lng": 118.554197
        },
        "ad_info": {
            "adcode": 341823,
            "province": "安徽省",
            "city": "宣城市",
            "district": "泾县"
        }
    },
    {
        "id": "11395977080635263516",
        "title": "旅游公共厕所",
        "address": "安徽省宣城市旌德县G205与板桥小桥交叉口东北方向93米左右",
        "tel": "",
        "category": "基础设施:公共设施:公共厕所",
        "type": 0,
        "location": {
            "lat": 30.230283,
            "lng": 118.374961
        },
        "ad_info": {
            "adcode": 341825,
            "province": "安徽省",
            "city": "宣城市",
            "district": "旌德县"
        }
    },
    {
        "id": "3264875627092453702",
        "title": "公共厕所(浙川村村委会)",
        "address": "安徽省宣城市绩溪县华浪线与吉浙线交叉口正西方向791米左右",
        "tel": "",
        "category": "基础设施:公共设施:公共厕所",
        "type": 0,
        "location": {
            "lat": 30.15052,
            "lng": 118.86428
        },
        "ad_info": {
            "adcode": 341824,
            "province": "安徽省",
            "city": "宣城市",
            "district": "绩溪县"
        }
    },
    {
        "id": "52781567637946989",
        "title": "公共厕所",
        "address": "安徽省宣城市宁国市东津路与治安巷交叉口西北方向257米左右",
        "tel": "",
        "category": "基础设施:公共设施:公共厕所",
        "type": 0,
        "location": {
            "lat": 30.634237,
            "lng": 118.998942
        },
        "ad_info": {
            "adcode": 341881,
            "province": "安徽省",
            "city": "宣城市",
            "district": "宁国市"
        }
    },
    {
        "id": "13015138391135234948",
        "title": "公共厕所",
        "address": "安徽省宣城市广德市太极大道与清吉路交叉口西北方向45米左右",
        "tel": "",
        "category": "基础设施:公共设施:公共厕所",
        "type": 0,
        "location": {
            "lat": 30.898124,
            "lng": 119.409396
        },
        "ad_info": {
            "adcode": 341882,
            "province": "安徽省",
            "city": "宣城市",
            "district": "广德市"
        }
    },
    {
        "id": "3428421553559400126",
        "title": "公共厕所",
        "address": "安徽省宣城市广德市横山中路与环城西路交叉口正北方向87米左右",
        "tel": "",
        "category": "基础设施:公共设施:公共厕所",
        "type": 0,
        "location": {
            "lat": 30.896937,
            "lng": 119.414143
        },
        "ad_info": {
            "adcode": 341882,
            "province": "安徽省",
            "city": "宣城市",
            "district": "广德市"
        }
    },
    {
        "id": "2082566501488865578",
        "title": "男洗手间(八佰伴)",
        "address": "安徽省宣城市宣州区叠嶂西路68号国购广场(宣城店)八佰伴(叠嶂西路店)F2",
        "tel": "",
        "category": "基础设施:公共设施:男洗手间",
        "type": 0,
        "location": {
            "lat": 30.945085,
            "lng": 118.75392
        },
        "ad_info": {
            "adcode": 341802,
            "province": "安徽省",
            "city": "宣城市",
            "district": "宣州区"
        }
    },
    {
        "id": "13889881315986265780",
        "title": "公共厕所",
        "address": "安徽省宣城市宣州区宛溪南路与鳌峰东路交叉口东南方向151米左右",
        "tel": "",
        "category": "基础设施:公共设施:公共厕所",
        "type": 0,
        "location": {
            "lat": 30.940549,
            "lng": 118.769057
        },
        "ad_info": {
            "adcode": 341802,
            "province": "安徽省",
            "city": "宣城市",
            "district": "宣州区"
        }
    },
    {
        "id": "13450154675256094087",
        "title": "公共厕所",
        "address": "安徽省宣城市泾县S206与皖能路交叉口正西方向207米左右",
        "tel": "",
        "category": "基础设施:公共设施:公共厕所",
        "type": 0,
        "location": {
            "lat": 30.686796,
            "lng": 118.368483
        },
        "ad_info": {
            "adcode": 341823,
            "province": "安徽省",
            "city": "宣城市",
            "district": "泾县"
        }
    },
    {
        "id": "3405543428894231029",
        "title": "公共厕所",
        "address": "安徽省宣城市广德市东关街与迎春街交叉口东南方向83米左右",
        "tel": "",
        "category": "基础设施:公共设施:公共厕所",
        "type": 0,
        "location": {
            "lat": 30.890869,
            "lng": 119.42737
        },
        "ad_info": {
            "adcode": 341882,
            "province": "安徽省",
            "city": "宣城市",
            "district": "广德市"
        }
    },
    {
        "id": "10174370203984441462",
        "title": "中村旅游厕所",
        "address": "安徽省宣城市绩溪县X091",
        "tel": "",
        "category": "基础设施:公共设施:公共厕所",
        "type": 0,
        "location": {
            "lat": 30.195433,
            "lng": 118.611197
        },
        "ad_info": {
            "adcode": 341824,
            "province": "安徽省",
            "city": "宣城市",
            "district": "绩溪县"
        }
    },
    {
        "id": "16651782611996540460",
        "title": "公共厕所",
        "address": "安徽省宣城市宣州区文苑路与竹苑路交叉口西南方向138米左右",
        "tel": "",
        "category": "基础设施:公共设施:公共厕所",
        "type": 0,
        "location": {
            "lat": 30.91365,
            "lng": 118.773524
        },
        "ad_info": {
            "adcode": 341802,
            "province": "安徽省",
            "city": "宣城市",
            "district": "宣州区"
        }
    },
    {
        "id": "14216141033518456118",
        "title": "公共厕所",
        "address": "安徽省宣城市宣州区元宝街与教委巷交叉口东南方向82米左右",
        "tel": "",
        "category": "基础设施:公共设施:公共厕所",
        "type": 0,
        "location": {
            "lat": 30.94283,
            "lng": 118.757744
        },
        "ad_info": {
            "adcode": 341802,
            "province": "安徽省",
            "city": "宣城市",
            "district": "宣州区"
        }
    },
    {
        "id": "2366459779567258986",
        "title": "公共厕所",
        "address": "安徽省宣城市宣州区阳德路辅路与卜村南路交叉口东南160米",
        "tel": "",
        "category": "基础设施:公共设施:公共厕所",
        "type": 0,
        "location": {
            "lat": 30.95129,
            "lng": 118.784939
        },
        "ad_info": {
            "adcode": 341802,
            "province": "安徽省",
            "city": "宣城市",
            "district": "宣州区"
        }
    },
    {
        "id": "15815351305807098828",
        "title": "公共厕所",
        "address": "安徽省宣城市郎溪县G235与新安路交叉口正南方向397米左右",
        "tel": "",
        "category": "基础设施:公共设施:公共厕所",
        "type": 0,
        "location": {
            "lat": 31.025181,
            "lng": 119.152552
        },
        "ad_info": {
            "adcode": 341821,
            "province": "安徽省",
            "city": "宣城市",
            "district": "郎溪县"
        }
    },
    {
        "id": "552623203232194326",
        "title": "公共厕所",
        "address": "安徽省宣城市泾县交通路与环城东路交叉口东北方向27米左右",
        "tel": "",
        "category": "基础设施:公共设施:公共厕所",
        "type": 0,
        "location": {
            "lat": 30.686333,
            "lng": 118.411518
        },
        "ad_info": {
            "adcode": 341823,
            "province": "安徽省",
            "city": "宣城市",
            "district": "泾县"
        }
    },
    {
        "id": "12821543907005216816",
        "title": "星河园公共厕所",
        "address": "安徽省宣城市宁国市中溪北路与中溪南路交叉口正北方向57米左右",
        "tel": "",
        "category": "基础设施:公共设施:公共厕所",
        "type": 0,
        "location": {
            "lat": 30.619381,
            "lng": 118.980047
        },
        "ad_info": {
            "adcode": 341881,
            "province": "安徽省",
            "city": "宣城市",
            "district": "宁国市"
        }
    },
    {
        "id": "13817387959424490487",
        "title": "公共厕所",
        "address": "安徽省宣城市绩溪县徽山大道",
        "tel": "",
        "category": "基础设施:公共设施:公共厕所",
        "type": 0,
        "location": {
            "lat": 30.079566,
            "lng": 118.597665
        },
        "ad_info": {
            "adcode": 341824,
            "province": "安徽省",
            "city": "宣城市",
            "district": "绩溪县"
        }
    },
    {
        "id": "12971416420473521231",
        "title": "公共卫生间",
        "address": "安徽省宣城市宁国市东马路",
        "tel": "",
        "category": "基础设施:公共设施:公共厕所",
        "type": 0,
        "location": {
            "lat": 30.460952,
            "lng": 119.118165
        },
        "ad_info": {
            "adcode": 341881,
            "province": "安徽省",
            "city": "宣城市",
            "district": "宁国市"
        }
    },
    {
        "id": "9251957324464825366",
        "title": "公共厕所",
        "address": "安徽省宣城市宁国市西村卫生室北侧220米",
        "tel": "",
        "category": "基础设施:公共设施:公共厕所",
        "type": 0,
        "location": {
            "lat": 30.69514,
            "lng": 118.957451
        },
        "ad_info": {
            "adcode": 341881,
            "province": "安徽省",
            "city": "宣城市",
            "district": "宁国市"
        }
    },
    {
        "id": "12867915878871346935",
        "title": "公厕",
        "address": "安徽省宣城市泾县X073",
        "tel": "",
        "category": "基础设施:公共设施:公共厕所",
        "type": 0,
        "location": {
            "lat": 30.712256,
            "lng": 118.554197
        },
        "ad_info": {
            "adcode": 341823,
            "province": "安徽省",
            "city": "宣城市",
            "district": "泾县"
        }
    },
    {
        "id": "11395977080635263516",
        "title": "旅游公共厕所",
        "address": "安徽省宣城市旌德县G205与板桥小桥交叉口东北方向93米左右",
        "tel": "",
        "category": "基础设施:公共设施:公共厕所",
        "type": 0,
        "location": {
            "lat": 30.230283,
            "lng": 118.374961
        },
        "ad_info": {
            "adcode": 341825,
            "province": "安徽省",
            "city": "宣城市",
            "district": "旌德县"
        }
    },
    {
        "id": "3264875627092453702",
        "title": "公共厕所(浙川村村委会)",
        "address": "安徽省宣城市绩溪县华浪线与吉浙线交叉口正西方向791米左右",
        "tel": "",
        "category": "基础设施:公共设施:公共厕所",
        "type": 0,
        "location": {
            "lat": 30.15052,
            "lng": 118.86428
        },
        "ad_info": {
            "adcode": 341824,
            "province": "安徽省",
            "city": "宣城市",
            "district": "绩溪县"
        }
    },
    {
        "id": "52781567637946989",
        "title": "公共厕所",
        "address": "安徽省宣城市宁国市东津路与治安巷交叉口西北方向257米左右",
        "tel": "",
        "category": "基础设施:公共设施:公共厕所",
        "type": 0,
        "location": {
            "lat": 30.634237,
            "lng": 118.998942
        },
        "ad_info": {
            "adcode": 341881,
            "province": "安徽省",
            "city": "宣城市",
            "district": "宁国市"
        }
    },
    {
        "id": "13015138391135234948",
        "title": "公共厕所",
        "address": "安徽省宣城市广德市太极大道与清吉路交叉口西北方向45米左右",
        "tel": "",
        "category": "基础设施:公共设施:公共厕所",
        "type": 0,
        "location": {
            "lat": 30.898124,
            "lng": 119.409396
        },
        "ad_info": {
            "adcode": 341882,
            "province": "安徽省",
            "city": "宣城市",
            "district": "广德市"
        }
    },
    {
        "id": "3428421553559400126",
        "title": "公共厕所",
        "address": "安徽省宣城市广德市横山中路与环城西路交叉口正北方向87米左右",
        "tel": "",
        "category": "基础设施:公共设施:公共厕所",
        "type": 0,
        "location": {
            "lat": 30.896937,
            "lng": 119.414143
        },
        "ad_info": {
            "adcode": 341882,
            "province": "安徽省",
            "city": "宣城市",
            "district": "广德市"
        }
    },
    {
        "id": "2082566501488865578",
        "title": "男洗手间(八佰伴)",
        "address": "安徽省宣城市宣州区叠嶂西路68号国购广场(宣城店)八佰伴(叠嶂西路店)F2",
        "tel": "",
        "category": "基础设施:公共设施:男洗手间",
        "type": 0,
        "location": {
            "lat": 30.945085,
            "lng": 118.75392
        },
        "ad_info": {
            "adcode": 341802,
            "province": "安徽省",
            "city": "宣城市",
            "district": "宣州区"
        }
    }
]