[
    {
        "id": "510611138930574117",
        "title": "公共厕所",
        "address": "海南省屯昌县供销东路与外贸二里交叉口正南方向72米左右",
        "tel": "",
        "category": "基础设施:公共设施:公共厕所",
        "type": 0,
        "location": {
            "lat": 19.366095,
            "lng": 110.107035
        },
        "ad_info": {
            "adcode": 469022,
            "province": "海南省",
            "city": "",
            "district": "屯昌县"
        }
    },
    {
        "id": "7871054543459755934",
        "title": "公共厕所",
        "address": "海南省屯昌县环东一路与解放东路交叉口正北方向249米左右",
        "tel": "",
        "category": "基础设施:公共设施:公共厕所",
        "type": 0,
        "location": {
            "lat": 19.360362,
            "lng": 110.108574
        },
        "ad_info": {
            "adcode": 469022,
            "province": "海南省",
            "city": "",
            "district": "屯昌县"
        }
    },
    {
        "id": "5431302747950261099",
        "title": "公共厕所",
        "address": "海南省屯昌县东风西路与规划路交叉口正西方向41米左右",
        "tel": "",
        "category": "基础设施:公共设施:公共厕所",
        "type": 0,
        "location": {
            "lat": 19.366469,
            "lng": 110.095657
        },
        "ad_info": {
            "adcode": 469022,
            "province": "海南省",
            "city": "",
            "district": "屯昌县"
        }
    },
    {
        "id": "16445079068234313733",
        "title": "公共厕所",
        "address": "海南省屯昌县新东街与槟榔大道交叉口东北方向45米左右",
        "tel": "",
        "category": "基础设施:公共设施:公共厕所",
        "type": 0,
        "location": {
            "lat": 19.180775,
            "lng": 110.077658
        },
        "ad_info": {
            "adcode": 469022,
            "province": "海南省",
            "city": "",
            "district": "屯昌县"
        }
    },
    {
        "id": "7857138695610640013",
        "title": "公共厕所",
        "address": "海南省屯昌县文西一里与文西路交叉口东南方向130米左右",
        "tel": "",
        "category": "基础设施:公共设施:公共厕所",
        "type": 0,
        "location": {
            "lat": 19.355237,
            "lng": 110.097504
        },
        "ad_info": {
            "adcode": 469022,
            "province": "海南省",
            "city": "",
            "district": "屯昌县"
        }
    },
    {
        "id": "3778394381400077649",
        "title": "公共厕所",
        "address": "海南省屯昌县昌盛北路与龙新路交叉口正东方向98米左右",
        "tel": "",
        "category": "基础设施:公共设施:公共厕所",
        "type": 0,
        "location": {
            "lat": 19.390317,
            "lng": 110.107388
        },
        "ad_info": {
            "adcode": 469022,
            "province": "海南省",
            "city": "",
            "district": "屯昌县"
        }
    },
    {
        "id": "11482274596761285577",
        "title": "公共厕所",
        "address": "海南省屯昌县兴业二横路与龙河路交叉口正西方向148米左右",
        "tel": "",
        "category": "基础设施:公共设施:公共厕所",
        "type": 0,
        "location": {
            "lat": 19.391484,
            "lng": 110.107995
        },
        "ad_info": {
            "adcode": 469022,
            "province": "海南省",
            "city": "",
            "district": "屯昌县"
        }
    },
    {
        "id": "7808361229133834342",
        "title": "公共厕所",
        "address": "海南省屯昌县八一东路与环东二路交叉口正北方向130米左右",
        "tel": "",
        "category": "基础设施:公共设施:公共厕所",
        "type": 0,
        "location": {
            "lat": 19.37677,
            "lng": 110.109935
        },
        "ad_info": {
            "adcode": 469022,
            "province": "海南省",
            "city": "",
            "district": "屯昌县"
        }
    },
    {
        "id": "12266498460139788570",
        "title": "公共厕所",
        "address": "海南省屯昌县环东一路辅路与金竹园路交叉口西南方向59米左右",
        "tel": "",
        "category": "基础设施:公共设施:公共厕所",
        "type": 0,
        "location": {
            "lat": 19.350454,
            "lng": 110.107337
        },
        "ad_info": {
            "adcode": 469022,
            "province": "海南省",
            "city": "",
            "district": "屯昌县"
        }
    },
    {
        "id": "15156608974418090866",
        "title": "公共厕所",
        "address": "海南省屯昌县建安路与昌武路交叉口正西方向50米左右",
        "tel": "",
        "category": "基础设施:公共设施:公共厕所",
        "type": 0,
        "location": {
            "lat": 19.346244,
            "lng": 110.10679
        },
        "ad_info": {
            "adcode": 469022,
            "province": "海南省",
            "city": "",
            "district": "屯昌县"
        }
    },
    {
        "id": "405565796949183101",
        "title": "公共厕所",
        "address": "海南省屯昌县文体路与环南路交叉口正南方向78米左右",
        "tel": "",
        "category": "基础设施:公共设施:公共厕所",
        "type": 0,
        "location": {
            "lat": 19.350373,
            "lng": 110.094516
        },
        "ad_info": {
            "adcode": 469022,
            "province": "海南省",
            "city": "",
            "district": "屯昌县"
        }
    },
    {
        "id": "13398906060891178420",
        "title": "公共厕所",
        "address": "海南省屯昌县文华路与环南路交叉口东北方向21米左右",
        "tel": "",
        "category": "基础设施:公共设施:公共厕所",
        "type": 0,
        "location": {
            "lat": 19.354925,
            "lng": 110.094625
        },
        "ad_info": {
            "adcode": 469022,
            "province": "海南省",
            "city": "",
            "district": "屯昌县"
        }
    },
    {
        "id": "9461149682958945535",
        "title": "公共厕所",
        "address": "海南省屯昌县S303与屯昌大道交叉口西北方向1660米左右",
        "tel": "",
        "category": "基础设施:公共设施:公共厕所",
        "type": 0,
        "location": {
            "lat": 19.405522,
            "lng": 110.069072
        },
        "ad_info": {
            "adcode": 469022,
            "province": "海南省",
            "city": "",
            "district": "屯昌县"
        }
    },
    {
        "id": "1915548787220650748",
        "title": "公共厕所",
        "address": "海南省屯昌县S303与屯昌大道交叉口西北方向1621米左右",
        "tel": "",
        "category": "基础设施:公共设施:公共厕所",
        "type": 0,
        "location": {
            "lat": 19.405279,
            "lng": 110.069345
        },
        "ad_info": {
            "adcode": 469022,
            "province": "海南省",
            "city": "",
            "district": "屯昌县"
        }
    },
    {
        "id": "10393815896161310576",
        "title": "公共厕所",
        "address": "海南省屯昌县屯城镇海南屯昌思源实验学校东南",
        "tel": "",
        "category": "基础设施:公共设施:公共厕所",
        "type": 0,
        "location": {
            "lat": 19.387033,
            "lng": 110.101564
        },
        "ad_info": {
            "adcode": 469022,
            "province": "海南省",
            "city": "",
            "district": "屯昌县"
        }
    },
    {
        "id": "6243549264557298370",
        "title": "公共厕所",
        "address": "海南省屯昌县昌盛南路128号",
        "tel": "",
        "category": "基础设施:公共设施:公共厕所",
        "type": 0,
        "location": {
            "lat": 19.345207,
            "lng": 110.102754
        },
        "ad_info": {
            "adcode": 469022,
            "province": "海南省",
            "city": "",
            "district": "屯昌县"
        }
    },
    {
        "id": "14401734940087281765",
        "title": "公共厕所",
        "address": "海南省屯昌县建文路与环东一路交叉口西北方向48米左右",
        "tel": "",
        "category": "基础设施:公共设施:公共厕所",
        "type": 0,
        "location": {
            "lat": 19.378996,
            "lng": 110.106737
        },
        "ad_info": {
            "adcode": 469022,
            "province": "海南省",
            "city": "",
            "district": "屯昌县"
        }
    },
    {
        "id": "15300069741699224901",
        "title": "公共厕所",
        "address": "海南省屯昌县环北西路与环西路交叉口东南方向49米左右",
        "tel": "",
        "category": "基础设施:公共设施:公共厕所",
        "type": 0,
        "location": {
            "lat": 19.384826,
            "lng": 110.095599
        },
        "ad_info": {
            "adcode": 469022,
            "province": "海南省",
            "city": "",
            "district": "屯昌县"
        }
    },
    {
        "id": "16531694921613366730",
        "title": "公共厕所",
        "address": "海南省屯昌县G224与X381交叉口正北方向89米左右",
        "tel": "",
        "category": "基础设施:公共设施:公共厕所",
        "type": 0,
        "location": {
            "lat": 19.34086,
            "lng": 110.101517
        },
        "ad_info": {
            "adcode": 469022,
            "province": "海南省",
            "city": "",
            "district": "屯昌县"
        }
    },
    {
        "id": "10967005082127981222",
        "title": "公共厕所",
        "address": "海南省屯昌县昌盛南路与环南路交叉口正东方向62米左右",
        "tel": "",
        "category": "基础设施:公共设施:公共厕所",
        "type": 0,
        "location": {
            "lat": 19.342283,
            "lng": 110.103297
        },
        "ad_info": {
            "adcode": 469022,
            "province": "海南省",
            "city": "",
            "district": "屯昌县"
        }
    },
    {
        "id": "6431767432557214653",
        "title": "卫生间",
        "address": "海南省屯昌县龙溪小区东南侧70米",
        "tel": "",
        "category": "基础设施:公共设施:公共厕所",
        "type": 0,
        "location": {
            "lat": 19.387837,
            "lng": 110.113944
        },
        "ad_info": {
            "adcode": 469022,
            "province": "海南省",
            "city": "",
            "district": "屯昌县"
        }
    },
    {
        "id": "7645213876396276368",
        "title": "枫木服务区公共厕所",
        "address": "海南省屯昌县枫木互通与枫香南路交叉口西南方向273米左右",
        "tel": "",
        "category": "基础设施:公共设施:公共厕所",
        "type": 0,
        "location": {
            "lat": 19.201519,
            "lng": 109.997786
        },
        "ad_info": {
            "adcode": 469022,
            "province": "海南省",
            "city": "",
            "district": "屯昌县"
        }
    },
    {
        "id": "608950801111209133",
        "title": "屯昌服务区公共厕所",
        "address": "海南省屯昌县海军墟中路与海军墟路交叉口西南方向1150米左右",
        "tel": "",
        "category": "基础设施:公共设施:公共厕所",
        "type": 0,
        "location": {
            "lat": 19.43618,
            "lng": 110.09591
        },
        "ad_info": {
            "adcode": 469022,
            "province": "海南省",
            "city": "",
            "district": "屯昌县"
        }
    },
    {
        "id": "16105190082486490167",
        "title": "屯昌服务区公共厕所",
        "address": "海南省屯昌县海三高速屯昌服务区",
        "tel": "",
        "category": "基础设施:公共设施:公共厕所",
        "type": 0,
        "location": {
            "lat": 19.438154,
            "lng": 110.094586
        },
        "ad_info": {
            "adcode": 469022,
            "province": "海南省",
            "city": "",
            "district": "屯昌县"
        }
    },
    {
        "id": "4614622015177031825",
        "title": "枫木服务区公共厕所",
        "address": "海南省屯昌县G224与枫木互通交叉口东南方向140米左右",
        "tel": "",
        "category": "基础设施:公共设施:公共厕所",
        "type": 0,
        "location": {
            "lat": 19.202742,
            "lng": 109.996176
        },
        "ad_info": {
            "adcode": 469022,
            "province": "海南省",
            "city": "",
            "district": "屯昌县"
        }
    }
]