[
    {
        "id": "6439041286100844348",
        "title": "公共厕所",
        "address": "西藏自治区山南市贡嘎县友谊路与迎宾路交叉口正西方向480米左右",
        "tel": "",
        "category": "基础设施:公共设施:公共厕所",
        "type": 0,
        "location": {
            "lat": 29.285102,
            "lng": 90.896903
        },
        "ad_info": {
            "adcode": 540522,
            "province": "西藏自治区",
            "city": "山南市",
            "district": "贡嘎县"
        }
    },
    {
        "id": "15443903001353520242",
        "title": "公共厕所",
        "address": "西藏自治区山南市贡嘎县友谊路与迎宾路交叉口西北方向264米左右",
        "tel": "",
        "category": "基础设施:公共设施:公共厕所",
        "type": 0,
        "location": {
            "lat": 29.28661,
            "lng": 90.900665
        },
        "ad_info": {
            "adcode": 540522,
            "province": "西藏自治区",
            "city": "山南市",
            "district": "贡嘎县"
        }
    },
    {
        "id": "5820111231088788342",
        "title": "公共厕所",
        "address": "西藏自治区山南市扎囊县株洲大道与玉荣卡路交叉口东南方向26米左右",
        "tel": "",
        "category": "基础设施:公共设施:公共厕所",
        "type": 0,
        "location": {
            "lat": 29.244344,
            "lng": 91.337023
        },
        "ad_info": {
            "adcode": 540521,
            "province": "西藏自治区",
            "city": "山南市",
            "district": "扎囊县"
        }
    },
    {
        "id": "5633017012830992970",
        "title": "公共厕所",
        "address": "西藏自治区山南市加查县扎雪路(北段)与迎宾大道交叉口正东方向196米左右",
        "tel": "",
        "category": "基础设施:公共设施:公共厕所",
        "type": 0,
        "location": {
            "lat": 29.141467,
            "lng": 92.588748
        },
        "ad_info": {
            "adcode": 540528,
            "province": "西藏自治区",
            "city": "山南市",
            "district": "加查县"
        }
    },
    {
        "id": "10709301170672652108",
        "title": "公共厕所",
        "address": "西藏自治区山南市扎囊县G349与园区东路交叉口正东方向205米左右",
        "tel": "",
        "category": "基础设施:公共设施:公共厕所",
        "type": 0,
        "location": {
            "lat": 29.256402,
            "lng": 91.352117
        },
        "ad_info": {
            "adcode": 540521,
            "province": "西藏自治区",
            "city": "山南市",
            "district": "扎囊县"
        }
    },
    {
        "id": "16810243571414056762",
        "title": "公共厕所",
        "address": "西藏自治区山南市浪卡子县羊湖荒地星空营地东北侧",
        "tel": "",
        "category": "基础设施:公共设施:公共厕所",
        "type": 0,
        "location": {
            "lat": 29.147587,
            "lng": 90.487857
        },
        "ad_info": {
            "adcode": 540531,
            "province": "西藏自治区",
            "city": "山南市",
            "district": "浪卡子县"
        }
    },
    {
        "id": "16187839763636373357",
        "title": "公共厕所",
        "address": "西藏自治区山南市扎囊县桑泥线与桑耶北路交叉口东南方向492米左右",
        "tel": "",
        "category": "基础设施:公共设施:公共厕所",
        "type": 0,
        "location": {
            "lat": 29.323254,
            "lng": 91.50895
        },
        "ad_info": {
            "adcode": 540521,
            "province": "西藏自治区",
            "city": "山南市",
            "district": "扎囊县"
        }
    },
    {
        "id": "11589209794658079115",
        "title": "公共厕所",
        "address": "西藏自治区山南市贡嘎县雅江河谷观景台西南侧110米",
        "tel": "",
        "category": "基础设施:公共设施:公共厕所",
        "type": 0,
        "location": {
            "lat": 29.225258,
            "lng": 90.625735
        },
        "ad_info": {
            "adcode": 540522,
            "province": "西藏自治区",
            "city": "山南市",
            "district": "贡嘎县"
        }
    },
    {
        "id": "8106988329973849751",
        "title": "公共厕所(XZ一SN一0006)",
        "address": "西藏自治区山南市贡嘎县羊卓雍措景区售票处西北侧130米",
        "tel": "",
        "category": "基础设施:公共设施:公共厕所",
        "type": 0,
        "location": {
            "lat": 29.307491,
            "lng": 90.689295
        },
        "ad_info": {
            "adcode": 540522,
            "province": "西藏自治区",
            "city": "山南市",
            "district": "贡嘎县"
        }
    },
    {
        "id": "9297741580433138302",
        "title": "公共厕所",
        "address": "西藏自治区山南市贡嘎县德吉路与桑吉路交叉口西北方向13米左右",
        "tel": "",
        "category": "基础设施:公共设施:公共厕所",
        "type": 0,
        "location": {
            "lat": 29.286912,
            "lng": 90.985957
        },
        "ad_info": {
            "adcode": 540522,
            "province": "西藏自治区",
            "city": "山南市",
            "district": "贡嘎县"
        }
    },
    {
        "id": "11690914364831644456",
        "title": "公共厕所",
        "address": "西藏自治区山南市浪卡子县G349与金珠路交叉口西北方向214米左右",
        "tel": "",
        "category": "基础设施:公共设施:公共厕所",
        "type": 0,
        "location": {
            "lat": 28.969434,
            "lng": 90.399856
        },
        "ad_info": {
            "adcode": 540531,
            "province": "西藏自治区",
            "city": "山南市",
            "district": "浪卡子县"
        }
    },
    {
        "id": "9727955795930762989",
        "title": "公共厕所",
        "address": "西藏自治区山南市曲松县G560与其龙路交叉口西北方向359米左右",
        "tel": "",
        "category": "基础设施:公共设施:公共厕所",
        "type": 0,
        "location": {
            "lat": 29.085075,
            "lng": 92.160722
        },
        "ad_info": {
            "adcode": 540525,
            "province": "西藏自治区",
            "city": "山南市",
            "district": "曲松县"
        }
    },
    {
        "id": "9902657101833571500",
        "title": "公共厕所",
        "address": "西藏自治区山南市措美县",
        "tel": "",
        "category": "基础设施:公共设施:公共厕所",
        "type": 0,
        "location": {
            "lat": 28.645036,
            "lng": 91.656342
        },
        "ad_info": {
            "adcode": 540526,
            "province": "西藏自治区",
            "city": "山南市",
            "district": "措美县"
        }
    },
    {
        "id": "4659588966157927966",
        "title": "公共厕所",
        "address": "西藏自治区山南市加查县加查站出租车停车场",
        "tel": "",
        "category": "基础设施:公共设施:公共厕所",
        "type": 0,
        "location": {
            "lat": 29.139923,
            "lng": 92.567208
        },
        "ad_info": {
            "adcode": 540528,
            "province": "西藏自治区",
            "city": "山南市",
            "district": "加查县"
        }
    },
    {
        "id": "4812035678665180268",
        "title": "公共厕所",
        "address": "西藏自治区山南市贡嘎县318国道游客中心旁",
        "tel": "",
        "category": "基础设施:公共设施:公共厕所",
        "type": 0,
        "location": {
            "lat": 29.306401,
            "lng": 90.691018
        },
        "ad_info": {
            "adcode": 540522,
            "province": "西藏自治区",
            "city": "山南市",
            "district": "贡嘎县"
        }
    },
    {
        "id": "6483333333052538221",
        "title": "公共厕所",
        "address": "西藏自治区山南市浪卡子县羊卓雍措景区",
        "tel": "",
        "category": "基础设施:公共设施:公共厕所",
        "type": 0,
        "location": {
            "lat": 29.184867,
            "lng": 90.619227
        },
        "ad_info": {
            "adcode": 540531,
            "province": "西藏自治区",
            "city": "山南市",
            "district": "浪卡子县"
        }
    },
    {
        "id": "6343744761271741408",
        "title": "公共厕所",
        "address": "西藏自治区山南市琼结县松赞路与达娃卓玛路交叉口西南方向295米左右",
        "tel": "",
        "category": "基础设施:公共设施:公共厕所",
        "type": 0,
        "location": {
            "lat": 29.026209,
            "lng": 91.68547
        },
        "ad_info": {
            "adcode": 540524,
            "province": "西藏自治区",
            "city": "山南市",
            "district": "琼结县"
        }
    },
    {
        "id": "4509014189372303141",
        "title": "公共厕所",
        "address": "西藏自治区山南市洛扎县一嘎波路与嘎波路交叉口正西方向168米左右",
        "tel": "",
        "category": "基础设施:公共设施:公共厕所",
        "type": 0,
        "location": {
            "lat": 28.385299,
            "lng": 90.859207
        },
        "ad_info": {
            "adcode": 540527,
            "province": "西藏自治区",
            "city": "山南市",
            "district": "洛扎县"
        }
    },
    {
        "id": "7520041605044115731",
        "title": "公共厕所",
        "address": "西藏自治区山南市错那市G560与巴鲁路交叉口正东方向304米左右",
        "tel": "",
        "category": "基础设施:公共设施:公共厕所",
        "type": 0,
        "location": {
            "lat": 27.988707,
            "lng": 91.964681
        },
        "ad_info": {
            "adcode": 540530,
            "province": "西藏自治区",
            "city": "山南市",
            "district": "错那市"
        }
    },
    {
        "id": "9457913478059549060",
        "title": "公共厕所",
        "address": "西藏自治区山南市措美县G219与G560交叉口西北方向699米左右",
        "tel": "",
        "category": "基础设施:公共设施:公共厕所",
        "type": 0,
        "location": {
            "lat": 28.438023,
            "lng": 91.434254
        },
        "ad_info": {
            "adcode": 540526,
            "province": "西藏自治区",
            "city": "山南市",
            "district": "措美县"
        }
    },
    {
        "id": "11609559302968054116",
        "title": "公共厕所",
        "address": "西藏自治区山南市浪卡子县G349与羊卓路交叉口正南方向33米左右",
        "tel": "",
        "category": "基础设施:公共设施:公共厕所",
        "type": 0,
        "location": {
            "lat": 28.965242,
            "lng": 90.39991
        },
        "ad_info": {
            "adcode": 540531,
            "province": "西藏自治区",
            "city": "山南市",
            "district": "浪卡子县"
        }
    },
    {
        "id": "13909845576513409342",
        "title": "公共厕所",
        "address": "西藏自治区山南市隆子县圣地扎日宾馆西北侧",
        "tel": "",
        "category": "基础设施:公共设施:公共厕所",
        "type": 0,
        "location": {
            "lat": 28.65781,
            "lng": 93.373839
        },
        "ad_info": {
            "adcode": 540529,
            "province": "西藏自治区",
            "city": "山南市",
            "district": "隆子县"
        }
    },
    {
        "id": "16406994243198338694",
        "title": "公共厕所",
        "address": "西藏自治区山南市加查县G560与S508交叉口正西方向97米左右",
        "tel": "",
        "category": "基础设施:公共设施:公共厕所",
        "type": 0,
        "location": {
            "lat": 29.140363,
            "lng": 92.582674
        },
        "ad_info": {
            "adcode": 540528,
            "province": "西藏自治区",
            "city": "山南市",
            "district": "加查县"
        }
    },
    {
        "id": "5650548552939699800",
        "title": "公共厕所",
        "address": "西藏自治区山南市贡嘎县G349与友谊路交叉口正东方向1030米左右",
        "tel": "",
        "category": "基础设施:公共设施:公共厕所",
        "type": 0,
        "location": {
            "lat": 29.286737,
            "lng": 90.880259
        },
        "ad_info": {
            "adcode": 540522,
            "province": "西藏自治区",
            "city": "山南市",
            "district": "贡嘎县"
        }
    },
    {
        "id": "10944372398719691433",
        "title": "公共厕所",
        "address": "西藏自治区山南市措美县560国道与219国道交叉口西北1100米",
        "tel": "",
        "category": "基础设施:公共设施:公共厕所",
        "type": 0,
        "location": {
            "lat": 28.439902,
            "lng": 91.430042
        },
        "ad_info": {
            "adcode": 540526,
            "province": "西藏自治区",
            "city": "山南市",
            "district": "措美县"
        }
    },
    {
        "id": "8984228297007112019",
        "title": "公共厕所",
        "address": "西藏自治区山南市隆子县扎日乡洞参村",
        "tel": "",
        "category": "基础设施:公共设施:公共厕所",
        "type": 0,
        "location": {
            "lat": 28.699266,
            "lng": 93.153096
        },
        "ad_info": {
            "adcode": 540529,
            "province": "西藏自治区",
            "city": "山南市",
            "district": "隆子县"
        }
    },
    {
        "id": "14035411231991959859",
        "title": "公共厕所",
        "address": "西藏自治区山南市隆子县G219与热荣乡3号小桥交叉口正北方向668米左右",
        "tel": "",
        "category": "基础设施:公共设施:公共厕所",
        "type": 0,
        "location": {
            "lat": 28.5177,
            "lng": 92.082042
        },
        "ad_info": {
            "adcode": 540529,
            "province": "西藏自治区",
            "city": "山南市",
            "district": "隆子县"
        }
    },
    {
        "id": "9896823904264810575",
        "title": "公共厕所",
        "address": "西藏自治区山南市加查县S508",
        "tel": "",
        "category": "基础设施:公共设施:公共厕所",
        "type": 0,
        "location": {
            "lat": 29.105835,
            "lng": 92.69606
        },
        "ad_info": {
            "adcode": 540528,
            "province": "西藏自治区",
            "city": "山南市",
            "district": "加查县"
        }
    },
    {
        "id": "3316468633112526480",
        "title": "公共厕所",
        "address": "西藏自治区山南市隆子县玉麦乡文化站",
        "tel": "",
        "category": "基础设施:公共设施:公共厕所",
        "type": 0,
        "location": {
            "lat": 28.630304,
            "lng": 93.07339
        },
        "ad_info": {
            "adcode": 540529,
            "province": "西藏自治区",
            "city": "山南市",
            "district": "隆子县"
        }
    },
    {
        "id": "12626566164200023501",
        "title": "公共厕所",
        "address": "西藏自治区山南市曲松县曲松镇拉加里王宫",
        "tel": "",
        "category": "基础设施:公共设施:公共厕所",
        "type": 0,
        "location": {
            "lat": 29.062657,
            "lng": 92.194465
        },
        "ad_info": {
            "adcode": 540525,
            "province": "西藏自治区",
            "city": "山南市",
            "district": "曲松县"
        }
    },
    {
        "id": "15263369049155845173",
        "title": "公共厕所",
        "address": "西藏自治区山南市曲松县G560与S306交叉口正北方向27米左右",
        "tel": "",
        "category": "基础设施:公共设施:公共厕所",
        "type": 0,
        "location": {
            "lat": 29.047266,
            "lng": 92.225997
        },
        "ad_info": {
            "adcode": 540525,
            "province": "西藏自治区",
            "city": "山南市",
            "district": "曲松县"
        }
    },
    {
        "id": "3326056342499293079",
        "title": "公共厕所",
        "address": "西藏自治区山南市洛扎县东兴路与嘎波路交叉口正西方向334米左右",
        "tel": "",
        "category": "基础设施:公共设施:公共厕所",
        "type": 0,
        "location": {
            "lat": 28.38649,
            "lng": 90.84506
        },
        "ad_info": {
            "adcode": 540527,
            "province": "西藏自治区",
            "city": "山南市",
            "district": "洛扎县"
        }
    },
    {
        "id": "17557214142515815838",
        "title": "公共厕所",
        "address": "西藏自治区山南市错那市台崩路与夏日路交叉口正东方向69米左右",
        "tel": "",
        "category": "基础设施:公共设施:公共厕所",
        "type": 0,
        "location": {
            "lat": 27.990992,
            "lng": 91.959222
        },
        "ad_info": {
            "adcode": 540530,
            "province": "西藏自治区",
            "city": "山南市",
            "district": "错那市"
        }
    },
    {
        "id": "15491225730195433278",
        "title": "公共厕所",
        "address": "西藏自治区山南市贡嘎县G349与友谊路交叉口正西方向66米左右",
        "tel": "",
        "category": "基础设施:公共设施:公共厕所",
        "type": 0,
        "location": {
            "lat": 29.287814,
            "lng": 90.914873
        },
        "ad_info": {
            "adcode": 540522,
            "province": "西藏自治区",
            "city": "山南市",
            "district": "贡嘎县"
        }
    },
    {
        "id": "9109730123464913469",
        "title": "公共厕所",
        "address": "西藏自治区山南市贡嘎县友谊路与迎宾路交叉口正北方向554米左右",
        "tel": "",
        "category": "基础设施:公共设施:公共厕所",
        "type": 0,
        "location": {
            "lat": 29.289383,
            "lng": 90.902626
        },
        "ad_info": {
            "adcode": 540522,
            "province": "西藏自治区",
            "city": "山南市",
            "district": "贡嘎县"
        }
    },
    {
        "id": "3526230599714850277",
        "title": "公共厕所",
        "address": "西藏自治区山南市加查县",
        "tel": "",
        "category": "基础设施:公共设施:公共厕所",
        "type": 0,
        "location": {
            "lat": 29.304551,
            "lng": 92.737204
        },
        "ad_info": {
            "adcode": 540528,
            "province": "西藏自治区",
            "city": "山南市",
            "district": "加查县"
        }
    },
    {
        "id": "6572824160594321763",
        "title": "公共厕所",
        "address": "西藏自治区山南市扎囊县敏珠林寺",
        "tel": "",
        "category": "基础设施:公共设施:公共厕所",
        "type": 0,
        "location": {
            "lat": 29.181169,
            "lng": 91.408097
        },
        "ad_info": {
            "adcode": 540521,
            "province": "西藏自治区",
            "city": "山南市",
            "district": "扎囊县"
        }
    },
    {
        "id": "10446085938955740379",
        "title": "公共厕所",
        "address": "西藏自治区山南市措美县措美县人民医院东侧230米",
        "tel": "",
        "category": "基础设施:公共设施:公共厕所",
        "type": 0,
        "location": {
            "lat": 28.437069,
            "lng": 91.432772
        },
        "ad_info": {
            "adcode": 540526,
            "province": "西藏自治区",
            "city": "山南市",
            "district": "措美县"
        }
    },
    {
        "id": "13631042968420724578",
        "title": "公共厕所",
        "address": "西藏自治区山南市扎囊县朗塞林村村委会",
        "tel": "",
        "category": "基础设施:公共设施:公共厕所",
        "type": 0,
        "location": {
            "lat": 29.229131,
            "lng": 91.533406
        },
        "ad_info": {
            "adcode": 540521,
            "province": "西藏自治区",
            "city": "山南市",
            "district": "扎囊县"
        }
    },
    {
        "id": "11207436107137371333",
        "title": "公共厕所",
        "address": "西藏自治区山南市曲松县宇拓路与甘旦路交叉口东南方向232米左右",
        "tel": "",
        "category": "基础设施:公共设施:公共厕所",
        "type": 0,
        "location": {
            "lat": 29.06202,
            "lng": 92.203384
        },
        "ad_info": {
            "adcode": 540525,
            "province": "西藏自治区",
            "city": "山南市",
            "district": "曲松县"
        }
    },
    {
        "id": "2507301855754623630",
        "title": "公共厕所",
        "address": "西藏自治区山南市曲松县格桑路与甘旦路交叉口东南方向99米左右",
        "tel": "",
        "category": "基础设施:公共设施:公共厕所",
        "type": 0,
        "location": {
            "lat": 29.063489,
            "lng": 92.199904
        },
        "ad_info": {
            "adcode": 540525,
            "province": "西藏自治区",
            "city": "山南市",
            "district": "曲松县"
        }
    },
    {
        "id": "5295077152717169125",
        "title": "公共厕所",
        "address": "西藏自治区山南市曲松县S306与其龙路交叉口正西方向79米左右",
        "tel": "",
        "category": "基础设施:公共设施:公共厕所",
        "type": 0,
        "location": {
            "lat": 29.064037,
            "lng": 92.201019
        },
        "ad_info": {
            "adcode": 540525,
            "province": "西藏自治区",
            "city": "山南市",
            "district": "曲松县"
        }
    },
    {
        "id": "4068877369801123143",
        "title": "公共厕所",
        "address": "西藏自治区山南市琼结县松赞路与赞普路交叉口正南方向31米左右",
        "tel": "",
        "category": "基础设施:公共设施:公共厕所",
        "type": 0,
        "location": {
            "lat": 29.023344,
            "lng": 91.681632
        },
        "ad_info": {
            "adcode": 540524,
            "province": "西藏自治区",
            "city": "山南市",
            "district": "琼结县"
        }
    },
    {
        "id": "7366472306396050936",
        "title": "公共厕所(XZ-SN-0102)",
        "address": "西藏自治区山南市错那市",
        "tel": "",
        "category": "基础设施:公共设施:公共厕所",
        "type": 0,
        "location": {
            "lat": 27.907374,
            "lng": 91.79387
        },
        "ad_info": {
            "adcode": 540530,
            "province": "西藏自治区",
            "city": "山南市",
            "district": "错那市"
        }
    },
    {
        "id": "14511735908044156235",
        "title": "桑耶寺公共厕所",
        "address": "西藏自治区山南市扎囊县桑耶寺入口左侧",
        "tel": "",
        "category": "基础设施:公共设施:公共厕所",
        "type": 0,
        "location": {
            "lat": 29.322904,
            "lng": 91.505194
        },
        "ad_info": {
            "adcode": 540521,
            "province": "西藏自治区",
            "city": "山南市",
            "district": "扎囊县"
        }
    },
    {
        "id": "2987743450378109555",
        "title": "公共卫生间",
        "address": "西藏自治区山南市桑日县S306",
        "tel": "",
        "category": "基础设施:公共设施:公共厕所",
        "type": 0,
        "location": {
            "lat": 29.252489,
            "lng": 91.977723
        },
        "ad_info": {
            "adcode": 540523,
            "province": "西藏自治区",
            "city": "山南市",
            "district": "桑日县"
        }
    },
    {
        "id": "14871853245546975901",
        "title": "公共厕所(XZ-SN-0128)",
        "address": "西藏自治区山南市错那市",
        "tel": "",
        "category": "基础设施:公共设施:公共厕所",
        "type": 0,
        "location": {
            "lat": 27.89523,
            "lng": 91.80301
        },
        "ad_info": {
            "adcode": 540530,
            "province": "西藏自治区",
            "city": "山南市",
            "district": "错那市"
        }
    },
    {
        "id": "4572456740535341690",
        "title": "公共厕所",
        "address": "西藏自治区山南市乃东区吉玛巷与萨热路交叉口正西方向38米左右",
        "tel": "",
        "category": "基础设施:公共设施:公共厕所",
        "type": 0,
        "location": {
            "lat": 29.24255,
            "lng": 91.774122
        },
        "ad_info": {
            "adcode": 540502,
            "province": "西藏自治区",
            "city": "山南市",
            "district": "乃东区"
        }
    },
    {
        "id": "11283667679529822245",
        "title": "公共厕所",
        "address": "西藏自治区山南市乃东区格桑路中国石油加油站(山南交通运输管理分局东北)",
        "tel": "",
        "category": "基础设施:公共设施:公共厕所",
        "type": 0,
        "location": {
            "lat": 29.23999,
            "lng": 91.760589
        },
        "ad_info": {
            "adcode": 540502,
            "province": "西藏自治区",
            "city": "山南市",
            "district": "乃东区"
        }
    },
    {
        "id": "1330943399159151575",
        "title": "公共厕所",
        "address": "西藏自治区山南市乃东区吉波巷与湖南路交叉口正东方向50米左右",
        "tel": "",
        "category": "基础设施:公共设施:公共厕所",
        "type": 0,
        "location": {
            "lat": 29.23551,
            "lng": 91.770182
        },
        "ad_info": {
            "adcode": 540502,
            "province": "西藏自治区",
            "city": "山南市",
            "district": "乃东区"
        }
    },
    {
        "id": "7741395404181012141",
        "title": "公共厕所",
        "address": "西藏自治区山南市乃东区三湘大道22号",
        "tel": "",
        "category": "基础设施:公共设施:公共厕所",
        "type": 0,
        "location": {
            "lat": 29.2345,
            "lng": 91.758488
        },
        "ad_info": {
            "adcode": 540502,
            "province": "西藏自治区",
            "city": "山南市",
            "district": "乃东区"
        }
    },
    {
        "id": "9792371452156617759",
        "title": "浪卡子县普莫雍措景区旅游公共厕所",
        "address": "西藏自治区山南市浪卡子县G219与S207交叉口西南方向75米左右",
        "tel": "",
        "category": "基础设施:公共设施:公共厕所",
        "type": 0,
        "location": {
            "lat": 28.619624,
            "lng": 90.450861
        },
        "ad_info": {
            "adcode": 540531,
            "province": "西藏自治区",
            "city": "山南市",
            "district": "浪卡子县"
        }
    },
    {
        "id": "5827460469887827847",
        "title": "浪卡子县边防检查站公共厕所",
        "address": "西藏自治区山南市浪卡子县G349与S207交叉口东南方向113米左右",
        "tel": "",
        "category": "基础设施:公共设施:公共厕所",
        "type": 0,
        "location": {
            "lat": 28.899562,
            "lng": 90.359916
        },
        "ad_info": {
            "adcode": 540531,
            "province": "西藏自治区",
            "city": "山南市",
            "district": "浪卡子县"
        }
    },
    {
        "id": "12702609147485802187",
        "title": "公共厕所",
        "address": "西藏自治区山南市乃东区巴热街10号",
        "tel": "",
        "category": "基础设施:公共设施:公共厕所",
        "type": 0,
        "location": {
            "lat": 29.239045,
            "lng": 91.777193
        },
        "ad_info": {
            "adcode": 540502,
            "province": "西藏自治区",
            "city": "山南市",
            "district": "乃东区"
        }
    },
    {
        "id": "14493373844879290604",
        "title": "公共厕所",
        "address": "西藏自治区山南市乃东区格桑路与香曲西路交叉口西南方向119米左右",
        "tel": "",
        "category": "基础设施:公共设施:公共厕所",
        "type": 0,
        "location": {
            "lat": 29.238712,
            "lng": 91.766858
        },
        "ad_info": {
            "adcode": 540502,
            "province": "西藏自治区",
            "city": "山南市",
            "district": "乃东区"
        }
    },
    {
        "id": "11785475585338067616",
        "title": "公共厕所",
        "address": "西藏自治区山南市乃东区格桑路与香曲东路交叉口正东方向72米左右",
        "tel": "",
        "category": "基础设施:公共设施:公共厕所",
        "type": 0,
        "location": {
            "lat": 29.23981,
            "lng": 91.768764
        },
        "ad_info": {
            "adcode": 540502,
            "province": "西藏自治区",
            "city": "山南市",
            "district": "乃东区"
        }
    },
    {
        "id": "18131645074806942130",
        "title": "公共厕所",
        "address": "西藏自治区山南市乃东区安徽大道与民族路交叉口正北方向187米左右",
        "tel": "",
        "category": "基础设施:公共设施:公共厕所",
        "type": 0,
        "location": {
            "lat": 29.230067,
            "lng": 91.756708
        },
        "ad_info": {
            "adcode": 540502,
            "province": "西藏自治区",
            "city": "山南市",
            "district": "乃东区"
        }
    },
    {
        "id": "14062036182247714277",
        "title": "让荣湖公共厕所",
        "address": "西藏自治区山南市错那市",
        "tel": "",
        "category": "基础设施:公共设施:公共厕所",
        "type": 0,
        "location": {
            "lat": 27.919911,
            "lng": 91.80327
        },
        "ad_info": {
            "adcode": 540530,
            "province": "西藏自治区",
            "city": "山南市",
            "district": "错那市"
        }
    },
    {
        "id": "10205256977106809072",
        "title": "公共厕所",
        "address": "西藏自治区山南市乃东区三湘大道30号",
        "tel": "",
        "category": "基础设施:公共设施:公共厕所",
        "type": 0,
        "location": {
            "lat": 29.238364,
            "lng": 91.756114
        },
        "ad_info": {
            "adcode": 540502,
            "province": "西藏自治区",
            "city": "山南市",
            "district": "乃东区"
        }
    },
    {
        "id": "2872808908004353682",
        "title": "公共厕所",
        "address": "西藏自治区山南市桑日县帕竹葡萄采摘园",
        "tel": "",
        "category": "基础设施:公共设施:公共厕所",
        "type": 0,
        "location": {
            "lat": 29.275819,
            "lng": 91.951389
        },
        "ad_info": {
            "adcode": 540523,
            "province": "西藏自治区",
            "city": "山南市",
            "district": "桑日县"
        }
    },
    {
        "id": "4853972686665651067",
        "title": "公共厕所",
        "address": "西藏自治区山南市乃东区曲米努巷与贡布路交叉口正北方向24米左右",
        "tel": "",
        "category": "基础设施:公共设施:公共厕所",
        "type": 0,
        "location": {
            "lat": 29.241462,
            "lng": 91.777171
        },
        "ad_info": {
            "adcode": 540502,
            "province": "西藏自治区",
            "city": "山南市",
            "district": "乃东区"
        }
    },
    {
        "id": "90568544797633380",
        "title": "浪卡子县朗布齐观景台公共厕所",
        "address": "西藏自治区山南市浪卡子县朗布其观景台东侧",
        "tel": "",
        "category": "基础设施:公共设施:公共厕所",
        "type": 0,
        "location": {
            "lat": 29.184799,
            "lng": 90.618662
        },
        "ad_info": {
            "adcode": 540531,
            "province": "西藏自治区",
            "city": "山南市",
            "district": "浪卡子县"
        }
    },
    {
        "id": "380839232780065352",
        "title": "公共厕所",
        "address": "西藏自治区山南市乃东区措括巷与贡布路交叉口东北方向242米左右",
        "tel": "",
        "category": "基础设施:公共设施:公共厕所",
        "type": 0,
        "location": {
            "lat": 29.244222,
            "lng": 91.784174
        },
        "ad_info": {
            "adcode": 540502,
            "province": "西藏自治区",
            "city": "山南市",
            "district": "乃东区"
        }
    },
    {
        "id": "3716162261860931495",
        "title": "浪卡子县恰央措景区旅游公共厕所",
        "address": "西藏自治区山南市浪卡子县浪卡子镇扎拉东侧180米",
        "tel": "",
        "category": "基础设施:公共设施:公共厕所",
        "type": 0,
        "location": {
            "lat": 28.894878,
            "lng": 90.227495
        },
        "ad_info": {
            "adcode": 540531,
            "province": "西藏自治区",
            "city": "山南市",
            "district": "浪卡子县"
        }
    },
    {
        "id": "10753965768646026221",
        "title": "公共厕所",
        "address": "西藏自治区山南市乃东区S202与黄陂路交叉口正东方向243米左右",
        "tel": "",
        "category": "基础设施:公共设施:公共厕所",
        "type": 0,
        "location": {
            "lat": 29.141165,
            "lng": 91.802702
        },
        "ad_info": {
            "adcode": 540502,
            "province": "西藏自治区",
            "city": "山南市",
            "district": "乃东区"
        }
    },
    {
        "id": "8477258042754133425",
        "title": "阿扎服务区公共厕所",
        "address": "西藏自治区山南市扎囊县S206与S508交叉口西南方向1059米左右",
        "tel": "",
        "category": "基础设施:公共设施:公共厕所",
        "type": 0,
        "location": {
            "lat": 29.307584,
            "lng": 91.275123
        },
        "ad_info": {
            "adcode": 540521,
            "province": "西藏自治区",
            "city": "山南市",
            "district": "扎囊县"
        }
    },
    {
        "id": "6420393169974019626",
        "title": "公共厕所",
        "address": "西藏自治区山南市乃东区雅鲁藏布路与香曲西路交叉口正南方向179米左右",
        "tel": "",
        "category": "基础设施:公共设施:公共厕所",
        "type": 0,
        "location": {
            "lat": 29.252734,
            "lng": 91.763761
        },
        "ad_info": {
            "adcode": 540502,
            "province": "西藏自治区",
            "city": "山南市",
            "district": "乃东区"
        }
    },
    {
        "id": "4273305153054779833",
        "title": "公共厕所",
        "address": "西藏自治区山南市乃东区G349与安徽大道交叉口正西方向903米左右",
        "tel": "",
        "category": "基础设施:公共设施:公共厕所",
        "type": 0,
        "location": {
            "lat": 29.242526,
            "lng": 91.730646
        },
        "ad_info": {
            "adcode": 540502,
            "province": "西藏自治区",
            "city": "山南市",
            "district": "乃东区"
        }
    },
    {
        "id": "5626538437070128545",
        "title": "公共厕所",
        "address": "西藏自治区山南市乃东区G349与贡布路交叉口正南方向92米左右",
        "tel": "",
        "category": "基础设施:公共设施:公共厕所",
        "type": 0,
        "location": {
            "lat": 29.255836,
            "lng": 91.807946
        },
        "ad_info": {
            "adcode": 540502,
            "province": "西藏自治区",
            "city": "山南市",
            "district": "乃东区"
        }
    },
    {
        "id": "9641476247698333736",
        "title": "公共厕所",
        "address": "西藏自治区山南市乃东区雍布拉康南侧270米",
        "tel": "",
        "category": "基础设施:公共设施:公共厕所",
        "type": 0,
        "location": {
            "lat": 29.137106,
            "lng": 91.804673
        },
        "ad_info": {
            "adcode": 540502,
            "province": "西藏自治区",
            "city": "山南市",
            "district": "乃东区"
        }
    },
    {
        "id": "12715271004423326615",
        "title": "公共厕所",
        "address": "西藏自治区山南市乃东区G349",
        "tel": "",
        "category": "基础设施:公共设施:公共厕所",
        "type": 0,
        "location": {
            "lat": 29.373013,
            "lng": 91.831141
        },
        "ad_info": {
            "adcode": 540502,
            "province": "西藏自治区",
            "city": "山南市",
            "district": "乃东区"
        }
    },
    {
        "id": "14824538182360130610",
        "title": "阿扎服务区公共厕所",
        "address": "西藏自治区山南市扎囊县中国石油阿扎服务区加油站西侧80米",
        "tel": "",
        "category": "基础设施:公共设施:公共厕所",
        "type": 0,
        "location": {
            "lat": 29.306032,
            "lng": 91.273336
        },
        "ad_info": {
            "adcode": 540521,
            "province": "西藏自治区",
            "city": "山南市",
            "district": "扎囊县"
        }
    },
    {
        "id": "6050952833573490122",
        "title": "曲松县拉加里王宫停车场旅游公共厕所",
        "address": "西藏自治区山南市曲松县南环路王宫停车场",
        "tel": "",
        "category": "基础设施:公共设施:公共厕所",
        "type": 0,
        "location": {
            "lat": 29.062727,
            "lng": 92.197413
        },
        "ad_info": {
            "adcode": 540525,
            "province": "西藏自治区",
            "city": "山南市",
            "district": "曲松县"
        }
    },
    {
        "id": "13315901941076101065",
        "title": "公共厕所",
        "address": "西藏自治区山南市乃东区格桑路与桑康北街交叉口东南方向210米",
        "tel": "",
        "category": "基础设施:公共设施:公共厕所",
        "type": 0,
        "location": {
            "lat": 29.238359,
            "lng": 91.763679
        },
        "ad_info": {
            "adcode": 540502,
            "province": "西藏自治区",
            "city": "山南市",
            "district": "乃东区"
        }
    },
    {
        "id": "12744823154287446531",
        "title": "旅游公共厕所",
        "address": "西藏自治区山南市隆子县202省道东50米",
        "tel": "",
        "category": "基础设施:公共设施:公共厕所",
        "type": 0,
        "location": {
            "lat": 28.485758,
            "lng": 92.28447
        },
        "ad_info": {
            "adcode": 540529,
            "province": "西藏自治区",
            "city": "山南市",
            "district": "隆子县"
        }
    },
    {
        "id": "163385673152092382",
        "title": "浪卡子县打隆镇推瓦村旅游公共厕所",
        "address": "西藏自治区山南市浪卡子县推瓦寺东北侧140米",
        "tel": "",
        "category": "基础设施:公共设施:公共厕所",
        "type": 0,
        "location": {
            "lat": 28.562674,
            "lng": 90.529058
        },
        "ad_info": {
            "adcode": 540531,
            "province": "西藏自治区",
            "city": "山南市",
            "district": "浪卡子县"
        }
    },
    {
        "id": "2165211851202730954",
        "title": "雅砻河酒店-洗手间",
        "address": "西藏自治区山南市乃东区湖北大道18号(近湖南路交汇处)",
        "tel": "",
        "category": "基础设施:公共设施:公共厕所",
        "type": 0,
        "location": {
            "lat": 29.23169,
            "lng": 91.76457
        },
        "ad_info": {
            "adcode": 540502,
            "province": "西藏自治区",
            "city": "山南市",
            "district": "乃东区"
        }
    }
]