[
    {
        "id": "79637317039016689",
        "title": "公共厕所",
        "address": "湖南省岳阳市岳阳楼区市场路与庙山西路交叉口正南方向66米左右",
        "tel": "",
        "category": "基础设施:公共设施:公共厕所",
        "type": 0,
        "location": {
            "lat": 29.359095,
            "lng": 113.170114
        },
        "ad_info": {
            "adcode": 430602,
            "province": "湖南省",
            "city": "岳阳市",
            "district": "岳阳楼区"
        }
    },
    {
        "id": "6227254499715132061",
        "title": "公共厕所",
        "address": "湖南省岳阳市岳阳楼区丁家塘与文湘巷交叉口正南方向15米左右",
        "tel": "",
        "category": "基础设施:公共设施:公共厕所",
        "type": 0,
        "location": {
            "lat": 29.369963,
            "lng": 113.10293
        },
        "ad_info": {
            "adcode": 430602,
            "province": "湖南省",
            "city": "岳阳市",
            "district": "岳阳楼区"
        }
    },
    {
        "id": "18378728732960880776",
        "title": "公共厕所",
        "address": "湖南省岳阳市岳阳楼区土桥街128号",
        "tel": "",
        "category": "基础设施:公共设施:公共厕所",
        "type": 0,
        "location": {
            "lat": 29.369791,
            "lng": 113.117867
        },
        "ad_info": {
            "adcode": 430602,
            "province": "湖南省",
            "city": "岳阳市",
            "district": "岳阳楼区"
        }
    },
    {
        "id": "14759786053017255230",
        "title": "公共厕所",
        "address": "湖南省岳阳市岳阳楼区巴陵东路与旭园路交叉口正南方向191米左右",
        "tel": "",
        "category": "基础设施:公共设施:公共厕所",
        "type": 0,
        "location": {
            "lat": 29.368573,
            "lng": 113.161499
        },
        "ad_info": {
            "adcode": 430602,
            "province": "湖南省",
            "city": "岳阳市",
            "district": "岳阳楼区"
        }
    },
    {
        "id": "7110519312104834347",
        "title": "公共厕所",
        "address": "湖南省岳阳市岳阳楼区巴陵西路与菜园坡路交叉口正北方向117米左右",
        "tel": "",
        "category": "基础设施:公共设施:公共厕所",
        "type": 0,
        "location": {
            "lat": 29.374993,
            "lng": 113.099106
        },
        "ad_info": {
            "adcode": 430602,
            "province": "湖南省",
            "city": "岳阳市",
            "district": "岳阳楼区"
        }
    },
    {
        "id": "12122949468786904495",
        "title": "公共厕所",
        "address": "湖南省岳阳市岳阳楼区南湖大道与站前路交叉口正北方向219米左右",
        "tel": "",
        "category": "基础设施:公共设施:公共厕所",
        "type": 0,
        "location": {
            "lat": 29.377136,
            "lng": 113.120335
        },
        "ad_info": {
            "adcode": 430602,
            "province": "湖南省",
            "city": "岳阳市",
            "district": "岳阳楼区"
        }
    },
    {
        "id": "1210822478736576074",
        "title": "公共厕所",
        "address": "湖南省岳阳市岳阳楼区得胜北路与枫桥湖路交叉口正东方向171米左右",
        "tel": "",
        "category": "基础设施:公共设施:公共厕所",
        "type": 0,
        "location": {
            "lat": 29.380714,
            "lng": 113.111913
        },
        "ad_info": {
            "adcode": 430602,
            "province": "湖南省",
            "city": "岳阳市",
            "district": "岳阳楼区"
        }
    },
    {
        "id": "14937452372120453325",
        "title": "公共厕所",
        "address": "湖南省岳阳市岳阳楼区洞庭大道159号",
        "tel": "",
        "category": "基础设施:公共设施:公共厕所",
        "type": 0,
        "location": {
            "lat": 29.384097,
            "lng": 113.130766
        },
        "ad_info": {
            "adcode": 430602,
            "province": "湖南省",
            "city": "岳阳市",
            "district": "岳阳楼区"
        }
    },
    {
        "id": "2650559801838409195",
        "title": "公共厕所(教会学校)",
        "address": "湖南省岳阳市岳阳楼区南湖新区教会学校",
        "tel": "",
        "category": "基础设施:公共设施:公共厕所",
        "type": 0,
        "location": {
            "lat": 29.329804,
            "lng": 113.07592
        },
        "ad_info": {
            "adcode": 430602,
            "province": "湖南省",
            "city": "岳阳市",
            "district": "岳阳楼区"
        }
    },
    {
        "id": "15025186734925846872",
        "title": "公共厕所",
        "address": "湖南省岳阳市岳阳楼区东茅巷与北辅街交叉口西北方向82米左右",
        "tel": "",
        "category": "基础设施:公共设施:公共厕所",
        "type": 0,
        "location": {
            "lat": 29.375193,
            "lng": 113.106153
        },
        "ad_info": {
            "adcode": 430602,
            "province": "湖南省",
            "city": "岳阳市",
            "district": "岳阳楼区"
        }
    },
    {
        "id": "12923876310701836560",
        "title": "公共厕所",
        "address": "湖南省岳阳市岳阳楼区冷水铺路与花园坡路交叉口正西方向42米左右",
        "tel": "",
        "category": "基础设施:公共设施:公共厕所",
        "type": 0,
        "location": {
            "lat": 29.37855,
            "lng": 113.144393
        },
        "ad_info": {
            "adcode": 430602,
            "province": "湖南省",
            "city": "岳阳市",
            "district": "岳阳楼区"
        }
    },
    {
        "id": "8319904427454967185",
        "title": "公共厕所",
        "address": "湖南省岳阳市岳阳楼区洞庭大道与纺城中路交叉口正南方向103米左右",
        "tel": "",
        "category": "基础设施:公共设施:公共厕所",
        "type": 0,
        "location": {
            "lat": 29.38388,
            "lng": 113.128746
        },
        "ad_info": {
            "adcode": 430602,
            "province": "湖南省",
            "city": "岳阳市",
            "district": "岳阳楼区"
        }
    },
    {
        "id": "18401079521815305069",
        "title": "公共厕所",
        "address": "湖南省岳阳市岳阳楼区站前路岳阳站",
        "tel": "",
        "category": "基础设施:公共设施:公共厕所",
        "type": 0,
        "location": {
            "lat": 29.376327,
            "lng": 113.121551
        },
        "ad_info": {
            "adcode": 430602,
            "province": "湖南省",
            "city": "岳阳市",
            "district": "岳阳楼区"
        }
    },
    {
        "id": "674227587988540433",
        "title": "公共厕所",
        "address": "湖南省岳阳市岳阳楼区巴陵东路152号",
        "tel": "",
        "category": "基础设施:公共设施:公共厕所",
        "type": 0,
        "location": {
            "lat": 29.371255,
            "lng": 113.140813
        },
        "ad_info": {
            "adcode": 430602,
            "province": "湖南省",
            "city": "岳阳市",
            "district": "岳阳楼区"
        }
    },
    {
        "id": "16941206058508351014",
        "title": "公共厕所",
        "address": "湖南省岳阳市岳阳楼区会展路与后头坡路交叉口正东方向29米左右",
        "tel": "",
        "category": "基础设施:公共设施:公共厕所",
        "type": 0,
        "location": {
            "lat": 29.353767,
            "lng": 113.174629
        },
        "ad_info": {
            "adcode": 430602,
            "province": "湖南省",
            "city": "岳阳市",
            "district": "岳阳楼区"
        }
    },
    {
        "id": "3491004876143484272",
        "title": "公共厕所",
        "address": "湖南省岳阳市汨罗市体育巷与建设中路交叉口正南方向102米左右",
        "tel": "",
        "category": "基础设施:公共设施:公共厕所",
        "type": 0,
        "location": {
            "lat": 28.803087,
            "lng": 113.080511
        },
        "ad_info": {
            "adcode": 430681,
            "province": "湖南省",
            "city": "岳阳市",
            "district": "汨罗市"
        }
    },
    {
        "id": "4175410124391516396",
        "title": "公共厕所",
        "address": "湖南省岳阳市岳阳楼区桂花园路与海关路交叉口西南方向123米左右",
        "tel": "",
        "category": "基础设施:公共设施:公共厕所",
        "type": 0,
        "location": {
            "lat": 29.435309,
            "lng": 113.151557
        },
        "ad_info": {
            "adcode": 430602,
            "province": "湖南省",
            "city": "岳阳市",
            "district": "岳阳楼区"
        }
    },
    {
        "id": "10885888768066643507",
        "title": "公共厕所",
        "address": "湖南省岳阳市岳阳楼区巴陵中路与相思街交叉口正南方向163米左右",
        "tel": "",
        "category": "基础设施:公共设施:公共厕所",
        "type": 0,
        "location": {
            "lat": 29.371573,
            "lng": 113.115317
        },
        "ad_info": {
            "adcode": 430602,
            "province": "湖南省",
            "city": "岳阳市",
            "district": "岳阳楼区"
        }
    },
    {
        "id": "14443987953420818440",
        "title": "公共厕所",
        "address": "湖南省岳阳市岳阳楼区天伦路与青年中路交叉口东南方向97米左右",
        "tel": "",
        "category": "基础设施:公共设施:公共厕所",
        "type": 0,
        "location": {
            "lat": 29.364873,
            "lng": 113.128419
        },
        "ad_info": {
            "adcode": 430602,
            "province": "湖南省",
            "city": "岳阳市",
            "district": "岳阳楼区"
        }
    },
    {
        "id": "5455234953096508711",
        "title": "公共厕所",
        "address": "湖南省岳阳市平江县连云路与鲁肃路交叉口正西方向11米左右",
        "tel": "",
        "category": "基础设施:公共设施:公共厕所",
        "type": 0,
        "location": {
            "lat": 28.700916,
            "lng": 113.592063
        },
        "ad_info": {
            "adcode": 430626,
            "province": "湖南省",
            "city": "岳阳市",
            "district": "平江县"
        }
    },
    {
        "id": "1266694800979841437",
        "title": "公共厕所",
        "address": "湖南省岳阳市岳阳楼区大寨田巷与奇家岭街交叉口东北方向285米左右",
        "tel": "",
        "category": "基础设施:公共设施:公共厕所",
        "type": 0,
        "location": {
            "lat": 29.340106,
            "lng": 113.151326
        },
        "ad_info": {
            "adcode": 430602,
            "province": "湖南省",
            "city": "岳阳市",
            "district": "岳阳楼区"
        }
    },
    {
        "id": "9803372174424343347",
        "title": "公共厕所",
        "address": "湖南省岳阳市岳阳楼区建设南路71号",
        "tel": "",
        "category": "基础设施:公共设施:公共厕所",
        "type": 0,
        "location": {
            "lat": 29.373513,
            "lng": 113.101054
        },
        "ad_info": {
            "adcode": 430602,
            "province": "湖南省",
            "city": "岳阳市",
            "district": "岳阳楼区"
        }
    },
    {
        "id": "5026040578112110503",
        "title": "公共厕所",
        "address": "湖南省岳阳市汨罗市屈原北路88号",
        "tel": "",
        "category": "基础设施:公共设施:公共厕所",
        "type": 0,
        "location": {
            "lat": 28.809117,
            "lng": 113.074193
        },
        "ad_info": {
            "adcode": 430681,
            "province": "湖南省",
            "city": "岳阳市",
            "district": "汨罗市"
        }
    },
    {
        "id": "17491576678831612926",
        "title": "公共厕所",
        "address": "湖南省岳阳市岳阳楼区五里牌路与五里街交叉口正东方向52米左右",
        "tel": "",
        "category": "基础设施:公共设施:公共厕所",
        "type": 0,
        "location": {
            "lat": 29.368523,
            "lng": 113.124924
        },
        "ad_info": {
            "adcode": 430602,
            "province": "湖南省",
            "city": "岳阳市",
            "district": "岳阳楼区"
        }
    },
    {
        "id": "16374450723744563797",
        "title": "公共厕所",
        "address": "湖南省岳阳市平江县步行街与民主街交叉口正南方向82米左右",
        "tel": "",
        "category": "基础设施:公共设施:公共厕所",
        "type": 0,
        "location": {
            "lat": 28.689896,
            "lng": 113.594668
        },
        "ad_info": {
            "adcode": 430626,
            "province": "湖南省",
            "city": "岳阳市",
            "district": "平江县"
        }
    },
    {
        "id": "9537658340715259936",
        "title": "公共厕所",
        "address": "湖南省岳阳市临湘市南正街与步行街交叉口正南方向42米左右",
        "tel": "",
        "category": "基础设施:公共设施:公共厕所",
        "type": 0,
        "location": {
            "lat": 29.471724,
            "lng": 113.452077
        },
        "ad_info": {
            "adcode": 430682,
            "province": "湖南省",
            "city": "岳阳市",
            "district": "临湘市"
        }
    },
    {
        "id": "7503620090363679872",
        "title": "公共厕所",
        "address": "湖南省岳阳市岳阳楼区建设南路317号",
        "tel": "",
        "category": "基础设施:公共设施:公共厕所",
        "type": 0,
        "location": {
            "lat": 29.369057,
            "lng": 113.098192
        },
        "ad_info": {
            "adcode": 430602,
            "province": "湖南省",
            "city": "岳阳市",
            "district": "岳阳楼区"
        }
    },
    {
        "id": "11622686340119812403",
        "title": "公共厕所",
        "address": "湖南省岳阳市岳阳楼区建湘路与洞庭大道交叉口正南方向98米左右",
        "tel": "",
        "category": "基础设施:公共设施:公共厕所",
        "type": 0,
        "location": {
            "lat": 29.379225,
            "lng": 113.136088
        },
        "ad_info": {
            "adcode": 430602,
            "province": "湖南省",
            "city": "岳阳市",
            "district": "岳阳楼区"
        }
    },
    {
        "id": "1110695322745452264",
        "title": "公共厕所(南湖广场)",
        "address": "湖南省岳阳市岳阳楼区南湖新区龙舟街4号",
        "tel": "",
        "category": "基础设施:公共设施:公共厕所",
        "type": 0,
        "location": {
            "lat": 29.348539,
            "lng": 113.119535
        },
        "ad_info": {
            "adcode": 430602,
            "province": "湖南省",
            "city": "岳阳市",
            "district": "岳阳楼区"
        }
    },
    {
        "id": "6403858458917944071",
        "title": "公共厕所",
        "address": "湖南省岳阳市岳阳楼区南湖大道辅路与巴陵中路辅路交叉口东北80米",
        "tel": "",
        "category": "基础设施:公共设施:公共厕所",
        "type": 0,
        "location": {
            "lat": 29.373635,
            "lng": 113.120545
        },
        "ad_info": {
            "adcode": 430602,
            "province": "湖南省",
            "city": "岳阳市",
            "district": "岳阳楼区"
        }
    },
    {
        "id": "11719682530949146839",
        "title": "公共厕所",
        "address": "湖南省岳阳市岳阳楼区洛王路与烟丹庙路交叉口东南方向165米左右",
        "tel": "",
        "category": "基础设施:公共设施:公共厕所",
        "type": 0,
        "location": {
            "lat": 29.384804,
            "lng": 113.142955
        },
        "ad_info": {
            "adcode": 430602,
            "province": "湖南省",
            "city": "岳阳市",
            "district": "岳阳楼区"
        }
    },
    {
        "id": "17048323144667473442",
        "title": "公共厕所",
        "address": "湖南省岳阳市临湘市南太路与复兴路交叉口西南方向79米左右",
        "tel": "",
        "category": "基础设施:公共设施:公共厕所",
        "type": 0,
        "location": {
            "lat": 29.464568,
            "lng": 113.446347
        },
        "ad_info": {
            "adcode": 430682,
            "province": "湖南省",
            "city": "岳阳市",
            "district": "临湘市"
        }
    },
    {
        "id": "6950562244861337285",
        "title": "公共厕所",
        "address": "湖南省岳阳市湘阴县北正街与江东西路交叉口东北方向114米左右",
        "tel": "",
        "category": "基础设施:公共设施:公共厕所",
        "type": 0,
        "location": {
            "lat": 28.672824,
            "lng": 112.882491
        },
        "ad_info": {
            "adcode": 430624,
            "province": "湖南省",
            "city": "岳阳市",
            "district": "湘阴县"
        }
    },
    {
        "id": "10890362274310294134",
        "title": "公共厕所",
        "address": "湖南省岳阳市临湘市福桥路108号附近福桥宾馆右侧",
        "tel": "",
        "category": "基础设施:公共设施:公共厕所",
        "type": 0,
        "location": {
            "lat": 29.472011,
            "lng": 113.484237
        },
        "ad_info": {
            "adcode": 430682,
            "province": "湖南省",
            "city": "岳阳市",
            "district": "临湘市"
        }
    },
    {
        "id": "18166133521580226578",
        "title": "公共厕所",
        "address": "湖南省岳阳市平江县毛家巷与民建路交叉口东北方向51米左右",
        "tel": "",
        "category": "基础设施:公共设施:公共厕所",
        "type": 0,
        "location": {
            "lat": 28.700756,
            "lng": 113.583167
        },
        "ad_info": {
            "adcode": 430626,
            "province": "湖南省",
            "city": "岳阳市",
            "district": "平江县"
        }
    },
    {
        "id": "18336407753484929279",
        "title": "公共厕所",
        "address": "湖南省岳阳市平江县富竹街与平江大道交叉口正北方向41米左右",
        "tel": "",
        "category": "基础设施:公共设施:公共厕所",
        "type": 0,
        "location": {
            "lat": 28.680424,
            "lng": 113.603132
        },
        "ad_info": {
            "adcode": 430626,
            "province": "湖南省",
            "city": "岳阳市",
            "district": "平江县"
        }
    },
    {
        "id": "575020672976983732",
        "title": "公共厕所",
        "address": "湖南省岳阳市平江县连云路与鲁肃路交叉口东北方向42米左右",
        "tel": "",
        "category": "基础设施:公共设施:公共厕所",
        "type": 0,
        "location": {
            "lat": 28.698916,
            "lng": 113.602095
        },
        "ad_info": {
            "adcode": 430626,
            "province": "湖南省",
            "city": "岳阳市",
            "district": "平江县"
        }
    },
    {
        "id": "5735173763488866920",
        "title": "公共厕所",
        "address": "湖南省岳阳市岳阳楼区丁家塘与文湘巷交叉口西南方向46米左右",
        "tel": "",
        "category": "基础设施:公共设施:公共厕所",
        "type": 0,
        "location": {
            "lat": 29.369732,
            "lng": 113.10273
        },
        "ad_info": {
            "adcode": 430602,
            "province": "湖南省",
            "city": "岳阳市",
            "district": "岳阳楼区"
        }
    },
    {
        "id": "11708608897847147301",
        "title": "公共厕所",
        "address": "湖南省岳阳市岳阳楼区岳阳大道与旭园路交叉口正西方向204米左右",
        "tel": "",
        "category": "基础设施:公共设施:公共厕所",
        "type": 0,
        "location": {
            "lat": 29.356899,
            "lng": 113.158205
        },
        "ad_info": {
            "adcode": 430602,
            "province": "湖南省",
            "city": "岳阳市",
            "district": "岳阳楼区"
        }
    },
    {
        "id": "11633306668982909866",
        "title": "公共厕所",
        "address": "湖南省岳阳市岳阳楼区冷水铺路与花果畈路交叉口东北方向195米左右",
        "tel": "",
        "category": "基础设施:公共设施:公共厕所",
        "type": 0,
        "location": {
            "lat": 29.398569,
            "lng": 113.172394
        },
        "ad_info": {
            "adcode": 430602,
            "province": "湖南省",
            "city": "岳阳市",
            "district": "岳阳楼区"
        }
    },
    {
        "id": "17513856897120643281",
        "title": "公共厕所",
        "address": "湖南省岳阳市岳阳楼区求索西路与渔光巷交叉口正北方向52米左右",
        "tel": "",
        "category": "基础设施:公共设施:公共厕所",
        "type": 0,
        "location": {
            "lat": 29.352918,
            "lng": 113.109953
        },
        "ad_info": {
            "adcode": 430602,
            "province": "湖南省",
            "city": "岳阳市",
            "district": "岳阳楼区"
        }
    },
    {
        "id": "9102648725442563084",
        "title": "公共厕所",
        "address": "湖南省岳阳市临湘市G353与S206交叉口东南方向50米左右",
        "tel": "",
        "category": "基础设施:公共设施:公共厕所",
        "type": 0,
        "location": {
            "lat": 29.332561,
            "lng": 113.407202
        },
        "ad_info": {
            "adcode": 430682,
            "province": "湖南省",
            "city": "岳阳市",
            "district": "临湘市"
        }
    },
    {
        "id": "10375603209441683876",
        "title": "公共厕所",
        "address": "湖南省岳阳市汨罗市劳动北路与黄家垄路交叉口正东方向94米左右",
        "tel": "",
        "category": "基础设施:公共设施:公共厕所",
        "type": 0,
        "location": {
            "lat": 28.805267,
            "lng": 113.07976
        },
        "ad_info": {
            "adcode": 430681,
            "province": "湖南省",
            "city": "岳阳市",
            "district": "汨罗市"
        }
    },
    {
        "id": "9794188825896852736",
        "title": "公共厕所",
        "address": "湖南省岳阳市岳阳楼区五里牌路与建湘路交叉口东北方向44米左右",
        "tel": "",
        "category": "基础设施:公共设施:公共厕所",
        "type": 0,
        "location": {
            "lat": 29.369399,
            "lng": 113.131115
        },
        "ad_info": {
            "adcode": 430602,
            "province": "湖南省",
            "city": "岳阳市",
            "district": "岳阳楼区"
        }
    },
    {
        "id": "2289170424765221972",
        "title": "公共厕所",
        "address": "湖南省岳阳市临湘市临湘大道与连心路交叉口东北方向119米左右",
        "tel": "",
        "category": "基础设施:公共设施:公共厕所",
        "type": 0,
        "location": {
            "lat": 29.478478,
            "lng": 113.437625
        },
        "ad_info": {
            "adcode": 430682,
            "province": "湖南省",
            "city": "岳阳市",
            "district": "临湘市"
        }
    },
    {
        "id": "4372564319729061288",
        "title": "公共厕所",
        "address": "湖南省岳阳市汨罗市龙舟南路汨罗东站站前广场",
        "tel": "",
        "category": "基础设施:公共设施:公共厕所",
        "type": 0,
        "location": {
            "lat": 28.745405,
            "lng": 113.145833
        },
        "ad_info": {
            "adcode": 430681,
            "province": "湖南省",
            "city": "岳阳市",
            "district": "汨罗市"
        }
    },
    {
        "id": "1668684924012830982",
        "title": "公共厕所",
        "address": "湖南省岳阳市岳阳楼区桂花园小区(桂花园路)南侧220米",
        "tel": "",
        "category": "基础设施:公共设施:公共厕所",
        "type": 0,
        "location": {
            "lat": 29.427808,
            "lng": 113.149177
        },
        "ad_info": {
            "adcode": 430602,
            "province": "湖南省",
            "city": "岳阳市",
            "district": "岳阳楼区"
        }
    },
    {
        "id": "5342388899041788253",
        "title": "公共厕所",
        "address": "湖南省岳阳市岳阳楼区运通街98号",
        "tel": "",
        "category": "基础设施:公共设施:公共厕所",
        "type": 0,
        "location": {
            "lat": 29.370233,
            "lng": 113.122755
        },
        "ad_info": {
            "adcode": 430602,
            "province": "湖南省",
            "city": "岳阳市",
            "district": "岳阳楼区"
        }
    },
    {
        "id": "6036524799755548869",
        "title": "公共厕所",
        "address": "湖南省岳阳市华容县西正街7号",
        "tel": "",
        "category": "基础设施:公共设施:公共厕所",
        "type": 0,
        "location": {
            "lat": 29.519708,
            "lng": 112.560818
        },
        "ad_info": {
            "adcode": 430623,
            "province": "湖南省",
            "city": "岳阳市",
            "district": "华容县"
        }
    },
    {
        "id": "18091356352597069895",
        "title": "公共厕所",
        "address": "湖南省岳阳市平江县坪上路与鲁肃路交叉口正北方向25米左右",
        "tel": "",
        "category": "基础设施:公共设施:公共厕所",
        "type": 0,
        "location": {
            "lat": 28.703442,
            "lng": 113.598259
        },
        "ad_info": {
            "adcode": 430626,
            "province": "湖南省",
            "city": "岳阳市",
            "district": "平江县"
        }
    },
    {
        "id": "3937589570214715789",
        "title": "公共厕所(三道弯大草坪)",
        "address": "湖南省岳阳市岳阳楼区景区游路A与芷兰路交叉口正东方向449米左右",
        "tel": "",
        "category": "基础设施:公共设施:公共厕所",
        "type": 0,
        "location": {
            "lat": 29.318089,
            "lng": 113.111852
        },
        "ad_info": {
            "adcode": 430602,
            "province": "湖南省",
            "city": "岳阳市",
            "district": "岳阳楼区"
        }
    },
    {
        "id": "3228052301541210884",
        "title": "康星百货-洗手间",
        "address": "湖南省岳阳市岳阳楼区岳阳商业步行广场与巴陵西路交叉口北40米",
        "tel": "",
        "category": "基础设施:公共设施:公共厕所",
        "type": 0,
        "location": {
            "lat": 29.373795,
            "lng": 113.108947
        },
        "ad_info": {
            "adcode": 430602,
            "province": "湖南省",
            "city": "岳阳市",
            "district": "岳阳楼区"
        }
    },
    {
        "id": "15889245294899132092",
        "title": "公共厕所",
        "address": "湖南省岳阳市临湘市S206与S208交叉口东北方向78米左右",
        "tel": "",
        "category": "基础设施:公共设施:公共厕所",
        "type": 0,
        "location": {
            "lat": 29.734848,
            "lng": 113.440639
        },
        "ad_info": {
            "adcode": 430682,
            "province": "湖南省",
            "city": "岳阳市",
            "district": "临湘市"
        }
    },
    {
        "id": "14510249807430583552",
        "title": "公共厕所",
        "address": "湖南省岳阳市汨罗市归义路酒厂小区",
        "tel": "",
        "category": "基础设施:公共设施:公共厕所",
        "type": 0,
        "location": {
            "lat": 28.803697,
            "lng": 113.091406
        },
        "ad_info": {
            "adcode": 430681,
            "province": "湖南省",
            "city": "岳阳市",
            "district": "汨罗市"
        }
    },
    {
        "id": "7192785353299593869",
        "title": "公共厕所",
        "address": "湖南省岳阳市岳阳楼区巴陵东路岳阳东站1F",
        "tel": "",
        "category": "基础设施:公共设施:公共厕所",
        "type": 0,
        "location": {
            "lat": 29.366626,
            "lng": 113.208609
        },
        "ad_info": {
            "adcode": 430602,
            "province": "湖南省",
            "city": "岳阳市",
            "district": "岳阳楼区"
        }
    },
    {
        "id": "5930624982923542502",
        "title": "公共厕所",
        "address": "湖南省岳阳市汨罗市山塘路与老街交叉口正东方向184米左右",
        "tel": "",
        "category": "基础设施:公共设施:公共厕所",
        "type": 0,
        "location": {
            "lat": 28.809961,
            "lng": 113.076412
        },
        "ad_info": {
            "adcode": 430681,
            "province": "湖南省",
            "city": "岳阳市",
            "district": "汨罗市"
        }
    },
    {
        "id": "16365037736478062382",
        "title": "公共厕所",
        "address": "湖南省岳阳市汨罗市汨新大道与罗城大道交叉口正南方向185米左右",
        "tel": "",
        "category": "基础设施:公共设施:公共厕所",
        "type": 0,
        "location": {
            "lat": 28.774818,
            "lng": 113.164521
        },
        "ad_info": {
            "adcode": 430681,
            "province": "湖南省",
            "city": "岳阳市",
            "district": "汨罗市"
        }
    },
    {
        "id": "5351702786824817803",
        "title": "公共厕所",
        "address": "湖南省岳阳市岳阳楼区桃花井与洞庭北路交叉口正南方向63米左右",
        "tel": "",
        "category": "基础设施:公共设施:公共厕所",
        "type": 0,
        "location": {
            "lat": 29.375715,
            "lng": 113.094541
        },
        "ad_info": {
            "adcode": 430602,
            "province": "湖南省",
            "city": "岳阳市",
            "district": "岳阳楼区"
        }
    },
    {
        "id": "7591186274838442481",
        "title": "公共厕所",
        "address": "湖南省岳阳市汨罗市京港澳高速与大荆互通交叉口正西方向346米左右",
        "tel": "",
        "category": "基础设施:公共设施:公共厕所",
        "type": 0,
        "location": {
            "lat": 28.95626,
            "lng": 113.266721
        },
        "ad_info": {
            "adcode": 430681,
            "province": "湖南省",
            "city": "岳阳市",
            "district": "汨罗市"
        }
    },
    {
        "id": "13942925109360502941",
        "title": "公共厕所",
        "address": "湖南省岳阳市汨罗市兴盛街与屈原大道交叉口正东方向368米左右",
        "tel": "",
        "category": "基础设施:公共设施:公共厕所",
        "type": 0,
        "location": {
            "lat": 28.853881,
            "lng": 112.920865
        },
        "ad_info": {
            "adcode": 430681,
            "province": "湖南省",
            "city": "岳阳市",
            "district": "汨罗市"
        }
    },
    {
        "id": "18361911581203392865",
        "title": "公共厕所",
        "address": "湖南省岳阳市云溪区S209与S301交叉口东南方向742米左右",
        "tel": "",
        "category": "基础设施:公共设施:公共厕所",
        "type": 0,
        "location": {
            "lat": 29.492721,
            "lng": 113.275693
        },
        "ad_info": {
            "adcode": 430603,
            "province": "湖南省",
            "city": "岳阳市",
            "district": "云溪区"
        }
    },
    {
        "id": "10578381337796772315",
        "title": "公共厕所",
        "address": "湖南省岳阳市岳阳楼区巴陵东路与白石岭北路交叉口正南方向326米左右",
        "tel": "",
        "category": "基础设施:公共设施:公共厕所",
        "type": 0,
        "location": {
            "lat": 29.366571,
            "lng": 113.177144
        },
        "ad_info": {
            "adcode": 430602,
            "province": "湖南省",
            "city": "岳阳市",
            "district": "岳阳楼区"
        }
    },
    {
        "id": "1632113558192385259",
        "title": "公共厕所",
        "address": "湖南省岳阳市岳阳楼区郭镇街与郭麻路交叉口东北方向37米左右",
        "tel": "",
        "category": "基础设施:公共设施:公共厕所",
        "type": 0,
        "location": {
            "lat": 29.296609,
            "lng": 113.140325
        },
        "ad_info": {
            "adcode": 430602,
            "province": "湖南省",
            "city": "岳阳市",
            "district": "岳阳楼区"
        }
    },
    {
        "id": "15134744132176563490",
        "title": "公共厕所",
        "address": "湖南省岳阳市云溪区S208与S301交叉口正西方向58米左右",
        "tel": "",
        "category": "基础设施:公共设施:公共厕所",
        "type": 0,
        "location": {
            "lat": 29.580548,
            "lng": 113.297738
        },
        "ad_info": {
            "adcode": 430603,
            "province": "湖南省",
            "city": "岳阳市",
            "district": "云溪区"
        }
    },
    {
        "id": "4923087935919565746",
        "title": "公共厕所",
        "address": "湖南省岳阳市华容县S211与S222交叉口正南方向793米左右",
        "tel": "",
        "category": "基础设施:公共设施:公共厕所",
        "type": 0,
        "location": {
            "lat": 29.53012,
            "lng": 112.626474
        },
        "ad_info": {
            "adcode": 430623,
            "province": "湖南省",
            "city": "岳阳市",
            "district": "华容县"
        }
    },
    {
        "id": "18163080026158906798",
        "title": "公共厕所",
        "address": "湖南省岳阳市岳阳楼区巴陵东路岳阳东站2F",
        "tel": "",
        "category": "基础设施:公共设施:公共厕所",
        "type": 0,
        "location": {
            "lat": 29.366722,
            "lng": 113.208665
        },
        "ad_info": {
            "adcode": 430602,
            "province": "湖南省",
            "city": "岳阳市",
            "district": "岳阳楼区"
        }
    },
    {
        "id": "6383511875765849801",
        "title": "公共厕所",
        "address": "湖南省岳阳市湘阴县G536与新西街交叉口正北方向590米左右",
        "tel": "",
        "category": "基础设施:公共设施:公共厕所",
        "type": 0,
        "location": {
            "lat": 28.635978,
            "lng": 112.699147
        },
        "ad_info": {
            "adcode": 430624,
            "province": "湖南省",
            "city": "岳阳市",
            "district": "湘阴县"
        }
    },
    {
        "id": "16129979621554434763",
        "title": "公共厕所",
        "address": "湖南省岳阳市汨罗市G240与G536交叉口东北方向302米左右",
        "tel": "",
        "category": "基础设施:公共设施:公共厕所",
        "type": 0,
        "location": {
            "lat": 28.752222,
            "lng": 113.059971
        },
        "ad_info": {
            "adcode": 430681,
            "province": "湖南省",
            "city": "岳阳市",
            "district": "汨罗市"
        }
    },
    {
        "id": "2687226723227331922",
        "title": "公共厕所",
        "address": "湖南省岳阳市华容县S211与华容大道东路交叉口正南方向92米左右",
        "tel": "",
        "category": "基础设施:公共设施:公共厕所",
        "type": 0,
        "location": {
            "lat": 29.535864,
            "lng": 112.612899
        },
        "ad_info": {
            "adcode": 430623,
            "province": "湖南省",
            "city": "岳阳市",
            "district": "华容县"
        }
    },
    {
        "id": "8005643102310572659",
        "title": "女洗手间(岳阳东站)",
        "address": "湖南省岳阳市岳阳楼区巴陵路东首岳阳东站F1层",
        "tel": "",
        "category": "基础设施:公共设施:公共厕所",
        "type": 0,
        "location": {
            "lat": 29.36587,
            "lng": 113.20815
        },
        "ad_info": {
            "adcode": 430602,
            "province": "湖南省",
            "city": "岳阳市",
            "district": "岳阳楼区"
        }
    },
    {
        "id": "757319833933743901",
        "title": "公共厕所",
        "address": "湖南省岳阳市湘阴县冬茅东路与香域路交叉口正南方向90米左右",
        "tel": "",
        "category": "基础设施:公共设施:公共厕所",
        "type": 0,
        "location": {
            "lat": 28.683558,
            "lng": 112.90374
        },
        "ad_info": {
            "adcode": 430624,
            "province": "湖南省",
            "city": "岳阳市",
            "district": "湘阴县"
        }
    },
    {
        "id": "1932564004960734104",
        "title": "公共厕所",
        "address": "湖南省岳阳市岳阳楼区巴陵中路与相思街交叉口东北方向94米左右",
        "tel": "",
        "category": "基础设施:公共设施:公共厕所",
        "type": 0,
        "location": {
            "lat": 29.373531,
            "lng": 113.115792
        },
        "ad_info": {
            "adcode": 430602,
            "province": "湖南省",
            "city": "岳阳市",
            "district": "岳阳楼区"
        }
    },
    {
        "id": "10055876513557873642",
        "title": "公共厕所",
        "address": "湖南省岳阳市岳阳楼区巴陵东路与白石岭北路交叉口西南方向345米左右",
        "tel": "",
        "category": "基础设施:公共设施:公共厕所",
        "type": 0,
        "location": {
            "lat": 29.366818,
            "lng": 113.1741
        },
        "ad_info": {
            "adcode": 430602,
            "province": "湖南省",
            "city": "岳阳市",
            "district": "岳阳楼区"
        }
    },
    {
        "id": "17428060331140918164",
        "title": "公共厕所",
        "address": "湖南省岳阳市岳阳楼区岳阳大道东岳阳文化艺术会展中心",
        "tel": "",
        "category": "基础设施:公共设施:公共厕所",
        "type": 0,
        "location": {
            "lat": 29.355334,
            "lng": 113.172307
        },
        "ad_info": {
            "adcode": 430602,
            "province": "湖南省",
            "city": "岳阳市",
            "district": "岳阳楼区"
        }
    },
    {
        "id": "15815093141678593536",
        "title": "公共厕所",
        "address": "湖南省岳阳市湘阴县湖滨路铂金汉宫对面",
        "tel": "",
        "category": "基础设施:公共设施:公共厕所",
        "type": 0,
        "location": {
            "lat": 28.670495,
            "lng": 112.885706
        },
        "ad_info": {
            "adcode": 430624,
            "province": "湖南省",
            "city": "岳阳市",
            "district": "湘阴县"
        }
    },
    {
        "id": "5180535406668433813",
        "title": "公共厕所",
        "address": "湖南省岳阳市湘阴县G536与X195交叉口正西方向227米左右",
        "tel": "",
        "category": "基础设施:公共设施:公共厕所",
        "type": 0,
        "location": {
            "lat": 28.675076,
            "lng": 112.781055
        },
        "ad_info": {
            "adcode": 430624,
            "province": "湖南省",
            "city": "岳阳市",
            "district": "湘阴县"
        }
    },
    {
        "id": "17418004829723898817",
        "title": "公共厕所",
        "address": "湖南省岳阳市岳阳楼区李家冲路4号",
        "tel": "",
        "category": "基础设施:公共设施:公共厕所",
        "type": 0,
        "location": {
            "lat": 29.354424,
            "lng": 113.127348
        },
        "ad_info": {
            "adcode": 430602,
            "province": "湖南省",
            "city": "岳阳市",
            "district": "岳阳楼区"
        }
    },
    {
        "id": "201491803394159834",
        "title": "公共厕所",
        "address": "湖南省岳阳市岳阳楼区洞庭大道与湖东路交叉口正北方向39米左右",
        "tel": "",
        "category": "基础设施:公共设施:公共厕所",
        "type": 0,
        "location": {
            "lat": 29.390454,
            "lng": 113.119873
        },
        "ad_info": {
            "adcode": 430602,
            "province": "湖南省",
            "city": "岳阳市",
            "district": "岳阳楼区"
        }
    },
    {
        "id": "6811614929560694405",
        "title": "梅溪桥公共厕所",
        "address": "湖南省岳阳市岳阳楼区梅溪桥玉清观",
        "tel": "",
        "category": "基础设施:公共设施:公共厕所",
        "type": 0,
        "location": {
            "lat": 29.370476,
            "lng": 113.095747
        },
        "ad_info": {
            "adcode": 430602,
            "province": "湖南省",
            "city": "岳阳市",
            "district": "岳阳楼区"
        }
    },
    {
        "id": "18289617142625548616",
        "title": "公共厕所",
        "address": "湖南省岳阳市平江县四柱路与育才路交叉口正北方向40米左右",
        "tel": "",
        "category": "基础设施:公共设施:公共厕所",
        "type": 0,
        "location": {
            "lat": 28.693387,
            "lng": 113.59536
        },
        "ad_info": {
            "adcode": 430626,
            "province": "湖南省",
            "city": "岳阳市",
            "district": "平江县"
        }
    },
    {
        "id": "15371350778523085752",
        "title": "公共厕所",
        "address": "湖南省岳阳市岳阳楼区第六中学",
        "tel": "",
        "category": "基础设施:公共设施:公共厕所",
        "type": 0,
        "location": {
            "lat": 29.362338,
            "lng": 113.100108
        },
        "ad_info": {
            "adcode": 430602,
            "province": "湖南省",
            "city": "岳阳市",
            "district": "岳阳楼区"
        }
    },
    {
        "id": "950800417878320050",
        "title": "公共厕所",
        "address": "湖南省岳阳市临湘市云湖路与南太路交叉口东北方向63米左右",
        "tel": "",
        "category": "基础设施:公共设施:公共厕所",
        "type": 0,
        "location": {
            "lat": 29.458735,
            "lng": 113.441274
        },
        "ad_info": {
            "adcode": 430682,
            "province": "湖南省",
            "city": "岳阳市",
            "district": "临湘市"
        }
    },
    {
        "id": "10478990998160569631",
        "title": "公共厕所",
        "address": "湖南省岳阳市平江县邓家山巷与南街交叉口东北100米",
        "tel": "",
        "category": "基础设施:公共设施:公共厕所",
        "type": 0,
        "location": {
            "lat": 28.705228,
            "lng": 113.583328
        },
        "ad_info": {
            "adcode": 430626,
            "province": "湖南省",
            "city": "岳阳市",
            "district": "平江县"
        }
    },
    {
        "id": "3858404975138143230",
        "title": "桃林服务区公共厕所",
        "address": "湖南省岳阳市临湘市塘下京港澳高速公路桃林服务区",
        "tel": "",
        "category": "基础设施:公共设施:公共厕所",
        "type": 0,
        "location": {
            "lat": 29.321444,
            "lng": 113.371928
        },
        "ad_info": {
            "adcode": 430682,
            "province": "湖南省",
            "city": "岳阳市",
            "district": "临湘市"
        }
    },
    {
        "id": "6818921592907206229",
        "title": "接官亭街公共厕所",
        "address": "湖南省岳阳市湘阴县湘阴县中医院江东分院(江东中路北)",
        "tel": "",
        "category": "基础设施:公共设施:公共厕所",
        "type": 0,
        "location": {
            "lat": 28.675912,
            "lng": 112.894585
        },
        "ad_info": {
            "adcode": 430624,
            "province": "湖南省",
            "city": "岳阳市",
            "district": "湘阴县"
        }
    },
    {
        "id": "4888856096243664495",
        "title": "公共厕所",
        "address": "湖南省岳阳市君山区松湖路与洞庭大道交叉口西北方向212米左右",
        "tel": "",
        "category": "基础设施:公共设施:公共厕所",
        "type": 0,
        "location": {
            "lat": 29.430148,
            "lng": 113.057311
        },
        "ad_info": {
            "adcode": 430611,
            "province": "湖南省",
            "city": "岳阳市",
            "district": "君山区"
        }
    },
    {
        "id": "6504454209729648586",
        "title": "公共厕所",
        "address": "湖南省岳阳市临湘市长安东路湘运花园小区",
        "tel": "",
        "category": "基础设施:公共设施:公共厕所",
        "type": 0,
        "location": {
            "lat": 29.472818,
            "lng": 113.476723
        },
        "ad_info": {
            "adcode": 430682,
            "province": "湖南省",
            "city": "岳阳市",
            "district": "临湘市"
        }
    },
    {
        "id": "17580989766244805700",
        "title": "公共厕所",
        "address": "湖南省岳阳市岳阳县致富步行街天玺花园",
        "tel": "",
        "category": "基础设施:公共设施:公共厕所",
        "type": 0,
        "location": {
            "lat": 29.139843,
            "lng": 113.121135
        },
        "ad_info": {
            "adcode": 430621,
            "province": "湖南省",
            "city": "岳阳市",
            "district": "岳阳县"
        }
    },
    {
        "id": "8970594082118760407",
        "title": "公共厕所",
        "address": "湖南省岳阳市华容县尚书东路华容城市广场",
        "tel": "",
        "category": "基础设施:公共设施:公共厕所",
        "type": 0,
        "location": {
            "lat": 29.528793,
            "lng": 112.565768
        },
        "ad_info": {
            "adcode": 430623,
            "province": "湖南省",
            "city": "岳阳市",
            "district": "华容县"
        }
    },
    {
        "id": "10517874951895321750",
        "title": "公共厕所",
        "address": "湖南省岳阳市平江县楼梯巷路与百花台路交叉口正北方向72米左右",
        "tel": "",
        "category": "基础设施:公共设施:公共厕所",
        "type": 0,
        "location": {
            "lat": 28.687896,
            "lng": 113.589864
        },
        "ad_info": {
            "adcode": 430626,
            "province": "湖南省",
            "city": "岳阳市",
            "district": "平江县"
        }
    },
    {
        "id": "1383103461415967622",
        "title": "公共厕所",
        "address": "湖南省岳阳市华容县北城墙巷与迎宾中路交叉口正东方向37米左右",
        "tel": "",
        "category": "基础设施:公共设施:公共厕所",
        "type": 0,
        "location": {
            "lat": 29.523544,
            "lng": 112.564952
        },
        "ad_info": {
            "adcode": 430623,
            "province": "湖南省",
            "city": "岳阳市",
            "district": "华容县"
        }
    },
    {
        "id": "16458493679948305886",
        "title": "公共厕所",
        "address": "湖南省岳阳市平江县金华路与鲁家坪路交叉口东南方向18米左右",
        "tel": "",
        "category": "基础设施:公共设施:公共厕所",
        "type": 0,
        "location": {
            "lat": 28.709072,
            "lng": 113.581592
        },
        "ad_info": {
            "adcode": 430626,
            "province": "湖南省",
            "city": "岳阳市",
            "district": "平江县"
        }
    },
    {
        "id": "2796336594268546001",
        "title": "公共厕所",
        "address": "湖南省岳阳市汨罗市劳动北路与高南巷交叉口正北方向42米左右",
        "tel": "",
        "category": "基础设施:公共设施:公共厕所",
        "type": 0,
        "location": {
            "lat": 28.806787,
            "lng": 113.078868
        },
        "ad_info": {
            "adcode": 430681,
            "province": "湖南省",
            "city": "岳阳市",
            "district": "汨罗市"
        }
    },
    {
        "id": "9871457494144680792",
        "title": "平江服务区公共厕所",
        "address": "湖南省岳阳市平江县S209与X060交叉口正东方向434米左右",
        "tel": "",
        "category": "基础设施:公共设施:公共厕所",
        "type": 0,
        "location": {
            "lat": 28.64562,
            "lng": 113.264652
        },
        "ad_info": {
            "adcode": 430626,
            "province": "湖南省",
            "city": "岳阳市",
            "district": "平江县"
        }
    },
    {
        "id": "3615439306105768007",
        "title": "公共厕所",
        "address": "湖南省岳阳市岳阳县团结路金色阳光幼儿园",
        "tel": "",
        "category": "基础设施:公共设施:公共厕所",
        "type": 0,
        "location": {
            "lat": 29.143014,
            "lng": 113.112003
        },
        "ad_info": {
            "adcode": 430621,
            "province": "湖南省",
            "city": "岳阳市",
            "district": "岳阳县"
        }
    },
    {
        "id": "9874236851544367883",
        "title": "公共厕所",
        "address": "湖南省岳阳市岳阳县花约四季旅游管理有限公司消防演练馆旁",
        "tel": "",
        "category": "基础设施:公共设施:公共厕所",
        "type": 0,
        "location": {
            "lat": 29.090968,
            "lng": 113.294386
        },
        "ad_info": {
            "adcode": 430621,
            "province": "湖南省",
            "city": "岳阳市",
            "district": "岳阳县"
        }
    },
    {
        "id": "14430972388859081435",
        "title": "公共厕所",
        "address": "湖南省岳阳市岳阳县G107与X122交叉口正北方向691米左右",
        "tel": "",
        "category": "基础设施:公共设施:公共厕所",
        "type": 0,
        "location": {
            "lat": 29.123082,
            "lng": 113.229058
        },
        "ad_info": {
            "adcode": 430621,
            "province": "湖南省",
            "city": "岳阳市",
            "district": "岳阳县"
        }
    },
    {
        "id": "10372817281337106135",
        "title": "羊楼司服务区公共厕所",
        "address": "湖南省岳阳市临湘市京港澳高速羊楼司服务区",
        "tel": "",
        "category": "基础设施:公共设施:公共厕所",
        "type": 0,
        "location": {
            "lat": 29.558133,
            "lng": 113.680963
        },
        "ad_info": {
            "adcode": 430682,
            "province": "湖南省",
            "city": "岳阳市",
            "district": "临湘市"
        }
    },
    {
        "id": "9496473333397674556",
        "title": "公共厕所",
        "address": "湖南省岳阳市岳阳县S306与X105交叉口西北方向137米左右",
        "tel": "",
        "category": "基础设施:公共设施:公共厕所",
        "type": 0,
        "location": {
            "lat": 29.188465,
            "lng": 113.43521
        },
        "ad_info": {
            "adcode": 430621,
            "province": "湖南省",
            "city": "岳阳市",
            "district": "岳阳县"
        }
    },
    {
        "id": "5705905064788996097",
        "title": "公共厕所",
        "address": "湖南省岳阳市岳阳县中湘街与月西路交叉口正南方向149米左右",
        "tel": "",
        "category": "基础设施:公共设施:公共厕所",
        "type": 0,
        "location": {
            "lat": 29.134905,
            "lng": 113.121402
        },
        "ad_info": {
            "adcode": 430621,
            "province": "湖南省",
            "city": "岳阳市",
            "district": "岳阳县"
        }
    },
    {
        "id": "11088769149925018171",
        "title": "公共厕所",
        "address": "湖南省岳阳市岳阳县中湘街与兴荣东路交叉口西南方向73米左右",
        "tel": "",
        "category": "基础设施:公共设施:公共厕所",
        "type": 0,
        "location": {
            "lat": 29.139025,
            "lng": 113.120785
        },
        "ad_info": {
            "adcode": 430621,
            "province": "湖南省",
            "city": "岳阳市",
            "district": "岳阳县"
        }
    },
    {
        "id": "10660516257201413024",
        "title": "公共厕所",
        "address": "湖南省岳阳市湘阴县老东湖路与金元路交叉口东南方向15米左右",
        "tel": "",
        "category": "基础设施:公共设施:公共厕所",
        "type": 0,
        "location": {
            "lat": 28.672139,
            "lng": 112.885572
        },
        "ad_info": {
            "adcode": 430624,
            "province": "湖南省",
            "city": "岳阳市",
            "district": "湘阴县"
        }
    },
    {
        "id": "12710629637293534088",
        "title": "临湘服务区第二公共厕所",
        "address": "湖南省岳阳市临湘市G107与S206交叉口正南方向772米左右",
        "tel": "",
        "category": "基础设施:公共设施:公共厕所",
        "type": 0,
        "location": {
            "lat": 29.472146,
            "lng": 113.51244
        },
        "ad_info": {
            "adcode": 430682,
            "province": "湖南省",
            "city": "岳阳市",
            "district": "临湘市"
        }
    },
    {
        "id": "16227608873731515227",
        "title": "公共厕所",
        "address": "湖南省岳阳市岳阳县完校路与岳兴大道交叉口西北方向92米左右",
        "tel": "",
        "category": "基础设施:公共设施:公共厕所",
        "type": 0,
        "location": {
            "lat": 29.244905,
            "lng": 113.181939
        },
        "ad_info": {
            "adcode": 430621,
            "province": "湖南省",
            "city": "岳阳市",
            "district": "岳阳县"
        }
    },
    {
        "id": "15179548133434413747",
        "title": "公共厕所",
        "address": "湖南省岳阳市岳阳县S306与X034交叉口正东方向59米左右",
        "tel": "",
        "category": "基础设施:公共设施:公共厕所",
        "type": 0,
        "location": {
            "lat": 29.144069,
            "lng": 113.472468
        },
        "ad_info": {
            "adcode": 430621,
            "province": "湖南省",
            "city": "岳阳市",
            "district": "岳阳县"
        }
    },
    {
        "id": "4030186498818239844",
        "title": "岳阳服务区第一公共厕所",
        "address": "湖南省岳阳市云溪区云溪互通与许广高速交叉口正南方向1453米左右",
        "tel": "",
        "category": "基础设施:公共设施:公共厕所",
        "type": 0,
        "location": {
            "lat": 29.423464,
            "lng": 113.260017
        },
        "ad_info": {
            "adcode": 430603,
            "province": "湖南省",
            "city": "岳阳市",
            "district": "云溪区"
        }
    },
    {
        "id": "15629027872992452403",
        "title": "东湖路公共厕所",
        "address": "湖南省岳阳市湘阴县东湖北路与江东西路交叉口正南方向124米左右",
        "tel": "",
        "category": "基础设施:公共设施:公共厕所",
        "type": 0,
        "location": {
            "lat": 28.671342,
            "lng": 112.884164
        },
        "ad_info": {
            "adcode": 430624,
            "province": "湖南省",
            "city": "岳阳市",
            "district": "湘阴县"
        }
    },
    {
        "id": "15078641619603156105",
        "title": "安定服务区公共厕所",
        "address": "湖南省岳阳市平江县G0422武深高速与安定服务区交叉口西南340米",
        "tel": "",
        "category": "基础设施:公共设施:公共厕所",
        "type": 0,
        "location": {
            "lat": 28.599781,
            "lng": 113.615096
        },
        "ad_info": {
            "adcode": 430626,
            "province": "湖南省",
            "city": "岳阳市",
            "district": "平江县"
        }
    },
    {
        "id": "17348873211878236079",
        "title": "华容服务区公共厕所",
        "address": "湖南省岳阳市华容县杭瑞高速华容服务区",
        "tel": "",
        "category": "基础设施:公共设施:公共厕所",
        "type": 0,
        "location": {
            "lat": 29.545456,
            "lng": 112.668488
        },
        "ad_info": {
            "adcode": 430623,
            "province": "湖南省",
            "city": "岳阳市",
            "district": "华容县"
        }
    },
    {
        "id": "3862915604138895017",
        "title": "公共厕所",
        "address": "湖南省岳阳市华容县新市街与解放路交叉口正东方向67米左右",
        "tel": "",
        "category": "基础设施:公共设施:公共厕所",
        "type": 0,
        "location": {
            "lat": 29.520484,
            "lng": 112.572267
        },
        "ad_info": {
            "adcode": 430623,
            "province": "湖南省",
            "city": "岳阳市",
            "district": "华容县"
        }
    },
    {
        "id": "3661806062538140803",
        "title": "旅游路公共厕所",
        "address": "湖南省岳阳市君山区柳林洲黄茶特色小镇北侧270米",
        "tel": "",
        "category": "基础设施:公共设施:公共厕所",
        "type": 0,
        "location": {
            "lat": 29.425074,
            "lng": 113.004436
        },
        "ad_info": {
            "adcode": 430611,
            "province": "湖南省",
            "city": "岳阳市",
            "district": "君山区"
        }
    },
    {
        "id": "9859350622036279577",
        "title": "华容服务区第三公共厕所",
        "address": "湖南省岳阳市华容县中国石油华容服务区二加油站东侧80米",
        "tel": "",
        "category": "基础设施:公共设施:公共厕所",
        "type": 0,
        "location": {
            "lat": 29.546615,
            "lng": 112.671263
        },
        "ad_info": {
            "adcode": 430623,
            "province": "湖南省",
            "city": "岳阳市",
            "district": "华容县"
        }
    },
    {
        "id": "5569433350356475383",
        "title": "华容服务区B区-公共厕所",
        "address": "湖南省岳阳市华容县G353与Y036交叉口正北方向1595米左右",
        "tel": "",
        "category": "基础设施:公共设施:公共厕所",
        "type": 0,
        "location": {
            "lat": 29.545812,
            "lng": 112.668441
        },
        "ad_info": {
            "adcode": 430623,
            "province": "湖南省",
            "city": "岳阳市",
            "district": "华容县"
        }
    },
    {
        "id": "10487771137325291878",
        "title": "平江服务区公共厕所",
        "address": "湖南省岳阳市平江县平江服务区B区(京港澳高速公路东)",
        "tel": "",
        "category": "基础设施:公共设施:公共厕所",
        "type": 0,
        "location": {
            "lat": 28.642332,
            "lng": 113.266509
        },
        "ad_info": {
            "adcode": 430626,
            "province": "湖南省",
            "city": "岳阳市",
            "district": "平江县"
        }
    },
    {
        "id": "15319301207259130411",
        "title": "湘阴服务区公共厕所",
        "address": "湖南省岳阳市湘阴县六塘枢纽与许广高速交叉口正北方向1659米左右",
        "tel": "",
        "category": "基础设施:公共设施:公共厕所",
        "type": 0,
        "location": {
            "lat": 28.747886,
            "lng": 112.980886
        },
        "ad_info": {
            "adcode": 430624,
            "province": "湖南省",
            "city": "岳阳市",
            "district": "湘阴县"
        }
    },
    {
        "id": "7331992989571143155",
        "title": "巴陵服务区公共厕所",
        "address": "湖南省岳阳市岳阳县G4京港澳高速与巴陵服务区交叉口西北180米",
        "tel": "",
        "category": "基础设施:公共设施:公共厕所",
        "type": 0,
        "location": {
            "lat": 29.06826,
            "lng": 113.269614
        },
        "ad_info": {
            "adcode": 430621,
            "province": "湖南省",
            "city": "岳阳市",
            "district": "岳阳县"
        }
    },
    {
        "id": "2342001892163368530",
        "title": "公共厕所",
        "address": "湖南省岳阳市岳阳楼区岳城越洋爱宝贝幼儿园(岳阳广济医院东)",
        "tel": "",
        "category": "基础设施:公共设施:公共厕所",
        "type": 0,
        "location": {
            "lat": 29.386131,
            "lng": 113.134748
        },
        "ad_info": {
            "adcode": 430602,
            "province": "湖南省",
            "city": "岳阳市",
            "district": "岳阳楼区"
        }
    },
    {
        "id": "17997555159517186589",
        "title": "公共厕所",
        "address": "湖南省岳阳市湘阴县湘杨路与长岭路交叉口正南方向290米左右",
        "tel": "",
        "category": "基础设施:公共设施:公共厕所",
        "type": 0,
        "location": {
            "lat": 28.691623,
            "lng": 112.878329
        },
        "ad_info": {
            "adcode": 430624,
            "province": "湖南省",
            "city": "岳阳市",
            "district": "湘阴县"
        }
    },
    {
        "id": "15212044407964194352",
        "title": "公共厕所",
        "address": "湖南省岳阳市华容县X078与东正街路交叉口东南方向253米左右",
        "tel": "",
        "category": "基础设施:公共设施:公共厕所",
        "type": 0,
        "location": {
            "lat": 29.522596,
            "lng": 112.573384
        },
        "ad_info": {
            "adcode": 430623,
            "province": "湖南省",
            "city": "岳阳市",
            "district": "华容县"
        }
    },
    {
        "id": "17867778530916739817",
        "title": "公共厕所",
        "address": "湖南省岳阳市岳阳县富荣西路与青山北路交叉口西北方向60米左右",
        "tel": "",
        "category": "基础设施:公共设施:公共厕所",
        "type": 0,
        "location": {
            "lat": 29.151792,
            "lng": 113.106435
        },
        "ad_info": {
            "adcode": 430621,
            "province": "湖南省",
            "city": "岳阳市",
            "district": "岳阳县"
        }
    },
    {
        "id": "16170530181256893196",
        "title": "公共厕所",
        "address": "湖南省岳阳市岳阳楼区岳阳大道与香洲路交叉口西南方向64米左右",
        "tel": "",
        "category": "基础设施:公共设施:公共厕所",
        "type": 0,
        "location": {
            "lat": 29.357692,
            "lng": 113.103577
        },
        "ad_info": {
            "adcode": 430602,
            "province": "湖南省",
            "city": "岳阳市",
            "district": "岳阳楼区"
        }
    },
    {
        "id": "2445843113096936658",
        "title": "公共厕所",
        "address": "湖南省岳阳市临湘市花桥路与长盛路交叉口正西方向176米左右",
        "tel": "",
        "category": "基础设施:公共设施:公共厕所",
        "type": 0,
        "location": {
            "lat": 29.468176,
            "lng": 113.485735
        },
        "ad_info": {
            "adcode": 430682,
            "province": "湖南省",
            "city": "岳阳市",
            "district": "临湘市"
        }
    },
    {
        "id": "6419586399189790291",
        "title": "公共厕所",
        "address": "湖南省岳阳市岳阳县S310与X122交叉口正北方向36米左右",
        "tel": "",
        "category": "基础设施:公共设施:公共厕所",
        "type": 0,
        "location": {
            "lat": 29.130959,
            "lng": 113.189247
        },
        "ad_info": {
            "adcode": 430621,
            "province": "湖南省",
            "city": "岳阳市",
            "district": "岳阳县"
        }
    },
    {
        "id": "8602822534588363915",
        "title": "公共厕所",
        "address": "湖南省岳阳市华容县大夏路与桥东路交叉口西南方向60米左右",
        "tel": "",
        "category": "基础设施:公共设施:公共厕所",
        "type": 0,
        "location": {
            "lat": 29.528663,
            "lng": 112.576401
        },
        "ad_info": {
            "adcode": 430623,
            "province": "湖南省",
            "city": "岳阳市",
            "district": "华容县"
        }
    },
    {
        "id": "13614261789215293505",
        "title": "公共厕所",
        "address": "湖南省岳阳市岳阳楼区求索东路与白杨巷交叉口正东方向209米左右",
        "tel": "",
        "category": "基础设施:公共设施:公共厕所",
        "type": 0,
        "location": {
            "lat": 29.351659,
            "lng": 113.130426
        },
        "ad_info": {
            "adcode": 430602,
            "province": "湖南省",
            "city": "岳阳市",
            "district": "岳阳楼区"
        }
    },
    {
        "id": "4564380875253460110",
        "title": "公共厕所",
        "address": "湖南省岳阳市岳阳楼区大桥河路与巴陵东路交叉口正西方向184米左右",
        "tel": "",
        "category": "基础设施:公共设施:公共厕所",
        "type": 0,
        "location": {
            "lat": 29.370352,
            "lng": 113.155235
        },
        "ad_info": {
            "adcode": 430602,
            "province": "湖南省",
            "city": "岳阳市",
            "district": "岳阳楼区"
        }
    },
    {
        "id": "12678058722994963558",
        "title": "公共厕所",
        "address": "湖南省岳阳市岳阳县加油站东南侧80米",
        "tel": "",
        "category": "基础设施:公共设施:公共厕所",
        "type": 0,
        "location": {
            "lat": 29.241623,
            "lng": 113.182001
        },
        "ad_info": {
            "adcode": 430621,
            "province": "湖南省",
            "city": "岳阳市",
            "district": "岳阳县"
        }
    },
    {
        "id": "15557860647743874215",
        "title": "临湘服务区第一公共厕所",
        "address": "湖南省岳阳市临湘市京港澳高速临湘服务区",
        "tel": "",
        "category": "基础设施:公共设施:公共厕所",
        "type": 0,
        "location": {
            "lat": 29.473914,
            "lng": 113.511752
        },
        "ad_info": {
            "adcode": 430682,
            "province": "湖南省",
            "city": "岳阳市",
            "district": "临湘市"
        }
    },
    {
        "id": "126174389715441699",
        "title": "公共厕所",
        "address": "湖南省岳阳市华容县三益东路与迎宾北路交叉口东北方向146米左右",
        "tel": "",
        "category": "基础设施:公共设施:公共厕所",
        "type": 0,
        "location": {
            "lat": 29.530883,
            "lng": 112.557904
        },
        "ad_info": {
            "adcode": 430623,
            "province": "湖南省",
            "city": "岳阳市",
            "district": "华容县"
        }
    },
    {
        "id": "1073349312618883644",
        "title": "公共厕所",
        "address": "湖南省岳阳市岳阳县商苑大世界14栋",
        "tel": "",
        "category": "基础设施:公共设施:公共厕所",
        "type": 0,
        "location": {
            "lat": 29.149569,
            "lng": 113.117129
        },
        "ad_info": {
            "adcode": 430621,
            "province": "湖南省",
            "city": "岳阳市",
            "district": "岳阳县"
        }
    },
    {
        "id": "11640375042980183804",
        "title": "公共厕所",
        "address": "湖南省岳阳市云溪区S501与金桥路交叉口西北方向503米左右",
        "tel": "",
        "category": "基础设施:公共设施:公共厕所",
        "type": 0,
        "location": {
            "lat": 29.51454,
            "lng": 113.360847
        },
        "ad_info": {
            "adcode": 430603,
            "province": "湖南省",
            "city": "岳阳市",
            "district": "云溪区"
        }
    },
    {
        "id": "11197310395917915067",
        "title": "公共厕所",
        "address": "湖南省岳阳市湘阴县南泉路与石沙线交叉口东北方向347米左右",
        "tel": "",
        "category": "基础设施:公共设施:公共厕所",
        "type": 0,
        "location": {
            "lat": 28.655197,
            "lng": 112.88192
        },
        "ad_info": {
            "adcode": 430624,
            "province": "湖南省",
            "city": "岳阳市",
            "district": "湘阴县"
        }
    },
    {
        "id": "9998779214069996171",
        "title": "羊楼司服务区第一公共厕所",
        "address": "湖南省岳阳市临湘市羊楼司服务区与G4京港澳高速交叉口西南400米",
        "tel": "",
        "category": "基础设施:公共设施:公共厕所",
        "type": 0,
        "location": {
            "lat": 29.55736,
            "lng": 113.68016
        },
        "ad_info": {
            "adcode": 430682,
            "province": "湖南省",
            "city": "岳阳市",
            "district": "临湘市"
        }
    },
    {
        "id": "2167822286286459885",
        "title": "公共厕所",
        "address": "湖南省岳阳市平江县南江中路与南街交叉口正南方向258米左右",
        "tel": "",
        "category": "基础设施:公共设施:公共厕所",
        "type": 0,
        "location": {
            "lat": 28.966891,
            "lng": 113.748181
        },
        "ad_info": {
            "adcode": 430626,
            "province": "湖南省",
            "city": "岳阳市",
            "district": "平江县"
        }
    },
    {
        "id": "6564409763269848344",
        "title": "公共厕所(城陵矶新港区保税区)",
        "address": "湖南省岳阳市云溪区云欣大道与云港路交叉口正西方向308米左右",
        "tel": "",
        "category": "基础设施:公共设施:公共厕所",
        "type": 0,
        "location": {
            "lat": 29.473433,
            "lng": 113.234177
        },
        "ad_info": {
            "adcode": 430603,
            "province": "湖南省",
            "city": "岳阳市",
            "district": "云溪区"
        }
    },
    {
        "id": "18268382329869949500",
        "title": "君山服务区第一公共厕所",
        "address": "湖南省岳阳市君山区卫星路与建新路交叉口正北方向644米左右",
        "tel": "",
        "category": "基础设施:公共设施:公共厕所",
        "type": 0,
        "location": {
            "lat": 29.451312,
            "lng": 112.996272
        },
        "ad_info": {
            "adcode": 430611,
            "province": "湖南省",
            "city": "岳阳市",
            "district": "君山区"
        }
    },
    {
        "id": "7240902421578624535",
        "title": "公共厕所",
        "address": "湖南省岳阳市华容县朝阳路与港东南路交叉口正南方向14米左右",
        "tel": "",
        "category": "基础设施:公共设施:公共厕所",
        "type": 0,
        "location": {
            "lat": 29.51301,
            "lng": 112.567885
        },
        "ad_info": {
            "adcode": 430623,
            "province": "湖南省",
            "city": "岳阳市",
            "district": "华容县"
        }
    },
    {
        "id": "16828220520386326440",
        "title": "公共厕所(云溪区胜利西路)",
        "address": "湖南省岳阳市云溪区洗马北路与洗马路交叉口正东方向151米左右",
        "tel": "",
        "category": "基础设施:公共设施:公共厕所",
        "type": 0,
        "location": {
            "lat": 29.477996,
            "lng": 113.269629
        },
        "ad_info": {
            "adcode": 430603,
            "province": "湖南省",
            "city": "岳阳市",
            "district": "云溪区"
        }
    },
    {
        "id": "1251395843234019218",
        "title": "君山服务区公共厕所",
        "address": "湖南省岳阳市君山区卫星路君山服务区",
        "tel": "",
        "category": "基础设施:公共设施:公共厕所",
        "type": 0,
        "location": {
            "lat": 29.449997,
            "lng": 112.994227
        },
        "ad_info": {
            "adcode": 430611,
            "province": "湖南省",
            "city": "岳阳市",
            "district": "君山区"
        }
    },
    {
        "id": "4369221073747857354",
        "title": "巴陵服务区第二公共厕所",
        "address": "湖南省岳阳市岳阳县G4京港澳高速与巴陵服务区交叉口东南160米",
        "tel": "",
        "category": "基础设施:公共设施:公共厕所",
        "type": 0,
        "location": {
            "lat": 29.069444,
            "lng": 113.270697
        },
        "ad_info": {
            "adcode": 430621,
            "province": "湖南省",
            "city": "岳阳市",
            "district": "岳阳县"
        }
    },
    {
        "id": "1387877875080497973",
        "title": "公共厕所",
        "address": "湖南省岳阳市岳阳楼区岳阳大道与旭园路交叉口西南方向30米左右",
        "tel": "",
        "category": "基础设施:公共设施:公共厕所",
        "type": 0,
        "location": {
            "lat": 29.356079,
            "lng": 113.160028
        },
        "ad_info": {
            "adcode": 430602,
            "province": "湖南省",
            "city": "岳阳市",
            "district": "岳阳楼区"
        }
    },
    {
        "id": "7236158207468156423",
        "title": "公共厕所",
        "address": "湖南省岳阳市临湘市建新北路与建新南路交叉口正西方向46米左右",
        "tel": "",
        "category": "基础设施:公共设施:公共厕所",
        "type": 0,
        "location": {
            "lat": 29.478819,
            "lng": 113.445852
        },
        "ad_info": {
            "adcode": 430682,
            "province": "湖南省",
            "city": "岳阳市",
            "district": "临湘市"
        }
    },
    {
        "id": "2275134001848906194",
        "title": "公共厕所(云溪宾馆)",
        "address": "湖南省岳阳市云溪区金润达大厦东侧110米",
        "tel": "",
        "category": "基础设施:公共设施:公共厕所",
        "type": 0,
        "location": {
            "lat": 29.470554,
            "lng": 113.263083
        },
        "ad_info": {
            "adcode": 430603,
            "province": "湖南省",
            "city": "岳阳市",
            "district": "云溪区"
        }
    },
    {
        "id": "9112880953940652432",
        "title": "公共厕所",
        "address": "湖南省岳阳市华容县南正街与解放路交叉口正西方向18米左右",
        "tel": "",
        "category": "基础设施:公共设施:公共厕所",
        "type": 0,
        "location": {
            "lat": 29.520814,
            "lng": 112.568131
        },
        "ad_info": {
            "adcode": 430623,
            "province": "湖南省",
            "city": "岳阳市",
            "district": "华容县"
        }
    },
    {
        "id": "908917399719323244",
        "title": "公共厕所",
        "address": "湖南省岳阳市云溪区新铺路与欣港东路交叉口西北方向143米左右",
        "tel": "",
        "category": "基础设施:公共设施:公共厕所",
        "type": 0,
        "location": {
            "lat": 29.457938,
            "lng": 113.258853
        },
        "ad_info": {
            "adcode": 430603,
            "province": "湖南省",
            "city": "岳阳市",
            "district": "云溪区"
        }
    },
    {
        "id": "12203332051864238922",
        "title": "公共厕所",
        "address": "湖南省岳阳市岳阳楼区东井岭巷与学坡街交叉口西南方向106米左右",
        "tel": "",
        "category": "基础设施:公共设施:公共厕所",
        "type": 0,
        "location": {
            "lat": 29.370517,
            "lng": 113.101618
        },
        "ad_info": {
            "adcode": 430602,
            "province": "湖南省",
            "city": "岳阳市",
            "district": "岳阳楼区"
        }
    },
    {
        "id": "17960471012403561601",
        "title": "公共厕所",
        "address": "湖南省岳阳市平江县汨江风光北50米",
        "tel": "",
        "category": "基础设施:公共设施:公共厕所",
        "type": 0,
        "location": {
            "lat": 28.709887,
            "lng": 113.588321
        },
        "ad_info": {
            "adcode": 430626,
            "province": "湖南省",
            "city": "岳阳市",
            "district": "平江县"
        }
    },
    {
        "id": "7475201607613006047",
        "title": "公共厕所",
        "address": "湖南省岳阳市平江县G536与怀甫路交叉口东北方向232米左右",
        "tel": "",
        "category": "基础设施:公共设施:公共厕所",
        "type": 0,
        "location": {
            "lat": 28.697096,
            "lng": 113.569159
        },
        "ad_info": {
            "adcode": 430626,
            "province": "湖南省",
            "city": "岳阳市",
            "district": "平江县"
        }
    },
    {
        "id": "12504042519773406276",
        "title": "公共厕所",
        "address": "湖南省岳阳市岳阳县东方西路与团结路交叉口正南方向210米左右",
        "tel": "",
        "category": "基础设施:公共设施:公共厕所",
        "type": 0,
        "location": {
            "lat": 29.140509,
            "lng": 113.112343
        },
        "ad_info": {
            "adcode": 430621,
            "province": "湖南省",
            "city": "岳阳市",
            "district": "岳阳县"
        }
    },
    {
        "id": "16861043355151761678",
        "title": "公共厕所",
        "address": "湖南省岳阳市岳阳楼区汴河街与洞庭北路交叉口东北方向22米左右",
        "tel": "",
        "category": "基础设施:公共设施:公共厕所",
        "type": 0,
        "location": {
            "lat": 29.377797,
            "lng": 113.094942
        },
        "ad_info": {
            "adcode": 430602,
            "province": "湖南省",
            "city": "岳阳市",
            "district": "岳阳楼区"
        }
    },
    {
        "id": "14274920243197146912",
        "title": "公共厕所",
        "address": "湖南省岳阳市岳阳楼区赵家湾与青年中路交叉口正西方向107米左右",
        "tel": "",
        "category": "基础设施:公共设施:公共厕所",
        "type": 0,
        "location": {
            "lat": 29.36541,
            "lng": 113.109636
        },
        "ad_info": {
            "adcode": 430602,
            "province": "湖南省",
            "city": "岳阳市",
            "district": "岳阳楼区"
        }
    },
    {
        "id": "8921833155023287717",
        "title": "公共厕所",
        "address": "湖南省岳阳市岳阳楼区汴河街与洞庭北路交叉口正东方向107米左右",
        "tel": "",
        "category": "基础设施:公共设施:公共厕所",
        "type": 0,
        "location": {
            "lat": 29.377714,
            "lng": 113.095914
        },
        "ad_info": {
            "adcode": 430602,
            "province": "湖南省",
            "city": "岳阳市",
            "district": "岳阳楼区"
        }
    },
    {
        "id": "6908831237380226891",
        "title": "公共厕所",
        "address": "湖南省岳阳市临湘市鸿磊汽车服务公司西南侧",
        "tel": "",
        "category": "基础设施:公共设施:公共厕所",
        "type": 0,
        "location": {
            "lat": 29.510563,
            "lng": 113.423936
        },
        "ad_info": {
            "adcode": 430682,
            "province": "湖南省",
            "city": "岳阳市",
            "district": "临湘市"
        }
    },
    {
        "id": "4893673747188224378",
        "title": "公共厕所",
        "address": "湖南省岳阳市岳阳楼区南湖大道岳阳体育馆",
        "tel": "",
        "category": "基础设施:公共设施:公共厕所",
        "type": 0,
        "location": {
            "lat": 29.356688,
            "lng": 113.118087
        },
        "ad_info": {
            "adcode": 430602,
            "province": "湖南省",
            "city": "岳阳市",
            "district": "岳阳楼区"
        }
    },
    {
        "id": "1385549522541841651",
        "title": "岳阳服务区第一公共厕所",
        "address": "湖南省岳阳市云溪区云溪互通与许广高速交叉口正南方向1551米左右",
        "tel": "",
        "category": "基础设施:公共设施:公共厕所",
        "type": 0,
        "location": {
            "lat": 29.422677,
            "lng": 113.261534
        },
        "ad_info": {
            "adcode": 430603,
            "province": "湖南省",
            "city": "岳阳市",
            "district": "云溪区"
        }
    },
    {
        "id": "12270724434031696349",
        "title": "公共厕所",
        "address": "湖南省岳阳市平江县启明路与小西门路交叉口正东方向21米左右",
        "tel": "",
        "category": "基础设施:公共设施:公共厕所",
        "type": 0,
        "location": {
            "lat": 28.706017,
            "lng": 113.578954
        },
        "ad_info": {
            "adcode": 430626,
            "province": "湖南省",
            "city": "岳阳市",
            "district": "平江县"
        }
    },
    {
        "id": "3693030109232106210",
        "title": "公共厕所",
        "address": "湖南省岳阳市岳阳楼区汴河园路与火山庙路交叉口西南方向435米左右",
        "tel": "",
        "category": "基础设施:公共设施:公共厕所",
        "type": 0,
        "location": {
            "lat": 29.385123,
            "lng": 113.094638
        },
        "ad_info": {
            "adcode": 430602,
            "province": "湖南省",
            "city": "岳阳市",
            "district": "岳阳楼区"
        }
    },
    {
        "id": "5757276793067671074",
        "title": "公共厕所",
        "address": "湖南省岳阳市岳阳楼区冷水铺路与杨家巷交叉口东南方向193米左右",
        "tel": "",
        "category": "基础设施:公共设施:公共厕所",
        "type": 0,
        "location": {
            "lat": 29.375481,
            "lng": 113.144937
        },
        "ad_info": {
            "adcode": 430602,
            "province": "湖南省",
            "city": "岳阳市",
            "district": "岳阳楼区"
        }
    },
    {
        "id": "15985481273757116823",
        "title": "公共厕所",
        "address": "湖南省岳阳市湘阴县弼时街与滨江路交叉口东南方向39米左右",
        "tel": "",
        "category": "基础设施:公共设施:公共厕所",
        "type": 0,
        "location": {
            "lat": 28.669419,
            "lng": 112.879313
        },
        "ad_info": {
            "adcode": 430624,
            "province": "湖南省",
            "city": "岳阳市",
            "district": "湘阴县"
        }
    },
    {
        "id": "9046052775091237359",
        "title": "公共厕所",
        "address": "湖南省岳阳市岳阳县东方东路与荷花北路交叉口正北方向123米左右",
        "tel": "",
        "category": "基础设施:公共设施:公共厕所",
        "type": 0,
        "location": {
            "lat": 29.144371,
            "lng": 113.11712
        },
        "ad_info": {
            "adcode": 430621,
            "province": "湖南省",
            "city": "岳阳市",
            "district": "岳阳县"
        }
    },
    {
        "id": "12798326880396141233",
        "title": "公共厕所",
        "address": "湖南省岳阳市云溪区云溪街与步行街交叉口正东方向44米左右",
        "tel": "",
        "category": "基础设施:公共设施:公共厕所",
        "type": 0,
        "location": {
            "lat": 29.472164,
            "lng": 113.277685
        },
        "ad_info": {
            "adcode": 430603,
            "province": "湖南省",
            "city": "岳阳市",
            "district": "云溪区"
        }
    },
    {
        "id": "7793759764542337384",
        "title": "公共厕所",
        "address": "湖南省岳阳市临湘市临湘大道与兆邦大道交叉口西南方向96米左右",
        "tel": "",
        "category": "基础设施:公共设施:公共厕所",
        "type": 0,
        "location": {
            "lat": 29.467176,
            "lng": 113.434511
        },
        "ad_info": {
            "adcode": 430682,
            "province": "湖南省",
            "city": "岳阳市",
            "district": "临湘市"
        }
    },
    {
        "id": "12310884355970173417",
        "title": "公共厕所",
        "address": "湖南省岳阳市平江县坪上路与天景路交叉口正西方向39米左右",
        "tel": "",
        "category": "基础设施:公共设施:公共厕所",
        "type": 0,
        "location": {
            "lat": 28.703624,
            "lng": 113.595229
        },
        "ad_info": {
            "adcode": 430626,
            "province": "湖南省",
            "city": "岳阳市",
            "district": "平江县"
        }
    },
    {
        "id": "3704117116536895835",
        "title": "公共厕所",
        "address": "湖南省岳阳市岳阳县兴荣东路与荷花南路交叉口正南方向188米左右",
        "tel": "",
        "category": "基础设施:公共设施:公共厕所",
        "type": 0,
        "location": {
            "lat": 29.137241,
            "lng": 113.118047
        },
        "ad_info": {
            "adcode": 430621,
            "province": "湖南省",
            "city": "岳阳市",
            "district": "岳阳县"
        }
    },
    {
        "id": "6801244477323527043",
        "title": "公共厕所",
        "address": "湖南省岳阳市岳阳楼区岳阳大道与庙山路交叉口西南方向152米左右",
        "tel": "",
        "category": "基础设施:公共设施:公共厕所",
        "type": 0,
        "location": {
            "lat": 29.355045,
            "lng": 113.17224
        },
        "ad_info": {
            "adcode": 430602,
            "province": "湖南省",
            "city": "岳阳市",
            "district": "岳阳楼区"
        }
    },
    {
        "id": "14627169432250965087",
        "title": "公共厕所",
        "address": "湖南省岳阳市平江县城关镇启明路57号交通局小区对面",
        "tel": "",
        "category": "基础设施:公共设施:公共厕所",
        "type": 0,
        "location": {
            "lat": 28.706407,
            "lng": 113.583017
        },
        "ad_info": {
            "adcode": 430626,
            "province": "湖南省",
            "city": "岳阳市",
            "district": "平江县"
        }
    },
    {
        "id": "10818177527854311919",
        "title": "公共厕所",
        "address": "湖南省岳阳市汨罗市人民中路与方农坪巷交叉口正西方向32米左右",
        "tel": "",
        "category": "基础设施:公共设施:公共厕所",
        "type": 0,
        "location": {
            "lat": 28.800482,
            "lng": 113.084398
        },
        "ad_info": {
            "adcode": 430681,
            "province": "湖南省",
            "city": "岳阳市",
            "district": "汨罗市"
        }
    },
    {
        "id": "5028213241699327108",
        "title": "公共厕所",
        "address": "湖南省岳阳市岳阳楼区建设南路与邓家湾巷交叉口东南方向15米左右",
        "tel": "",
        "category": "基础设施:公共设施:公共厕所",
        "type": 0,
        "location": {
            "lat": 29.371086,
            "lng": 113.099785
        },
        "ad_info": {
            "adcode": 430602,
            "province": "湖南省",
            "city": "岳阳市",
            "district": "岳阳楼区"
        }
    },
    {
        "id": "5480019050239734803",
        "title": "公共厕所(路口镇白荆村)",
        "address": "湖南省岳阳市云溪区S301与临鸭公路交叉口正西方向265米左右",
        "tel": "",
        "category": "基础设施:公共设施:公共厕所",
        "type": 0,
        "location": {
            "lat": 29.601851,
            "lng": 113.408253
        },
        "ad_info": {
            "adcode": 430603,
            "province": "湖南省",
            "city": "岳阳市",
            "district": "云溪区"
        }
    },
    {
        "id": "16342053645211804091",
        "title": "公共厕所",
        "address": "湖南省岳阳市汨罗市人民西路与车站路交叉口东南方向20米左右",
        "tel": "",
        "category": "基础设施:公共设施:公共厕所",
        "type": 0,
        "location": {
            "lat": 28.80186,
            "lng": 113.076018
        },
        "ad_info": {
            "adcode": 430681,
            "province": "湖南省",
            "city": "岳阳市",
            "district": "汨罗市"
        }
    },
    {
        "id": "14180755905089897958",
        "title": "公共厕所",
        "address": "湖南省岳阳市岳阳县城南路与天鹅南路交叉口东北方向216米左右",
        "tel": "",
        "category": "基础设施:公共设施:公共厕所",
        "type": 0,
        "location": {
            "lat": 29.136529,
            "lng": 113.117424
        },
        "ad_info": {
            "adcode": 430621,
            "province": "湖南省",
            "city": "岳阳市",
            "district": "岳阳县"
        }
    },
    {
        "id": "11384947815272160900",
        "title": "公共厕所",
        "address": "湖南省岳阳市岳阳楼区桃花井与洞庭北路交叉口正北方向80米左右",
        "tel": "",
        "category": "基础设施:公共设施:公共厕所",
        "type": 0,
        "location": {
            "lat": 29.376936,
            "lng": 113.094521
        },
        "ad_info": {
            "adcode": 430602,
            "province": "湖南省",
            "city": "岳阳市",
            "district": "岳阳楼区"
        }
    },
    {
        "id": "435804263937156229",
        "title": "公共厕所",
        "address": "湖南省岳阳市湘阴县太傅南路与通达湖路交叉口东南方向63米左右",
        "tel": "",
        "category": "基础设施:公共设施:公共厕所",
        "type": 0,
        "location": {
            "lat": 28.676357,
            "lng": 112.893066
        },
        "ad_info": {
            "adcode": 430624,
            "province": "湖南省",
            "city": "岳阳市",
            "district": "湘阴县"
        }
    },
    {
        "id": "11224832058019752728",
        "title": "临湘服务区第二公共厕所",
        "address": "湖南省岳阳市临湘市G107与S206交叉口正南方向545米左右",
        "tel": "",
        "category": "基础设施:公共设施:公共厕所",
        "type": 0,
        "location": {
            "lat": 29.473911,
            "lng": 113.510991
        },
        "ad_info": {
            "adcode": 430682,
            "province": "湖南省",
            "city": "岳阳市",
            "district": "临湘市"
        }
    },
    {
        "id": "3438500333535064020",
        "title": "公共厕所",
        "address": "湖南省岳阳市岳阳县文胜南路与文胜路交叉口东北方向418米左右",
        "tel": "",
        "category": "基础设施:公共设施:公共厕所",
        "type": 0,
        "location": {
            "lat": 29.13591,
            "lng": 113.134915
        },
        "ad_info": {
            "adcode": 430621,
            "province": "湖南省",
            "city": "岳阳市",
            "district": "岳阳县"
        }
    },
    {
        "id": "4445900684170887031",
        "title": "公共厕所",
        "address": "湖南省岳阳市湘阴县北正街与江东西路交叉口正南方向47米左右",
        "tel": "",
        "category": "基础设施:公共设施:公共厕所",
        "type": 0,
        "location": {
            "lat": 28.671808,
            "lng": 112.881562
        },
        "ad_info": {
            "adcode": 430624,
            "province": "湖南省",
            "city": "岳阳市",
            "district": "湘阴县"
        }
    },
    {
        "id": "483249857330066713",
        "title": "公共厕所",
        "address": "湖南省岳阳市岳阳楼区锦绣巷与青年中路交叉口正西方向91米左右",
        "tel": "",
        "category": "基础设施:公共设施:公共厕所",
        "type": 0,
        "location": {
            "lat": 29.365467,
            "lng": 113.111729
        },
        "ad_info": {
            "adcode": 430602,
            "province": "湖南省",
            "city": "岳阳市",
            "district": "岳阳楼区"
        }
    },
    {
        "id": "9721480701354211282",
        "title": "公共厕所",
        "address": "湖南省岳阳市华容县人民大道与田家湖大道交叉口正北方向247米左右",
        "tel": "",
        "category": "基础设施:公共设施:公共厕所",
        "type": 0,
        "location": {
            "lat": 29.510801,
            "lng": 112.545567
        },
        "ad_info": {
            "adcode": 430623,
            "province": "湖南省",
            "city": "岳阳市",
            "district": "华容县"
        }
    },
    {
        "id": "1728838375941806706",
        "title": "公共厕所",
        "address": "湖南省岳阳市君山区G240与X072交叉口东南方向90米左右",
        "tel": "",
        "category": "基础设施:公共设施:公共厕所",
        "type": 0,
        "location": {
            "lat": 29.479215,
            "lng": 112.897981
        },
        "ad_info": {
            "adcode": 430611,
            "province": "湖南省",
            "city": "岳阳市",
            "district": "君山区"
        }
    },
    {
        "id": "11675124070583524419",
        "title": "无障碍公共厕所",
        "address": "湖南省岳阳市岳阳县东方东路与富源商业步行街交叉口东南方向71米左右",
        "tel": "",
        "category": "基础设施:公共设施:公共厕所",
        "type": 0,
        "location": {
            "lat": 29.142949,
            "lng": 113.119127
        },
        "ad_info": {
            "adcode": 430621,
            "province": "湖南省",
            "city": "岳阳市",
            "district": "岳阳县"
        }
    },
    {
        "id": "12717317777672222513",
        "title": "公共厕所",
        "address": "湖南省岳阳市岳阳楼区岳阳大道与香洲路交叉口正西方向128米左右",
        "tel": "",
        "category": "基础设施:公共设施:公共厕所",
        "type": 0,
        "location": {
            "lat": 29.357779,
            "lng": 113.102811
        },
        "ad_info": {
            "adcode": 430602,
            "province": "湖南省",
            "city": "岳阳市",
            "district": "岳阳楼区"
        }
    },
    {
        "id": "7311061037810128890",
        "title": "公共厕所",
        "address": "湖南省岳阳市岳阳楼区乾明寺与梅溪桥街交叉口东北方向110米左右",
        "tel": "",
        "category": "基础设施:公共设施:公共厕所",
        "type": 0,
        "location": {
            "lat": 29.370642,
            "lng": 113.097373
        },
        "ad_info": {
            "adcode": 430602,
            "province": "湖南省",
            "city": "岳阳市",
            "district": "岳阳楼区"
        }
    },
    {
        "id": "13452149113616952151",
        "title": "岳阳平江县格林云海酒店-洗手间",
        "address": "湖南省岳阳市平江县书院路与四柱路交叉口正西方向82米左右",
        "tel": "",
        "category": "基础设施:公共设施:公共厕所",
        "type": 0,
        "location": {
            "lat": 28.695289,
            "lng": 113.59518
        },
        "ad_info": {
            "adcode": 430626,
            "province": "湖南省",
            "city": "岳阳市",
            "district": "平江县"
        }
    },
    {
        "id": "17879065698682916167",
        "title": "公共厕所",
        "address": "湖南省岳阳市岳阳县X052与荣新东路交叉口西北方向82米左右",
        "tel": "",
        "category": "基础设施:公共设施:公共厕所",
        "type": 0,
        "location": {
            "lat": 29.131726,
            "lng": 113.122832
        },
        "ad_info": {
            "adcode": 430621,
            "province": "湖南省",
            "city": "岳阳市",
            "district": "岳阳县"
        }
    },
    {
        "id": "15423435193244263014",
        "title": "公共厕所",
        "address": "湖南省岳阳市平江县启明路与民建北路交叉口东南200米",
        "tel": "",
        "category": "基础设施:公共设施:公共厕所",
        "type": 0,
        "location": {
            "lat": 28.706035,
            "lng": 113.585572
        },
        "ad_info": {
            "adcode": 430626,
            "province": "湖南省",
            "city": "岳阳市",
            "district": "平江县"
        }
    },
    {
        "id": "14926311733269559006",
        "title": "公共厕所",
        "address": "湖南省岳阳市华容县南城墙巷与豆腐巷交叉口东北方向30米左右",
        "tel": "",
        "category": "基础设施:公共设施:公共厕所",
        "type": 0,
        "location": {
            "lat": 29.519685,
            "lng": 112.570986
        },
        "ad_info": {
            "adcode": 430623,
            "province": "湖南省",
            "city": "岳阳市",
            "district": "华容县"
        }
    },
    {
        "id": "12739708503530177137",
        "title": "公共厕所",
        "address": "湖南省岳阳市岳阳楼区青年西路27号",
        "tel": "",
        "category": "基础设施:公共设施:公共厕所",
        "type": 0,
        "location": {
            "lat": 29.367025,
            "lng": 113.098584
        },
        "ad_info": {
            "adcode": 430602,
            "province": "湖南省",
            "city": "岳阳市",
            "district": "岳阳楼区"
        }
    },
    {
        "id": "6230950672449630876",
        "title": "公共厕所(云溪区大汉新城哨冲路)",
        "address": "湖南省岳阳市云溪区哨冲路大汉新城",
        "tel": "",
        "category": "基础设施:公共设施:公共厕所",
        "type": 0,
        "location": {
            "lat": 29.461595,
            "lng": 113.274408
        },
        "ad_info": {
            "adcode": 430603,
            "province": "湖南省",
            "city": "岳阳市",
            "district": "云溪区"
        }
    },
    {
        "id": "16863062190222923367",
        "title": "公共厕所",
        "address": "湖南省岳阳市岳阳楼区五里牌路与保健巷交叉口东北方向52米左右",
        "tel": "",
        "category": "基础设施:公共设施:公共厕所",
        "type": 0,
        "location": {
            "lat": 29.369272,
            "lng": 113.132088
        },
        "ad_info": {
            "adcode": 430602,
            "province": "湖南省",
            "city": "岳阳市",
            "district": "岳阳楼区"
        }
    },
    {
        "id": "8905530897300314791",
        "title": "公共厕所",
        "address": "湖南省岳阳市岳阳县中湘街与月西路交叉口正北方向117米左右",
        "tel": "",
        "category": "基础设施:公共设施:公共厕所",
        "type": 0,
        "location": {
            "lat": 29.137291,
            "lng": 113.121758
        },
        "ad_info": {
            "adcode": 430621,
            "province": "湖南省",
            "city": "岳阳市",
            "district": "岳阳县"
        }
    },
    {
        "id": "9420710963056516481",
        "title": "公共厕所",
        "address": "湖南省岳阳市岳阳楼区汴河街与洞庭北路交叉口东南方向77米左右",
        "tel": "",
        "category": "基础设施:公共设施:公共厕所",
        "type": 0,
        "location": {
            "lat": 29.377243,
            "lng": 113.09548
        },
        "ad_info": {
            "adcode": 430602,
            "province": "湖南省",
            "city": "岳阳市",
            "district": "岳阳楼区"
        }
    },
    {
        "id": "15614892198599218420",
        "title": "公共厕所",
        "address": "湖南省岳阳市平江县三犊源路与启明路交叉口正南方向16米左右",
        "tel": "",
        "category": "基础设施:公共设施:公共厕所",
        "type": 0,
        "location": {
            "lat": 28.706041,
            "lng": 113.579442
        },
        "ad_info": {
            "adcode": 430626,
            "province": "湖南省",
            "city": "岳阳市",
            "district": "平江县"
        }
    },
    {
        "id": "6184513171409672976",
        "title": "公共厕所",
        "address": "湖南省岳阳市岳阳楼区得胜南路与螺丝港交叉口正南方向130米左右",
        "tel": "",
        "category": "基础设施:公共设施:公共厕所",
        "type": 0,
        "location": {
            "lat": 29.36569,
            "lng": 113.107138
        },
        "ad_info": {
            "adcode": 430602,
            "province": "湖南省",
            "city": "岳阳市",
            "district": "岳阳楼区"
        }
    },
    {
        "id": "18244888714098259026",
        "title": "巴陵服务区第二公共厕所",
        "address": "湖南省岳阳市岳阳县X041与X096交叉口正西方向1963米左右",
        "tel": "",
        "category": "基础设施:公共设施:公共厕所",
        "type": 0,
        "location": {
            "lat": 29.067482,
            "lng": 113.270135
        },
        "ad_info": {
            "adcode": 430621,
            "province": "湖南省",
            "city": "岳阳市",
            "district": "岳阳县"
        }
    },
    {
        "id": "17604002742007073028",
        "title": "公共厕所",
        "address": "湖南省岳阳市平江县新江路与泉塘街交叉口正北方向81米左右",
        "tel": "",
        "category": "基础设施:公共设施:公共厕所",
        "type": 0,
        "location": {
            "lat": 28.678299,
            "lng": 113.59261
        },
        "ad_info": {
            "adcode": 430626,
            "province": "湖南省",
            "city": "岳阳市",
            "district": "平江县"
        }
    },
    {
        "id": "7022883238953964566",
        "title": "公共厕所",
        "address": "湖南省岳阳市湘阴县冬茅中路与旭东南路交叉口正南方向226米左右",
        "tel": "",
        "category": "基础设施:公共设施:公共厕所",
        "type": 0,
        "location": {
            "lat": 28.680225,
            "lng": 112.899826
        },
        "ad_info": {
            "adcode": 430624,
            "province": "湖南省",
            "city": "岳阳市",
            "district": "湘阴县"
        }
    },
    {
        "id": "174475610062814730",
        "title": "公共厕所(路口镇黄皋村)",
        "address": "湖南省岳阳市云溪区Y204与和平路交叉口正北方向507米左右",
        "tel": "",
        "category": "基础设施:公共设施:公共厕所",
        "type": 0,
        "location": {
            "lat": 29.580019,
            "lng": 113.356975
        },
        "ad_info": {
            "adcode": 430603,
            "province": "湖南省",
            "city": "岳阳市",
            "district": "云溪区"
        }
    },
    {
        "id": "12640234095926288314",
        "title": "公共厕所",
        "address": "湖南省岳阳市岳阳县东方西路与荣鹿路交叉口正东方向130米左右",
        "tel": "",
        "category": "基础设施:公共设施:公共厕所",
        "type": 0,
        "location": {
            "lat": 29.140848,
            "lng": 113.103897
        },
        "ad_info": {
            "adcode": 430621,
            "province": "湖南省",
            "city": "岳阳市",
            "district": "岳阳县"
        }
    },
    {
        "id": "16659700117975891850",
        "title": "公共厕所",
        "address": "湖南省岳阳市湘阴县太傅南路与水岸东湖商街交叉口正东方向119米左右",
        "tel": "",
        "category": "基础设施:公共设施:公共厕所",
        "type": 0,
        "location": {
            "lat": 28.67281,
            "lng": 112.89438
        },
        "ad_info": {
            "adcode": 430624,
            "province": "湖南省",
            "city": "岳阳市",
            "district": "湘阴县"
        }
    },
    {
        "id": "6980152710480619920",
        "title": "瓮江服务区公共厕所",
        "address": "湖南省岳阳市平江县S20平洞高速与瓮江服务区交叉口东380米",
        "tel": "",
        "category": "基础设施:公共设施:公共厕所",
        "type": 0,
        "location": {
            "lat": 28.696301,
            "lng": 113.474798
        },
        "ad_info": {
            "adcode": 430626,
            "province": "湖南省",
            "city": "岳阳市",
            "district": "平江县"
        }
    },
    {
        "id": "12717317777672222513",
        "title": "公共厕所",
        "address": "湖南省岳阳市岳阳楼区岳阳大道与香洲路交叉口正西方向128米左右",
        "tel": "",
        "category": "基础设施:公共设施:公共厕所",
        "type": 0,
        "location": {
            "lat": 29.357779,
            "lng": 113.102811
        },
        "ad_info": {
            "adcode": 430602,
            "province": "湖南省",
            "city": "岳阳市",
            "district": "岳阳楼区"
        }
    },
    {
        "id": "7311061037810128890",
        "title": "公共厕所",
        "address": "湖南省岳阳市岳阳楼区乾明寺与梅溪桥街交叉口东北方向110米左右",
        "tel": "",
        "category": "基础设施:公共设施:公共厕所",
        "type": 0,
        "location": {
            "lat": 29.370642,
            "lng": 113.097373
        },
        "ad_info": {
            "adcode": 430602,
            "province": "湖南省",
            "city": "岳阳市",
            "district": "岳阳楼区"
        }
    },
    {
        "id": "13452149113616952151",
        "title": "岳阳平江县格林云海酒店-洗手间",
        "address": "湖南省岳阳市平江县书院路与四柱路交叉口正西方向82米左右",
        "tel": "",
        "category": "基础设施:公共设施:公共厕所",
        "type": 0,
        "location": {
            "lat": 28.695289,
            "lng": 113.59518
        },
        "ad_info": {
            "adcode": 430626,
            "province": "湖南省",
            "city": "岳阳市",
            "district": "平江县"
        }
    },
    {
        "id": "17879065698682916167",
        "title": "公共厕所",
        "address": "湖南省岳阳市岳阳县X052与荣新东路交叉口西北方向82米左右",
        "tel": "",
        "category": "基础设施:公共设施:公共厕所",
        "type": 0,
        "location": {
            "lat": 29.131726,
            "lng": 113.122832
        },
        "ad_info": {
            "adcode": 430621,
            "province": "湖南省",
            "city": "岳阳市",
            "district": "岳阳县"
        }
    },
    {
        "id": "15423435193244263014",
        "title": "公共厕所",
        "address": "湖南省岳阳市平江县启明路与民建北路交叉口东南200米",
        "tel": "",
        "category": "基础设施:公共设施:公共厕所",
        "type": 0,
        "location": {
            "lat": 28.706035,
            "lng": 113.585572
        },
        "ad_info": {
            "adcode": 430626,
            "province": "湖南省",
            "city": "岳阳市",
            "district": "平江县"
        }
    },
    {
        "id": "14926311733269559006",
        "title": "公共厕所",
        "address": "湖南省岳阳市华容县南城墙巷与豆腐巷交叉口东北方向30米左右",
        "tel": "",
        "category": "基础设施:公共设施:公共厕所",
        "type": 0,
        "location": {
            "lat": 29.519685,
            "lng": 112.570986
        },
        "ad_info": {
            "adcode": 430623,
            "province": "湖南省",
            "city": "岳阳市",
            "district": "华容县"
        }
    },
    {
        "id": "12739708503530177137",
        "title": "公共厕所",
        "address": "湖南省岳阳市岳阳楼区青年西路27号",
        "tel": "",
        "category": "基础设施:公共设施:公共厕所",
        "type": 0,
        "location": {
            "lat": 29.367025,
            "lng": 113.098584
        },
        "ad_info": {
            "adcode": 430602,
            "province": "湖南省",
            "city": "岳阳市",
            "district": "岳阳楼区"
        }
    },
    {
        "id": "6230950672449630876",
        "title": "公共厕所(云溪区大汉新城哨冲路)",
        "address": "湖南省岳阳市云溪区哨冲路大汉新城",
        "tel": "",
        "category": "基础设施:公共设施:公共厕所",
        "type": 0,
        "location": {
            "lat": 29.461595,
            "lng": 113.274408
        },
        "ad_info": {
            "adcode": 430603,
            "province": "湖南省",
            "city": "岳阳市",
            "district": "云溪区"
        }
    },
    {
        "id": "16863062190222923367",
        "title": "公共厕所",
        "address": "湖南省岳阳市岳阳楼区五里牌路与保健巷交叉口东北方向52米左右",
        "tel": "",
        "category": "基础设施:公共设施:公共厕所",
        "type": 0,
        "location": {
            "lat": 29.369272,
            "lng": 113.132088
        },
        "ad_info": {
            "adcode": 430602,
            "province": "湖南省",
            "city": "岳阳市",
            "district": "岳阳楼区"
        }
    },
    {
        "id": "8905530897300314791",
        "title": "公共厕所",
        "address": "湖南省岳阳市岳阳县中湘街与月西路交叉口正北方向117米左右",
        "tel": "",
        "category": "基础设施:公共设施:公共厕所",
        "type": 0,
        "location": {
            "lat": 29.137291,
            "lng": 113.121758
        },
        "ad_info": {
            "adcode": 430621,
            "province": "湖南省",
            "city": "岳阳市",
            "district": "岳阳县"
        }
    },
    {
        "id": "9420710963056516481",
        "title": "公共厕所",
        "address": "湖南省岳阳市岳阳楼区汴河街与洞庭北路交叉口东南方向77米左右",
        "tel": "",
        "category": "基础设施:公共设施:公共厕所",
        "type": 0,
        "location": {
            "lat": 29.377243,
            "lng": 113.09548
        },
        "ad_info": {
            "adcode": 430602,
            "province": "湖南省",
            "city": "岳阳市",
            "district": "岳阳楼区"
        }
    },
    {
        "id": "15614892198599218420",
        "title": "公共厕所",
        "address": "湖南省岳阳市平江县三犊源路与启明路交叉口正南方向16米左右",
        "tel": "",
        "category": "基础设施:公共设施:公共厕所",
        "type": 0,
        "location": {
            "lat": 28.706041,
            "lng": 113.579442
        },
        "ad_info": {
            "adcode": 430626,
            "province": "湖南省",
            "city": "岳阳市",
            "district": "平江县"
        }
    },
    {
        "id": "6184513171409672976",
        "title": "公共厕所",
        "address": "湖南省岳阳市岳阳楼区得胜南路与螺丝港交叉口正南方向130米左右",
        "tel": "",
        "category": "基础设施:公共设施:公共厕所",
        "type": 0,
        "location": {
            "lat": 29.36569,
            "lng": 113.107138
        },
        "ad_info": {
            "adcode": 430602,
            "province": "湖南省",
            "city": "岳阳市",
            "district": "岳阳楼区"
        }
    },
    {
        "id": "18244888714098259026",
        "title": "巴陵服务区第二公共厕所",
        "address": "湖南省岳阳市岳阳县X041与X096交叉口正西方向1963米左右",
        "tel": "",
        "category": "基础设施:公共设施:公共厕所",
        "type": 0,
        "location": {
            "lat": 29.067482,
            "lng": 113.270135
        },
        "ad_info": {
            "adcode": 430621,
            "province": "湖南省",
            "city": "岳阳市",
            "district": "岳阳县"
        }
    },
    {
        "id": "17604002742007073028",
        "title": "公共厕所",
        "address": "湖南省岳阳市平江县新江路与泉塘街交叉口正北方向81米左右",
        "tel": "",
        "category": "基础设施:公共设施:公共厕所",
        "type": 0,
        "location": {
            "lat": 28.678299,
            "lng": 113.59261
        },
        "ad_info": {
            "adcode": 430626,
            "province": "湖南省",
            "city": "岳阳市",
            "district": "平江县"
        }
    },
    {
        "id": "7022883238953964566",
        "title": "公共厕所",
        "address": "湖南省岳阳市湘阴县冬茅中路与旭东南路交叉口正南方向226米左右",
        "tel": "",
        "category": "基础设施:公共设施:公共厕所",
        "type": 0,
        "location": {
            "lat": 28.680225,
            "lng": 112.899826
        },
        "ad_info": {
            "adcode": 430624,
            "province": "湖南省",
            "city": "岳阳市",
            "district": "湘阴县"
        }
    },
    {
        "id": "174475610062814730",
        "title": "公共厕所(路口镇黄皋村)",
        "address": "湖南省岳阳市云溪区Y204与和平路交叉口正北方向507米左右",
        "tel": "",
        "category": "基础设施:公共设施:公共厕所",
        "type": 0,
        "location": {
            "lat": 29.580019,
            "lng": 113.356975
        },
        "ad_info": {
            "adcode": 430603,
            "province": "湖南省",
            "city": "岳阳市",
            "district": "云溪区"
        }
    },
    {
        "id": "12640234095926288314",
        "title": "公共厕所",
        "address": "湖南省岳阳市岳阳县东方西路与荣鹿路交叉口正东方向130米左右",
        "tel": "",
        "category": "基础设施:公共设施:公共厕所",
        "type": 0,
        "location": {
            "lat": 29.140848,
            "lng": 113.103897
        },
        "ad_info": {
            "adcode": 430621,
            "province": "湖南省",
            "city": "岳阳市",
            "district": "岳阳县"
        }
    },
    {
        "id": "16659700117975891850",
        "title": "公共厕所",
        "address": "湖南省岳阳市湘阴县太傅南路与水岸东湖商街交叉口正东方向119米左右",
        "tel": "",
        "category": "基础设施:公共设施:公共厕所",
        "type": 0,
        "location": {
            "lat": 28.67281,
            "lng": 112.89438
        },
        "ad_info": {
            "adcode": 430624,
            "province": "湖南省",
            "city": "岳阳市",
            "district": "湘阴县"
        }
    },
    {
        "id": "6980152710480619920",
        "title": "瓮江服务区公共厕所",
        "address": "湖南省岳阳市平江县S20平洞高速与瓮江服务区交叉口东380米",
        "tel": "",
        "category": "基础设施:公共设施:公共厕所",
        "type": 0,
        "location": {
            "lat": 28.696301,
            "lng": 113.474798
        },
        "ad_info": {
            "adcode": 430626,
            "province": "湖南省",
            "city": "岳阳市",
            "district": "平江县"
        }
    },
    {
        "id": "12717317777672222513",
        "title": "公共厕所",
        "address": "湖南省岳阳市岳阳楼区岳阳大道与香洲路交叉口正西方向128米左右",
        "tel": "",
        "category": "基础设施:公共设施:公共厕所",
        "type": 0,
        "location": {
            "lat": 29.357779,
            "lng": 113.102811
        },
        "ad_info": {
            "adcode": 430602,
            "province": "湖南省",
            "city": "岳阳市",
            "district": "岳阳楼区"
        }
    },
    {
        "id": "7311061037810128890",
        "title": "公共厕所",
        "address": "湖南省岳阳市岳阳楼区乾明寺与梅溪桥街交叉口东北方向110米左右",
        "tel": "",
        "category": "基础设施:公共设施:公共厕所",
        "type": 0,
        "location": {
            "lat": 29.370642,
            "lng": 113.097373
        },
        "ad_info": {
            "adcode": 430602,
            "province": "湖南省",
            "city": "岳阳市",
            "district": "岳阳楼区"
        }
    },
    {
        "id": "13452149113616952151",
        "title": "岳阳平江县格林云海酒店-洗手间",
        "address": "湖南省岳阳市平江县书院路与四柱路交叉口正西方向82米左右",
        "tel": "",
        "category": "基础设施:公共设施:公共厕所",
        "type": 0,
        "location": {
            "lat": 28.695289,
            "lng": 113.59518
        },
        "ad_info": {
            "adcode": 430626,
            "province": "湖南省",
            "city": "岳阳市",
            "district": "平江县"
        }
    },
    {
        "id": "17879065698682916167",
        "title": "公共厕所",
        "address": "湖南省岳阳市岳阳县X052与荣新东路交叉口西北方向82米左右",
        "tel": "",
        "category": "基础设施:公共设施:公共厕所",
        "type": 0,
        "location": {
            "lat": 29.131726,
            "lng": 113.122832
        },
        "ad_info": {
            "adcode": 430621,
            "province": "湖南省",
            "city": "岳阳市",
            "district": "岳阳县"
        }
    },
    {
        "id": "15423435193244263014",
        "title": "公共厕所",
        "address": "湖南省岳阳市平江县启明路与民建北路交叉口东南200米",
        "tel": "",
        "category": "基础设施:公共设施:公共厕所",
        "type": 0,
        "location": {
            "lat": 28.706035,
            "lng": 113.585572
        },
        "ad_info": {
            "adcode": 430626,
            "province": "湖南省",
            "city": "岳阳市",
            "district": "平江县"
        }
    },
    {
        "id": "14926311733269559006",
        "title": "公共厕所",
        "address": "湖南省岳阳市华容县南城墙巷与豆腐巷交叉口东北方向30米左右",
        "tel": "",
        "category": "基础设施:公共设施:公共厕所",
        "type": 0,
        "location": {
            "lat": 29.519685,
            "lng": 112.570986
        },
        "ad_info": {
            "adcode": 430623,
            "province": "湖南省",
            "city": "岳阳市",
            "district": "华容县"
        }
    },
    {
        "id": "12739708503530177137",
        "title": "公共厕所",
        "address": "湖南省岳阳市岳阳楼区青年西路27号",
        "tel": "",
        "category": "基础设施:公共设施:公共厕所",
        "type": 0,
        "location": {
            "lat": 29.367025,
            "lng": 113.098584
        },
        "ad_info": {
            "adcode": 430602,
            "province": "湖南省",
            "city": "岳阳市",
            "district": "岳阳楼区"
        }
    },
    {
        "id": "6230950672449630876",
        "title": "公共厕所(云溪区大汉新城哨冲路)",
        "address": "湖南省岳阳市云溪区哨冲路大汉新城",
        "tel": "",
        "category": "基础设施:公共设施:公共厕所",
        "type": 0,
        "location": {
            "lat": 29.461595,
            "lng": 113.274408
        },
        "ad_info": {
            "adcode": 430603,
            "province": "湖南省",
            "city": "岳阳市",
            "district": "云溪区"
        }
    },
    {
        "id": "16863062190222923367",
        "title": "公共厕所",
        "address": "湖南省岳阳市岳阳楼区五里牌路与保健巷交叉口东北方向52米左右",
        "tel": "",
        "category": "基础设施:公共设施:公共厕所",
        "type": 0,
        "location": {
            "lat": 29.369272,
            "lng": 113.132088
        },
        "ad_info": {
            "adcode": 430602,
            "province": "湖南省",
            "city": "岳阳市",
            "district": "岳阳楼区"
        }
    },
    {
        "id": "8905530897300314791",
        "title": "公共厕所",
        "address": "湖南省岳阳市岳阳县中湘街与月西路交叉口正北方向117米左右",
        "tel": "",
        "category": "基础设施:公共设施:公共厕所",
        "type": 0,
        "location": {
            "lat": 29.137291,
            "lng": 113.121758
        },
        "ad_info": {
            "adcode": 430621,
            "province": "湖南省",
            "city": "岳阳市",
            "district": "岳阳县"
        }
    },
    {
        "id": "9420710963056516481",
        "title": "公共厕所",
        "address": "湖南省岳阳市岳阳楼区汴河街与洞庭北路交叉口东南方向77米左右",
        "tel": "",
        "category": "基础设施:公共设施:公共厕所",
        "type": 0,
        "location": {
            "lat": 29.377243,
            "lng": 113.09548
        },
        "ad_info": {
            "adcode": 430602,
            "province": "湖南省",
            "city": "岳阳市",
            "district": "岳阳楼区"
        }
    },
    {
        "id": "15614892198599218420",
        "title": "公共厕所",
        "address": "湖南省岳阳市平江县三犊源路与启明路交叉口正南方向16米左右",
        "tel": "",
        "category": "基础设施:公共设施:公共厕所",
        "type": 0,
        "location": {
            "lat": 28.706041,
            "lng": 113.579442
        },
        "ad_info": {
            "adcode": 430626,
            "province": "湖南省",
            "city": "岳阳市",
            "district": "平江县"
        }
    },
    {
        "id": "6184513171409672976",
        "title": "公共厕所",
        "address": "湖南省岳阳市岳阳楼区得胜南路与螺丝港交叉口正南方向130米左右",
        "tel": "",
        "category": "基础设施:公共设施:公共厕所",
        "type": 0,
        "location": {
            "lat": 29.36569,
            "lng": 113.107138
        },
        "ad_info": {
            "adcode": 430602,
            "province": "湖南省",
            "city": "岳阳市",
            "district": "岳阳楼区"
        }
    },
    {
        "id": "18244888714098259026",
        "title": "巴陵服务区第二公共厕所",
        "address": "湖南省岳阳市岳阳县X041与X096交叉口正西方向1963米左右",
        "tel": "",
        "category": "基础设施:公共设施:公共厕所",
        "type": 0,
        "location": {
            "lat": 29.067482,
            "lng": 113.270135
        },
        "ad_info": {
            "adcode": 430621,
            "province": "湖南省",
            "city": "岳阳市",
            "district": "岳阳县"
        }
    },
    {
        "id": "17604002742007073028",
        "title": "公共厕所",
        "address": "湖南省岳阳市平江县新江路与泉塘街交叉口正北方向81米左右",
        "tel": "",
        "category": "基础设施:公共设施:公共厕所",
        "type": 0,
        "location": {
            "lat": 28.678299,
            "lng": 113.59261
        },
        "ad_info": {
            "adcode": 430626,
            "province": "湖南省",
            "city": "岳阳市",
            "district": "平江县"
        }
    },
    {
        "id": "7022883238953964566",
        "title": "公共厕所",
        "address": "湖南省岳阳市湘阴县冬茅中路与旭东南路交叉口正南方向226米左右",
        "tel": "",
        "category": "基础设施:公共设施:公共厕所",
        "type": 0,
        "location": {
            "lat": 28.680225,
            "lng": 112.899826
        },
        "ad_info": {
            "adcode": 430624,
            "province": "湖南省",
            "city": "岳阳市",
            "district": "湘阴县"
        }
    },
    {
        "id": "174475610062814730",
        "title": "公共厕所(路口镇黄皋村)",
        "address": "湖南省岳阳市云溪区Y204与和平路交叉口正北方向507米左右",
        "tel": "",
        "category": "基础设施:公共设施:公共厕所",
        "type": 0,
        "location": {
            "lat": 29.580019,
            "lng": 113.356975
        },
        "ad_info": {
            "adcode": 430603,
            "province": "湖南省",
            "city": "岳阳市",
            "district": "云溪区"
        }
    },
    {
        "id": "12640234095926288314",
        "title": "公共厕所",
        "address": "湖南省岳阳市岳阳县东方西路与荣鹿路交叉口正东方向130米左右",
        "tel": "",
        "category": "基础设施:公共设施:公共厕所",
        "type": 0,
        "location": {
            "lat": 29.140848,
            "lng": 113.103897
        },
        "ad_info": {
            "adcode": 430621,
            "province": "湖南省",
            "city": "岳阳市",
            "district": "岳阳县"
        }
    },
    {
        "id": "16659700117975891850",
        "title": "公共厕所",
        "address": "湖南省岳阳市湘阴县太傅南路与水岸东湖商街交叉口正东方向119米左右",
        "tel": "",
        "category": "基础设施:公共设施:公共厕所",
        "type": 0,
        "location": {
            "lat": 28.67281,
            "lng": 112.89438
        },
        "ad_info": {
            "adcode": 430624,
            "province": "湖南省",
            "city": "岳阳市",
            "district": "湘阴县"
        }
    },
    {
        "id": "6980152710480619920",
        "title": "瓮江服务区公共厕所",
        "address": "湖南省岳阳市平江县S20平洞高速与瓮江服务区交叉口东380米",
        "tel": "",
        "category": "基础设施:公共设施:公共厕所",
        "type": 0,
        "location": {
            "lat": 28.696301,
            "lng": 113.474798
        },
        "ad_info": {
            "adcode": 430626,
            "province": "湖南省",
            "city": "岳阳市",
            "district": "平江县"
        }
    },
    {
        "id": "12717317777672222513",
        "title": "公共厕所",
        "address": "湖南省岳阳市岳阳楼区岳阳大道与香洲路交叉口正西方向128米左右",
        "tel": "",
        "category": "基础设施:公共设施:公共厕所",
        "type": 0,
        "location": {
            "lat": 29.357779,
            "lng": 113.102811
        },
        "ad_info": {
            "adcode": 430602,
            "province": "湖南省",
            "city": "岳阳市",
            "district": "岳阳楼区"
        }
    },
    {
        "id": "7311061037810128890",
        "title": "公共厕所",
        "address": "湖南省岳阳市岳阳楼区乾明寺与梅溪桥街交叉口东北方向110米左右",
        "tel": "",
        "category": "基础设施:公共设施:公共厕所",
        "type": 0,
        "location": {
            "lat": 29.370642,
            "lng": 113.097373
        },
        "ad_info": {
            "adcode": 430602,
            "province": "湖南省",
            "city": "岳阳市",
            "district": "岳阳楼区"
        }
    },
    {
        "id": "13452149113616952151",
        "title": "岳阳平江县格林云海酒店-洗手间",
        "address": "湖南省岳阳市平江县书院路与四柱路交叉口正西方向82米左右",
        "tel": "",
        "category": "基础设施:公共设施:公共厕所",
        "type": 0,
        "location": {
            "lat": 28.695289,
            "lng": 113.59518
        },
        "ad_info": {
            "adcode": 430626,
            "province": "湖南省",
            "city": "岳阳市",
            "district": "平江县"
        }
    },
    {
        "id": "17879065698682916167",
        "title": "公共厕所",
        "address": "湖南省岳阳市岳阳县X052与荣新东路交叉口西北方向82米左右",
        "tel": "",
        "category": "基础设施:公共设施:公共厕所",
        "type": 0,
        "location": {
            "lat": 29.131726,
            "lng": 113.122832
        },
        "ad_info": {
            "adcode": 430621,
            "province": "湖南省",
            "city": "岳阳市",
            "district": "岳阳县"
        }
    },
    {
        "id": "15423435193244263014",
        "title": "公共厕所",
        "address": "湖南省岳阳市平江县启明路与民建北路交叉口东南200米",
        "tel": "",
        "category": "基础设施:公共设施:公共厕所",
        "type": 0,
        "location": {
            "lat": 28.706035,
            "lng": 113.585572
        },
        "ad_info": {
            "adcode": 430626,
            "province": "湖南省",
            "city": "岳阳市",
            "district": "平江县"
        }
    },
    {
        "id": "14926311733269559006",
        "title": "公共厕所",
        "address": "湖南省岳阳市华容县南城墙巷与豆腐巷交叉口东北方向30米左右",
        "tel": "",
        "category": "基础设施:公共设施:公共厕所",
        "type": 0,
        "location": {
            "lat": 29.519685,
            "lng": 112.570986
        },
        "ad_info": {
            "adcode": 430623,
            "province": "湖南省",
            "city": "岳阳市",
            "district": "华容县"
        }
    },
    {
        "id": "12739708503530177137",
        "title": "公共厕所",
        "address": "湖南省岳阳市岳阳楼区青年西路27号",
        "tel": "",
        "category": "基础设施:公共设施:公共厕所",
        "type": 0,
        "location": {
            "lat": 29.367025,
            "lng": 113.098584
        },
        "ad_info": {
            "adcode": 430602,
            "province": "湖南省",
            "city": "岳阳市",
            "district": "岳阳楼区"
        }
    },
    {
        "id": "6230950672449630876",
        "title": "公共厕所(云溪区大汉新城哨冲路)",
        "address": "湖南省岳阳市云溪区哨冲路大汉新城",
        "tel": "",
        "category": "基础设施:公共设施:公共厕所",
        "type": 0,
        "location": {
            "lat": 29.461595,
            "lng": 113.274408
        },
        "ad_info": {
            "adcode": 430603,
            "province": "湖南省",
            "city": "岳阳市",
            "district": "云溪区"
        }
    },
    {
        "id": "16863062190222923367",
        "title": "公共厕所",
        "address": "湖南省岳阳市岳阳楼区五里牌路与保健巷交叉口东北方向52米左右",
        "tel": "",
        "category": "基础设施:公共设施:公共厕所",
        "type": 0,
        "location": {
            "lat": 29.369272,
            "lng": 113.132088
        },
        "ad_info": {
            "adcode": 430602,
            "province": "湖南省",
            "city": "岳阳市",
            "district": "岳阳楼区"
        }
    },
    {
        "id": "8905530897300314791",
        "title": "公共厕所",
        "address": "湖南省岳阳市岳阳县中湘街与月西路交叉口正北方向117米左右",
        "tel": "",
        "category": "基础设施:公共设施:公共厕所",
        "type": 0,
        "location": {
            "lat": 29.137291,
            "lng": 113.121758
        },
        "ad_info": {
            "adcode": 430621,
            "province": "湖南省",
            "city": "岳阳市",
            "district": "岳阳县"
        }
    },
    {
        "id": "9420710963056516481",
        "title": "公共厕所",
        "address": "湖南省岳阳市岳阳楼区汴河街与洞庭北路交叉口东南方向77米左右",
        "tel": "",
        "category": "基础设施:公共设施:公共厕所",
        "type": 0,
        "location": {
            "lat": 29.377243,
            "lng": 113.09548
        },
        "ad_info": {
            "adcode": 430602,
            "province": "湖南省",
            "city": "岳阳市",
            "district": "岳阳楼区"
        }
    },
    {
        "id": "15614892198599218420",
        "title": "公共厕所",
        "address": "湖南省岳阳市平江县三犊源路与启明路交叉口正南方向16米左右",
        "tel": "",
        "category": "基础设施:公共设施:公共厕所",
        "type": 0,
        "location": {
            "lat": 28.706041,
            "lng": 113.579442
        },
        "ad_info": {
            "adcode": 430626,
            "province": "湖南省",
            "city": "岳阳市",
            "district": "平江县"
        }
    },
    {
        "id": "6184513171409672976",
        "title": "公共厕所",
        "address": "湖南省岳阳市岳阳楼区得胜南路与螺丝港交叉口正南方向130米左右",
        "tel": "",
        "category": "基础设施:公共设施:公共厕所",
        "type": 0,
        "location": {
            "lat": 29.36569,
            "lng": 113.107138
        },
        "ad_info": {
            "adcode": 430602,
            "province": "湖南省",
            "city": "岳阳市",
            "district": "岳阳楼区"
        }
    },
    {
        "id": "18244888714098259026",
        "title": "巴陵服务区第二公共厕所",
        "address": "湖南省岳阳市岳阳县X041与X096交叉口正西方向1963米左右",
        "tel": "",
        "category": "基础设施:公共设施:公共厕所",
        "type": 0,
        "location": {
            "lat": 29.067482,
            "lng": 113.270135
        },
        "ad_info": {
            "adcode": 430621,
            "province": "湖南省",
            "city": "岳阳市",
            "district": "岳阳县"
        }
    },
    {
        "id": "17604002742007073028",
        "title": "公共厕所",
        "address": "湖南省岳阳市平江县新江路与泉塘街交叉口正北方向81米左右",
        "tel": "",
        "category": "基础设施:公共设施:公共厕所",
        "type": 0,
        "location": {
            "lat": 28.678299,
            "lng": 113.59261
        },
        "ad_info": {
            "adcode": 430626,
            "province": "湖南省",
            "city": "岳阳市",
            "district": "平江县"
        }
    },
    {
        "id": "7022883238953964566",
        "title": "公共厕所",
        "address": "湖南省岳阳市湘阴县冬茅中路与旭东南路交叉口正南方向226米左右",
        "tel": "",
        "category": "基础设施:公共设施:公共厕所",
        "type": 0,
        "location": {
            "lat": 28.680225,
            "lng": 112.899826
        },
        "ad_info": {
            "adcode": 430624,
            "province": "湖南省",
            "city": "岳阳市",
            "district": "湘阴县"
        }
    },
    {
        "id": "174475610062814730",
        "title": "公共厕所(路口镇黄皋村)",
        "address": "湖南省岳阳市云溪区Y204与和平路交叉口正北方向507米左右",
        "tel": "",
        "category": "基础设施:公共设施:公共厕所",
        "type": 0,
        "location": {
            "lat": 29.580019,
            "lng": 113.356975
        },
        "ad_info": {
            "adcode": 430603,
            "province": "湖南省",
            "city": "岳阳市",
            "district": "云溪区"
        }
    },
    {
        "id": "12640234095926288314",
        "title": "公共厕所",
        "address": "湖南省岳阳市岳阳县东方西路与荣鹿路交叉口正东方向130米左右",
        "tel": "",
        "category": "基础设施:公共设施:公共厕所",
        "type": 0,
        "location": {
            "lat": 29.140848,
            "lng": 113.103897
        },
        "ad_info": {
            "adcode": 430621,
            "province": "湖南省",
            "city": "岳阳市",
            "district": "岳阳县"
        }
    },
    {
        "id": "16659700117975891850",
        "title": "公共厕所",
        "address": "湖南省岳阳市湘阴县太傅南路与水岸东湖商街交叉口正东方向119米左右",
        "tel": "",
        "category": "基础设施:公共设施:公共厕所",
        "type": 0,
        "location": {
            "lat": 28.67281,
            "lng": 112.89438
        },
        "ad_info": {
            "adcode": 430624,
            "province": "湖南省",
            "city": "岳阳市",
            "district": "湘阴县"
        }
    },
    {
        "id": "6980152710480619920",
        "title": "瓮江服务区公共厕所",
        "address": "湖南省岳阳市平江县S20平洞高速与瓮江服务区交叉口东380米",
        "tel": "",
        "category": "基础设施:公共设施:公共厕所",
        "type": 0,
        "location": {
            "lat": 28.696301,
            "lng": 113.474798
        },
        "ad_info": {
            "adcode": 430626,
            "province": "湖南省",
            "city": "岳阳市",
            "district": "平江县"
        }
    },
    {
        "id": "12717317777672222513",
        "title": "公共厕所",
        "address": "湖南省岳阳市岳阳楼区岳阳大道与香洲路交叉口正西方向128米左右",
        "tel": "",
        "category": "基础设施:公共设施:公共厕所",
        "type": 0,
        "location": {
            "lat": 29.357779,
            "lng": 113.102811
        },
        "ad_info": {
            "adcode": 430602,
            "province": "湖南省",
            "city": "岳阳市",
            "district": "岳阳楼区"
        }
    },
    {
        "id": "7311061037810128890",
        "title": "公共厕所",
        "address": "湖南省岳阳市岳阳楼区乾明寺与梅溪桥街交叉口东北方向110米左右",
        "tel": "",
        "category": "基础设施:公共设施:公共厕所",
        "type": 0,
        "location": {
            "lat": 29.370642,
            "lng": 113.097373
        },
        "ad_info": {
            "adcode": 430602,
            "province": "湖南省",
            "city": "岳阳市",
            "district": "岳阳楼区"
        }
    },
    {
        "id": "13452149113616952151",
        "title": "岳阳平江县格林云海酒店-洗手间",
        "address": "湖南省岳阳市平江县书院路与四柱路交叉口正西方向82米左右",
        "tel": "",
        "category": "基础设施:公共设施:公共厕所",
        "type": 0,
        "location": {
            "lat": 28.695289,
            "lng": 113.59518
        },
        "ad_info": {
            "adcode": 430626,
            "province": "湖南省",
            "city": "岳阳市",
            "district": "平江县"
        }
    },
    {
        "id": "17879065698682916167",
        "title": "公共厕所",
        "address": "湖南省岳阳市岳阳县X052与荣新东路交叉口西北方向82米左右",
        "tel": "",
        "category": "基础设施:公共设施:公共厕所",
        "type": 0,
        "location": {
            "lat": 29.131726,
            "lng": 113.122832
        },
        "ad_info": {
            "adcode": 430621,
            "province": "湖南省",
            "city": "岳阳市",
            "district": "岳阳县"
        }
    },
    {
        "id": "15423435193244263014",
        "title": "公共厕所",
        "address": "湖南省岳阳市平江县启明路与民建北路交叉口东南200米",
        "tel": "",
        "category": "基础设施:公共设施:公共厕所",
        "type": 0,
        "location": {
            "lat": 28.706035,
            "lng": 113.585572
        },
        "ad_info": {
            "adcode": 430626,
            "province": "湖南省",
            "city": "岳阳市",
            "district": "平江县"
        }
    },
    {
        "id": "14926311733269559006",
        "title": "公共厕所",
        "address": "湖南省岳阳市华容县南城墙巷与豆腐巷交叉口东北方向30米左右",
        "tel": "",
        "category": "基础设施:公共设施:公共厕所",
        "type": 0,
        "location": {
            "lat": 29.519685,
            "lng": 112.570986
        },
        "ad_info": {
            "adcode": 430623,
            "province": "湖南省",
            "city": "岳阳市",
            "district": "华容县"
        }
    },
    {
        "id": "12739708503530177137",
        "title": "公共厕所",
        "address": "湖南省岳阳市岳阳楼区青年西路27号",
        "tel": "",
        "category": "基础设施:公共设施:公共厕所",
        "type": 0,
        "location": {
            "lat": 29.367025,
            "lng": 113.098584
        },
        "ad_info": {
            "adcode": 430602,
            "province": "湖南省",
            "city": "岳阳市",
            "district": "岳阳楼区"
        }
    },
    {
        "id": "6230950672449630876",
        "title": "公共厕所(云溪区大汉新城哨冲路)",
        "address": "湖南省岳阳市云溪区哨冲路大汉新城",
        "tel": "",
        "category": "基础设施:公共设施:公共厕所",
        "type": 0,
        "location": {
            "lat": 29.461595,
            "lng": 113.274408
        },
        "ad_info": {
            "adcode": 430603,
            "province": "湖南省",
            "city": "岳阳市",
            "district": "云溪区"
        }
    },
    {
        "id": "16863062190222923367",
        "title": "公共厕所",
        "address": "湖南省岳阳市岳阳楼区五里牌路与保健巷交叉口东北方向52米左右",
        "tel": "",
        "category": "基础设施:公共设施:公共厕所",
        "type": 0,
        "location": {
            "lat": 29.369272,
            "lng": 113.132088
        },
        "ad_info": {
            "adcode": 430602,
            "province": "湖南省",
            "city": "岳阳市",
            "district": "岳阳楼区"
        }
    },
    {
        "id": "8905530897300314791",
        "title": "公共厕所",
        "address": "湖南省岳阳市岳阳县中湘街与月西路交叉口正北方向117米左右",
        "tel": "",
        "category": "基础设施:公共设施:公共厕所",
        "type": 0,
        "location": {
            "lat": 29.137291,
            "lng": 113.121758
        },
        "ad_info": {
            "adcode": 430621,
            "province": "湖南省",
            "city": "岳阳市",
            "district": "岳阳县"
        }
    },
    {
        "id": "9420710963056516481",
        "title": "公共厕所",
        "address": "湖南省岳阳市岳阳楼区汴河街与洞庭北路交叉口东南方向77米左右",
        "tel": "",
        "category": "基础设施:公共设施:公共厕所",
        "type": 0,
        "location": {
            "lat": 29.377243,
            "lng": 113.09548
        },
        "ad_info": {
            "adcode": 430602,
            "province": "湖南省",
            "city": "岳阳市",
            "district": "岳阳楼区"
        }
    },
    {
        "id": "15614892198599218420",
        "title": "公共厕所",
        "address": "湖南省岳阳市平江县三犊源路与启明路交叉口正南方向16米左右",
        "tel": "",
        "category": "基础设施:公共设施:公共厕所",
        "type": 0,
        "location": {
            "lat": 28.706041,
            "lng": 113.579442
        },
        "ad_info": {
            "adcode": 430626,
            "province": "湖南省",
            "city": "岳阳市",
            "district": "平江县"
        }
    },
    {
        "id": "6184513171409672976",
        "title": "公共厕所",
        "address": "湖南省岳阳市岳阳楼区得胜南路与螺丝港交叉口正南方向130米左右",
        "tel": "",
        "category": "基础设施:公共设施:公共厕所",
        "type": 0,
        "location": {
            "lat": 29.36569,
            "lng": 113.107138
        },
        "ad_info": {
            "adcode": 430602,
            "province": "湖南省",
            "city": "岳阳市",
            "district": "岳阳楼区"
        }
    },
    {
        "id": "18244888714098259026",
        "title": "巴陵服务区第二公共厕所",
        "address": "湖南省岳阳市岳阳县X041与X096交叉口正西方向1963米左右",
        "tel": "",
        "category": "基础设施:公共设施:公共厕所",
        "type": 0,
        "location": {
            "lat": 29.067482,
            "lng": 113.270135
        },
        "ad_info": {
            "adcode": 430621,
            "province": "湖南省",
            "city": "岳阳市",
            "district": "岳阳县"
        }
    },
    {
        "id": "17604002742007073028",
        "title": "公共厕所",
        "address": "湖南省岳阳市平江县新江路与泉塘街交叉口正北方向81米左右",
        "tel": "",
        "category": "基础设施:公共设施:公共厕所",
        "type": 0,
        "location": {
            "lat": 28.678299,
            "lng": 113.59261
        },
        "ad_info": {
            "adcode": 430626,
            "province": "湖南省",
            "city": "岳阳市",
            "district": "平江县"
        }
    },
    {
        "id": "7022883238953964566",
        "title": "公共厕所",
        "address": "湖南省岳阳市湘阴县冬茅中路与旭东南路交叉口正南方向226米左右",
        "tel": "",
        "category": "基础设施:公共设施:公共厕所",
        "type": 0,
        "location": {
            "lat": 28.680225,
            "lng": 112.899826
        },
        "ad_info": {
            "adcode": 430624,
            "province": "湖南省",
            "city": "岳阳市",
            "district": "湘阴县"
        }
    },
    {
        "id": "174475610062814730",
        "title": "公共厕所(路口镇黄皋村)",
        "address": "湖南省岳阳市云溪区Y204与和平路交叉口正北方向507米左右",
        "tel": "",
        "category": "基础设施:公共设施:公共厕所",
        "type": 0,
        "location": {
            "lat": 29.580019,
            "lng": 113.356975
        },
        "ad_info": {
            "adcode": 430603,
            "province": "湖南省",
            "city": "岳阳市",
            "district": "云溪区"
        }
    },
    {
        "id": "12640234095926288314",
        "title": "公共厕所",
        "address": "湖南省岳阳市岳阳县东方西路与荣鹿路交叉口正东方向130米左右",
        "tel": "",
        "category": "基础设施:公共设施:公共厕所",
        "type": 0,
        "location": {
            "lat": 29.140848,
            "lng": 113.103897
        },
        "ad_info": {
            "adcode": 430621,
            "province": "湖南省",
            "city": "岳阳市",
            "district": "岳阳县"
        }
    },
    {
        "id": "16659700117975891850",
        "title": "公共厕所",
        "address": "湖南省岳阳市湘阴县太傅南路与水岸东湖商街交叉口正东方向119米左右",
        "tel": "",
        "category": "基础设施:公共设施:公共厕所",
        "type": 0,
        "location": {
            "lat": 28.67281,
            "lng": 112.89438
        },
        "ad_info": {
            "adcode": 430624,
            "province": "湖南省",
            "city": "岳阳市",
            "district": "湘阴县"
        }
    },
    {
        "id": "6980152710480619920",
        "title": "瓮江服务区公共厕所",
        "address": "湖南省岳阳市平江县S20平洞高速与瓮江服务区交叉口东380米",
        "tel": "",
        "category": "基础设施:公共设施:公共厕所",
        "type": 0,
        "location": {
            "lat": 28.696301,
            "lng": 113.474798
        },
        "ad_info": {
            "adcode": 430626,
            "province": "湖南省",
            "city": "岳阳市",
            "district": "平江县"
        }
    },
    {
        "id": "12717317777672222513",
        "title": "公共厕所",
        "address": "湖南省岳阳市岳阳楼区岳阳大道与香洲路交叉口正西方向128米左右",
        "tel": "",
        "category": "基础设施:公共设施:公共厕所",
        "type": 0,
        "location": {
            "lat": 29.357779,
            "lng": 113.102811
        },
        "ad_info": {
            "adcode": 430602,
            "province": "湖南省",
            "city": "岳阳市",
            "district": "岳阳楼区"
        }
    },
    {
        "id": "7311061037810128890",
        "title": "公共厕所",
        "address": "湖南省岳阳市岳阳楼区乾明寺与梅溪桥街交叉口东北方向110米左右",
        "tel": "",
        "category": "基础设施:公共设施:公共厕所",
        "type": 0,
        "location": {
            "lat": 29.370642,
            "lng": 113.097373
        },
        "ad_info": {
            "adcode": 430602,
            "province": "湖南省",
            "city": "岳阳市",
            "district": "岳阳楼区"
        }
    },
    {
        "id": "13452149113616952151",
        "title": "岳阳平江县格林云海酒店-洗手间",
        "address": "湖南省岳阳市平江县书院路与四柱路交叉口正西方向82米左右",
        "tel": "",
        "category": "基础设施:公共设施:公共厕所",
        "type": 0,
        "location": {
            "lat": 28.695289,
            "lng": 113.59518
        },
        "ad_info": {
            "adcode": 430626,
            "province": "湖南省",
            "city": "岳阳市",
            "district": "平江县"
        }
    },
    {
        "id": "17879065698682916167",
        "title": "公共厕所",
        "address": "湖南省岳阳市岳阳县X052与荣新东路交叉口西北方向82米左右",
        "tel": "",
        "category": "基础设施:公共设施:公共厕所",
        "type": 0,
        "location": {
            "lat": 29.131726,
            "lng": 113.122832
        },
        "ad_info": {
            "adcode": 430621,
            "province": "湖南省",
            "city": "岳阳市",
            "district": "岳阳县"
        }
    },
    {
        "id": "15423435193244263014",
        "title": "公共厕所",
        "address": "湖南省岳阳市平江县启明路与民建北路交叉口东南200米",
        "tel": "",
        "category": "基础设施:公共设施:公共厕所",
        "type": 0,
        "location": {
            "lat": 28.706035,
            "lng": 113.585572
        },
        "ad_info": {
            "adcode": 430626,
            "province": "湖南省",
            "city": "岳阳市",
            "district": "平江县"
        }
    },
    {
        "id": "14926311733269559006",
        "title": "公共厕所",
        "address": "湖南省岳阳市华容县南城墙巷与豆腐巷交叉口东北方向30米左右",
        "tel": "",
        "category": "基础设施:公共设施:公共厕所",
        "type": 0,
        "location": {
            "lat": 29.519685,
            "lng": 112.570986
        },
        "ad_info": {
            "adcode": 430623,
            "province": "湖南省",
            "city": "岳阳市",
            "district": "华容县"
        }
    },
    {
        "id": "12739708503530177137",
        "title": "公共厕所",
        "address": "湖南省岳阳市岳阳楼区青年西路27号",
        "tel": "",
        "category": "基础设施:公共设施:公共厕所",
        "type": 0,
        "location": {
            "lat": 29.367025,
            "lng": 113.098584
        },
        "ad_info": {
            "adcode": 430602,
            "province": "湖南省",
            "city": "岳阳市",
            "district": "岳阳楼区"
        }
    },
    {
        "id": "6230950672449630876",
        "title": "公共厕所(云溪区大汉新城哨冲路)",
        "address": "湖南省岳阳市云溪区哨冲路大汉新城",
        "tel": "",
        "category": "基础设施:公共设施:公共厕所",
        "type": 0,
        "location": {
            "lat": 29.461595,
            "lng": 113.274408
        },
        "ad_info": {
            "adcode": 430603,
            "province": "湖南省",
            "city": "岳阳市",
            "district": "云溪区"
        }
    },
    {
        "id": "16863062190222923367",
        "title": "公共厕所",
        "address": "湖南省岳阳市岳阳楼区五里牌路与保健巷交叉口东北方向52米左右",
        "tel": "",
        "category": "基础设施:公共设施:公共厕所",
        "type": 0,
        "location": {
            "lat": 29.369272,
            "lng": 113.132088
        },
        "ad_info": {
            "adcode": 430602,
            "province": "湖南省",
            "city": "岳阳市",
            "district": "岳阳楼区"
        }
    },
    {
        "id": "8905530897300314791",
        "title": "公共厕所",
        "address": "湖南省岳阳市岳阳县中湘街与月西路交叉口正北方向117米左右",
        "tel": "",
        "category": "基础设施:公共设施:公共厕所",
        "type": 0,
        "location": {
            "lat": 29.137291,
            "lng": 113.121758
        },
        "ad_info": {
            "adcode": 430621,
            "province": "湖南省",
            "city": "岳阳市",
            "district": "岳阳县"
        }
    },
    {
        "id": "9420710963056516481",
        "title": "公共厕所",
        "address": "湖南省岳阳市岳阳楼区汴河街与洞庭北路交叉口东南方向77米左右",
        "tel": "",
        "category": "基础设施:公共设施:公共厕所",
        "type": 0,
        "location": {
            "lat": 29.377243,
            "lng": 113.09548
        },
        "ad_info": {
            "adcode": 430602,
            "province": "湖南省",
            "city": "岳阳市",
            "district": "岳阳楼区"
        }
    },
    {
        "id": "15614892198599218420",
        "title": "公共厕所",
        "address": "湖南省岳阳市平江县三犊源路与启明路交叉口正南方向16米左右",
        "tel": "",
        "category": "基础设施:公共设施:公共厕所",
        "type": 0,
        "location": {
            "lat": 28.706041,
            "lng": 113.579442
        },
        "ad_info": {
            "adcode": 430626,
            "province": "湖南省",
            "city": "岳阳市",
            "district": "平江县"
        }
    },
    {
        "id": "6184513171409672976",
        "title": "公共厕所",
        "address": "湖南省岳阳市岳阳楼区得胜南路与螺丝港交叉口正南方向130米左右",
        "tel": "",
        "category": "基础设施:公共设施:公共厕所",
        "type": 0,
        "location": {
            "lat": 29.36569,
            "lng": 113.107138
        },
        "ad_info": {
            "adcode": 430602,
            "province": "湖南省",
            "city": "岳阳市",
            "district": "岳阳楼区"
        }
    },
    {
        "id": "18244888714098259026",
        "title": "巴陵服务区第二公共厕所",
        "address": "湖南省岳阳市岳阳县X041与X096交叉口正西方向1963米左右",
        "tel": "",
        "category": "基础设施:公共设施:公共厕所",
        "type": 0,
        "location": {
            "lat": 29.067482,
            "lng": 113.270135
        },
        "ad_info": {
            "adcode": 430621,
            "province": "湖南省",
            "city": "岳阳市",
            "district": "岳阳县"
        }
    },
    {
        "id": "17604002742007073028",
        "title": "公共厕所",
        "address": "湖南省岳阳市平江县新江路与泉塘街交叉口正北方向81米左右",
        "tel": "",
        "category": "基础设施:公共设施:公共厕所",
        "type": 0,
        "location": {
            "lat": 28.678299,
            "lng": 113.59261
        },
        "ad_info": {
            "adcode": 430626,
            "province": "湖南省",
            "city": "岳阳市",
            "district": "平江县"
        }
    },
    {
        "id": "7022883238953964566",
        "title": "公共厕所",
        "address": "湖南省岳阳市湘阴县冬茅中路与旭东南路交叉口正南方向226米左右",
        "tel": "",
        "category": "基础设施:公共设施:公共厕所",
        "type": 0,
        "location": {
            "lat": 28.680225,
            "lng": 112.899826
        },
        "ad_info": {
            "adcode": 430624,
            "province": "湖南省",
            "city": "岳阳市",
            "district": "湘阴县"
        }
    },
    {
        "id": "174475610062814730",
        "title": "公共厕所(路口镇黄皋村)",
        "address": "湖南省岳阳市云溪区Y204与和平路交叉口正北方向507米左右",
        "tel": "",
        "category": "基础设施:公共设施:公共厕所",
        "type": 0,
        "location": {
            "lat": 29.580019,
            "lng": 113.356975
        },
        "ad_info": {
            "adcode": 430603,
            "province": "湖南省",
            "city": "岳阳市",
            "district": "云溪区"
        }
    },
    {
        "id": "12640234095926288314",
        "title": "公共厕所",
        "address": "湖南省岳阳市岳阳县东方西路与荣鹿路交叉口正东方向130米左右",
        "tel": "",
        "category": "基础设施:公共设施:公共厕所",
        "type": 0,
        "location": {
            "lat": 29.140848,
            "lng": 113.103897
        },
        "ad_info": {
            "adcode": 430621,
            "province": "湖南省",
            "city": "岳阳市",
            "district": "岳阳县"
        }
    },
    {
        "id": "16659700117975891850",
        "title": "公共厕所",
        "address": "湖南省岳阳市湘阴县太傅南路与水岸东湖商街交叉口正东方向119米左右",
        "tel": "",
        "category": "基础设施:公共设施:公共厕所",
        "type": 0,
        "location": {
            "lat": 28.67281,
            "lng": 112.89438
        },
        "ad_info": {
            "adcode": 430624,
            "province": "湖南省",
            "city": "岳阳市",
            "district": "湘阴县"
        }
    },
    {
        "id": "6980152710480619920",
        "title": "瓮江服务区公共厕所",
        "address": "湖南省岳阳市平江县S20平洞高速与瓮江服务区交叉口东380米",
        "tel": "",
        "category": "基础设施:公共设施:公共厕所",
        "type": 0,
        "location": {
            "lat": 28.696301,
            "lng": 113.474798
        },
        "ad_info": {
            "adcode": 430626,
            "province": "湖南省",
            "city": "岳阳市",
            "district": "平江县"
        }
    },
    {
        "id": "12717317777672222513",
        "title": "公共厕所",
        "address": "湖南省岳阳市岳阳楼区岳阳大道与香洲路交叉口正西方向128米左右",
        "tel": "",
        "category": "基础设施:公共设施:公共厕所",
        "type": 0,
        "location": {
            "lat": 29.357779,
            "lng": 113.102811
        },
        "ad_info": {
            "adcode": 430602,
            "province": "湖南省",
            "city": "岳阳市",
            "district": "岳阳楼区"
        }
    },
    {
        "id": "7311061037810128890",
        "title": "公共厕所",
        "address": "湖南省岳阳市岳阳楼区乾明寺与梅溪桥街交叉口东北方向110米左右",
        "tel": "",
        "category": "基础设施:公共设施:公共厕所",
        "type": 0,
        "location": {
            "lat": 29.370642,
            "lng": 113.097373
        },
        "ad_info": {
            "adcode": 430602,
            "province": "湖南省",
            "city": "岳阳市",
            "district": "岳阳楼区"
        }
    },
    {
        "id": "13452149113616952151",
        "title": "岳阳平江县格林云海酒店-洗手间",
        "address": "湖南省岳阳市平江县书院路与四柱路交叉口正西方向82米左右",
        "tel": "",
        "category": "基础设施:公共设施:公共厕所",
        "type": 0,
        "location": {
            "lat": 28.695289,
            "lng": 113.59518
        },
        "ad_info": {
            "adcode": 430626,
            "province": "湖南省",
            "city": "岳阳市",
            "district": "平江县"
        }
    },
    {
        "id": "17879065698682916167",
        "title": "公共厕所",
        "address": "湖南省岳阳市岳阳县X052与荣新东路交叉口西北方向82米左右",
        "tel": "",
        "category": "基础设施:公共设施:公共厕所",
        "type": 0,
        "location": {
            "lat": 29.131726,
            "lng": 113.122832
        },
        "ad_info": {
            "adcode": 430621,
            "province": "湖南省",
            "city": "岳阳市",
            "district": "岳阳县"
        }
    },
    {
        "id": "15423435193244263014",
        "title": "公共厕所",
        "address": "湖南省岳阳市平江县启明路与民建北路交叉口东南200米",
        "tel": "",
        "category": "基础设施:公共设施:公共厕所",
        "type": 0,
        "location": {
            "lat": 28.706035,
            "lng": 113.585572
        },
        "ad_info": {
            "adcode": 430626,
            "province": "湖南省",
            "city": "岳阳市",
            "district": "平江县"
        }
    },
    {
        "id": "14926311733269559006",
        "title": "公共厕所",
        "address": "湖南省岳阳市华容县南城墙巷与豆腐巷交叉口东北方向30米左右",
        "tel": "",
        "category": "基础设施:公共设施:公共厕所",
        "type": 0,
        "location": {
            "lat": 29.519685,
            "lng": 112.570986
        },
        "ad_info": {
            "adcode": 430623,
            "province": "湖南省",
            "city": "岳阳市",
            "district": "华容县"
        }
    },
    {
        "id": "12739708503530177137",
        "title": "公共厕所",
        "address": "湖南省岳阳市岳阳楼区青年西路27号",
        "tel": "",
        "category": "基础设施:公共设施:公共厕所",
        "type": 0,
        "location": {
            "lat": 29.367025,
            "lng": 113.098584
        },
        "ad_info": {
            "adcode": 430602,
            "province": "湖南省",
            "city": "岳阳市",
            "district": "岳阳楼区"
        }
    },
    {
        "id": "6230950672449630876",
        "title": "公共厕所(云溪区大汉新城哨冲路)",
        "address": "湖南省岳阳市云溪区哨冲路大汉新城",
        "tel": "",
        "category": "基础设施:公共设施:公共厕所",
        "type": 0,
        "location": {
            "lat": 29.461595,
            "lng": 113.274408
        },
        "ad_info": {
            "adcode": 430603,
            "province": "湖南省",
            "city": "岳阳市",
            "district": "云溪区"
        }
    },
    {
        "id": "16863062190222923367",
        "title": "公共厕所",
        "address": "湖南省岳阳市岳阳楼区五里牌路与保健巷交叉口东北方向52米左右",
        "tel": "",
        "category": "基础设施:公共设施:公共厕所",
        "type": 0,
        "location": {
            "lat": 29.369272,
            "lng": 113.132088
        },
        "ad_info": {
            "adcode": 430602,
            "province": "湖南省",
            "city": "岳阳市",
            "district": "岳阳楼区"
        }
    },
    {
        "id": "8905530897300314791",
        "title": "公共厕所",
        "address": "湖南省岳阳市岳阳县中湘街与月西路交叉口正北方向117米左右",
        "tel": "",
        "category": "基础设施:公共设施:公共厕所",
        "type": 0,
        "location": {
            "lat": 29.137291,
            "lng": 113.121758
        },
        "ad_info": {
            "adcode": 430621,
            "province": "湖南省",
            "city": "岳阳市",
            "district": "岳阳县"
        }
    },
    {
        "id": "9420710963056516481",
        "title": "公共厕所",
        "address": "湖南省岳阳市岳阳楼区汴河街与洞庭北路交叉口东南方向77米左右",
        "tel": "",
        "category": "基础设施:公共设施:公共厕所",
        "type": 0,
        "location": {
            "lat": 29.377243,
            "lng": 113.09548
        },
        "ad_info": {
            "adcode": 430602,
            "province": "湖南省",
            "city": "岳阳市",
            "district": "岳阳楼区"
        }
    },
    {
        "id": "15614892198599218420",
        "title": "公共厕所",
        "address": "湖南省岳阳市平江县三犊源路与启明路交叉口正南方向16米左右",
        "tel": "",
        "category": "基础设施:公共设施:公共厕所",
        "type": 0,
        "location": {
            "lat": 28.706041,
            "lng": 113.579442
        },
        "ad_info": {
            "adcode": 430626,
            "province": "湖南省",
            "city": "岳阳市",
            "district": "平江县"
        }
    },
    {
        "id": "6184513171409672976",
        "title": "公共厕所",
        "address": "湖南省岳阳市岳阳楼区得胜南路与螺丝港交叉口正南方向130米左右",
        "tel": "",
        "category": "基础设施:公共设施:公共厕所",
        "type": 0,
        "location": {
            "lat": 29.36569,
            "lng": 113.107138
        },
        "ad_info": {
            "adcode": 430602,
            "province": "湖南省",
            "city": "岳阳市",
            "district": "岳阳楼区"
        }
    },
    {
        "id": "18244888714098259026",
        "title": "巴陵服务区第二公共厕所",
        "address": "湖南省岳阳市岳阳县X041与X096交叉口正西方向1963米左右",
        "tel": "",
        "category": "基础设施:公共设施:公共厕所",
        "type": 0,
        "location": {
            "lat": 29.067482,
            "lng": 113.270135
        },
        "ad_info": {
            "adcode": 430621,
            "province": "湖南省",
            "city": "岳阳市",
            "district": "岳阳县"
        }
    },
    {
        "id": "17604002742007073028",
        "title": "公共厕所",
        "address": "湖南省岳阳市平江县新江路与泉塘街交叉口正北方向81米左右",
        "tel": "",
        "category": "基础设施:公共设施:公共厕所",
        "type": 0,
        "location": {
            "lat": 28.678299,
            "lng": 113.59261
        },
        "ad_info": {
            "adcode": 430626,
            "province": "湖南省",
            "city": "岳阳市",
            "district": "平江县"
        }
    },
    {
        "id": "7022883238953964566",
        "title": "公共厕所",
        "address": "湖南省岳阳市湘阴县冬茅中路与旭东南路交叉口正南方向226米左右",
        "tel": "",
        "category": "基础设施:公共设施:公共厕所",
        "type": 0,
        "location": {
            "lat": 28.680225,
            "lng": 112.899826
        },
        "ad_info": {
            "adcode": 430624,
            "province": "湖南省",
            "city": "岳阳市",
            "district": "湘阴县"
        }
    },
    {
        "id": "174475610062814730",
        "title": "公共厕所(路口镇黄皋村)",
        "address": "湖南省岳阳市云溪区Y204与和平路交叉口正北方向507米左右",
        "tel": "",
        "category": "基础设施:公共设施:公共厕所",
        "type": 0,
        "location": {
            "lat": 29.580019,
            "lng": 113.356975
        },
        "ad_info": {
            "adcode": 430603,
            "province": "湖南省",
            "city": "岳阳市",
            "district": "云溪区"
        }
    },
    {
        "id": "12640234095926288314",
        "title": "公共厕所",
        "address": "湖南省岳阳市岳阳县东方西路与荣鹿路交叉口正东方向130米左右",
        "tel": "",
        "category": "基础设施:公共设施:公共厕所",
        "type": 0,
        "location": {
            "lat": 29.140848,
            "lng": 113.103897
        },
        "ad_info": {
            "adcode": 430621,
            "province": "湖南省",
            "city": "岳阳市",
            "district": "岳阳县"
        }
    },
    {
        "id": "16659700117975891850",
        "title": "公共厕所",
        "address": "湖南省岳阳市湘阴县太傅南路与水岸东湖商街交叉口正东方向119米左右",
        "tel": "",
        "category": "基础设施:公共设施:公共厕所",
        "type": 0,
        "location": {
            "lat": 28.67281,
            "lng": 112.89438
        },
        "ad_info": {
            "adcode": 430624,
            "province": "湖南省",
            "city": "岳阳市",
            "district": "湘阴县"
        }
    },
    {
        "id": "6980152710480619920",
        "title": "瓮江服务区公共厕所",
        "address": "湖南省岳阳市平江县S20平洞高速与瓮江服务区交叉口东380米",
        "tel": "",
        "category": "基础设施:公共设施:公共厕所",
        "type": 0,
        "location": {
            "lat": 28.696301,
            "lng": 113.474798
        },
        "ad_info": {
            "adcode": 430626,
            "province": "湖南省",
            "city": "岳阳市",
            "district": "平江县"
        }
    },
    {
        "id": "12717317777672222513",
        "title": "公共厕所",
        "address": "湖南省岳阳市岳阳楼区岳阳大道与香洲路交叉口正西方向128米左右",
        "tel": "",
        "category": "基础设施:公共设施:公共厕所",
        "type": 0,
        "location": {
            "lat": 29.357779,
            "lng": 113.102811
        },
        "ad_info": {
            "adcode": 430602,
            "province": "湖南省",
            "city": "岳阳市",
            "district": "岳阳楼区"
        }
    },
    {
        "id": "7311061037810128890",
        "title": "公共厕所",
        "address": "湖南省岳阳市岳阳楼区乾明寺与梅溪桥街交叉口东北方向110米左右",
        "tel": "",
        "category": "基础设施:公共设施:公共厕所",
        "type": 0,
        "location": {
            "lat": 29.370642,
            "lng": 113.097373
        },
        "ad_info": {
            "adcode": 430602,
            "province": "湖南省",
            "city": "岳阳市",
            "district": "岳阳楼区"
        }
    },
    {
        "id": "13452149113616952151",
        "title": "岳阳平江县格林云海酒店-洗手间",
        "address": "湖南省岳阳市平江县书院路与四柱路交叉口正西方向82米左右",
        "tel": "",
        "category": "基础设施:公共设施:公共厕所",
        "type": 0,
        "location": {
            "lat": 28.695289,
            "lng": 113.59518
        },
        "ad_info": {
            "adcode": 430626,
            "province": "湖南省",
            "city": "岳阳市",
            "district": "平江县"
        }
    },
    {
        "id": "17879065698682916167",
        "title": "公共厕所",
        "address": "湖南省岳阳市岳阳县X052与荣新东路交叉口西北方向82米左右",
        "tel": "",
        "category": "基础设施:公共设施:公共厕所",
        "type": 0,
        "location": {
            "lat": 29.131726,
            "lng": 113.122832
        },
        "ad_info": {
            "adcode": 430621,
            "province": "湖南省",
            "city": "岳阳市",
            "district": "岳阳县"
        }
    },
    {
        "id": "15423435193244263014",
        "title": "公共厕所",
        "address": "湖南省岳阳市平江县启明路与民建北路交叉口东南200米",
        "tel": "",
        "category": "基础设施:公共设施:公共厕所",
        "type": 0,
        "location": {
            "lat": 28.706035,
            "lng": 113.585572
        },
        "ad_info": {
            "adcode": 430626,
            "province": "湖南省",
            "city": "岳阳市",
            "district": "平江县"
        }
    },
    {
        "id": "14926311733269559006",
        "title": "公共厕所",
        "address": "湖南省岳阳市华容县南城墙巷与豆腐巷交叉口东北方向30米左右",
        "tel": "",
        "category": "基础设施:公共设施:公共厕所",
        "type": 0,
        "location": {
            "lat": 29.519685,
            "lng": 112.570986
        },
        "ad_info": {
            "adcode": 430623,
            "province": "湖南省",
            "city": "岳阳市",
            "district": "华容县"
        }
    },
    {
        "id": "12739708503530177137",
        "title": "公共厕所",
        "address": "湖南省岳阳市岳阳楼区青年西路27号",
        "tel": "",
        "category": "基础设施:公共设施:公共厕所",
        "type": 0,
        "location": {
            "lat": 29.367025,
            "lng": 113.098584
        },
        "ad_info": {
            "adcode": 430602,
            "province": "湖南省",
            "city": "岳阳市",
            "district": "岳阳楼区"
        }
    },
    {
        "id": "6230950672449630876",
        "title": "公共厕所(云溪区大汉新城哨冲路)",
        "address": "湖南省岳阳市云溪区哨冲路大汉新城",
        "tel": "",
        "category": "基础设施:公共设施:公共厕所",
        "type": 0,
        "location": {
            "lat": 29.461595,
            "lng": 113.274408
        },
        "ad_info": {
            "adcode": 430603,
            "province": "湖南省",
            "city": "岳阳市",
            "district": "云溪区"
        }
    },
    {
        "id": "16863062190222923367",
        "title": "公共厕所",
        "address": "湖南省岳阳市岳阳楼区五里牌路与保健巷交叉口东北方向52米左右",
        "tel": "",
        "category": "基础设施:公共设施:公共厕所",
        "type": 0,
        "location": {
            "lat": 29.369272,
            "lng": 113.132088
        },
        "ad_info": {
            "adcode": 430602,
            "province": "湖南省",
            "city": "岳阳市",
            "district": "岳阳楼区"
        }
    },
    {
        "id": "8905530897300314791",
        "title": "公共厕所",
        "address": "湖南省岳阳市岳阳县中湘街与月西路交叉口正北方向117米左右",
        "tel": "",
        "category": "基础设施:公共设施:公共厕所",
        "type": 0,
        "location": {
            "lat": 29.137291,
            "lng": 113.121758
        },
        "ad_info": {
            "adcode": 430621,
            "province": "湖南省",
            "city": "岳阳市",
            "district": "岳阳县"
        }
    },
    {
        "id": "9420710963056516481",
        "title": "公共厕所",
        "address": "湖南省岳阳市岳阳楼区汴河街与洞庭北路交叉口东南方向77米左右",
        "tel": "",
        "category": "基础设施:公共设施:公共厕所",
        "type": 0,
        "location": {
            "lat": 29.377243,
            "lng": 113.09548
        },
        "ad_info": {
            "adcode": 430602,
            "province": "湖南省",
            "city": "岳阳市",
            "district": "岳阳楼区"
        }
    },
    {
        "id": "15614892198599218420",
        "title": "公共厕所",
        "address": "湖南省岳阳市平江县三犊源路与启明路交叉口正南方向16米左右",
        "tel": "",
        "category": "基础设施:公共设施:公共厕所",
        "type": 0,
        "location": {
            "lat": 28.706041,
            "lng": 113.579442
        },
        "ad_info": {
            "adcode": 430626,
            "province": "湖南省",
            "city": "岳阳市",
            "district": "平江县"
        }
    },
    {
        "id": "6184513171409672976",
        "title": "公共厕所",
        "address": "湖南省岳阳市岳阳楼区得胜南路与螺丝港交叉口正南方向130米左右",
        "tel": "",
        "category": "基础设施:公共设施:公共厕所",
        "type": 0,
        "location": {
            "lat": 29.36569,
            "lng": 113.107138
        },
        "ad_info": {
            "adcode": 430602,
            "province": "湖南省",
            "city": "岳阳市",
            "district": "岳阳楼区"
        }
    },
    {
        "id": "18244888714098259026",
        "title": "巴陵服务区第二公共厕所",
        "address": "湖南省岳阳市岳阳县X041与X096交叉口正西方向1963米左右",
        "tel": "",
        "category": "基础设施:公共设施:公共厕所",
        "type": 0,
        "location": {
            "lat": 29.067482,
            "lng": 113.270135
        },
        "ad_info": {
            "adcode": 430621,
            "province": "湖南省",
            "city": "岳阳市",
            "district": "岳阳县"
        }
    },
    {
        "id": "17604002742007073028",
        "title": "公共厕所",
        "address": "湖南省岳阳市平江县新江路与泉塘街交叉口正北方向81米左右",
        "tel": "",
        "category": "基础设施:公共设施:公共厕所",
        "type": 0,
        "location": {
            "lat": 28.678299,
            "lng": 113.59261
        },
        "ad_info": {
            "adcode": 430626,
            "province": "湖南省",
            "city": "岳阳市",
            "district": "平江县"
        }
    },
    {
        "id": "7022883238953964566",
        "title": "公共厕所",
        "address": "湖南省岳阳市湘阴县冬茅中路与旭东南路交叉口正南方向226米左右",
        "tel": "",
        "category": "基础设施:公共设施:公共厕所",
        "type": 0,
        "location": {
            "lat": 28.680225,
            "lng": 112.899826
        },
        "ad_info": {
            "adcode": 430624,
            "province": "湖南省",
            "city": "岳阳市",
            "district": "湘阴县"
        }
    },
    {
        "id": "174475610062814730",
        "title": "公共厕所(路口镇黄皋村)",
        "address": "湖南省岳阳市云溪区Y204与和平路交叉口正北方向507米左右",
        "tel": "",
        "category": "基础设施:公共设施:公共厕所",
        "type": 0,
        "location": {
            "lat": 29.580019,
            "lng": 113.356975
        },
        "ad_info": {
            "adcode": 430603,
            "province": "湖南省",
            "city": "岳阳市",
            "district": "云溪区"
        }
    },
    {
        "id": "12640234095926288314",
        "title": "公共厕所",
        "address": "湖南省岳阳市岳阳县东方西路与荣鹿路交叉口正东方向130米左右",
        "tel": "",
        "category": "基础设施:公共设施:公共厕所",
        "type": 0,
        "location": {
            "lat": 29.140848,
            "lng": 113.103897
        },
        "ad_info": {
            "adcode": 430621,
            "province": "湖南省",
            "city": "岳阳市",
            "district": "岳阳县"
        }
    },
    {
        "id": "16659700117975891850",
        "title": "公共厕所",
        "address": "湖南省岳阳市湘阴县太傅南路与水岸东湖商街交叉口正东方向119米左右",
        "tel": "",
        "category": "基础设施:公共设施:公共厕所",
        "type": 0,
        "location": {
            "lat": 28.67281,
            "lng": 112.89438
        },
        "ad_info": {
            "adcode": 430624,
            "province": "湖南省",
            "city": "岳阳市",
            "district": "湘阴县"
        }
    },
    {
        "id": "6980152710480619920",
        "title": "瓮江服务区公共厕所",
        "address": "湖南省岳阳市平江县S20平洞高速与瓮江服务区交叉口东380米",
        "tel": "",
        "category": "基础设施:公共设施:公共厕所",
        "type": 0,
        "location": {
            "lat": 28.696301,
            "lng": 113.474798
        },
        "ad_info": {
            "adcode": 430626,
            "province": "湖南省",
            "city": "岳阳市",
            "district": "平江县"
        }
    },
    {
        "id": "12717317777672222513",
        "title": "公共厕所",
        "address": "湖南省岳阳市岳阳楼区岳阳大道与香洲路交叉口正西方向128米左右",
        "tel": "",
        "category": "基础设施:公共设施:公共厕所",
        "type": 0,
        "location": {
            "lat": 29.357779,
            "lng": 113.102811
        },
        "ad_info": {
            "adcode": 430602,
            "province": "湖南省",
            "city": "岳阳市",
            "district": "岳阳楼区"
        }
    },
    {
        "id": "7311061037810128890",
        "title": "公共厕所",
        "address": "湖南省岳阳市岳阳楼区乾明寺与梅溪桥街交叉口东北方向110米左右",
        "tel": "",
        "category": "基础设施:公共设施:公共厕所",
        "type": 0,
        "location": {
            "lat": 29.370642,
            "lng": 113.097373
        },
        "ad_info": {
            "adcode": 430602,
            "province": "湖南省",
            "city": "岳阳市",
            "district": "岳阳楼区"
        }
    },
    {
        "id": "13452149113616952151",
        "title": "岳阳平江县格林云海酒店-洗手间",
        "address": "湖南省岳阳市平江县书院路与四柱路交叉口正西方向82米左右",
        "tel": "",
        "category": "基础设施:公共设施:公共厕所",
        "type": 0,
        "location": {
            "lat": 28.695289,
            "lng": 113.59518
        },
        "ad_info": {
            "adcode": 430626,
            "province": "湖南省",
            "city": "岳阳市",
            "district": "平江县"
        }
    },
    {
        "id": "17879065698682916167",
        "title": "公共厕所",
        "address": "湖南省岳阳市岳阳县X052与荣新东路交叉口西北方向82米左右",
        "tel": "",
        "category": "基础设施:公共设施:公共厕所",
        "type": 0,
        "location": {
            "lat": 29.131726,
            "lng": 113.122832
        },
        "ad_info": {
            "adcode": 430621,
            "province": "湖南省",
            "city": "岳阳市",
            "district": "岳阳县"
        }
    },
    {
        "id": "15423435193244263014",
        "title": "公共厕所",
        "address": "湖南省岳阳市平江县启明路与民建北路交叉口东南200米",
        "tel": "",
        "category": "基础设施:公共设施:公共厕所",
        "type": 0,
        "location": {
            "lat": 28.706035,
            "lng": 113.585572
        },
        "ad_info": {
            "adcode": 430626,
            "province": "湖南省",
            "city": "岳阳市",
            "district": "平江县"
        }
    },
    {
        "id": "14926311733269559006",
        "title": "公共厕所",
        "address": "湖南省岳阳市华容县南城墙巷与豆腐巷交叉口东北方向30米左右",
        "tel": "",
        "category": "基础设施:公共设施:公共厕所",
        "type": 0,
        "location": {
            "lat": 29.519685,
            "lng": 112.570986
        },
        "ad_info": {
            "adcode": 430623,
            "province": "湖南省",
            "city": "岳阳市",
            "district": "华容县"
        }
    },
    {
        "id": "12739708503530177137",
        "title": "公共厕所",
        "address": "湖南省岳阳市岳阳楼区青年西路27号",
        "tel": "",
        "category": "基础设施:公共设施:公共厕所",
        "type": 0,
        "location": {
            "lat": 29.367025,
            "lng": 113.098584
        },
        "ad_info": {
            "adcode": 430602,
            "province": "湖南省",
            "city": "岳阳市",
            "district": "岳阳楼区"
        }
    },
    {
        "id": "6230950672449630876",
        "title": "公共厕所(云溪区大汉新城哨冲路)",
        "address": "湖南省岳阳市云溪区哨冲路大汉新城",
        "tel": "",
        "category": "基础设施:公共设施:公共厕所",
        "type": 0,
        "location": {
            "lat": 29.461595,
            "lng": 113.274408
        },
        "ad_info": {
            "adcode": 430603,
            "province": "湖南省",
            "city": "岳阳市",
            "district": "云溪区"
        }
    },
    {
        "id": "16863062190222923367",
        "title": "公共厕所",
        "address": "湖南省岳阳市岳阳楼区五里牌路与保健巷交叉口东北方向52米左右",
        "tel": "",
        "category": "基础设施:公共设施:公共厕所",
        "type": 0,
        "location": {
            "lat": 29.369272,
            "lng": 113.132088
        },
        "ad_info": {
            "adcode": 430602,
            "province": "湖南省",
            "city": "岳阳市",
            "district": "岳阳楼区"
        }
    },
    {
        "id": "8905530897300314791",
        "title": "公共厕所",
        "address": "湖南省岳阳市岳阳县中湘街与月西路交叉口正北方向117米左右",
        "tel": "",
        "category": "基础设施:公共设施:公共厕所",
        "type": 0,
        "location": {
            "lat": 29.137291,
            "lng": 113.121758
        },
        "ad_info": {
            "adcode": 430621,
            "province": "湖南省",
            "city": "岳阳市",
            "district": "岳阳县"
        }
    },
    {
        "id": "9420710963056516481",
        "title": "公共厕所",
        "address": "湖南省岳阳市岳阳楼区汴河街与洞庭北路交叉口东南方向77米左右",
        "tel": "",
        "category": "基础设施:公共设施:公共厕所",
        "type": 0,
        "location": {
            "lat": 29.377243,
            "lng": 113.09548
        },
        "ad_info": {
            "adcode": 430602,
            "province": "湖南省",
            "city": "岳阳市",
            "district": "岳阳楼区"
        }
    },
    {
        "id": "15614892198599218420",
        "title": "公共厕所",
        "address": "湖南省岳阳市平江县三犊源路与启明路交叉口正南方向16米左右",
        "tel": "",
        "category": "基础设施:公共设施:公共厕所",
        "type": 0,
        "location": {
            "lat": 28.706041,
            "lng": 113.579442
        },
        "ad_info": {
            "adcode": 430626,
            "province": "湖南省",
            "city": "岳阳市",
            "district": "平江县"
        }
    },
    {
        "id": "6184513171409672976",
        "title": "公共厕所",
        "address": "湖南省岳阳市岳阳楼区得胜南路与螺丝港交叉口正南方向130米左右",
        "tel": "",
        "category": "基础设施:公共设施:公共厕所",
        "type": 0,
        "location": {
            "lat": 29.36569,
            "lng": 113.107138
        },
        "ad_info": {
            "adcode": 430602,
            "province": "湖南省",
            "city": "岳阳市",
            "district": "岳阳楼区"
        }
    },
    {
        "id": "18244888714098259026",
        "title": "巴陵服务区第二公共厕所",
        "address": "湖南省岳阳市岳阳县X041与X096交叉口正西方向1963米左右",
        "tel": "",
        "category": "基础设施:公共设施:公共厕所",
        "type": 0,
        "location": {
            "lat": 29.067482,
            "lng": 113.270135
        },
        "ad_info": {
            "adcode": 430621,
            "province": "湖南省",
            "city": "岳阳市",
            "district": "岳阳县"
        }
    },
    {
        "id": "17604002742007073028",
        "title": "公共厕所",
        "address": "湖南省岳阳市平江县新江路与泉塘街交叉口正北方向81米左右",
        "tel": "",
        "category": "基础设施:公共设施:公共厕所",
        "type": 0,
        "location": {
            "lat": 28.678299,
            "lng": 113.59261
        },
        "ad_info": {
            "adcode": 430626,
            "province": "湖南省",
            "city": "岳阳市",
            "district": "平江县"
        }
    },
    {
        "id": "7022883238953964566",
        "title": "公共厕所",
        "address": "湖南省岳阳市湘阴县冬茅中路与旭东南路交叉口正南方向226米左右",
        "tel": "",
        "category": "基础设施:公共设施:公共厕所",
        "type": 0,
        "location": {
            "lat": 28.680225,
            "lng": 112.899826
        },
        "ad_info": {
            "adcode": 430624,
            "province": "湖南省",
            "city": "岳阳市",
            "district": "湘阴县"
        }
    },
    {
        "id": "174475610062814730",
        "title": "公共厕所(路口镇黄皋村)",
        "address": "湖南省岳阳市云溪区Y204与和平路交叉口正北方向507米左右",
        "tel": "",
        "category": "基础设施:公共设施:公共厕所",
        "type": 0,
        "location": {
            "lat": 29.580019,
            "lng": 113.356975
        },
        "ad_info": {
            "adcode": 430603,
            "province": "湖南省",
            "city": "岳阳市",
            "district": "云溪区"
        }
    },
    {
        "id": "12640234095926288314",
        "title": "公共厕所",
        "address": "湖南省岳阳市岳阳县东方西路与荣鹿路交叉口正东方向130米左右",
        "tel": "",
        "category": "基础设施:公共设施:公共厕所",
        "type": 0,
        "location": {
            "lat": 29.140848,
            "lng": 113.103897
        },
        "ad_info": {
            "adcode": 430621,
            "province": "湖南省",
            "city": "岳阳市",
            "district": "岳阳县"
        }
    },
    {
        "id": "16659700117975891850",
        "title": "公共厕所",
        "address": "湖南省岳阳市湘阴县太傅南路与水岸东湖商街交叉口正东方向119米左右",
        "tel": "",
        "category": "基础设施:公共设施:公共厕所",
        "type": 0,
        "location": {
            "lat": 28.67281,
            "lng": 112.89438
        },
        "ad_info": {
            "adcode": 430624,
            "province": "湖南省",
            "city": "岳阳市",
            "district": "湘阴县"
        }
    },
    {
        "id": "6980152710480619920",
        "title": "瓮江服务区公共厕所",
        "address": "湖南省岳阳市平江县S20平洞高速与瓮江服务区交叉口东380米",
        "tel": "",
        "category": "基础设施:公共设施:公共厕所",
        "type": 0,
        "location": {
            "lat": 28.696301,
            "lng": 113.474798
        },
        "ad_info": {
            "adcode": 430626,
            "province": "湖南省",
            "city": "岳阳市",
            "district": "平江县"
        }
    },
    {
        "id": "12717317777672222513",
        "title": "公共厕所",
        "address": "湖南省岳阳市岳阳楼区岳阳大道与香洲路交叉口正西方向128米左右",
        "tel": "",
        "category": "基础设施:公共设施:公共厕所",
        "type": 0,
        "location": {
            "lat": 29.357779,
            "lng": 113.102811
        },
        "ad_info": {
            "adcode": 430602,
            "province": "湖南省",
            "city": "岳阳市",
            "district": "岳阳楼区"
        }
    },
    {
        "id": "7311061037810128890",
        "title": "公共厕所",
        "address": "湖南省岳阳市岳阳楼区乾明寺与梅溪桥街交叉口东北方向110米左右",
        "tel": "",
        "category": "基础设施:公共设施:公共厕所",
        "type": 0,
        "location": {
            "lat": 29.370642,
            "lng": 113.097373
        },
        "ad_info": {
            "adcode": 430602,
            "province": "湖南省",
            "city": "岳阳市",
            "district": "岳阳楼区"
        }
    },
    {
        "id": "13452149113616952151",
        "title": "岳阳平江县格林云海酒店-洗手间",
        "address": "湖南省岳阳市平江县书院路与四柱路交叉口正西方向82米左右",
        "tel": "",
        "category": "基础设施:公共设施:公共厕所",
        "type": 0,
        "location": {
            "lat": 28.695289,
            "lng": 113.59518
        },
        "ad_info": {
            "adcode": 430626,
            "province": "湖南省",
            "city": "岳阳市",
            "district": "平江县"
        }
    },
    {
        "id": "17879065698682916167",
        "title": "公共厕所",
        "address": "湖南省岳阳市岳阳县X052与荣新东路交叉口西北方向82米左右",
        "tel": "",
        "category": "基础设施:公共设施:公共厕所",
        "type": 0,
        "location": {
            "lat": 29.131726,
            "lng": 113.122832
        },
        "ad_info": {
            "adcode": 430621,
            "province": "湖南省",
            "city": "岳阳市",
            "district": "岳阳县"
        }
    },
    {
        "id": "15423435193244263014",
        "title": "公共厕所",
        "address": "湖南省岳阳市平江县启明路与民建北路交叉口东南200米",
        "tel": "",
        "category": "基础设施:公共设施:公共厕所",
        "type": 0,
        "location": {
            "lat": 28.706035,
            "lng": 113.585572
        },
        "ad_info": {
            "adcode": 430626,
            "province": "湖南省",
            "city": "岳阳市",
            "district": "平江县"
        }
    },
    {
        "id": "14926311733269559006",
        "title": "公共厕所",
        "address": "湖南省岳阳市华容县南城墙巷与豆腐巷交叉口东北方向30米左右",
        "tel": "",
        "category": "基础设施:公共设施:公共厕所",
        "type": 0,
        "location": {
            "lat": 29.519685,
            "lng": 112.570986
        },
        "ad_info": {
            "adcode": 430623,
            "province": "湖南省",
            "city": "岳阳市",
            "district": "华容县"
        }
    },
    {
        "id": "12739708503530177137",
        "title": "公共厕所",
        "address": "湖南省岳阳市岳阳楼区青年西路27号",
        "tel": "",
        "category": "基础设施:公共设施:公共厕所",
        "type": 0,
        "location": {
            "lat": 29.367025,
            "lng": 113.098584
        },
        "ad_info": {
            "adcode": 430602,
            "province": "湖南省",
            "city": "岳阳市",
            "district": "岳阳楼区"
        }
    },
    {
        "id": "6230950672449630876",
        "title": "公共厕所(云溪区大汉新城哨冲路)",
        "address": "湖南省岳阳市云溪区哨冲路大汉新城",
        "tel": "",
        "category": "基础设施:公共设施:公共厕所",
        "type": 0,
        "location": {
            "lat": 29.461595,
            "lng": 113.274408
        },
        "ad_info": {
            "adcode": 430603,
            "province": "湖南省",
            "city": "岳阳市",
            "district": "云溪区"
        }
    },
    {
        "id": "16863062190222923367",
        "title": "公共厕所",
        "address": "湖南省岳阳市岳阳楼区五里牌路与保健巷交叉口东北方向52米左右",
        "tel": "",
        "category": "基础设施:公共设施:公共厕所",
        "type": 0,
        "location": {
            "lat": 29.369272,
            "lng": 113.132088
        },
        "ad_info": {
            "adcode": 430602,
            "province": "湖南省",
            "city": "岳阳市",
            "district": "岳阳楼区"
        }
    },
    {
        "id": "8905530897300314791",
        "title": "公共厕所",
        "address": "湖南省岳阳市岳阳县中湘街与月西路交叉口正北方向117米左右",
        "tel": "",
        "category": "基础设施:公共设施:公共厕所",
        "type": 0,
        "location": {
            "lat": 29.137291,
            "lng": 113.121758
        },
        "ad_info": {
            "adcode": 430621,
            "province": "湖南省",
            "city": "岳阳市",
            "district": "岳阳县"
        }
    },
    {
        "id": "9420710963056516481",
        "title": "公共厕所",
        "address": "湖南省岳阳市岳阳楼区汴河街与洞庭北路交叉口东南方向77米左右",
        "tel": "",
        "category": "基础设施:公共设施:公共厕所",
        "type": 0,
        "location": {
            "lat": 29.377243,
            "lng": 113.09548
        },
        "ad_info": {
            "adcode": 430602,
            "province": "湖南省",
            "city": "岳阳市",
            "district": "岳阳楼区"
        }
    },
    {
        "id": "15614892198599218420",
        "title": "公共厕所",
        "address": "湖南省岳阳市平江县三犊源路与启明路交叉口正南方向16米左右",
        "tel": "",
        "category": "基础设施:公共设施:公共厕所",
        "type": 0,
        "location": {
            "lat": 28.706041,
            "lng": 113.579442
        },
        "ad_info": {
            "adcode": 430626,
            "province": "湖南省",
            "city": "岳阳市",
            "district": "平江县"
        }
    },
    {
        "id": "6184513171409672976",
        "title": "公共厕所",
        "address": "湖南省岳阳市岳阳楼区得胜南路与螺丝港交叉口正南方向130米左右",
        "tel": "",
        "category": "基础设施:公共设施:公共厕所",
        "type": 0,
        "location": {
            "lat": 29.36569,
            "lng": 113.107138
        },
        "ad_info": {
            "adcode": 430602,
            "province": "湖南省",
            "city": "岳阳市",
            "district": "岳阳楼区"
        }
    },
    {
        "id": "18244888714098259026",
        "title": "巴陵服务区第二公共厕所",
        "address": "湖南省岳阳市岳阳县X041与X096交叉口正西方向1963米左右",
        "tel": "",
        "category": "基础设施:公共设施:公共厕所",
        "type": 0,
        "location": {
            "lat": 29.067482,
            "lng": 113.270135
        },
        "ad_info": {
            "adcode": 430621,
            "province": "湖南省",
            "city": "岳阳市",
            "district": "岳阳县"
        }
    },
    {
        "id": "17604002742007073028",
        "title": "公共厕所",
        "address": "湖南省岳阳市平江县新江路与泉塘街交叉口正北方向81米左右",
        "tel": "",
        "category": "基础设施:公共设施:公共厕所",
        "type": 0,
        "location": {
            "lat": 28.678299,
            "lng": 113.59261
        },
        "ad_info": {
            "adcode": 430626,
            "province": "湖南省",
            "city": "岳阳市",
            "district": "平江县"
        }
    },
    {
        "id": "7022883238953964566",
        "title": "公共厕所",
        "address": "湖南省岳阳市湘阴县冬茅中路与旭东南路交叉口正南方向226米左右",
        "tel": "",
        "category": "基础设施:公共设施:公共厕所",
        "type": 0,
        "location": {
            "lat": 28.680225,
            "lng": 112.899826
        },
        "ad_info": {
            "adcode": 430624,
            "province": "湖南省",
            "city": "岳阳市",
            "district": "湘阴县"
        }
    },
    {
        "id": "174475610062814730",
        "title": "公共厕所(路口镇黄皋村)",
        "address": "湖南省岳阳市云溪区Y204与和平路交叉口正北方向507米左右",
        "tel": "",
        "category": "基础设施:公共设施:公共厕所",
        "type": 0,
        "location": {
            "lat": 29.580019,
            "lng": 113.356975
        },
        "ad_info": {
            "adcode": 430603,
            "province": "湖南省",
            "city": "岳阳市",
            "district": "云溪区"
        }
    },
    {
        "id": "12640234095926288314",
        "title": "公共厕所",
        "address": "湖南省岳阳市岳阳县东方西路与荣鹿路交叉口正东方向130米左右",
        "tel": "",
        "category": "基础设施:公共设施:公共厕所",
        "type": 0,
        "location": {
            "lat": 29.140848,
            "lng": 113.103897
        },
        "ad_info": {
            "adcode": 430621,
            "province": "湖南省",
            "city": "岳阳市",
            "district": "岳阳县"
        }
    },
    {
        "id": "16659700117975891850",
        "title": "公共厕所",
        "address": "湖南省岳阳市湘阴县太傅南路与水岸东湖商街交叉口正东方向119米左右",
        "tel": "",
        "category": "基础设施:公共设施:公共厕所",
        "type": 0,
        "location": {
            "lat": 28.67281,
            "lng": 112.89438
        },
        "ad_info": {
            "adcode": 430624,
            "province": "湖南省",
            "city": "岳阳市",
            "district": "湘阴县"
        }
    },
    {
        "id": "6980152710480619920",
        "title": "瓮江服务区公共厕所",
        "address": "湖南省岳阳市平江县S20平洞高速与瓮江服务区交叉口东380米",
        "tel": "",
        "category": "基础设施:公共设施:公共厕所",
        "type": 0,
        "location": {
            "lat": 28.696301,
            "lng": 113.474798
        },
        "ad_info": {
            "adcode": 430626,
            "province": "湖南省",
            "city": "岳阳市",
            "district": "平江县"
        }
    },
    {
        "id": "12717317777672222513",
        "title": "公共厕所",
        "address": "湖南省岳阳市岳阳楼区岳阳大道与香洲路交叉口正西方向128米左右",
        "tel": "",
        "category": "基础设施:公共设施:公共厕所",
        "type": 0,
        "location": {
            "lat": 29.357779,
            "lng": 113.102811
        },
        "ad_info": {
            "adcode": 430602,
            "province": "湖南省",
            "city": "岳阳市",
            "district": "岳阳楼区"
        }
    },
    {
        "id": "7311061037810128890",
        "title": "公共厕所",
        "address": "湖南省岳阳市岳阳楼区乾明寺与梅溪桥街交叉口东北方向110米左右",
        "tel": "",
        "category": "基础设施:公共设施:公共厕所",
        "type": 0,
        "location": {
            "lat": 29.370642,
            "lng": 113.097373
        },
        "ad_info": {
            "adcode": 430602,
            "province": "湖南省",
            "city": "岳阳市",
            "district": "岳阳楼区"
        }
    },
    {
        "id": "13452149113616952151",
        "title": "岳阳平江县格林云海酒店-洗手间",
        "address": "湖南省岳阳市平江县书院路与四柱路交叉口正西方向82米左右",
        "tel": "",
        "category": "基础设施:公共设施:公共厕所",
        "type": 0,
        "location": {
            "lat": 28.695289,
            "lng": 113.59518
        },
        "ad_info": {
            "adcode": 430626,
            "province": "湖南省",
            "city": "岳阳市",
            "district": "平江县"
        }
    },
    {
        "id": "17879065698682916167",
        "title": "公共厕所",
        "address": "湖南省岳阳市岳阳县X052与荣新东路交叉口西北方向82米左右",
        "tel": "",
        "category": "基础设施:公共设施:公共厕所",
        "type": 0,
        "location": {
            "lat": 29.131726,
            "lng": 113.122832
        },
        "ad_info": {
            "adcode": 430621,
            "province": "湖南省",
            "city": "岳阳市",
            "district": "岳阳县"
        }
    },
    {
        "id": "15423435193244263014",
        "title": "公共厕所",
        "address": "湖南省岳阳市平江县启明路与民建北路交叉口东南200米",
        "tel": "",
        "category": "基础设施:公共设施:公共厕所",
        "type": 0,
        "location": {
            "lat": 28.706035,
            "lng": 113.585572
        },
        "ad_info": {
            "adcode": 430626,
            "province": "湖南省",
            "city": "岳阳市",
            "district": "平江县"
        }
    },
    {
        "id": "14926311733269559006",
        "title": "公共厕所",
        "address": "湖南省岳阳市华容县南城墙巷与豆腐巷交叉口东北方向30米左右",
        "tel": "",
        "category": "基础设施:公共设施:公共厕所",
        "type": 0,
        "location": {
            "lat": 29.519685,
            "lng": 112.570986
        },
        "ad_info": {
            "adcode": 430623,
            "province": "湖南省",
            "city": "岳阳市",
            "district": "华容县"
        }
    },
    {
        "id": "12739708503530177137",
        "title": "公共厕所",
        "address": "湖南省岳阳市岳阳楼区青年西路27号",
        "tel": "",
        "category": "基础设施:公共设施:公共厕所",
        "type": 0,
        "location": {
            "lat": 29.367025,
            "lng": 113.098584
        },
        "ad_info": {
            "adcode": 430602,
            "province": "湖南省",
            "city": "岳阳市",
            "district": "岳阳楼区"
        }
    },
    {
        "id": "6230950672449630876",
        "title": "公共厕所(云溪区大汉新城哨冲路)",
        "address": "湖南省岳阳市云溪区哨冲路大汉新城",
        "tel": "",
        "category": "基础设施:公共设施:公共厕所",
        "type": 0,
        "location": {
            "lat": 29.461595,
            "lng": 113.274408
        },
        "ad_info": {
            "adcode": 430603,
            "province": "湖南省",
            "city": "岳阳市",
            "district": "云溪区"
        }
    },
    {
        "id": "16863062190222923367",
        "title": "公共厕所",
        "address": "湖南省岳阳市岳阳楼区五里牌路与保健巷交叉口东北方向52米左右",
        "tel": "",
        "category": "基础设施:公共设施:公共厕所",
        "type": 0,
        "location": {
            "lat": 29.369272,
            "lng": 113.132088
        },
        "ad_info": {
            "adcode": 430602,
            "province": "湖南省",
            "city": "岳阳市",
            "district": "岳阳楼区"
        }
    },
    {
        "id": "8905530897300314791",
        "title": "公共厕所",
        "address": "湖南省岳阳市岳阳县中湘街与月西路交叉口正北方向117米左右",
        "tel": "",
        "category": "基础设施:公共设施:公共厕所",
        "type": 0,
        "location": {
            "lat": 29.137291,
            "lng": 113.121758
        },
        "ad_info": {
            "adcode": 430621,
            "province": "湖南省",
            "city": "岳阳市",
            "district": "岳阳县"
        }
    },
    {
        "id": "9420710963056516481",
        "title": "公共厕所",
        "address": "湖南省岳阳市岳阳楼区汴河街与洞庭北路交叉口东南方向77米左右",
        "tel": "",
        "category": "基础设施:公共设施:公共厕所",
        "type": 0,
        "location": {
            "lat": 29.377243,
            "lng": 113.09548
        },
        "ad_info": {
            "adcode": 430602,
            "province": "湖南省",
            "city": "岳阳市",
            "district": "岳阳楼区"
        }
    },
    {
        "id": "15614892198599218420",
        "title": "公共厕所",
        "address": "湖南省岳阳市平江县三犊源路与启明路交叉口正南方向16米左右",
        "tel": "",
        "category": "基础设施:公共设施:公共厕所",
        "type": 0,
        "location": {
            "lat": 28.706041,
            "lng": 113.579442
        },
        "ad_info": {
            "adcode": 430626,
            "province": "湖南省",
            "city": "岳阳市",
            "district": "平江县"
        }
    },
    {
        "id": "6184513171409672976",
        "title": "公共厕所",
        "address": "湖南省岳阳市岳阳楼区得胜南路与螺丝港交叉口正南方向130米左右",
        "tel": "",
        "category": "基础设施:公共设施:公共厕所",
        "type": 0,
        "location": {
            "lat": 29.36569,
            "lng": 113.107138
        },
        "ad_info": {
            "adcode": 430602,
            "province": "湖南省",
            "city": "岳阳市",
            "district": "岳阳楼区"
        }
    },
    {
        "id": "18244888714098259026",
        "title": "巴陵服务区第二公共厕所",
        "address": "湖南省岳阳市岳阳县X041与X096交叉口正西方向1963米左右",
        "tel": "",
        "category": "基础设施:公共设施:公共厕所",
        "type": 0,
        "location": {
            "lat": 29.067482,
            "lng": 113.270135
        },
        "ad_info": {
            "adcode": 430621,
            "province": "湖南省",
            "city": "岳阳市",
            "district": "岳阳县"
        }
    },
    {
        "id": "17604002742007073028",
        "title": "公共厕所",
        "address": "湖南省岳阳市平江县新江路与泉塘街交叉口正北方向81米左右",
        "tel": "",
        "category": "基础设施:公共设施:公共厕所",
        "type": 0,
        "location": {
            "lat": 28.678299,
            "lng": 113.59261
        },
        "ad_info": {
            "adcode": 430626,
            "province": "湖南省",
            "city": "岳阳市",
            "district": "平江县"
        }
    },
    {
        "id": "7022883238953964566",
        "title": "公共厕所",
        "address": "湖南省岳阳市湘阴县冬茅中路与旭东南路交叉口正南方向226米左右",
        "tel": "",
        "category": "基础设施:公共设施:公共厕所",
        "type": 0,
        "location": {
            "lat": 28.680225,
            "lng": 112.899826
        },
        "ad_info": {
            "adcode": 430624,
            "province": "湖南省",
            "city": "岳阳市",
            "district": "湘阴县"
        }
    },
    {
        "id": "174475610062814730",
        "title": "公共厕所(路口镇黄皋村)",
        "address": "湖南省岳阳市云溪区Y204与和平路交叉口正北方向507米左右",
        "tel": "",
        "category": "基础设施:公共设施:公共厕所",
        "type": 0,
        "location": {
            "lat": 29.580019,
            "lng": 113.356975
        },
        "ad_info": {
            "adcode": 430603,
            "province": "湖南省",
            "city": "岳阳市",
            "district": "云溪区"
        }
    },
    {
        "id": "12640234095926288314",
        "title": "公共厕所",
        "address": "湖南省岳阳市岳阳县东方西路与荣鹿路交叉口正东方向130米左右",
        "tel": "",
        "category": "基础设施:公共设施:公共厕所",
        "type": 0,
        "location": {
            "lat": 29.140848,
            "lng": 113.103897
        },
        "ad_info": {
            "adcode": 430621,
            "province": "湖南省",
            "city": "岳阳市",
            "district": "岳阳县"
        }
    },
    {
        "id": "16659700117975891850",
        "title": "公共厕所",
        "address": "湖南省岳阳市湘阴县太傅南路与水岸东湖商街交叉口正东方向119米左右",
        "tel": "",
        "category": "基础设施:公共设施:公共厕所",
        "type": 0,
        "location": {
            "lat": 28.67281,
            "lng": 112.89438
        },
        "ad_info": {
            "adcode": 430624,
            "province": "湖南省",
            "city": "岳阳市",
            "district": "湘阴县"
        }
    },
    {
        "id": "6980152710480619920",
        "title": "瓮江服务区公共厕所",
        "address": "湖南省岳阳市平江县S20平洞高速与瓮江服务区交叉口东380米",
        "tel": "",
        "category": "基础设施:公共设施:公共厕所",
        "type": 0,
        "location": {
            "lat": 28.696301,
            "lng": 113.474798
        },
        "ad_info": {
            "adcode": 430626,
            "province": "湖南省",
            "city": "岳阳市",
            "district": "平江县"
        }
    }
]