[
    {
        "id": "12926709893511313526",
        "title": "公共厕所(GX-CZ-0286)",
        "address": "广西壮族自治区崇左市宁明县X557与X570交叉口正西方向261米左右",
        "tel": "",
        "category": "基础设施:公共设施:公共厕所",
        "type": 0,
        "location": {
            "lat": 22.181334,
            "lng": 107.067759
        },
        "ad_info": {
            "adcode": 451422,
            "province": "广西壮族自治区",
            "city": "崇左市",
            "district": "宁明县"
        }
    },
    {
        "id": "10448054387021969061",
        "title": "公共厕所",
        "address": "广西壮族自治区崇左市凭祥市平岗岭地下长城景区",
        "tel": "",
        "category": "基础设施:公共设施:公共厕所",
        "type": 0,
        "location": {
            "lat": 22.195595,
            "lng": 106.69602
        },
        "ad_info": {
            "adcode": 451481,
            "province": "广西壮族自治区",
            "city": "崇左市",
            "district": "凭祥市"
        }
    },
    {
        "id": "9845428352565577239",
        "title": "公共厕所",
        "address": "广西壮族自治区崇左市龙州县南街与康平街交叉口东北方向140米左右",
        "tel": "",
        "category": "基础设施:公共设施:公共厕所",
        "type": 0,
        "location": {
            "lat": 22.34116,
            "lng": 106.856504
        },
        "ad_info": {
            "adcode": 451423,
            "province": "广西壮族自治区",
            "city": "崇左市",
            "district": "龙州县"
        }
    },
    {
        "id": "11912899809013508140",
        "title": "公共厕所",
        "address": "广西壮族自治区崇左市大新县昌明乡东风村板扭屯",
        "tel": "",
        "category": "基础设施:公共设施:公共厕所",
        "type": 0,
        "location": {
            "lat": 22.915661,
            "lng": 107.420742
        },
        "ad_info": {
            "adcode": 451424,
            "province": "广西壮族自治区",
            "city": "崇左市",
            "district": "大新县"
        }
    },
    {
        "id": "14615784414511198740",
        "title": "公共厕所",
        "address": "广西壮族自治区崇左市扶绥县卓诗尼楼梯后面",
        "tel": "",
        "category": "基础设施:公共设施:公共厕所",
        "type": 0,
        "location": {
            "lat": 22.602835,
            "lng": 107.920278
        },
        "ad_info": {
            "adcode": 451421,
            "province": "广西壮族自治区",
            "city": "崇左市",
            "district": "扶绥县"
        }
    },
    {
        "id": "3740755650945422977",
        "title": "公共厕所",
        "address": "广西壮族自治区崇左市凭祥市大象路与狮子山路交叉口西南方向604米左右",
        "tel": "",
        "category": "基础设施:公共设施:公共厕所",
        "type": 0,
        "location": {
            "lat": 22.088763,
            "lng": 106.746362
        },
        "ad_info": {
            "adcode": 451481,
            "province": "广西壮族自治区",
            "city": "崇左市",
            "district": "凭祥市"
        }
    },
    {
        "id": "14763235119586128106",
        "title": "公共厕所",
        "address": "广西壮族自治区崇左市扶绥县同正大道与松江路交叉口正南方向29米左右",
        "tel": "",
        "category": "基础设施:公共设施:公共厕所",
        "type": 0,
        "location": {
            "lat": 22.634099,
            "lng": 107.911905
        },
        "ad_info": {
            "adcode": 451421,
            "province": "广西壮族自治区",
            "city": "崇左市",
            "district": "扶绥县"
        }
    },
    {
        "id": "6150360785929612532",
        "title": "公共厕所",
        "address": "广西壮族自治区崇左市凭祥市屏山路一支35号",
        "tel": "",
        "category": "基础设施:公共设施:公共厕所",
        "type": 0,
        "location": {
            "lat": 22.107106,
            "lng": 106.759093
        },
        "ad_info": {
            "adcode": 451481,
            "province": "广西壮族自治区",
            "city": "崇左市",
            "district": "凭祥市"
        }
    },
    {
        "id": "10040992572439739909",
        "title": "公共厕所",
        "address": "广西壮族自治区崇左市大新县东安街与新兴路交叉口正西方向56米左右",
        "tel": "",
        "category": "基础设施:公共设施:公共厕所",
        "type": 0,
        "location": {
            "lat": 22.830682,
            "lng": 107.210233
        },
        "ad_info": {
            "adcode": 451424,
            "province": "广西壮族自治区",
            "city": "崇左市",
            "district": "大新县"
        }
    },
    {
        "id": "18066942821553710164",
        "title": "公共厕所",
        "address": "广西壮族自治区崇左市天等县丽川路与天丽路交叉口正南方向233米左右",
        "tel": "",
        "category": "基础设施:公共设施:公共厕所",
        "type": 0,
        "location": {
            "lat": 23.083531,
            "lng": 107.149498
        },
        "ad_info": {
            "adcode": 451425,
            "province": "广西壮族自治区",
            "city": "崇左市",
            "district": "天等县"
        }
    },
    {
        "id": "14685600092989860171",
        "title": "公共厕所",
        "address": "广西壮族自治区崇左市宁明县G322与S219交叉口东北方向129米左右",
        "tel": "",
        "category": "基础设施:公共设施:公共厕所",
        "type": 0,
        "location": {
            "lat": 22.10987,
            "lng": 107.393425
        },
        "ad_info": {
            "adcode": 451422,
            "province": "广西壮族自治区",
            "city": "崇左市",
            "district": "宁明县"
        }
    },
    {
        "id": "13384496511657996118",
        "title": "公共厕所",
        "address": "广西壮族自治区崇左市宁明县兴宁大道与兴宁大道东一巷交叉口正西方向39米左右",
        "tel": "",
        "category": "基础设施:公共设施:公共厕所",
        "type": 0,
        "location": {
            "lat": 22.13218,
            "lng": 107.078937
        },
        "ad_info": {
            "adcode": 451422,
            "province": "广西壮族自治区",
            "city": "崇左市",
            "district": "宁明县"
        }
    },
    {
        "id": "1385840228429504564",
        "title": "公共厕所",
        "address": "广西壮族自治区崇左市大新县G219与中汉街交叉口正北方向53米左右",
        "tel": "",
        "category": "基础设施:公共设施:公共厕所",
        "type": 0,
        "location": {
            "lat": 22.920216,
            "lng": 106.750022
        },
        "ad_info": {
            "adcode": 451424,
            "province": "广西壮族自治区",
            "city": "崇左市",
            "district": "大新县"
        }
    },
    {
        "id": "475892444212529004",
        "title": "公共厕所",
        "address": "广西壮族自治区崇左市扶绥县新城街与舞龙街交叉口东南方向1725米左右",
        "tel": "",
        "category": "基础设施:公共设施:公共厕所",
        "type": 0,
        "location": {
            "lat": 22.558245,
            "lng": 107.824862
        },
        "ad_info": {
            "adcode": 451421,
            "province": "广西壮族自治区",
            "city": "崇左市",
            "district": "扶绥县"
        }
    },
    {
        "id": "5708598957032620837",
        "title": "公共厕所",
        "address": "广西壮族自治区崇左市扶绥县兴东大道与甜蜜路交叉口正东方向141米左右",
        "tel": "",
        "category": "基础设施:公共设施:公共厕所",
        "type": 0,
        "location": {
            "lat": 22.336907,
            "lng": 107.843704
        },
        "ad_info": {
            "adcode": 451421,
            "province": "广西壮族自治区",
            "city": "崇左市",
            "district": "扶绥县"
        }
    },
    {
        "id": "17138981555276398752",
        "title": "公共厕所",
        "address": "广西壮族自治区崇左市宁明县明阳小区十一巷与明阳街交叉口西南方向444米左右",
        "tel": "",
        "category": "基础设施:公共设施:公共厕所",
        "type": 0,
        "location": {
            "lat": 22.119007,
            "lng": 107.062145
        },
        "ad_info": {
            "adcode": 451422,
            "province": "广西壮族自治区",
            "city": "崇左市",
            "district": "宁明县"
        }
    },
    {
        "id": "3741167266629608462",
        "title": "公共厕所",
        "address": "广西壮族自治区崇左市宁明县兴宁大道与兴宁大道东七巷交叉口正北方向59米左右",
        "tel": "",
        "category": "基础设施:公共设施:公共厕所",
        "type": 0,
        "location": {
            "lat": 22.130969,
            "lng": 107.086096
        },
        "ad_info": {
            "adcode": 451422,
            "province": "广西壮族自治区",
            "city": "崇左市",
            "district": "宁明县"
        }
    },
    {
        "id": "8809939642779133197",
        "title": "公共厕所",
        "address": "广西壮族自治区崇左市龙州县下冻镇那宋屯",
        "tel": "",
        "category": "基础设施:公共设施:公共厕所",
        "type": 0,
        "location": {
            "lat": 22.348177,
            "lng": 106.715692
        },
        "ad_info": {
            "adcode": 451423,
            "province": "广西壮族自治区",
            "city": "崇左市",
            "district": "龙州县"
        }
    },
    {
        "id": "6316061231836897099",
        "title": "公共厕所(GX-CZ-0289)",
        "address": "广西壮族自治区崇左市扶绥县空港大道与龙华路交叉口西南方向191米左右",
        "tel": "",
        "category": "基础设施:公共设施:公共厕所",
        "type": 0,
        "location": {
            "lat": 22.602921,
            "lng": 107.912603
        },
        "ad_info": {
            "adcode": 451421,
            "province": "广西壮族自治区",
            "city": "崇左市",
            "district": "扶绥县"
        }
    },
    {
        "id": "2605293923229208245",
        "title": "公共厕所",
        "address": "广西壮族自治区崇左市龙州县溪水弄岗",
        "tel": "",
        "category": "基础设施:公共设施:公共厕所",
        "type": 0,
        "location": {
            "lat": 22.519556,
            "lng": 106.978491
        },
        "ad_info": {
            "adcode": 451423,
            "province": "广西壮族自治区",
            "city": "崇左市",
            "district": "龙州县"
        }
    },
    {
        "id": "4196475700593617784",
        "title": "公共厕所",
        "address": "广西壮族自治区崇左市大新县S311与Y017交叉口正东方向733米左右",
        "tel": "",
        "category": "基础设施:公共设施:公共厕所",
        "type": 0,
        "location": {
            "lat": 22.740768,
            "lng": 107.307033
        },
        "ad_info": {
            "adcode": 451424,
            "province": "广西壮族自治区",
            "city": "崇左市",
            "district": "大新县"
        }
    },
    {
        "id": "1721351429653215063",
        "title": "公共厕所",
        "address": "广西壮族自治区崇左市大新县G243与G358交叉口西南方向1536米左右",
        "tel": "",
        "category": "基础设施:公共设施:公共厕所",
        "type": 0,
        "location": {
            "lat": 22.799048,
            "lng": 107.188717
        },
        "ad_info": {
            "adcode": 451424,
            "province": "广西壮族自治区",
            "city": "崇左市",
            "district": "大新县"
        }
    },
    {
        "id": "17938550305939169413",
        "title": "公共厕所",
        "address": "广西壮族自治区崇左市凭祥市G322与友谊关大道交叉口东北方向460米左右",
        "tel": "",
        "category": "基础设施:公共设施:公共厕所",
        "type": 0,
        "location": {
            "lat": 22.091601,
            "lng": 106.766608
        },
        "ad_info": {
            "adcode": 451481,
            "province": "广西壮族自治区",
            "city": "崇左市",
            "district": "凭祥市"
        }
    },
    {
        "id": "15972395974049016716",
        "title": "公共厕所",
        "address": "广西壮族自治区崇左市凭祥市中山路与金祥路交叉口西南方向82米左右",
        "tel": "",
        "category": "基础设施:公共设施:公共厕所",
        "type": 0,
        "location": {
            "lat": 22.104027,
            "lng": 106.758206
        },
        "ad_info": {
            "adcode": 451481,
            "province": "广西壮族自治区",
            "city": "崇左市",
            "district": "凭祥市"
        }
    },
    {
        "id": "10744465367378548494",
        "title": "公共厕所",
        "address": "广西壮族自治区崇左市凭祥市佳德路与北环路交叉口正东方向263米左右",
        "tel": "",
        "category": "基础设施:公共设施:公共厕所",
        "type": 0,
        "location": {
            "lat": 22.111679,
            "lng": 106.770745
        },
        "ad_info": {
            "adcode": 451481,
            "province": "广西壮族自治区",
            "city": "崇左市",
            "district": "凭祥市"
        }
    },
    {
        "id": "10316810387720989258",
        "title": "公共厕所",
        "address": "广西壮族自治区崇左市大新县316省道北50米",
        "tel": "",
        "category": "基础设施:公共设施:公共厕所",
        "type": 0,
        "location": {
            "lat": 22.942549,
            "lng": 107.39714
        },
        "ad_info": {
            "adcode": 451424,
            "province": "广西壮族自治区",
            "city": "崇左市",
            "district": "大新县"
        }
    },
    {
        "id": "3532055067544685287",
        "title": "公共厕所",
        "address": "广西壮族自治区崇左市大新县恩城卫生院东南侧120米",
        "tel": "",
        "category": "基础设施:公共设施:公共厕所",
        "type": 0,
        "location": {
            "lat": 22.738261,
            "lng": 107.096861
        },
        "ad_info": {
            "adcode": 451424,
            "province": "广西壮族自治区",
            "city": "崇左市",
            "district": "大新县"
        }
    },
    {
        "id": "12208476096831789156",
        "title": "公共厕所",
        "address": "广西壮族自治区崇左市凭祥市巴凭高速与巴友高速交叉口正西方向1857米左右",
        "tel": "",
        "category": "基础设施:公共设施:公共厕所",
        "type": 0,
        "location": {
            "lat": 22.10401,
            "lng": 106.83958
        },
        "ad_info": {
            "adcode": 451481,
            "province": "广西壮族自治区",
            "city": "崇左市",
            "district": "凭祥市"
        }
    },
    {
        "id": "945702510435354054",
        "title": "公共厕所",
        "address": "广西壮族自治区崇左市扶绥县新华街北与新宁街西交叉口东南100米",
        "tel": "",
        "category": "基础设施:公共设施:公共厕所",
        "type": 0,
        "location": {
            "lat": 22.635027,
            "lng": 107.908435
        },
        "ad_info": {
            "adcode": 451421,
            "province": "广西壮族自治区",
            "city": "崇左市",
            "district": "扶绥县"
        }
    },
    {
        "id": "16165626986037454268",
        "title": "公共厕所",
        "address": "广西壮族自治区崇左市凭祥市南大路与瑞林路交叉口正北方向315米左右",
        "tel": "",
        "category": "基础设施:公共设施:公共厕所",
        "type": 0,
        "location": {
            "lat": 22.071137,
            "lng": 106.739246
        },
        "ad_info": {
            "adcode": 451481,
            "province": "广西壮族自治区",
            "city": "崇左市",
            "district": "凭祥市"
        }
    },
    {
        "id": "8781296939587284382",
        "title": "公共厕所(内部专用)",
        "address": "广西壮族自治区崇左市天等县洞宁玉米良种繁殖场北侧240米",
        "tel": "",
        "category": "基础设施:公共设施:公共厕所",
        "type": 0,
        "location": {
            "lat": 23.241636,
            "lng": 107.260422
        },
        "ad_info": {
            "adcode": 451425,
            "province": "广西壮族自治区",
            "city": "崇左市",
            "district": "天等县"
        }
    },
    {
        "id": "6991462784979064261",
        "title": "公共厕所",
        "address": "广西壮族自治区崇左市扶绥县思贤路与新华路交叉口正西方向63米左右",
        "tel": "",
        "category": "基础设施:公共设施:公共厕所",
        "type": 0,
        "location": {
            "lat": 22.634638,
            "lng": 107.908237
        },
        "ad_info": {
            "adcode": 451421,
            "province": "广西壮族自治区",
            "city": "崇左市",
            "district": "扶绥县"
        }
    },
    {
        "id": "7688619078874696394",
        "title": "公共厕所",
        "address": "广西壮族自治区崇左市凭祥市浦寨三路与浦新路交叉口东南方向112米左右",
        "tel": "",
        "category": "基础设施:公共设施:公共厕所",
        "type": 0,
        "location": {
            "lat": 21.998148,
            "lng": 106.690538
        },
        "ad_info": {
            "adcode": 451481,
            "province": "广西壮族自治区",
            "city": "崇左市",
            "district": "凭祥市"
        }
    },
    {
        "id": "36183332295739706",
        "title": "公共厕所",
        "address": "广西壮族自治区崇左市凭祥市南大路与岜口路交叉口西北方向24米左右",
        "tel": "",
        "category": "基础设施:公共设施:公共厕所",
        "type": 0,
        "location": {
            "lat": 22.094068,
            "lng": 106.748402
        },
        "ad_info": {
            "adcode": 451481,
            "province": "广西壮族自治区",
            "city": "崇左市",
            "district": "凭祥市"
        }
    },
    {
        "id": "3181809611331697723",
        "title": "公共厕所",
        "address": "广西壮族自治区崇左市龙州县独山路与白沙街二巷交叉口西南方向95米左右",
        "tel": "",
        "category": "基础设施:公共设施:公共厕所",
        "type": 0,
        "location": {
            "lat": 22.346489,
            "lng": 106.867444
        },
        "ad_info": {
            "adcode": 451423,
            "province": "广西壮族自治区",
            "city": "崇左市",
            "district": "龙州县"
        }
    },
    {
        "id": "10476639358423600113",
        "title": "公共厕所",
        "address": "广西壮族自治区崇左市扶绥县东环路与同正大道辅路交叉口东南方向357米左右",
        "tel": "",
        "category": "基础设施:公共设施:公共厕所",
        "type": 0,
        "location": {
            "lat": 22.608836,
            "lng": 107.921653
        },
        "ad_info": {
            "adcode": 451421,
            "province": "广西壮族自治区",
            "city": "崇左市",
            "district": "扶绥县"
        }
    },
    {
        "id": "11069566301884178907",
        "title": "旅游公共厕所",
        "address": "广西壮族自治区崇左市宁明县东麟街与江滨北路交叉口正西方向37米左右",
        "tel": "",
        "category": "基础设施:公共设施:公共厕所",
        "type": 0,
        "location": {
            "lat": 22.135604,
            "lng": 107.073687
        },
        "ad_info": {
            "adcode": 451422,
            "province": "广西壮族自治区",
            "city": "崇左市",
            "district": "宁明县"
        }
    },
    {
        "id": "5843291115072583505",
        "title": "公共厕所",
        "address": "广西壮族自治区崇左市龙州县G243与龙水大道交叉口正东方向359米左右",
        "tel": "",
        "category": "基础设施:公共设施:公共厕所",
        "type": 0,
        "location": {
            "lat": 22.354988,
            "lng": 106.854859
        },
        "ad_info": {
            "adcode": 451423,
            "province": "广西壮族自治区",
            "city": "崇左市",
            "district": "龙州县"
        }
    },
    {
        "id": "18386800380583373305",
        "title": "公共厕所",
        "address": "广西壮族自治区崇左市龙州县天湖路与独山路交叉口正东方向260米左右",
        "tel": "",
        "category": "基础设施:公共设施:公共厕所",
        "type": 0,
        "location": {
            "lat": 22.343508,
            "lng": 106.879813
        },
        "ad_info": {
            "adcode": 451423,
            "province": "广西壮族自治区",
            "city": "崇左市",
            "district": "龙州县"
        }
    },
    {
        "id": "14893520679177163156",
        "title": "公共厕所",
        "address": "广西壮族自治区崇左市江州区龙腾东湖公园2号厕所",
        "tel": "",
        "category": "基础设施:公共设施:公共厕所",
        "type": 0,
        "location": {
            "lat": 22.373042,
            "lng": 107.370452
        },
        "ad_info": {
            "adcode": 451402,
            "province": "广西壮族自治区",
            "city": "崇左市",
            "district": "江州区"
        }
    },
    {
        "id": "14134089451870724500",
        "title": "得月楼公园公共厕所",
        "address": "广西壮族自治区崇左市天等县太平街45号",
        "tel": "",
        "category": "基础设施:公共设施:公共厕所",
        "type": 0,
        "location": {
            "lat": 23.07902,
            "lng": 107.141181
        },
        "ad_info": {
            "adcode": 451425,
            "province": "广西壮族自治区",
            "city": "崇左市",
            "district": "天等县"
        }
    },
    {
        "id": "6930604460894816174",
        "title": "公共厕所",
        "address": "广西壮族自治区崇左市江州区环城东路辅路与环城路交叉口正东方向399米左右",
        "tel": "",
        "category": "基础设施:公共设施:公共厕所",
        "type": 0,
        "location": {
            "lat": 22.381065,
            "lng": 107.39475
        },
        "ad_info": {
            "adcode": 451402,
            "province": "广西壮族自治区",
            "city": "崇左市",
            "district": "江州区"
        }
    },
    {
        "id": "11363986094093254182",
        "title": "公共厕所",
        "address": "广西壮族自治区崇左市扶绥县G322与兴东大道交叉口西北方向101米左右",
        "tel": "",
        "category": "基础设施:公共设施:公共厕所",
        "type": 0,
        "location": {
            "lat": 22.343498,
            "lng": 107.85231
        },
        "ad_info": {
            "adcode": 451421,
            "province": "广西壮族自治区",
            "city": "崇左市",
            "district": "扶绥县"
        }
    },
    {
        "id": "15193054410947962788",
        "title": "卫生间",
        "address": "广西壮族自治区崇左市凭祥市志明路与新华路交叉口正东方向32米左右",
        "tel": "",
        "category": "基础设施:公共设施:公共厕所",
        "type": 0,
        "location": {
            "lat": 22.106663,
            "lng": 106.761168
        },
        "ad_info": {
            "adcode": 451481,
            "province": "广西壮族自治区",
            "city": "崇左市",
            "district": "凭祥市"
        }
    },
    {
        "id": "917241105911383312",
        "title": "公共厕所",
        "address": "广西壮族自治区崇左市江州区城南新区龙峡山路崇左市人民医院",
        "tel": "",
        "category": "基础设施:公共设施:公共厕所",
        "type": 0,
        "location": {
            "lat": 22.380607,
            "lng": 107.377838
        },
        "ad_info": {
            "adcode": 451402,
            "province": "广西壮族自治区",
            "city": "崇左市",
            "district": "江州区"
        }
    },
    {
        "id": "16451910821885999614",
        "title": "公共厕所",
        "address": "广西壮族自治区崇左市龙州县Y011与紫霞大桥交叉口西南方向1253米左右",
        "tel": "",
        "category": "基础设施:公共设施:公共厕所",
        "type": 0,
        "location": {
            "lat": 22.299746,
            "lng": 106.985682
        },
        "ad_info": {
            "adcode": 451423,
            "province": "广西壮族自治区",
            "city": "崇左市",
            "district": "龙州县"
        }
    },
    {
        "id": "17504698748954908597",
        "title": "公共厕所",
        "address": "广西壮族自治区崇左市龙州县上龙乡水陇屯",
        "tel": "",
        "category": "基础设施:公共设施:公共厕所",
        "type": 0,
        "location": {
            "lat": 22.440709,
            "lng": 106.852707
        },
        "ad_info": {
            "adcode": 451423,
            "province": "广西壮族自治区",
            "city": "崇左市",
            "district": "龙州县"
        }
    },
    {
        "id": "1905447702052489076",
        "title": "公共厕所",
        "address": "广西壮族自治区崇左市龙州县G358与城北路交叉口正西方向1039米左右",
        "tel": "",
        "category": "基础设施:公共设施:公共厕所",
        "type": 0,
        "location": {
            "lat": 22.361696,
            "lng": 106.818177
        },
        "ad_info": {
            "adcode": 451423,
            "province": "广西壮族自治区",
            "city": "崇左市",
            "district": "龙州县"
        }
    },
    {
        "id": "12547378474507093808",
        "title": "公共厕所",
        "address": "广西壮族自治区崇左市江州区壶兴街与新庆街交叉口正西方向186米左右",
        "tel": "",
        "category": "基础设施:公共设施:公共厕所",
        "type": 0,
        "location": {
            "lat": 22.418075,
            "lng": 107.356875
        },
        "ad_info": {
            "adcode": 451402,
            "province": "广西壮族自治区",
            "city": "崇左市",
            "district": "江州区"
        }
    },
    {
        "id": "17949198860709724452",
        "title": "公共厕所",
        "address": "广西壮族自治区崇左市龙州县G243与城东大道交叉口正西方向119米左右",
        "tel": "",
        "category": "基础设施:公共设施:公共厕所",
        "type": 0,
        "location": {
            "lat": 22.343672,
            "lng": 106.890153
        },
        "ad_info": {
            "adcode": 451423,
            "province": "广西壮族自治区",
            "city": "崇左市",
            "district": "龙州县"
        }
    },
    {
        "id": "8400162794165573844",
        "title": "公共厕所",
        "address": "广西壮族自治区崇左市龙州县G358与X561交叉口东南方向174米左右",
        "tel": "",
        "category": "基础设施:公共设施:公共厕所",
        "type": 0,
        "location": {
            "lat": 22.410802,
            "lng": 106.716522
        },
        "ad_info": {
            "adcode": 451423,
            "province": "广西壮族自治区",
            "city": "崇左市",
            "district": "龙州县"
        }
    },
    {
        "id": "1911944849767700676",
        "title": "公共厕所",
        "address": "广西壮族自治区崇左市龙州县S215与S319交叉口正西方向1382米",
        "tel": "",
        "category": "基础设施:公共设施:公共厕所",
        "type": 0,
        "location": {
            "lat": 22.433873,
            "lng": 107.030836
        },
        "ad_info": {
            "adcode": 451423,
            "province": "广西壮族自治区",
            "city": "崇左市",
            "district": "龙州县"
        }
    },
    {
        "id": "11102353714145781225",
        "title": "公共厕所",
        "address": "广西壮族自治区崇左市大新县明仕路与福满巷交叉口西北方向112米左右",
        "tel": "",
        "category": "基础设施:公共设施:公共厕所",
        "type": 0,
        "location": {
            "lat": 22.83151,
            "lng": 107.20556
        },
        "ad_info": {
            "adcode": 451424,
            "province": "广西壮族自治区",
            "city": "崇左市",
            "district": "大新县"
        }
    },
    {
        "id": "10955795606587411041",
        "title": "公共厕所",
        "address": "广西壮族自治区崇左市江州区1号路与太平路交叉口西南方向157米左右",
        "tel": "",
        "category": "基础设施:公共设施:公共厕所",
        "type": 0,
        "location": {
            "lat": 22.420345,
            "lng": 107.35729
        },
        "ad_info": {
            "adcode": 451402,
            "province": "广西壮族自治区",
            "city": "崇左市",
            "district": "江州区"
        }
    },
    {
        "id": "6537667527345203357",
        "title": "公共厕所",
        "address": "广西壮族自治区崇左市江州区佛子湖公园东北侧",
        "tel": "",
        "category": "基础设施:公共设施:公共厕所",
        "type": 0,
        "location": {
            "lat": 22.387121,
            "lng": 107.371647
        },
        "ad_info": {
            "adcode": 451402,
            "province": "广西壮族自治区",
            "city": "崇左市",
            "district": "江州区"
        }
    },
    {
        "id": "12729208036887543360",
        "title": "公共厕所",
        "address": "广西壮族自治区崇左市大新县伦那路与古榕路交叉口正东方向73米左右",
        "tel": "",
        "category": "基础设施:公共设施:公共厕所",
        "type": 0,
        "location": {
            "lat": 22.835922,
            "lng": 107.20014
        },
        "ad_info": {
            "adcode": 451424,
            "province": "广西壮族自治区",
            "city": "崇左市",
            "district": "大新县"
        }
    },
    {
        "id": "10052164537890957516",
        "title": "公共厕所",
        "address": "广西壮族自治区崇左市天等县S213与X543交叉口东南方向593米左右",
        "tel": "",
        "category": "基础设施:公共设施:公共厕所",
        "type": 0,
        "location": {
            "lat": 23.070478,
            "lng": 106.950807
        },
        "ad_info": {
            "adcode": 451425,
            "province": "广西壮族自治区",
            "city": "崇左市",
            "district": "天等县"
        }
    },
    {
        "id": "9927276533901262327",
        "title": "公共厕所(卢村加盟店)",
        "address": "广西壮族自治区崇左市江州区Y903与卢村大道交叉口西南方向1364米左右",
        "tel": "",
        "category": "基础设施:公共设施:公共厕所",
        "type": 0,
        "location": {
            "lat": 22.731183,
            "lng": 107.460314
        },
        "ad_info": {
            "adcode": 451402,
            "province": "广西壮族自治区",
            "city": "崇左市",
            "district": "江州区"
        }
    },
    {
        "id": "11855729486452692899",
        "title": "公共厕所",
        "address": "广西壮族自治区崇左市天等县天等县中等职业技术学校南侧230米",
        "tel": "",
        "category": "基础设施:公共设施:公共厕所",
        "type": 0,
        "location": {
            "lat": 23.055895,
            "lng": 107.14864
        },
        "ad_info": {
            "adcode": 451425,
            "province": "广西壮族自治区",
            "city": "崇左市",
            "district": "天等县"
        }
    },
    {
        "id": "8149142530781330016",
        "title": "公共厕所",
        "address": "广西壮族自治区崇左市江州区壶兴街与新庆街交叉口西南方向277米左右",
        "tel": "",
        "category": "基础设施:公共设施:公共厕所",
        "type": 0,
        "location": {
            "lat": 22.416863,
            "lng": 107.356278
        },
        "ad_info": {
            "adcode": 451402,
            "province": "广西壮族自治区",
            "city": "崇左市",
            "district": "江州区"
        }
    },
    {
        "id": "17805435952963267849",
        "title": "公共厕所",
        "address": "广西壮族自治区崇左市江州区江南路一巷与江南路交叉口西北方向328米左右",
        "tel": "",
        "category": "基础设施:公共设施:公共厕所",
        "type": 0,
        "location": {
            "lat": 22.406338,
            "lng": 107.354426
        },
        "ad_info": {
            "adcode": 451402,
            "province": "广西壮族自治区",
            "city": "崇左市",
            "district": "江州区"
        }
    },
    {
        "id": "1539460990974512180",
        "title": "公共厕所",
        "address": "广西壮族自治区崇左市大新县民乐路与菜园路交叉口西北方向77米左右",
        "tel": "",
        "category": "基础设施:公共设施:公共厕所",
        "type": 0,
        "location": {
            "lat": 22.833142,
            "lng": 107.200621
        },
        "ad_info": {
            "adcode": 451424,
            "province": "广西壮族自治区",
            "city": "崇左市",
            "district": "大新县"
        }
    },
    {
        "id": "17123412479144978028",
        "title": "雷平停车区公共厕所",
        "address": "广西壮族自治区崇左市大新县S60合那高速附近",
        "tel": "",
        "category": "基础设施:公共设施:公共厕所",
        "type": 0,
        "location": {
            "lat": 22.683284,
            "lng": 107.156936
        },
        "ad_info": {
            "adcode": 451424,
            "province": "广西壮族自治区",
            "city": "崇左市",
            "district": "大新县"
        }
    },
    {
        "id": "7196688200642291872",
        "title": "公共厕所",
        "address": "广西壮族自治区崇左市江州区建设路与新华路交叉口正西方向136米左右",
        "tel": "",
        "category": "基础设施:公共设施:公共厕所",
        "type": 0,
        "location": {
            "lat": 22.410788,
            "lng": 107.346906
        },
        "ad_info": {
            "adcode": 451402,
            "province": "广西壮族自治区",
            "city": "崇左市",
            "district": "江州区"
        }
    },
    {
        "id": "16788830033646650682",
        "title": "公共厕所",
        "address": "广西壮族自治区崇左市江州区新城路与连城路交叉口正东方向46米左右",
        "tel": "",
        "category": "基础设施:公共设施:公共厕所",
        "type": 0,
        "location": {
            "lat": 22.375083,
            "lng": 107.362392
        },
        "ad_info": {
            "adcode": 451402,
            "province": "广西壮族自治区",
            "city": "崇左市",
            "district": "江州区"
        }
    },
    {
        "id": "9431074934255613234",
        "title": "公共厕所",
        "address": "广西壮族自治区崇左市江州区体育路与金龙大道交叉口正西方向440米左右",
        "tel": "",
        "category": "基础设施:公共设施:公共厕所",
        "type": 0,
        "location": {
            "lat": 22.39299,
            "lng": 107.405719
        },
        "ad_info": {
            "adcode": 451402,
            "province": "广西壮族自治区",
            "city": "崇左市",
            "district": "江州区"
        }
    },
    {
        "id": "7972220425201097625",
        "title": "公共厕所",
        "address": "广西壮族自治区崇左市江州区东盟大道与那浪路交叉口东北方向66米左右",
        "tel": "",
        "category": "基础设施:公共设施:公共厕所",
        "type": 0,
        "location": {
            "lat": 22.399536,
            "lng": 107.395994
        },
        "ad_info": {
            "adcode": 451402,
            "province": "广西壮族自治区",
            "city": "崇左市",
            "district": "江州区"
        }
    },
    {
        "id": "16688409298190412169",
        "title": "公共厕所",
        "address": "广西壮族自治区崇左市江州区S213与罗白互通交叉口西北方向193米左右",
        "tel": "",
        "category": "基础设施:公共设施:公共厕所",
        "type": 0,
        "location": {
            "lat": 22.330921,
            "lng": 107.515208
        },
        "ad_info": {
            "adcode": 451402,
            "province": "广西壮族自治区",
            "city": "崇左市",
            "district": "江州区"
        }
    },
    {
        "id": "3848929249706533727",
        "title": "大新东服务区公共厕所",
        "address": "广西壮族自治区崇左市大新县S65巴友高速与大新东服务区交叉口东南440米",
        "tel": "",
        "category": "基础设施:公共设施:公共厕所",
        "type": 0,
        "location": {
            "lat": 22.830835,
            "lng": 107.242676
        },
        "ad_info": {
            "adcode": 451424,
            "province": "广西壮族自治区",
            "city": "崇左市",
            "district": "大新县"
        }
    },
    {
        "id": "4228647100805387707",
        "title": "龙州起义纪念馆公共厕所",
        "address": "广西壮族自治区崇左市龙州县红星路与金海路交叉口正北方向88米左右",
        "tel": "",
        "category": "基础设施:公共设施:公共厕所",
        "type": 0,
        "location": {
            "lat": 22.340566,
            "lng": 106.874453
        },
        "ad_info": {
            "adcode": 451423,
            "province": "广西壮族自治区",
            "city": "崇左市",
            "district": "龙州县"
        }
    },
    {
        "id": "14199437218491196765",
        "title": "公共厕所",
        "address": "广西壮族自治区崇左市江州区兴隆大道驮卢路口",
        "tel": "",
        "category": "基础设施:公共设施:公共厕所",
        "type": 0,
        "location": {
            "lat": 22.748685,
            "lng": 107.547151
        },
        "ad_info": {
            "adcode": 451402,
            "province": "广西壮族自治区",
            "city": "崇左市",
            "district": "江州区"
        }
    },
    {
        "id": "16727654778765551803",
        "title": "牛头岭风车山地公园1213号风车观景台公共厕所",
        "address": "广西壮族自治区崇左市天等县牛头岭风力发电机组西侧230米",
        "tel": "",
        "category": "基础设施:公共设施:公共厕所",
        "type": 0,
        "location": {
            "lat": 23.006743,
            "lng": 106.937613
        },
        "ad_info": {
            "adcode": 451425,
            "province": "广西壮族自治区",
            "city": "崇左市",
            "district": "天等县"
        }
    },
    {
        "id": "6126658033811780087",
        "title": "公共厕所",
        "address": "广西壮族自治区崇左市江州区G358与兴和大道交叉口西北方向1408米左右",
        "tel": "",
        "category": "基础设施:公共设施:公共厕所",
        "type": 0,
        "location": {
            "lat": 22.572061,
            "lng": 107.210306
        },
        "ad_info": {
            "adcode": 451402,
            "province": "广西壮族自治区",
            "city": "崇左市",
            "district": "江州区"
        }
    },
    {
        "id": "17897609055082757799",
        "title": "公共厕所",
        "address": "广西壮族自治区崇左市天等县天禄路与恒丰路交叉口西北方向31米左右",
        "tel": "",
        "category": "基础设施:公共设施:公共厕所",
        "type": 0,
        "location": {
            "lat": 23.080433,
            "lng": 107.146811
        },
        "ad_info": {
            "adcode": 451425,
            "province": "广西壮族自治区",
            "city": "崇左市",
            "district": "天等县"
        }
    },
    {
        "id": "15627813223184174640",
        "title": "公共厕所",
        "address": "广西壮族自治区崇左市凭祥市板小生态旅游区",
        "tel": "",
        "category": "基础设施:公共设施:公共厕所",
        "type": 0,
        "location": {
            "lat": 22.090835,
            "lng": 106.874065
        },
        "ad_info": {
            "adcode": 451481,
            "province": "广西壮族自治区",
            "city": "崇左市",
            "district": "凭祥市"
        }
    },
    {
        "id": "4003668240301192666",
        "title": "公共厕所",
        "address": "广西壮族自治区崇左市扶绥县扶绥县民政局(新宁路南)",
        "tel": "",
        "category": "基础设施:公共设施:公共厕所",
        "type": 0,
        "location": {
            "lat": 22.637162,
            "lng": 107.910161
        },
        "ad_info": {
            "adcode": 451421,
            "province": "广西壮族自治区",
            "city": "崇左市",
            "district": "扶绥县"
        }
    },
    {
        "id": "18371856548495960629",
        "title": "扶绥县文化广场公共厕所",
        "address": "广西壮族自治区崇左市扶绥县临江路与新宁路交叉口西南方向224米左右",
        "tel": "",
        "category": "基础设施:公共设施:公共厕所",
        "type": 0,
        "location": {
            "lat": 22.633177,
            "lng": 107.904198
        },
        "ad_info": {
            "adcode": 451421,
            "province": "广西壮族自治区",
            "city": "崇左市",
            "district": "扶绥县"
        }
    },
    {
        "id": "7439538889339776036",
        "title": "公共厕所",
        "address": "广西壮族自治区崇左市江州区东盟大道与体育路交叉口西北方向57米左右",
        "tel": "",
        "category": "基础设施:公共设施:公共厕所",
        "type": 0,
        "location": {
            "lat": 22.399715,
            "lng": 107.410728
        },
        "ad_info": {
            "adcode": 451402,
            "province": "广西壮族自治区",
            "city": "崇左市",
            "district": "江州区"
        }
    },
    {
        "id": "17082989570985141212",
        "title": "公共厕所",
        "address": "广西壮族自治区崇左市江州区壶兴街与壶滨路交叉口东北方向276米左右",
        "tel": "",
        "category": "基础设施:公共设施:公共厕所",
        "type": 0,
        "location": {
            "lat": 22.415448,
            "lng": 107.359438
        },
        "ad_info": {
            "adcode": 451402,
            "province": "广西壮族自治区",
            "city": "崇左市",
            "district": "江州区"
        }
    },
    {
        "id": "8768382122960584343",
        "title": "公共厕所",
        "address": "广西壮族自治区崇左市天等县丽川路与天宝路交叉口东北方向102米左右",
        "tel": "",
        "category": "基础设施:公共设施:公共厕所",
        "type": 0,
        "location": {
            "lat": 23.061746,
            "lng": 107.144849
        },
        "ad_info": {
            "adcode": 451425,
            "province": "广西壮族自治区",
            "city": "崇左市",
            "district": "天等县"
        }
    },
    {
        "id": "6374721300309582342",
        "title": "爱店服务区公共厕所",
        "address": "广西壮族自治区崇左市宁明县S62水崇爱高速与爱店服务区交叉口西南120米",
        "tel": "",
        "category": "基础设施:公共设施:公共厕所",
        "type": 0,
        "location": {
            "lat": 21.825037,
            "lng": 107.059462
        },
        "ad_info": {
            "adcode": 451422,
            "province": "广西壮族自治区",
            "city": "崇左市",
            "district": "宁明县"
        }
    },
    {
        "id": "3225440519019479493",
        "title": "东安服务区公共厕所",
        "address": "广西壮族自治区崇左市宁明县S62崇爱高速与东安服务区交叉口南300米",
        "tel": "",
        "category": "基础设施:公共设施:公共厕所",
        "type": 0,
        "location": {
            "lat": 22.158975,
            "lng": 107.220287
        },
        "ad_info": {
            "adcode": 451422,
            "province": "广西壮族自治区",
            "city": "崇左市",
            "district": "宁明县"
        }
    },
    {
        "id": "11327210067143487265",
        "title": "公共厕所",
        "address": "广西壮族自治区崇左市江州区德天路与新城路交叉口正南方向182米左右",
        "tel": "",
        "category": "基础设施:公共设施:公共厕所",
        "type": 0,
        "location": {
            "lat": 22.373576,
            "lng": 107.367654
        },
        "ad_info": {
            "adcode": 451402,
            "province": "广西壮族自治区",
            "city": "崇左市",
            "district": "江州区"
        }
    },
    {
        "id": "13789443899749849028",
        "title": "公共厕所",
        "address": "广西壮族自治区崇左市江州区友谊互通立交桥与江南路交叉口西南方向187米左右",
        "tel": "",
        "category": "基础设施:公共设施:公共厕所",
        "type": 0,
        "location": {
            "lat": 22.40394,
            "lng": 107.358612
        },
        "ad_info": {
            "adcode": 451402,
            "province": "广西壮族自治区",
            "city": "崇左市",
            "district": "江州区"
        }
    },
    {
        "id": "4857536713659523891",
        "title": "卫生间",
        "address": "广西壮族自治区崇左市江州区Y903与兴隆大道交叉口东南方向712米左右",
        "tel": "",
        "category": "基础设施:公共设施:公共厕所",
        "type": 0,
        "location": {
            "lat": 22.755424,
            "lng": 107.545073
        },
        "ad_info": {
            "adcode": 451402,
            "province": "广西壮族自治区",
            "city": "崇左市",
            "district": "江州区"
        }
    },
    {
        "id": "11334371737334995068",
        "title": "公共厕所",
        "address": "广西壮族自治区崇左市江州区德天路与新城路交叉口西北方向253米左右",
        "tel": "",
        "category": "基础设施:公共设施:公共厕所",
        "type": 0,
        "location": {
            "lat": 22.376896,
            "lng": 107.366148
        },
        "ad_info": {
            "adcode": 451402,
            "province": "广西壮族自治区",
            "city": "崇左市",
            "district": "江州区"
        }
    },
    {
        "id": "2315572351178326311",
        "title": "公共厕所",
        "address": "广西壮族自治区崇左市江州区友谊大道与崇左互通立交交叉口正西方向127米左右",
        "tel": "",
        "category": "基础设施:公共设施:公共厕所",
        "type": 0,
        "location": {
            "lat": 22.355013,
            "lng": 107.371337
        },
        "ad_info": {
            "adcode": 451402,
            "province": "广西壮族自治区",
            "city": "崇左市",
            "district": "江州区"
        }
    },
    {
        "id": "14621201903832594993",
        "title": "柳桥停车区公共厕所",
        "address": "广西壮族自治区崇左市扶绥县S60合那高速附近",
        "tel": "",
        "category": "基础设施:公共设施:公共厕所",
        "type": 0,
        "location": {
            "lat": 22.267914,
            "lng": 107.746252
        },
        "ad_info": {
            "adcode": 451421,
            "province": "广西壮族自治区",
            "city": "崇左市",
            "district": "扶绥县"
        }
    },
    {
        "id": "2119867664641012039",
        "title": "公共厕所",
        "address": "广西壮族自治区崇左市扶绥县同正大道与岜尧路交叉口正南方向170米左右",
        "tel": "",
        "category": "基础设施:公共设施:公共厕所",
        "type": 0,
        "location": {
            "lat": 22.621215,
            "lng": 107.916043
        },
        "ad_info": {
            "adcode": 451421,
            "province": "广西壮族自治区",
            "city": "崇左市",
            "district": "扶绥县"
        }
    },
    {
        "id": "6229075905313599968",
        "title": "宁明服务区公共厕所",
        "address": "广西壮族自治区崇左市宁明县G7211南友高速附近",
        "tel": "",
        "category": "基础设施:公共设施:公共厕所",
        "type": 0,
        "location": {
            "lat": 22.172942,
            "lng": 107.051191
        },
        "ad_info": {
            "adcode": 451422,
            "province": "广西壮族自治区",
            "city": "崇左市",
            "district": "宁明县"
        }
    },
    {
        "id": "9116808090508957956",
        "title": "公共厕所",
        "address": "广西壮族自治区崇左市江州区G358",
        "tel": "",
        "category": "基础设施:公共设施:公共厕所",
        "type": 0,
        "location": {
            "lat": 22.599548,
            "lng": 107.181786
        },
        "ad_info": {
            "adcode": 451402,
            "province": "广西壮族自治区",
            "city": "崇左市",
            "district": "江州区"
        }
    },
    {
        "id": "7392584687699707963",
        "title": "公共厕所",
        "address": "广西壮族自治区崇左市江州区丽江南路与丽江路交叉口正西方向137米左右",
        "tel": "",
        "category": "基础设施:公共设施:公共厕所",
        "type": 0,
        "location": {
            "lat": 22.40728,
            "lng": 107.363784
        },
        "ad_info": {
            "adcode": 451402,
            "province": "广西壮族自治区",
            "city": "崇左市",
            "district": "江州区"
        }
    },
    {
        "id": "17356377783922661872",
        "title": "弄岗服务区公共厕所",
        "address": "广西壮族自治区崇左市龙州县弄岗服务区西30米",
        "tel": "",
        "category": "基础设施:公共设施:公共厕所",
        "type": 0,
        "location": {
            "lat": 22.573213,
            "lng": 106.97258
        },
        "ad_info": {
            "adcode": 451423,
            "province": "广西壮族自治区",
            "city": "崇左市",
            "district": "龙州县"
        }
    },
    {
        "id": "13664441006930871529",
        "title": "公共厕所",
        "address": "广西壮族自治区崇左市江州区德天路与环城西路交叉口正东方向139米左右",
        "tel": "",
        "category": "基础设施:公共设施:公共厕所",
        "type": 0,
        "location": {
            "lat": 22.355128,
            "lng": 107.36931
        },
        "ad_info": {
            "adcode": 451402,
            "province": "广西壮族自治区",
            "city": "崇左市",
            "district": "江州区"
        }
    },
    {
        "id": "14852840834458583660",
        "title": "凭祥服务区公共厕所",
        "address": "广西壮族自治区崇左市凭祥市南友高速与友谊互通交叉口东北方向273米左右",
        "tel": "",
        "category": "基础设施:公共设施:公共厕所",
        "type": 0,
        "location": {
            "lat": 22.061299,
            "lng": 106.747703
        },
        "ad_info": {
            "adcode": 451481,
            "province": "广西壮族自治区",
            "city": "崇左市",
            "district": "凭祥市"
        }
    },
    {
        "id": "11735864656891860696",
        "title": "柳桥停车区公共厕所",
        "address": "广西壮族自治区崇左市扶绥县柳桥镇合那高速公路南(书文)附近",
        "tel": "",
        "category": "基础设施:公共设施:公共厕所",
        "type": 0,
        "location": {
            "lat": 22.26619,
            "lng": 107.745071
        },
        "ad_info": {
            "adcode": 451421,
            "province": "广西壮族自治区",
            "city": "崇左市",
            "district": "扶绥县"
        }
    },
    {
        "id": "8380846492690661234",
        "title": "大新服务区公共厕所",
        "address": "广西壮族自治区崇左市大新县S60合那高速附近",
        "tel": "",
        "category": "基础设施:公共设施:公共厕所",
        "type": 0,
        "location": {
            "lat": 22.818326,
            "lng": 107.031357
        },
        "ad_info": {
            "adcode": 451424,
            "province": "广西壮族自治区",
            "city": "崇左市",
            "district": "大新县"
        }
    },
    {
        "id": "8958063054186755461",
        "title": "福新停车区公共厕所",
        "address": "广西壮族自治区崇左市天等县福新停车区(合那高速公路南)附近",
        "tel": "",
        "category": "基础设施:公共设施:公共厕所",
        "type": 0,
        "location": {
            "lat": 22.937079,
            "lng": 106.847597
        },
        "ad_info": {
            "adcode": 451425,
            "province": "广西壮族自治区",
            "city": "崇左市",
            "district": "天等县"
        }
    },
    {
        "id": "14301143431131212926",
        "title": "福新停车区公共厕所",
        "address": "广西壮族自治区崇左市天等县S60合那高速附近",
        "tel": "",
        "category": "基础设施:公共设施:公共厕所",
        "type": 0,
        "location": {
            "lat": 22.935595,
            "lng": 106.846566
        },
        "ad_info": {
            "adcode": 451425,
            "province": "广西壮族自治区",
            "city": "崇左市",
            "district": "天等县"
        }
    },
    {
        "id": "5287272764403709370",
        "title": "宁明服务区公共厕所",
        "address": "广西壮族自治区崇左市宁明县城中镇南友高速公路宁明服务区",
        "tel": "",
        "category": "基础设施:公共设施:公共厕所",
        "type": 0,
        "location": {
            "lat": 22.172466,
            "lng": 107.046108
        },
        "ad_info": {
            "adcode": 451422,
            "province": "广西壮族自治区",
            "city": "崇左市",
            "district": "宁明县"
        }
    },
    {
        "id": "11105162889632348398",
        "title": "扶绥服务区公共厕所",
        "address": "广西壮族自治区崇左市扶绥县南友高速附近",
        "tel": "",
        "category": "基础设施:公共设施:公共厕所",
        "type": 0,
        "location": {
            "lat": 22.5628,
            "lng": 107.9518
        },
        "ad_info": {
            "adcode": 451421,
            "province": "广西壮族自治区",
            "city": "崇左市",
            "district": "扶绥县"
        }
    },
    {
        "id": "4412880087332622714",
        "title": "宁明服务区第二公共厕所",
        "address": "广西壮族自治区崇左市宁明县G7211南友高速附近",
        "tel": "",
        "category": "基础设施:公共设施:公共厕所",
        "type": 0,
        "location": {
            "lat": 22.173545,
            "lng": 107.0515
        },
        "ad_info": {
            "adcode": 451422,
            "province": "广西壮族自治区",
            "city": "崇左市",
            "district": "宁明县"
        }
    },
    {
        "id": "524829120617836092",
        "title": "公共厕所",
        "address": "广西壮族自治区崇左市江州区友谊大道与石景林路交叉口东北方向113米左右",
        "tel": "",
        "category": "基础设施:公共设施:公共厕所",
        "type": 0,
        "location": {
            "lat": 22.372372,
            "lng": 107.372951
        },
        "ad_info": {
            "adcode": 451402,
            "province": "广西壮族自治区",
            "city": "崇左市",
            "district": "江州区"
        }
    },
    {
        "id": "3743011327173489697",
        "title": "崇左市太平古镇公共厕所",
        "address": "广西壮族自治区崇左市江州区壶兴街175号",
        "tel": "",
        "category": "基础设施:公共设施:公共厕所",
        "type": 0,
        "location": {
            "lat": 22.420434,
            "lng": 107.357531
        },
        "ad_info": {
            "adcode": 451402,
            "province": "广西壮族自治区",
            "city": "崇左市",
            "district": "江州区"
        }
    },
    {
        "id": "5557881095922177411",
        "title": "凭祥服务区第一公共厕所",
        "address": "广西壮族自治区崇左市凭祥市南友高速与友谊互通交叉口正北方向422米左右",
        "tel": "",
        "category": "基础设施:公共设施:公共厕所",
        "type": 0,
        "location": {
            "lat": 22.063219,
            "lng": 106.74664
        },
        "ad_info": {
            "adcode": 451481,
            "province": "广西壮族自治区",
            "city": "崇左市",
            "district": "凭祥市"
        }
    },
    {
        "id": "5686048102570616059",
        "title": "广西理工职业技术学院篮球场公共厕所",
        "address": "广西壮族自治区崇左市江州区广西理工职业学院大学生创业园西北侧270米",
        "tel": "",
        "category": "基础设施:公共设施:公共厕所",
        "type": 0,
        "location": {
            "lat": 22.432879,
            "lng": 107.351094
        },
        "ad_info": {
            "adcode": 451402,
            "province": "广西壮族自治区",
            "city": "崇左市",
            "district": "江州区"
        }
    },
    {
        "id": "448559900508929542",
        "title": "公共厕所",
        "address": "广西壮族自治区崇左市江州区丽广路与城西路交叉口西北方向131米左右",
        "tel": "",
        "category": "基础设施:公共设施:公共厕所",
        "type": 0,
        "location": {
            "lat": 22.412692,
            "lng": 107.341871
        },
        "ad_info": {
            "adcode": 451402,
            "province": "广西壮族自治区",
            "city": "崇左市",
            "district": "江州区"
        }
    },
    {
        "id": "10893506147215853631",
        "title": "公共厕所",
        "address": "广西壮族自治区崇左市江州区友谊大道与骆越大道交叉口正南方向197米左右",
        "tel": "",
        "category": "基础设施:公共设施:公共厕所",
        "type": 0,
        "location": {
            "lat": 22.362719,
            "lng": 107.372072
        },
        "ad_info": {
            "adcode": 451402,
            "province": "广西壮族自治区",
            "city": "崇左市",
            "district": "江州区"
        }
    },
    {
        "id": "2018554930241979078",
        "title": "无障碍公共厕所",
        "address": "广西壮族自治区崇左市江州区太平路与镇北街交叉口正东方向38米左右",
        "tel": "",
        "category": "基础设施:公共设施:公共厕所",
        "type": 0,
        "location": {
            "lat": 22.410167,
            "lng": 107.356605
        },
        "ad_info": {
            "adcode": 451402,
            "province": "广西壮族自治区",
            "city": "崇左市",
            "district": "江州区"
        }
    },
    {
        "id": "3515181346738361637",
        "title": "公共厕所",
        "address": "广西壮族自治区崇左市江州区平阳路与沿山路辅路交叉口东南40米",
        "tel": "",
        "category": "基础设施:公共设施:公共厕所",
        "type": 0,
        "location": {
            "lat": 22.404714,
            "lng": 107.364142
        },
        "ad_info": {
            "adcode": 451402,
            "province": "广西壮族自治区",
            "city": "崇左市",
            "district": "江州区"
        }
    },
    {
        "id": "14146562685970673377",
        "title": "公共厕所",
        "address": "广西壮族自治区崇左市江州区新兴东街与新兴西街交叉口东南方向142米左右",
        "tel": "",
        "category": "基础设施:公共设施:公共厕所",
        "type": 0,
        "location": {
            "lat": 22.554746,
            "lng": 107.224806
        },
        "ad_info": {
            "adcode": 451402,
            "province": "广西壮族自治区",
            "city": "崇左市",
            "district": "江州区"
        }
    },
    {
        "id": "3761999976721392277",
        "title": "公共厕所",
        "address": "广西壮族自治区崇左市江州区崇左市政府南",
        "tel": "",
        "category": "基础设施:公共设施:公共厕所",
        "type": 0,
        "location": {
            "lat": 22.375121,
            "lng": 107.36263
        },
        "ad_info": {
            "adcode": 451402,
            "province": "广西壮族自治区",
            "city": "崇左市",
            "district": "江州区"
        }
    },
    {
        "id": "1649538646776070269",
        "title": "公共厕所",
        "address": "广西壮族自治区崇左市江州区凯旋路与福源路交叉口正西方向56米左右",
        "tel": "",
        "category": "基础设施:公共设施:公共厕所",
        "type": 0,
        "location": {
            "lat": 22.415642,
            "lng": 107.343351
        },
        "ad_info": {
            "adcode": 451402,
            "province": "广西壮族自治区",
            "city": "崇左市",
            "district": "江州区"
        }
    },
    {
        "id": "4742933798143153925",
        "title": "卢村公共厕所",
        "address": "广西壮族自治区崇左市江州区卢村大道9号",
        "tel": "",
        "category": "基础设施:公共设施:公共厕所",
        "type": 0,
        "location": {
            "lat": 22.732195,
            "lng": 107.460435
        },
        "ad_info": {
            "adcode": 451402,
            "province": "广西壮族自治区",
            "city": "崇左市",
            "district": "江州区"
        }
    },
    {
        "id": "8035158445118376174",
        "title": "罗白服务区公共厕所",
        "address": "广西壮族自治区崇左市江州区罗白乡合那高速公路罗白服务区",
        "tel": "",
        "category": "基础设施:公共设施:公共厕所",
        "type": 0,
        "location": {
            "lat": 22.33853,
            "lng": 107.484639
        },
        "ad_info": {
            "adcode": 451402,
            "province": "广西壮族自治区",
            "city": "崇左市",
            "district": "江州区"
        }
    },
    {
        "id": "8846372742630304076",
        "title": "新和服务区公共厕所",
        "address": "广西壮族自治区崇左市江州区新和服务区南(合那高速公路东)",
        "tel": "",
        "category": "基础设施:公共设施:公共厕所",
        "type": 0,
        "location": {
            "lat": 22.518813,
            "lng": 107.274126
        },
        "ad_info": {
            "adcode": 451402,
            "province": "广西壮族自治区",
            "city": "崇左市",
            "district": "江州区"
        }
    },
    {
        "id": "5632499365272938165",
        "title": "崇左服务区公共厕所",
        "address": "广西壮族自治区崇左市江州区G359与工业大道交叉口正东方向1151米左右",
        "tel": "",
        "category": "基础设施:公共设施:公共厕所",
        "type": 0,
        "location": {
            "lat": 22.426704,
            "lng": 107.530109
        },
        "ad_info": {
            "adcode": 451402,
            "province": "广西壮族自治区",
            "city": "崇左市",
            "district": "江州区"
        }
    },
    {
        "id": "18249674030850340801",
        "title": "崇左服务区公共厕所",
        "address": "广西壮族自治区崇左市江州区G359与工业大道交叉口正东方向1389米左右",
        "tel": "",
        "category": "基础设施:公共设施:公共厕所",
        "type": 0,
        "location": {
            "lat": 22.425008,
            "lng": 107.532477
        },
        "ad_info": {
            "adcode": 451402,
            "province": "广西壮族自治区",
            "city": "崇左市",
            "district": "江州区"
        }
    },
    {
        "id": "222101793583442928",
        "title": "公共厕所",
        "address": "广西壮族自治区崇左市天等县S309附近",
        "tel": "",
        "category": "基础设施:公共设施:公共厕所",
        "type": 0,
        "location": {
            "lat": 23.148581,
            "lng": 107.191607
        },
        "ad_info": {
            "adcode": 451425,
            "province": "广西壮族自治区",
            "city": "崇左市",
            "district": "天等县"
        }
    },
    {
        "id": "4058463915007776204",
        "title": "公共厕所",
        "address": "广西壮族自治区崇左市江州区山秀路与骆越大道交叉口正东方向147米左右",
        "tel": "",
        "category": "基础设施:公共设施:公共厕所",
        "type": 0,
        "location": {
            "lat": 22.365462,
            "lng": 107.382665
        },
        "ad_info": {
            "adcode": 451402,
            "province": "广西壮族自治区",
            "city": "崇左市",
            "district": "江州区"
        }
    },
    {
        "id": "8808463520757831539",
        "title": "雷平停车区公共厕所",
        "address": "广西壮族自治区崇左市大新县S60合那高速附近",
        "tel": "",
        "category": "基础设施:公共设施:公共厕所",
        "type": 0,
        "location": {
            "lat": 22.684105,
            "lng": 107.158474
        },
        "ad_info": {
            "adcode": 451424,
            "province": "广西壮族自治区",
            "city": "崇左市",
            "district": "大新县"
        }
    },
    {
        "id": "9846229284014235005",
        "title": "公共厕所",
        "address": "广西壮族自治区崇左市江州区山秀路与石景林路交叉口正南方向138米左右",
        "tel": "",
        "category": "基础设施:公共设施:公共厕所",
        "type": 0,
        "location": {
            "lat": 22.37219,
            "lng": 107.382138
        },
        "ad_info": {
            "adcode": 451402,
            "province": "广西壮族自治区",
            "city": "崇左市",
            "district": "江州区"
        }
    },
    {
        "id": "13596804517525669012",
        "title": "公共厕所",
        "address": "广西壮族自治区崇左市大新县新平路与新锰大道交叉口正东方向132米左右",
        "tel": "",
        "category": "基础设施:公共设施:公共厕所",
        "type": 0,
        "location": {
            "lat": 22.829149,
            "lng": 107.192677
        },
        "ad_info": {
            "adcode": 451424,
            "province": "广西壮族自治区",
            "city": "崇左市",
            "district": "大新县"
        }
    },
    {
        "id": "2520414562803614714",
        "title": "公共厕所",
        "address": "广西壮族自治区崇左市凭祥市南大路1支4号",
        "tel": "",
        "category": "基础设施:公共设施:公共厕所",
        "type": 0,
        "location": {
            "lat": 22.098676,
            "lng": 106.749078
        },
        "ad_info": {
            "adcode": 451481,
            "province": "广西壮族自治区",
            "city": "崇左市",
            "district": "凭祥市"
        }
    },
    {
        "id": "11872675514155040693",
        "title": "凭祥服务区第二公共厕所",
        "address": "广西壮族自治区崇左市凭祥市G7211南友高速与凭祥服务区交叉口西南200米",
        "tel": "",
        "category": "基础设施:公共设施:公共厕所",
        "type": 0,
        "location": {
            "lat": 22.062314,
            "lng": 106.746595
        },
        "ad_info": {
            "adcode": 451481,
            "province": "广西壮族自治区",
            "city": "崇左市",
            "district": "凭祥市"
        }
    },
    {
        "id": "9753634385912091365",
        "title": "大新服务区公共厕所",
        "address": "广西壮族自治区崇左市大新县S60合那高速南100米",
        "tel": "",
        "category": "基础设施:公共设施:公共厕所",
        "type": 0,
        "location": {
            "lat": 22.817414,
            "lng": 107.029984
        },
        "ad_info": {
            "adcode": 451424,
            "province": "广西壮族自治区",
            "city": "崇左市",
            "district": "大新县"
        }
    },
    {
        "id": "6189924324885359766",
        "title": "公共厕所",
        "address": "广西壮族自治区崇左市扶绥县322国道与兴东大道西交叉口西380米",
        "tel": "",
        "category": "基础设施:公共设施:公共厕所",
        "type": 0,
        "location": {
            "lat": 22.326024,
            "lng": 107.822461
        },
        "ad_info": {
            "adcode": 451421,
            "province": "广西壮族自治区",
            "city": "崇左市",
            "district": "扶绥县"
        }
    },
    {
        "id": "3718169933147580746",
        "title": "公共厕所",
        "address": "广西壮族自治区崇左市江州区S213与环城东路交叉口西南方向134米左右",
        "tel": "",
        "category": "基础设施:公共设施:公共厕所",
        "type": 0,
        "location": {
            "lat": 22.357157,
            "lng": 107.379998
        },
        "ad_info": {
            "adcode": 451402,
            "province": "广西壮族自治区",
            "city": "崇左市",
            "district": "江州区"
        }
    },
    {
        "id": "11348923746381924631",
        "title": "公共厕所",
        "address": "广西壮族自治区崇左市凭祥市北环路与旧州路交叉口正东方向511米左右",
        "tel": "",
        "category": "基础设施:公共设施:公共厕所",
        "type": 0,
        "location": {
            "lat": 22.106369,
            "lng": 106.77048
        },
        "ad_info": {
            "adcode": 451481,
            "province": "广西壮族自治区",
            "city": "崇左市",
            "district": "凭祥市"
        }
    },
    {
        "id": "15434690166241910233",
        "title": "公共厕所",
        "address": "广西壮族自治区崇左市凭祥市北大路8号",
        "tel": "",
        "category": "基础设施:公共设施:公共厕所",
        "type": 0,
        "location": {
            "lat": 22.102819,
            "lng": 106.753747
        },
        "ad_info": {
            "adcode": 451481,
            "province": "广西壮族自治区",
            "city": "崇左市",
            "district": "凭祥市"
        }
    },
    {
        "id": "8293590274120135959",
        "title": "公共厕所",
        "address": "广西壮族自治区崇左市宁明县合众汽车修理厂东南侧70米",
        "tel": "",
        "category": "基础设施:公共设施:公共厕所",
        "type": 0,
        "location": {
            "lat": 22.126721,
            "lng": 107.101848
        },
        "ad_info": {
            "adcode": 451422,
            "province": "广西壮族自治区",
            "city": "崇左市",
            "district": "宁明县"
        }
    },
    {
        "id": "3712327770694305330",
        "title": "公共厕所",
        "address": "广西壮族自治区崇左市江州区城西路与江南路交叉口正西方向86米左右",
        "tel": "",
        "category": "基础设施:公共设施:公共厕所",
        "type": 0,
        "location": {
            "lat": 22.403543,
            "lng": 107.349663
        },
        "ad_info": {
            "adcode": 451402,
            "province": "广西壮族自治区",
            "city": "崇左市",
            "district": "江州区"
        }
    },
    {
        "id": "14762864901384247289",
        "title": "公共厕所",
        "address": "广西壮族自治区崇左市扶绥县风味情缘烧烤吧西侧160米",
        "tel": "",
        "category": "基础设施:公共设施:公共厕所",
        "type": 0,
        "location": {
            "lat": 22.536604,
            "lng": 107.894253
        },
        "ad_info": {
            "adcode": 451421,
            "province": "广西壮族自治区",
            "city": "崇左市",
            "district": "扶绥县"
        }
    },
    {
        "id": "18273586293238103205",
        "title": "公共厕所",
        "address": "广西壮族自治区崇左市宁明县花山岩画西南侧",
        "tel": "",
        "category": "基础设施:公共设施:公共厕所",
        "type": 0,
        "location": {
            "lat": 22.202841,
            "lng": 107.046325
        },
        "ad_info": {
            "adcode": 451422,
            "province": "广西壮族自治区",
            "city": "崇左市",
            "district": "宁明县"
        }
    },
    {
        "id": "1570762149127317985",
        "title": "公共厕所",
        "address": "广西壮族自治区崇左市扶绥县扶南大道辅路与松江路交叉口正西方向185米左右",
        "tel": "",
        "category": "基础设施:公共设施:公共厕所",
        "type": 0,
        "location": {
            "lat": 22.637993,
            "lng": 107.924559
        },
        "ad_info": {
            "adcode": 451421,
            "province": "广西壮族自治区",
            "city": "崇左市",
            "district": "扶绥县"
        }
    },
    {
        "id": "14325860510905458639",
        "title": "公共厕所",
        "address": "广西壮族自治区崇左市凭祥市屏山路160号",
        "tel": "",
        "category": "基础设施:公共设施:公共厕所",
        "type": 0,
        "location": {
            "lat": 22.112042,
            "lng": 106.759282
        },
        "ad_info": {
            "adcode": 451481,
            "province": "广西壮族自治区",
            "city": "崇左市",
            "district": "凭祥市"
        }
    },
    {
        "id": "17447066384239101810",
        "title": "公共厕所",
        "address": "广西壮族自治区崇左市天等县天富路与天榔路交叉口正北方向120米左右",
        "tel": "",
        "category": "基础设施:公共设施:公共厕所",
        "type": 0,
        "location": {
            "lat": 23.085728,
            "lng": 107.131742
        },
        "ad_info": {
            "adcode": 451425,
            "province": "广西壮族自治区",
            "city": "崇左市",
            "district": "天等县"
        }
    },
    {
        "id": "16260432112336346492",
        "title": "公共厕所",
        "address": "广西壮族自治区崇左市扶绥县S215与永康路交叉口正南方向321米左右",
        "tel": "",
        "category": "基础设施:公共设施:公共厕所",
        "type": 0,
        "location": {
            "lat": 22.82157,
            "lng": 107.842172
        },
        "ad_info": {
            "adcode": 451421,
            "province": "广西壮族自治区",
            "city": "崇左市",
            "district": "扶绥县"
        }
    },
    {
        "id": "15123345968639796803",
        "title": "公共厕所",
        "address": "广西壮族自治区崇左市宁明县X570与龙峡山隧道交叉口正南方向573米左右",
        "tel": "",
        "category": "基础设施:公共设施:公共厕所",
        "type": 0,
        "location": {
            "lat": 22.19392,
            "lng": 107.047557
        },
        "ad_info": {
            "adcode": 451422,
            "province": "广西壮族自治区",
            "city": "崇左市",
            "district": "宁明县"
        }
    },
    {
        "id": "4390959176516982790",
        "title": "公共厕所",
        "address": "广西壮族自治区崇左市大新县猴王山风光西南侧240米",
        "tel": "",
        "category": "基础设施:公共设施:公共厕所",
        "type": 0,
        "location": {
            "lat": 22.75486,
            "lng": 107.113817
        },
        "ad_info": {
            "adcode": 451424,
            "province": "广西壮族自治区",
            "city": "崇左市",
            "district": "大新县"
        }
    },
    {
        "id": "9793618249487259100",
        "title": "公共厕所",
        "address": "广西壮族自治区崇左市凭祥市南友高速与夏石互通交叉口西北方向406米左右",
        "tel": "",
        "category": "基础设施:公共设施:公共厕所",
        "type": 0,
        "location": {
            "lat": 22.110377,
            "lng": 106.889505
        },
        "ad_info": {
            "adcode": 451481,
            "province": "广西壮族自治区",
            "city": "崇左市",
            "district": "凭祥市"
        }
    },
    {
        "id": "5984260807173705755",
        "title": "公共厕所",
        "address": "广西壮族自治区崇左市大新县易捷便利店(芦山湾加油站)东北侧",
        "tel": "",
        "category": "基础设施:公共设施:公共厕所",
        "type": 0,
        "location": {
            "lat": 22.658477,
            "lng": 107.006009
        },
        "ad_info": {
            "adcode": 451424,
            "province": "广西壮族自治区",
            "city": "崇左市",
            "district": "大新县"
        }
    },
    {
        "id": "6812626572162510200",
        "title": "公共厕所",
        "address": "广西壮族自治区崇左市扶绥县姑辽屯-游客服务中心南侧140米",
        "tel": "",
        "category": "基础设施:公共设施:公共厕所",
        "type": 0,
        "location": {
            "lat": 22.538499,
            "lng": 107.898248
        },
        "ad_info": {
            "adcode": 451421,
            "province": "广西壮族自治区",
            "city": "崇左市",
            "district": "扶绥县"
        }
    },
    {
        "id": "1602638046801729356",
        "title": "公共厕所",
        "address": "广西壮族自治区崇左市天等县天丽路与广场路交叉口西南方向100米左右",
        "tel": "",
        "category": "基础设施:公共设施:公共厕所",
        "type": 0,
        "location": {
            "lat": 23.082191,
            "lng": 107.145183
        },
        "ad_info": {
            "adcode": 451425,
            "province": "广西壮族自治区",
            "city": "崇左市",
            "district": "天等县"
        }
    },
    {
        "id": "15526798738151097137",
        "title": "公共厕所",
        "address": "广西壮族自治区崇左市凭祥市浦寨三路与浦新路交叉口正西方向94米左右",
        "tel": "",
        "category": "基础设施:公共设施:公共厕所",
        "type": 0,
        "location": {
            "lat": 21.998906,
            "lng": 106.688805
        },
        "ad_info": {
            "adcode": 451481,
            "province": "广西壮族自治区",
            "city": "崇左市",
            "district": "凭祥市"
        }
    },
    {
        "id": "9239245229981626040",
        "title": "公共厕所",
        "address": "广西壮族自治区崇左市天等县X568天等体育馆",
        "tel": "",
        "category": "基础设施:公共设施:公共厕所",
        "type": 0,
        "location": {
            "lat": 23.056482,
            "lng": 107.147488
        },
        "ad_info": {
            "adcode": 451425,
            "province": "广西壮族自治区",
            "city": "崇左市",
            "district": "天等县"
        }
    },
    {
        "id": "13647811273925171756",
        "title": "公共厕所",
        "address": "广西壮族自治区崇左市江州区丽川路与友谊大道交叉口东南方向215米左右",
        "tel": "",
        "category": "基础设施:公共设施:公共厕所",
        "type": 0,
        "location": {
            "lat": 22.381757,
            "lng": 107.374436
        },
        "ad_info": {
            "adcode": 451402,
            "province": "广西壮族自治区",
            "city": "崇左市",
            "district": "江州区"
        }
    },
    {
        "id": "17912011582698017833",
        "title": "罗白服务区公共厕所",
        "address": "广西壮族自治区崇左市江州区213省道附近",
        "tel": "",
        "category": "基础设施:公共设施:公共厕所",
        "type": 0,
        "location": {
            "lat": 22.336828,
            "lng": 107.483295
        },
        "ad_info": {
            "adcode": 451402,
            "province": "广西壮族自治区",
            "city": "崇左市",
            "district": "江州区"
        }
    },
    {
        "id": "15163780920305612481",
        "title": "公共厕所",
        "address": "广西壮族自治区崇左市大新县平良旅游驿站东南侧",
        "tel": "",
        "category": "基础设施:公共设施:公共厕所",
        "type": 0,
        "location": {
            "lat": 22.946899,
            "lng": 107.484501
        },
        "ad_info": {
            "adcode": 451424,
            "province": "广西壮族自治区",
            "city": "崇左市",
            "district": "大新县"
        }
    },
    {
        "id": "12430919022977104074",
        "title": "公共厕所",
        "address": "广西壮族自治区崇左市天等县丽川路与天瑞路交叉口正西方向88米左右",
        "tel": "",
        "category": "基础设施:公共设施:公共厕所",
        "type": 0,
        "location": {
            "lat": 23.074892,
            "lng": 107.150796
        },
        "ad_info": {
            "adcode": 451425,
            "province": "广西壮族自治区",
            "city": "崇左市",
            "district": "天等县"
        }
    },
    {
        "id": "14622300732080036252",
        "title": "公共厕所",
        "address": "广西壮族自治区崇左市凭祥市南大路与瑞林路交叉口东南方向78米左右",
        "tel": "",
        "category": "基础设施:公共设施:公共厕所",
        "type": 0,
        "location": {
            "lat": 22.06779,
            "lng": 106.739859
        },
        "ad_info": {
            "adcode": 451481,
            "province": "广西壮族自治区",
            "city": "崇左市",
            "district": "凭祥市"
        }
    },
    {
        "id": "17605580251548640120",
        "title": "公共厕所",
        "address": "广西壮族自治区崇左市大新县大新农家庄饭店南侧",
        "tel": "",
        "category": "基础设施:公共设施:公共厕所",
        "type": 0,
        "location": {
            "lat": 22.701927,
            "lng": 106.937288
        },
        "ad_info": {
            "adcode": 451424,
            "province": "广西壮族自治区",
            "city": "崇左市",
            "district": "大新县"
        }
    },
    {
        "id": "1897153149004847642",
        "title": "公共厕所",
        "address": "广西壮族自治区崇左市江州区友谊大道与骆越大道交叉口正西方向234米左右",
        "tel": "",
        "category": "基础设施:公共设施:公共厕所",
        "type": 0,
        "location": {
            "lat": 22.36415,
            "lng": 107.37018
        },
        "ad_info": {
            "adcode": 451402,
            "province": "广西壮族自治区",
            "city": "崇左市",
            "district": "江州区"
        }
    },
    {
        "id": "13568785018724866582",
        "title": "公共厕所",
        "address": "广西壮族自治区崇左市江州区城西路与江南路交叉口西南方向245米左右",
        "tel": "",
        "category": "基础设施:公共设施:公共厕所",
        "type": 0,
        "location": {
            "lat": 22.40259,
            "lng": 107.348376
        },
        "ad_info": {
            "adcode": 451402,
            "province": "广西壮族自治区",
            "city": "崇左市",
            "district": "江州区"
        }
    },
    {
        "id": "17695597643270175270",
        "title": "新和服务区公共厕所",
        "address": "广西壮族自治区崇左市江州区S60合那高速附近",
        "tel": "",
        "category": "基础设施:公共设施:公共厕所",
        "type": 0,
        "location": {
            "lat": 22.520679,
            "lng": 107.270664
        },
        "ad_info": {
            "adcode": 451402,
            "province": "广西壮族自治区",
            "city": "崇左市",
            "district": "江州区"
        }
    },
    {
        "id": "15114528305373054351",
        "title": "扶绥服务区公共厕所",
        "address": "广西壮族自治区崇左市扶绥县G7211南友高速附近",
        "tel": "",
        "category": "基础设施:公共设施:公共厕所",
        "type": 0,
        "location": {
            "lat": 22.560596,
            "lng": 107.950751
        },
        "ad_info": {
            "adcode": 451421,
            "province": "广西壮族自治区",
            "city": "崇左市",
            "district": "扶绥县"
        }
    },
    {
        "id": "1429612011200411938",
        "title": "公共厕所",
        "address": "广西壮族自治区崇左市天等县天城街一道与天新街交叉口东北方向85米",
        "tel": "",
        "category": "基础设施:公共设施:公共厕所",
        "type": 0,
        "location": {
            "lat": 23.08176,
            "lng": 107.140302
        },
        "ad_info": {
            "adcode": 451425,
            "province": "广西壮族自治区",
            "city": "崇左市",
            "district": "天等县"
        }
    },
    {
        "id": "7552768009572456326",
        "title": "公共厕所",
        "address": "广西壮族自治区崇左市宁明县明阳小区十一巷与明阳街交叉口西南方向341米左右",
        "tel": "",
        "category": "基础设施:公共设施:公共厕所",
        "type": 0,
        "location": {
            "lat": 22.1189,
            "lng": 107.06365
        },
        "ad_info": {
            "adcode": 451422,
            "province": "广西壮族自治区",
            "city": "崇左市",
            "district": "宁明县"
        }
    }
]