[
    {
        "id": "7111769259108420793",
        "title": "公共厕所(农贸市场)",
        "address": "四川省巴中市南江县X125与天红公路交叉口东南方向158米左右",
        "tel": "",
        "category": "基础设施:公共设施:公共厕所",
        "type": 0,
        "location": {
            "lat": 32.150658,
            "lng": 106.612886
        },
        "ad_info": {
            "adcode": 511922,
            "province": "四川省",
            "city": "巴中市",
            "district": "南江县"
        }
    },
    {
        "id": "7238836298566135637",
        "title": "公共厕所",
        "address": "四川省巴中市通江县诺水河镇临江丽峡景区门口",
        "tel": "",
        "category": "基础设施:公共设施:公共厕所",
        "type": 0,
        "location": {
            "lat": 32.38123,
            "lng": 107.29288
        },
        "ad_info": {
            "adcode": 511921,
            "province": "四川省",
            "city": "巴中市",
            "district": "通江县"
        }
    },
    {
        "id": "3774047975805782891",
        "title": "公共厕所",
        "address": "四川省巴中市巴州区东城街与土星街交叉口东南方向58米左右",
        "tel": "",
        "category": "基础设施:公共设施:公共厕所",
        "type": 0,
        "location": {
            "lat": 31.849497,
            "lng": 106.76807
        },
        "ad_info": {
            "adcode": 511902,
            "province": "四川省",
            "city": "巴中市",
            "district": "巴州区"
        }
    },
    {
        "id": "13737236063360697922",
        "title": "公共厕所",
        "address": "四川省巴中市巴州区巴州大道460号",
        "tel": "",
        "category": "基础设施:公共设施:公共厕所",
        "type": 0,
        "location": {
            "lat": 31.856708,
            "lng": 106.729623
        },
        "ad_info": {
            "adcode": 511902,
            "province": "四川省",
            "city": "巴中市",
            "district": "巴州区"
        }
    },
    {
        "id": "9180825618220466326",
        "title": "公共厕所",
        "address": "四川省巴中市平昌县新平街西段与步行街交叉口西北方向149米左右",
        "tel": "",
        "category": "基础设施:公共设施:公共厕所",
        "type": 0,
        "location": {
            "lat": 31.565098,
            "lng": 107.098023
        },
        "ad_info": {
            "adcode": 511923,
            "province": "四川省",
            "city": "巴中市",
            "district": "平昌县"
        }
    },
    {
        "id": "3091766506165433753",
        "title": "公共厕所",
        "address": "四川省巴中市南江县下河街98号",
        "tel": "",
        "category": "基础设施:公共设施:公共厕所",
        "type": 0,
        "location": {
            "lat": 32.351271,
            "lng": 106.840558
        },
        "ad_info": {
            "adcode": 511922,
            "province": "四川省",
            "city": "巴中市",
            "district": "南江县"
        }
    },
    {
        "id": "9270622952442334775",
        "title": "公共厕所(兴隆镇玉皇村)",
        "address": "四川省巴中市恩阳区",
        "tel": "",
        "category": "基础设施:公共设施:公共厕所",
        "type": 0,
        "location": {
            "lat": 31.720945,
            "lng": 106.681946
        },
        "ad_info": {
            "adcode": 511903,
            "province": "四川省",
            "city": "巴中市",
            "district": "恩阳区"
        }
    },
    {
        "id": "13245650573333908348",
        "title": "公共厕所",
        "address": "四川省巴中市巴州区巴州大道与龙腾街交叉口正南方向139米左右",
        "tel": "",
        "category": "基础设施:公共设施:公共厕所",
        "type": 0,
        "location": {
            "lat": 31.851849,
            "lng": 106.723086
        },
        "ad_info": {
            "adcode": 511902,
            "province": "四川省",
            "city": "巴中市",
            "district": "巴州区"
        }
    },
    {
        "id": "3056771763698838154",
        "title": "公共厕所",
        "address": "四川省巴中市南江县画廊街与红塔大道三段交叉口东北方向124米左右",
        "tel": "",
        "category": "基础设施:公共设施:公共厕所",
        "type": 0,
        "location": {
            "lat": 32.338496,
            "lng": 106.834655
        },
        "ad_info": {
            "adcode": 511922,
            "province": "四川省",
            "city": "巴中市",
            "district": "南江县"
        }
    },
    {
        "id": "676087119655629762",
        "title": "公共厕所",
        "address": "四川省巴中市巴州区巴州大道826号",
        "tel": "",
        "category": "基础设施:公共设施:公共厕所",
        "type": 0,
        "location": {
            "lat": 31.852887,
            "lng": 106.720608
        },
        "ad_info": {
            "adcode": 511902,
            "province": "四川省",
            "city": "巴中市",
            "district": "巴州区"
        }
    },
    {
        "id": "843644608619185866",
        "title": "公共厕所",
        "address": "四川省巴中市巴州区巴州大道与广福街交叉口正南方向281米左右",
        "tel": "",
        "category": "基础设施:公共设施:公共厕所",
        "type": 0,
        "location": {
            "lat": 31.862239,
            "lng": 106.736048
        },
        "ad_info": {
            "adcode": 511902,
            "province": "四川省",
            "city": "巴中市",
            "district": "巴州区"
        }
    },
    {
        "id": "11871921290882808913",
        "title": "公共厕所",
        "address": "四川省巴中市巴州区江北大道东段与莲花北巷交叉口正东方向48米左右",
        "tel": "",
        "category": "基础设施:公共设施:公共厕所",
        "type": 0,
        "location": {
            "lat": 31.854898,
            "lng": 106.776561
        },
        "ad_info": {
            "adcode": 511902,
            "province": "四川省",
            "city": "巴中市",
            "district": "巴州区"
        }
    },
    {
        "id": "7958146891899226959",
        "title": "公共厕所",
        "address": "四川省巴中市巴州区滨河北路中段九洲商业城(西南角)",
        "tel": "",
        "category": "基础设施:公共设施:公共厕所",
        "type": 0,
        "location": {
            "lat": 31.855161,
            "lng": 106.758043
        },
        "ad_info": {
            "adcode": 511902,
            "province": "四川省",
            "city": "巴中市",
            "district": "巴州区"
        }
    },
    {
        "id": "3396486656611087129",
        "title": "公共厕所",
        "address": "四川省巴中市通江县通江银耳博物馆游客中心旁",
        "tel": "",
        "category": "基础设施:公共设施:公共厕所",
        "type": 0,
        "location": {
            "lat": 31.911183,
            "lng": 107.186709
        },
        "ad_info": {
            "adcode": 511921,
            "province": "四川省",
            "city": "巴中市",
            "district": "通江县"
        }
    },
    {
        "id": "16130190178639961598",
        "title": "公共厕所",
        "address": "四川省巴中市巴州区秦巴大道东段巴师附小对面(欧洲名城工地旁)",
        "tel": "",
        "category": "基础设施:公共设施:公共厕所",
        "type": 0,
        "location": {
            "lat": 31.8436,
            "lng": 106.890773
        },
        "ad_info": {
            "adcode": 511902,
            "province": "四川省",
            "city": "巴中市",
            "district": "巴州区"
        }
    },
    {
        "id": "18386838680516037616",
        "title": "公共厕所",
        "address": "四川省巴中市南江县光雾山大道与光雾山广场西街交叉口正南方向26米左右",
        "tel": "",
        "category": "基础设施:公共设施:公共厕所",
        "type": 0,
        "location": {
            "lat": 32.344331,
            "lng": 106.828661
        },
        "ad_info": {
            "adcode": 511922,
            "province": "四川省",
            "city": "巴中市",
            "district": "南江县"
        }
    },
    {
        "id": "4149537445449730925",
        "title": "公共厕所",
        "address": "四川省巴中市南江县赤溪镇西厢村精忠广场",
        "tel": "",
        "category": "基础设施:公共设施:公共厕所",
        "type": 0,
        "location": {
            "lat": 32.121462,
            "lng": 106.728705
        },
        "ad_info": {
            "adcode": 511922,
            "province": "四川省",
            "city": "巴中市",
            "district": "南江县"
        }
    },
    {
        "id": "10845212363099975351",
        "title": "公共厕所",
        "address": "四川省巴中市巴州区江北大道东段与莲花街交叉口西南方向101米左右",
        "tel": "",
        "category": "基础设施:公共设施:公共厕所",
        "type": 0,
        "location": {
            "lat": 31.857118,
            "lng": 106.770899
        },
        "ad_info": {
            "adcode": 511902,
            "province": "四川省",
            "city": "巴中市",
            "district": "巴州区"
        }
    },
    {
        "id": "803041642074612672",
        "title": "公共厕所",
        "address": "四川省巴中市巴州区滨河北路中段30",
        "tel": "",
        "category": "基础设施:公共设施:公共厕所",
        "type": 0,
        "location": {
            "lat": 31.85916,
            "lng": 106.74919
        },
        "ad_info": {
            "adcode": 511902,
            "province": "四川省",
            "city": "巴中市",
            "district": "巴州区"
        }
    },
    {
        "id": "5134816314565551380",
        "title": "公共厕所",
        "address": "四川省巴中市恩阳区魁字湾一街197号",
        "tel": "",
        "category": "基础设施:公共设施:公共厕所",
        "type": 0,
        "location": {
            "lat": 31.795101,
            "lng": 106.630451
        },
        "ad_info": {
            "adcode": 511903,
            "province": "四川省",
            "city": "巴中市",
            "district": "恩阳区"
        }
    },
    {
        "id": "14226228228359614613",
        "title": "公共厕所",
        "address": "四川省巴中市通江县中国石油城东加油站西南侧90米",
        "tel": "",
        "category": "基础设施:公共设施:公共厕所",
        "type": 0,
        "location": {
            "lat": 31.907944,
            "lng": 107.26406
        },
        "ad_info": {
            "adcode": 511921,
            "province": "四川省",
            "city": "巴中市",
            "district": "通江县"
        }
    },
    {
        "id": "16221291004910160661",
        "title": "公共厕所",
        "address": "四川省巴中市通江县万阿公路与太杨路交叉口西北方向160米左右",
        "tel": "",
        "category": "基础设施:公共设施:公共厕所",
        "type": 0,
        "location": {
            "lat": 31.881521,
            "lng": 107.094487
        },
        "ad_info": {
            "adcode": 511921,
            "province": "四川省",
            "city": "巴中市",
            "district": "通江县"
        }
    },
    {
        "id": "9874094535468218778",
        "title": "公共厕所",
        "address": "四川省巴中市巴州区东城街与禹王宫巷交叉口正南方向73米左右",
        "tel": "",
        "category": "基础设施:公共设施:公共厕所",
        "type": 0,
        "location": {
            "lat": 31.849516,
            "lng": 106.766561
        },
        "ad_info": {
            "adcode": 511902,
            "province": "四川省",
            "city": "巴中市",
            "district": "巴州区"
        }
    },
    {
        "id": "2287339678181599531",
        "title": "公共厕所",
        "address": "四川省巴中市通江县民胜镇东郡坝村",
        "tel": "",
        "category": "基础设施:公共设施:公共厕所",
        "type": 0,
        "location": {
            "lat": 31.957543,
            "lng": 107.171855
        },
        "ad_info": {
            "adcode": 511921,
            "province": "四川省",
            "city": "巴中市",
            "district": "通江县"
        }
    },
    {
        "id": "13942160904432253285",
        "title": "公共厕所(回风首座)",
        "address": "四川省巴中市巴州区丽阳广场东北侧130米",
        "tel": "",
        "category": "基础设施:公共设施:公共厕所",
        "type": 0,
        "location": {
            "lat": 31.868244,
            "lng": 106.737393
        },
        "ad_info": {
            "adcode": 511902,
            "province": "四川省",
            "city": "巴中市",
            "district": "巴州区"
        }
    },
    {
        "id": "7928297428822014718",
        "title": "公共厕所",
        "address": "四川省巴中市巴州区江北大道中段与兴州街交叉口东140米",
        "tel": "",
        "category": "基础设施:公共设施:公共厕所",
        "type": 0,
        "location": {
            "lat": 31.857004,
            "lng": 106.75784
        },
        "ad_info": {
            "adcode": 511902,
            "province": "四川省",
            "city": "巴中市",
            "district": "巴州区"
        }
    },
    {
        "id": "11861080457633143551",
        "title": "公共厕所",
        "address": "四川省巴中市南江县东榆铺街与黄金大道交叉口西南方向61米左右",
        "tel": "",
        "category": "基础设施:公共设施:公共厕所",
        "type": 0,
        "location": {
            "lat": 32.297311,
            "lng": 106.818978
        },
        "ad_info": {
            "adcode": 511922,
            "province": "四川省",
            "city": "巴中市",
            "district": "南江县"
        }
    },
    {
        "id": "11762902210006772087",
        "title": "公共厕所(2号)",
        "address": "四川省巴中市南江县058乡道",
        "tel": "",
        "category": "基础设施:公共设施:公共厕所",
        "type": 0,
        "location": {
            "lat": 32.66694,
            "lng": 106.898067
        },
        "ad_info": {
            "adcode": 511922,
            "province": "四川省",
            "city": "巴中市",
            "district": "南江县"
        }
    },
    {
        "id": "15965671574477632647",
        "title": "公共厕所",
        "address": "四川省巴中市巴州区龙泉街与龙盘街交叉口西南方向20米左右",
        "tel": "",
        "category": "基础设施:公共设施:公共厕所",
        "type": 0,
        "location": {
            "lat": 31.862248,
            "lng": 106.765338
        },
        "ad_info": {
            "adcode": 511902,
            "province": "四川省",
            "city": "巴中市",
            "district": "巴州区"
        }
    },
    {
        "id": "16620739914290263948",
        "title": "公共厕所",
        "address": "四川省巴中市巴州区白塔路与秦巴大道交叉口西北方向33米左右",
        "tel": "",
        "category": "基础设施:公共设施:公共厕所",
        "type": 0,
        "location": {
            "lat": 31.842845,
            "lng": 106.779423
        },
        "ad_info": {
            "adcode": 511902,
            "province": "四川省",
            "city": "巴中市",
            "district": "巴州区"
        }
    },
    {
        "id": "9405302926118591736",
        "title": "公共厕所",
        "address": "四川省巴中市通江县方山运动场",
        "tel": "",
        "category": "基础设施:公共设施:公共厕所",
        "type": 0,
        "location": {
            "lat": 31.945422,
            "lng": 107.208199
        },
        "ad_info": {
            "adcode": 511921,
            "province": "四川省",
            "city": "巴中市",
            "district": "通江县"
        }
    },
    {
        "id": "5336251885359779146",
        "title": "公共厕所",
        "address": "四川省巴中市通江县诺江中路10号",
        "tel": "",
        "category": "基础设施:公共设施:公共厕所",
        "type": 0,
        "location": {
            "lat": 31.912349,
            "lng": 107.248582
        },
        "ad_info": {
            "adcode": 511921,
            "province": "四川省",
            "city": "巴中市",
            "district": "通江县"
        }
    },
    {
        "id": "17161334557260675362",
        "title": "公共厕所",
        "address": "四川省巴中市南江县XY01与新区大道交叉口正东方向63米左右",
        "tel": "",
        "category": "基础设施:公共设施:公共厕所",
        "type": 0,
        "location": {
            "lat": 32.15789,
            "lng": 106.660387
        },
        "ad_info": {
            "adcode": 511922,
            "province": "四川省",
            "city": "巴中市",
            "district": "南江县"
        }
    },
    {
        "id": "15256261753064789183",
        "title": "公共厕所",
        "address": "四川省巴中市平昌县新平街西段与龙溪路交叉口正北方向144米左右",
        "tel": "",
        "category": "基础设施:公共设施:公共厕所",
        "type": 0,
        "location": {
            "lat": 31.58264,
            "lng": 107.086613
        },
        "ad_info": {
            "adcode": 511923,
            "province": "四川省",
            "city": "巴中市",
            "district": "平昌县"
        }
    },
    {
        "id": "481475907967187229",
        "title": "公共厕所(龙舟公园2号)",
        "address": "四川省巴中市恩阳区登科街道滨河街龙舟公园",
        "tel": "",
        "category": "基础设施:公共设施:公共厕所",
        "type": 0,
        "location": {
            "lat": 31.788251,
            "lng": 106.640013
        },
        "ad_info": {
            "adcode": 511903,
            "province": "四川省",
            "city": "巴中市",
            "district": "恩阳区"
        }
    },
    {
        "id": "5290713087689803503",
        "title": "公共厕所(海山情园游客中心)",
        "address": "四川省巴中市恩阳区柳林镇海山情园景区",
        "tel": "",
        "category": "基础设施:公共设施:公共厕所",
        "type": 0,
        "location": {
            "lat": 31.72352,
            "lng": 106.528161
        },
        "ad_info": {
            "adcode": 511903,
            "province": "四川省",
            "city": "巴中市",
            "district": "恩阳区"
        }
    },
    {
        "id": "14822838902440704325",
        "title": "公共厕所",
        "address": "四川省巴中市巴州区通佛路143-1302号",
        "tel": "",
        "category": "基础设施:公共设施:公共厕所",
        "type": 0,
        "location": {
            "lat": 31.850774,
            "lng": 106.752018
        },
        "ad_info": {
            "adcode": 511902,
            "province": "四川省",
            "city": "巴中市",
            "district": "巴州区"
        }
    },
    {
        "id": "2696540844771023629",
        "title": "公共厕所",
        "address": "四川省巴中市通江县石梯街与诺江中路交叉口西北方向46米左右",
        "tel": "",
        "category": "基础设施:公共设施:公共厕所",
        "type": 0,
        "location": {
            "lat": 31.912439,
            "lng": 107.245023
        },
        "ad_info": {
            "adcode": 511921,
            "province": "四川省",
            "city": "巴中市",
            "district": "通江县"
        }
    },
    {
        "id": "8213882912909830350",
        "title": "公共厕所",
        "address": "四川省巴中市南江县光雾山旅游景区(西南角)",
        "tel": "",
        "category": "基础设施:公共设施:公共厕所",
        "type": 0,
        "location": {
            "lat": 32.673228,
            "lng": 106.773602
        },
        "ad_info": {
            "adcode": 511922,
            "province": "四川省",
            "city": "巴中市",
            "district": "南江县"
        }
    },
    {
        "id": "3537262666308585345",
        "title": "公共厕所(碧水云天)",
        "address": "四川省巴中市巴州区云景巷与江北大道西段交叉口西南方向126米左右",
        "tel": "",
        "category": "基础设施:公共设施:公共厕所",
        "type": 0,
        "location": {
            "lat": 31.8685,
            "lng": 106.741492
        },
        "ad_info": {
            "adcode": 511902,
            "province": "四川省",
            "city": "巴中市",
            "district": "巴州区"
        }
    },
    {
        "id": "12835369321697477151",
        "title": "公共厕所",
        "address": "四川省巴中市巴州区望王路西段与财苑街交叉口西北方向185米左右",
        "tel": "",
        "category": "基础设施:公共设施:公共厕所",
        "type": 0,
        "location": {
            "lat": 31.866076,
            "lng": 106.748466
        },
        "ad_info": {
            "adcode": 511902,
            "province": "四川省",
            "city": "巴中市",
            "district": "巴州区"
        }
    },
    {
        "id": "13617446698813286977",
        "title": "公共厕所",
        "address": "四川省巴中市通江县徐家小院休闲山庄东侧120米",
        "tel": "",
        "category": "基础设施:公共设施:公共厕所",
        "type": 0,
        "location": {
            "lat": 31.916284,
            "lng": 107.227396
        },
        "ad_info": {
            "adcode": 511921,
            "province": "四川省",
            "city": "巴中市",
            "district": "通江县"
        }
    },
    {
        "id": "11216666283327262933",
        "title": "公共厕所",
        "address": "四川省巴中市巴州区南池南路395号",
        "tel": "",
        "category": "基础设施:公共设施:公共厕所",
        "type": 0,
        "location": {
            "lat": 31.849108,
            "lng": 106.755889
        },
        "ad_info": {
            "adcode": 511902,
            "province": "四川省",
            "city": "巴中市",
            "district": "巴州区"
        }
    },
    {
        "id": "12327347708576102558",
        "title": "公共厕所",
        "address": "四川省巴中市巴州区南龛大道与将军大道交叉口正东方向46米左右",
        "tel": "",
        "category": "基础设施:公共设施:公共厕所",
        "type": 0,
        "location": {
            "lat": 31.827607,
            "lng": 106.761285
        },
        "ad_info": {
            "adcode": 511902,
            "province": "四川省",
            "city": "巴中市",
            "district": "巴州区"
        }
    },
    {
        "id": "9265910319315443564",
        "title": "公共厕所",
        "address": "四川省巴中市通江县南街与诺江中路交叉口西南方向91米左右",
        "tel": "",
        "category": "基础设施:公共设施:公共厕所",
        "type": 0,
        "location": {
            "lat": 31.909961,
            "lng": 107.246408
        },
        "ad_info": {
            "adcode": 511921,
            "province": "四川省",
            "city": "巴中市",
            "district": "通江县"
        }
    },
    {
        "id": "4986893083148669435",
        "title": "公共厕所",
        "address": "四川省巴中市南江县西厢村古树公园北侧",
        "tel": "",
        "category": "基础设施:公共设施:公共厕所",
        "type": 0,
        "location": {
            "lat": 32.120659,
            "lng": 106.723961
        },
        "ad_info": {
            "adcode": 511922,
            "province": "四川省",
            "city": "巴中市",
            "district": "南江县"
        }
    },
    {
        "id": "15418122084726772751",
        "title": "公共厕所",
        "address": "四川省巴中市恩阳区外环路鸿锦茗城",
        "tel": "",
        "category": "基础设施:公共设施:公共厕所",
        "type": 0,
        "location": {
            "lat": 31.792348,
            "lng": 106.662527
        },
        "ad_info": {
            "adcode": 511903,
            "province": "四川省",
            "city": "巴中市",
            "district": "恩阳区"
        }
    },
    {
        "id": "7024106592630638027",
        "title": "公共厕所(凤头山)",
        "address": "四川省巴中市巴州区凤头山观景平台旁",
        "tel": "",
        "category": "基础设施:公共设施:公共厕所",
        "type": 0,
        "location": {
            "lat": 31.954491,
            "lng": 106.791255
        },
        "ad_info": {
            "adcode": 511902,
            "province": "四川省",
            "city": "巴中市",
            "district": "巴州区"
        }
    },
    {
        "id": "377390235197577286",
        "title": "公共厕所",
        "address": "四川省巴中市南江县滨河东路与光雾山大道城庙东段交叉口南200米",
        "tel": "",
        "category": "基础设施:公共设施:公共厕所",
        "type": 0,
        "location": {
            "lat": 32.359723,
            "lng": 106.857233
        },
        "ad_info": {
            "adcode": 511922,
            "province": "四川省",
            "city": "巴中市",
            "district": "南江县"
        }
    },
    {
        "id": "349146400311829549",
        "title": "公共厕所",
        "address": "四川省巴中市平昌县北滨路与巴河2号大桥交叉口正西方向287米左右",
        "tel": "",
        "category": "基础设施:公共设施:公共厕所",
        "type": 0,
        "location": {
            "lat": 31.577852,
            "lng": 107.077047
        },
        "ad_info": {
            "adcode": 511923,
            "province": "四川省",
            "city": "巴中市",
            "district": "平昌县"
        }
    },
    {
        "id": "1771028183314112843",
        "title": "公共厕所",
        "address": "四川省巴中市巴州区文苑街与江北大道西段辅路交叉口正东方向126米左右",
        "tel": "",
        "category": "基础设施:公共设施:公共厕所",
        "type": 0,
        "location": {
            "lat": 31.867162,
            "lng": 106.745959
        },
        "ad_info": {
            "adcode": 511902,
            "province": "四川省",
            "city": "巴中市",
            "district": "巴州区"
        }
    },
    {
        "id": "5121350141284689211",
        "title": "公共厕所",
        "address": "四川省巴中市通江县X165",
        "tel": "",
        "category": "基础设施:公共设施:公共厕所",
        "type": 0,
        "location": {
            "lat": 31.998471,
            "lng": 107.44574
        },
        "ad_info": {
            "adcode": 511921,
            "province": "四川省",
            "city": "巴中市",
            "district": "通江县"
        }
    },
    {
        "id": "17503848794696577747",
        "title": "公共厕所(通江县壁山森林公园游客中心停车场)",
        "address": "四川省巴中市通江县壁州大道与西华路交叉口东南方向401米左右",
        "tel": "",
        "category": "基础设施:公共设施:公共厕所",
        "type": 0,
        "location": {
            "lat": 31.916683,
            "lng": 107.222914
        },
        "ad_info": {
            "adcode": 511921,
            "province": "四川省",
            "city": "巴中市",
            "district": "通江县"
        }
    },
    {
        "id": "13791913675217941396",
        "title": "公共厕所(SC-BZ-0512)",
        "address": "四川省巴中市巴州区后河路与晏阳初大道南段交叉口东南方向560米左右",
        "tel": "",
        "category": "基础设施:公共设施:公共厕所",
        "type": 0,
        "location": {
            "lat": 31.834205,
            "lng": 106.778024
        },
        "ad_info": {
            "adcode": 511902,
            "province": "四川省",
            "city": "巴中市",
            "district": "巴州区"
        }
    },
    {
        "id": "17020893063477962741",
        "title": "公共厕所",
        "address": "四川省巴中市平昌县驷马镇双城村3组188号",
        "tel": "",
        "category": "基础设施:公共设施:公共厕所",
        "type": 0,
        "location": {
            "lat": 31.727296,
            "lng": 107.043855
        },
        "ad_info": {
            "adcode": 511923,
            "province": "四川省",
            "city": "巴中市",
            "district": "平昌县"
        }
    },
    {
        "id": "12374341846833928602",
        "title": "公共厕所(金宝山自驾游营地)",
        "address": "四川省巴中市平昌县",
        "tel": "",
        "category": "基础设施:公共设施:公共厕所",
        "type": 0,
        "location": {
            "lat": 31.531019,
            "lng": 107.059877
        },
        "ad_info": {
            "adcode": 511923,
            "province": "四川省",
            "city": "巴中市",
            "district": "平昌县"
        }
    },
    {
        "id": "15675961806096321975",
        "title": "公共厕所",
        "address": "四川省巴中市通江县石牛嘴新区大道西50米",
        "tel": "",
        "category": "基础设施:公共设施:公共厕所",
        "type": 0,
        "location": {
            "lat": 31.9252,
            "lng": 107.216936
        },
        "ad_info": {
            "adcode": 511921,
            "province": "四川省",
            "city": "巴中市",
            "district": "通江县"
        }
    },
    {
        "id": "16056781498601031280",
        "title": "公共厕所",
        "address": "四川省巴中市平昌县新华街西段67-附1号",
        "tel": "",
        "category": "基础设施:公共设施:公共厕所",
        "type": 0,
        "location": {
            "lat": 31.566562,
            "lng": 107.100371
        },
        "ad_info": {
            "adcode": 511923,
            "province": "四川省",
            "city": "巴中市",
            "district": "平昌县"
        }
    },
    {
        "id": "776977097584292187",
        "title": "公共厕所",
        "address": "四川省巴中市通江县S201与玉女大桥交叉口正东方向108米左右",
        "tel": "",
        "category": "基础设施:公共设施:公共厕所",
        "type": 0,
        "location": {
            "lat": 32.375682,
            "lng": 107.194607
        },
        "ad_info": {
            "adcode": 511921,
            "province": "四川省",
            "city": "巴中市",
            "district": "通江县"
        }
    },
    {
        "id": "11038385563792978513",
        "title": "公共厕所(登科公园商业街)",
        "address": "四川省巴中市恩阳区滨河东路与登科路二段交叉口东南方向248米左右",
        "tel": "",
        "category": "基础设施:公共设施:公共厕所",
        "type": 0,
        "location": {
            "lat": 31.794189,
            "lng": 106.643781
        },
        "ad_info": {
            "adcode": 511903,
            "province": "四川省",
            "city": "巴中市",
            "district": "恩阳区"
        }
    },
    {
        "id": "8601506425437205847",
        "title": "公共厕所(步行街)",
        "address": "四川省巴中市南江县X125与天红公路交叉口西北方向79米左右",
        "tel": "",
        "category": "基础设施:公共设施:公共厕所",
        "type": 0,
        "location": {
            "lat": 32.152363,
            "lng": 106.611449
        },
        "ad_info": {
            "adcode": 511922,
            "province": "四川省",
            "city": "巴中市",
            "district": "南江县"
        }
    },
    {
        "id": "10996431830670606657",
        "title": "公共厕所",
        "address": "四川省巴中市巴州区望王路东段与望王路西段交叉口东北方向183米左右",
        "tel": "",
        "category": "基础设施:公共设施:公共厕所",
        "type": 0,
        "location": {
            "lat": 31.861928,
            "lng": 106.754925
        },
        "ad_info": {
            "adcode": 511902,
            "province": "四川省",
            "city": "巴中市",
            "district": "巴州区"
        }
    },
    {
        "id": "1312199255499242466",
        "title": "公共厕所",
        "address": "四川省巴中市恩阳区恩阳大道中段与柏林街交叉口正东方向215米左右",
        "tel": "",
        "category": "基础设施:公共设施:公共厕所",
        "type": 0,
        "location": {
            "lat": 31.787878,
            "lng": 106.625018
        },
        "ad_info": {
            "adcode": 511903,
            "province": "四川省",
            "city": "巴中市",
            "district": "恩阳区"
        }
    },
    {
        "id": "2287119118366610331",
        "title": "公共厕所",
        "address": "四川省巴中市南江县光雾山服务区",
        "tel": "",
        "category": "基础设施:公共设施:公共厕所",
        "type": 0,
        "location": {
            "lat": 32.583394,
            "lng": 106.951007
        },
        "ad_info": {
            "adcode": 511922,
            "province": "四川省",
            "city": "巴中市",
            "district": "南江县"
        }
    },
    {
        "id": "8036482266926548705",
        "title": "公共厕所",
        "address": "四川省巴中市巴州区后坝巷与西华街交叉口东北方向79米左右",
        "tel": "",
        "category": "基础设施:公共设施:公共厕所",
        "type": 0,
        "location": {
            "lat": 31.85023,
            "lng": 106.755443
        },
        "ad_info": {
            "adcode": 511902,
            "province": "四川省",
            "city": "巴中市",
            "district": "巴州区"
        }
    },
    {
        "id": "11960998493872969360",
        "title": "公共厕所(3号)",
        "address": "四川省巴中市南江县058乡道",
        "tel": "",
        "category": "基础设施:公共设施:公共厕所",
        "type": 0,
        "location": {
            "lat": 32.661546,
            "lng": 106.902536
        },
        "ad_info": {
            "adcode": 511922,
            "province": "四川省",
            "city": "巴中市",
            "district": "南江县"
        }
    },
    {
        "id": "12224847090271525245",
        "title": "公共厕所",
        "address": "四川省巴中市巴州区文苑街与白云台街交叉口东北方向152米左右",
        "tel": "",
        "category": "基础设施:公共设施:公共厕所",
        "type": 0,
        "location": {
            "lat": 31.869088,
            "lng": 106.748026
        },
        "ad_info": {
            "adcode": 511902,
            "province": "四川省",
            "city": "巴中市",
            "district": "巴州区"
        }
    },
    {
        "id": "12561875510089738319",
        "title": "公共厕所(登科公园迎恩书院)",
        "address": "四川省巴中市恩阳区滨河东路与登科路二段交叉口东南方向213米左右",
        "tel": "",
        "category": "基础设施:公共设施:公共厕所",
        "type": 0,
        "location": {
            "lat": 31.794913,
            "lng": 106.644136
        },
        "ad_info": {
            "adcode": 511903,
            "province": "四川省",
            "city": "巴中市",
            "district": "恩阳区"
        }
    },
    {
        "id": "4917246118546661897",
        "title": "公共厕所(高速公路服务区-达州方向)",
        "address": "四川省巴中市平昌县Y095与星光大道交叉口正北方向1616米左右",
        "tel": "",
        "category": "基础设施:公共设施:公共厕所",
        "type": 0,
        "location": {
            "lat": 31.574945,
            "lng": 107.127758
        },
        "ad_info": {
            "adcode": 511923,
            "province": "四川省",
            "city": "巴中市",
            "district": "平昌县"
        }
    },
    {
        "id": "4241978024740294516",
        "title": "公共厕所(陈河景区)",
        "address": "四川省巴中市通江县陈河镇陈家坝村银耳交易中心旁",
        "tel": "",
        "category": "基础设施:公共设施:公共厕所",
        "type": 0,
        "location": {
            "lat": 32.122718,
            "lng": 107.08878
        },
        "ad_info": {
            "adcode": 511921,
            "province": "四川省",
            "city": "巴中市",
            "district": "通江县"
        }
    },
    {
        "id": "17364838695014776863",
        "title": "公共厕所",
        "address": "四川省巴中市巴州区红军路483号",
        "tel": "",
        "category": "基础设施:公共设施:公共厕所",
        "type": 0,
        "location": {
            "lat": 31.855518,
            "lng": 106.749965
        },
        "ad_info": {
            "adcode": 511902,
            "province": "四川省",
            "city": "巴中市",
            "district": "巴州区"
        }
    },
    {
        "id": "8556104729850370535",
        "title": "公共厕所",
        "address": "四川省巴中市南江县铁炉坝北游客中心",
        "tel": "",
        "category": "基础设施:公共设施:公共厕所",
        "type": 0,
        "location": {
            "lat": 32.714758,
            "lng": 106.860007
        },
        "ad_info": {
            "adcode": 511922,
            "province": "四川省",
            "city": "巴中市",
            "district": "南江县"
        }
    },
    {
        "id": "3246326749754348600",
        "title": "公共厕所",
        "address": "四川省巴中市南江县XY01与玉湖桥交叉口正东方向1005米左右",
        "tel": "",
        "category": "基础设施:公共设施:公共厕所",
        "type": 0,
        "location": {
            "lat": 32.110264,
            "lng": 106.663698
        },
        "ad_info": {
            "adcode": 511922,
            "province": "四川省",
            "city": "巴中市",
            "district": "南江县"
        }
    },
    {
        "id": "8158933902866078953",
        "title": "公共厕所",
        "address": "四川省巴中市通江县空山镇狮象把水口观景台",
        "tel": "",
        "category": "基础设施:公共设施:公共厕所",
        "type": 0,
        "location": {
            "lat": 32.461444,
            "lng": 107.433659
        },
        "ad_info": {
            "adcode": 511921,
            "province": "四川省",
            "city": "巴中市",
            "district": "通江县"
        }
    },
    {
        "id": "11797499604489121715",
        "title": "公共厕所",
        "address": "四川省巴中市南江县G244与红军西路交叉口正东方向67米左右",
        "tel": "",
        "category": "基础设施:公共设施:公共厕所",
        "type": 0,
        "location": {
            "lat": 32.723411,
            "lng": 106.863962
        },
        "ad_info": {
            "adcode": 511922,
            "province": "四川省",
            "city": "巴中市",
            "district": "南江县"
        }
    },
    {
        "id": "906407311248995008",
        "title": "公共厕所",
        "address": "四川省巴中市南江县065乡道附近",
        "tel": "",
        "category": "基础设施:公共设施:公共厕所",
        "type": 0,
        "location": {
            "lat": 32.522839,
            "lng": 106.739708
        },
        "ad_info": {
            "adcode": 511922,
            "province": "四川省",
            "city": "巴中市",
            "district": "南江县"
        }
    },
    {
        "id": "11686381450323565928",
        "title": "公共厕所",
        "address": "四川省巴中市南江县244国道与059乡道交叉口东南140米",
        "tel": "",
        "category": "基础设施:公共设施:公共厕所",
        "type": 0,
        "location": {
            "lat": 32.66651,
            "lng": 106.806338
        },
        "ad_info": {
            "adcode": 511922,
            "province": "四川省",
            "city": "巴中市",
            "district": "南江县"
        }
    },
    {
        "id": "13347287270292849992",
        "title": "公共厕所(王坪景区旅游中心)",
        "address": "四川省巴中市通江县红硕路与纪红路交叉口东北方向553米左右",
        "tel": "",
        "category": "基础设施:公共设施:公共厕所",
        "type": 0,
        "location": {
            "lat": 32.10924,
            "lng": 107.423727
        },
        "ad_info": {
            "adcode": 511921,
            "province": "四川省",
            "city": "巴中市",
            "district": "通江县"
        }
    },
    {
        "id": "15729112677643775243",
        "title": "公共厕所(金宝山青芽湖)",
        "address": "四川省巴中市平昌县",
        "tel": "",
        "category": "基础设施:公共设施:公共厕所",
        "type": 0,
        "location": {
            "lat": 31.527643,
            "lng": 107.060722
        },
        "ad_info": {
            "adcode": 511923,
            "province": "四川省",
            "city": "巴中市",
            "district": "平昌县"
        }
    },
    {
        "id": "5629089396215374325",
        "title": "公共厕所",
        "address": "四川省巴中市巴州区宕梁街与插旗山路交叉口正北方向50米左右",
        "tel": "",
        "category": "基础设施:公共设施:公共厕所",
        "type": 0,
        "location": {
            "lat": 31.849793,
            "lng": 106.779792
        },
        "ad_info": {
            "adcode": 511902,
            "province": "四川省",
            "city": "巴中市",
            "district": "巴州区"
        }
    },
    {
        "id": "12747635709991174745",
        "title": "公共厕所(王坪新游客中心负一楼)",
        "address": "四川省巴中市通江县红硕路与纪红路交叉口东北方向303米左右",
        "tel": "",
        "category": "基础设施:公共设施:公共厕所",
        "type": 0,
        "location": {
            "lat": 32.10951,
            "lng": 107.419844
        },
        "ad_info": {
            "adcode": 511921,
            "province": "四川省",
            "city": "巴中市",
            "district": "通江县"
        }
    },
    {
        "id": "15887120166202002627",
        "title": "公共厕所",
        "address": "四川省巴中市平昌县新平街东段与花园巷交叉口正北方向29米左右",
        "tel": "",
        "category": "基础设施:公共设施:公共厕所",
        "type": 0,
        "location": {
            "lat": 31.561028,
            "lng": 107.102427
        },
        "ad_info": {
            "adcode": 511923,
            "province": "四川省",
            "city": "巴中市",
            "district": "平昌县"
        }
    },
    {
        "id": "286305622715033757",
        "title": "公共厕所(神牛溪牛角佛洞)",
        "address": "四川省巴中市恩阳区战狼真人CS基地西南侧210米",
        "tel": "",
        "category": "基础设施:公共设施:公共厕所",
        "type": 0,
        "location": {
            "lat": 31.610115,
            "lng": 106.61683
        },
        "ad_info": {
            "adcode": 511903,
            "province": "四川省",
            "city": "巴中市",
            "district": "恩阳区"
        }
    },
    {
        "id": "10858713117188406043",
        "title": "公共厕所",
        "address": "四川省巴中市平昌县白鹤路与黄滩坝大道一段交叉口西南方向44米左右",
        "tel": "",
        "category": "基础设施:公共设施:公共厕所",
        "type": 0,
        "location": {
            "lat": 31.57583,
            "lng": 107.056557
        },
        "ad_info": {
            "adcode": 511923,
            "province": "四川省",
            "city": "巴中市",
            "district": "平昌县"
        }
    },
    {
        "id": "13858595023158044187",
        "title": "公共厕所",
        "address": "四川省巴中市平昌县",
        "tel": "",
        "category": "基础设施:公共设施:公共厕所",
        "type": 0,
        "location": {
            "lat": 31.56345,
            "lng": 107.107712
        },
        "ad_info": {
            "adcode": 511923,
            "province": "四川省",
            "city": "巴中市",
            "district": "平昌县"
        }
    },
    {
        "id": "4885047905939154311",
        "title": "公共厕所",
        "address": "四川省巴中市巴州区滨河南路东段蓝湾国际-B区",
        "tel": "",
        "category": "基础设施:公共设施:公共厕所",
        "type": 0,
        "location": {
            "lat": 31.854812,
            "lng": 106.770213
        },
        "ad_info": {
            "adcode": 511902,
            "province": "四川省",
            "city": "巴中市",
            "district": "巴州区"
        }
    },
    {
        "id": "7710988415981581186",
        "title": "公共厕所",
        "address": "四川省巴中市平昌县东风路与新平街东段交叉口正北方向41米左右",
        "tel": "",
        "category": "基础设施:公共设施:公共厕所",
        "type": 0,
        "location": {
            "lat": 31.559949,
            "lng": 107.108276
        },
        "ad_info": {
            "adcode": 511923,
            "province": "四川省",
            "city": "巴中市",
            "district": "平昌县"
        }
    },
    {
        "id": "9434462590924234879",
        "title": "公共厕所",
        "address": "四川省巴中市平昌县新华街西段321号",
        "tel": "",
        "category": "基础设施:公共设施:公共厕所",
        "type": 0,
        "location": {
            "lat": 31.575066,
            "lng": 107.09677
        },
        "ad_info": {
            "adcode": 511923,
            "province": "四川省",
            "city": "巴中市",
            "district": "平昌县"
        }
    },
    {
        "id": "7403570280154792331",
        "title": "公共厕所",
        "address": "四川省巴中市平昌县新平街西段与龙溪路交叉口正西方向67米左右",
        "tel": "",
        "category": "基础设施:公共设施:公共厕所",
        "type": 0,
        "location": {
            "lat": 31.581262,
            "lng": 107.086209
        },
        "ad_info": {
            "adcode": 511923,
            "province": "四川省",
            "city": "巴中市",
            "district": "平昌县"
        }
    },
    {
        "id": "14978148539989348125",
        "title": "公共厕所",
        "address": "四川省巴中市恩阳区G244与新桥河桥交叉口西南方向165米左右",
        "tel": "",
        "category": "基础设施:公共设施:公共厕所",
        "type": 0,
        "location": {
            "lat": 31.696098,
            "lng": 106.549535
        },
        "ad_info": {
            "adcode": 511903,
            "province": "四川省",
            "city": "巴中市",
            "district": "恩阳区"
        }
    },
    {
        "id": "6018022772641525798",
        "title": "公共厕所",
        "address": "四川省巴中市平昌县金宝大道一段与金宝大道二段交叉口正西方向213米左右",
        "tel": "",
        "category": "基础设施:公共设施:公共厕所",
        "type": 0,
        "location": {
            "lat": 31.576559,
            "lng": 107.052698
        },
        "ad_info": {
            "adcode": 511923,
            "province": "四川省",
            "city": "巴中市",
            "district": "平昌县"
        }
    },
    {
        "id": "14320574477798535219",
        "title": "公共厕所(平昌县旅游集散中心)",
        "address": "四川省巴中市平昌县平昌县旅游集散中心旁",
        "tel": "",
        "category": "基础设施:公共设施:公共厕所",
        "type": 0,
        "location": {
            "lat": 31.553341,
            "lng": 107.075747
        },
        "ad_info": {
            "adcode": 511923,
            "province": "四川省",
            "city": "巴中市",
            "district": "平昌县"
        }
    },
    {
        "id": "12573961981303156087",
        "title": "公共厕所(大梁山城市公园二)",
        "address": "四川省巴中市恩阳区利达广场西侧210米",
        "tel": "",
        "category": "基础设施:公共设施:公共厕所",
        "type": 0,
        "location": {
            "lat": 31.80292,
            "lng": 106.63557
        },
        "ad_info": {
            "adcode": 511903,
            "province": "四川省",
            "city": "巴中市",
            "district": "恩阳区"
        }
    },
    {
        "id": "5151532731356218079",
        "title": "公共厕所",
        "address": "四川省巴中市平昌县G542与信义大道交叉口正南方向125米左右",
        "tel": "",
        "category": "基础设施:公共设施:公共厕所",
        "type": 0,
        "location": {
            "lat": 31.580529,
            "lng": 107.069063
        },
        "ad_info": {
            "adcode": 511923,
            "province": "四川省",
            "city": "巴中市",
            "district": "平昌县"
        }
    },
    {
        "id": "4716456636161275678",
        "title": "洗手间(一号风景道)",
        "address": "四川省巴中市平昌县小桥路东段与金星大道三段交叉口正南方向152米左右",
        "tel": "",
        "category": "基础设施:公共设施:公共厕所",
        "type": 0,
        "location": {
            "lat": 31.550503,
            "lng": 107.109399
        },
        "ad_info": {
            "adcode": 511923,
            "province": "四川省",
            "city": "巴中市",
            "district": "平昌县"
        }
    },
    {
        "id": "18359410158056214652",
        "title": "公共厕所",
        "address": "四川省巴中市巴州区滨河北路中段与思民巷交叉口东80米",
        "tel": "",
        "category": "基础设施:公共设施:公共厕所",
        "type": 0,
        "location": {
            "lat": 31.855865,
            "lng": 106.75387
        },
        "ad_info": {
            "adcode": 511902,
            "province": "四川省",
            "city": "巴中市",
            "district": "巴州区"
        }
    },
    {
        "id": "12856789535420300181",
        "title": "公共厕所(万寿养生谷游客中心)",
        "address": "四川省巴中市恩阳区S2成巴高速出口与S2成巴高速交叉口西440米",
        "tel": "",
        "category": "基础设施:公共设施:公共厕所",
        "type": 0,
        "location": {
            "lat": 31.612599,
            "lng": 106.469907
        },
        "ad_info": {
            "adcode": 511903,
            "province": "四川省",
            "city": "巴中市",
            "district": "恩阳区"
        }
    },
    {
        "id": "9641289739469815014",
        "title": "无障碍公共厕所",
        "address": "四川省巴中市巴州区八角楼街与张思训街交叉口西北方向68米左右",
        "tel": "",
        "category": "基础设施:公共设施:公共厕所",
        "type": 0,
        "location": {
            "lat": 31.852702,
            "lng": 106.758284
        },
        "ad_info": {
            "adcode": 511902,
            "province": "四川省",
            "city": "巴中市",
            "district": "巴州区"
        }
    },
    {
        "id": "5438726063193976523",
        "title": "公共厕所",
        "address": "四川省巴中市巴州区望王路东段龙泉丽都",
        "tel": "",
        "category": "基础设施:公共设施:公共厕所",
        "type": 0,
        "location": {
            "lat": 31.861479,
            "lng": 106.762411
        },
        "ad_info": {
            "adcode": 511902,
            "province": "四川省",
            "city": "巴中市",
            "district": "巴州区"
        }
    },
    {
        "id": "8750548618400623649",
        "title": "法冶公园公共厕所",
        "address": "四川省巴中市巴州区通州大道7号",
        "tel": "",
        "category": "基础设施:公共设施:公共厕所",
        "type": 0,
        "location": {
            "lat": 31.851952,
            "lng": 106.844903
        },
        "ad_info": {
            "adcode": 511902,
            "province": "四川省",
            "city": "巴中市",
            "district": "巴州区"
        }
    },
    {
        "id": "3668194089458863436",
        "title": "通江停车区公共厕所",
        "address": "四川省巴中市通江县通江停车区东南40米",
        "tel": "",
        "category": "基础设施:公共设施:公共厕所",
        "type": 0,
        "location": {
            "lat": 31.850418,
            "lng": 107.260417
        },
        "ad_info": {
            "adcode": 511921,
            "province": "四川省",
            "city": "巴中市",
            "district": "通江县"
        }
    },
    {
        "id": "18054003034970639940",
        "title": "恩阳服务区公共厕所",
        "address": "四川省巴中市恩阳区恩阳大道与恩阳大道北段交叉口西北方向307米左右",
        "tel": "",
        "category": "基础设施:公共设施:公共厕所",
        "type": 0,
        "location": {
            "lat": 31.810605,
            "lng": 106.647931
        },
        "ad_info": {
            "adcode": 511903,
            "province": "四川省",
            "city": "巴中市",
            "district": "恩阳区"
        }
    },
    {
        "id": "693640886457978776",
        "title": "和平停车区公共厕所",
        "address": "四川省巴中市南江县和平停车区西侧",
        "tel": "",
        "category": "基础设施:公共设施:公共厕所",
        "type": 0,
        "location": {
            "lat": 32.068055,
            "lng": 106.561058
        },
        "ad_info": {
            "adcode": 511922,
            "province": "四川省",
            "city": "巴中市",
            "district": "南江县"
        }
    },
    {
        "id": "14489408119135249837",
        "title": "旅游厕所",
        "address": "四川省巴中市巴州区滨河南路与滨河南路东段交叉口西南方向39米左右",
        "tel": "",
        "category": "基础设施:公共设施:公共厕所",
        "type": 0,
        "location": {
            "lat": 31.851784,
            "lng": 106.771066
        },
        "ad_info": {
            "adcode": 511902,
            "province": "四川省",
            "city": "巴中市",
            "district": "巴州区"
        }
    },
    {
        "id": "1965148979850263012",
        "title": "营盘关公共厕所",
        "address": "四川省巴中市南江县光雾山景区营盘关景点",
        "tel": "",
        "category": "基础设施:公共设施:公共厕所",
        "type": 0,
        "location": {
            "lat": 32.688339,
            "lng": 106.779279
        },
        "ad_info": {
            "adcode": 511922,
            "province": "四川省",
            "city": "巴中市",
            "district": "南江县"
        }
    },
    {
        "id": "2962177841714940140",
        "title": "杨柏服务区公共厕所",
        "address": "四川省巴中市通江县中国石油葛洲坝交投杨柏服务区加气站西侧120米",
        "tel": "",
        "category": "基础设施:公共设施:公共厕所",
        "type": 0,
        "location": {
            "lat": 31.855326,
            "lng": 107.100084
        },
        "ad_info": {
            "adcode": 511921,
            "province": "四川省",
            "city": "巴中市",
            "district": "通江县"
        }
    },
    {
        "id": "15958452536904674851",
        "title": "清江停车区公共厕所",
        "address": "四川省巴中市巴州区G5012恩广高速与清江停车区交叉口西260米",
        "tel": "",
        "category": "基础设施:公共设施:公共厕所",
        "type": 0,
        "location": {
            "lat": 31.829494,
            "lng": 106.972898
        },
        "ad_info": {
            "adcode": 511902,
            "province": "四川省",
            "city": "巴中市",
            "district": "巴州区"
        }
    },
    {
        "id": "355755131380391420",
        "title": "和平停车区公共厕所",
        "address": "四川省巴中市南江县恩广高速",
        "tel": "",
        "category": "基础设施:公共设施:公共厕所",
        "type": 0,
        "location": {
            "lat": 32.067566,
            "lng": 106.562252
        },
        "ad_info": {
            "adcode": 511922,
            "province": "四川省",
            "city": "巴中市",
            "district": "南江县"
        }
    },
    {
        "id": "16659049067028299557",
        "title": "南江服务区公共厕所",
        "address": "四川省巴中市南江县石油蜀道能源南江服务区加油站西侧100米",
        "tel": "",
        "category": "基础设施:公共设施:公共厕所",
        "type": 0,
        "location": {
            "lat": 32.326605,
            "lng": 106.802359
        },
        "ad_info": {
            "adcode": 511922,
            "province": "四川省",
            "city": "巴中市",
            "district": "南江县"
        }
    },
    {
        "id": "8892684805709195772",
        "title": "南江服务区公共厕所",
        "address": "四川省巴中市南江县南江服务区与G85银昆高速交叉口西北280米",
        "tel": "",
        "category": "基础设施:公共设施:公共厕所",
        "type": 0,
        "location": {
            "lat": 32.327784,
            "lng": 106.804004
        },
        "ad_info": {
            "adcode": 511922,
            "province": "四川省",
            "city": "巴中市",
            "district": "南江县"
        }
    },
    {
        "id": "4192447265634161269",
        "title": "清江停车区公共厕所",
        "address": "四川省巴中市巴州区清江停车区与G5012恩广高速交叉口西北180米",
        "tel": "",
        "category": "基础设施:公共设施:公共厕所",
        "type": 0,
        "location": {
            "lat": 31.830107,
            "lng": 106.974321
        },
        "ad_info": {
            "adcode": 511902,
            "province": "四川省",
            "city": "巴中市",
            "district": "巴州区"
        }
    },
    {
        "id": "12666388132097031926",
        "title": "芝苞服务区公共厕所",
        "address": "四川省巴中市通江县S1成万高速与芝苞服务区交叉口西160米",
        "tel": "",
        "category": "基础设施:公共设施:公共厕所",
        "type": 0,
        "location": {
            "lat": 31.899676,
            "lng": 107.482133
        },
        "ad_info": {
            "adcode": 511921,
            "province": "四川省",
            "city": "巴中市",
            "district": "通江县"
        }
    },
    {
        "id": "11750472762393845320",
        "title": "下八庙服务区公共厕所",
        "address": "四川省巴中市恩阳区S2成巴高速与下八庙服务区交叉口东南100米",
        "tel": "",
        "category": "基础设施:公共设施:公共厕所",
        "type": 0,
        "location": {
            "lat": 31.623325,
            "lng": 106.485664
        },
        "ad_info": {
            "adcode": 511903,
            "province": "四川省",
            "city": "巴中市",
            "district": "恩阳区"
        }
    },
    {
        "id": "3991243158618834727",
        "title": "平昌服务区公共厕所",
        "address": "四川省巴中市平昌县高速公路平昌服务区巴中方向",
        "tel": "",
        "category": "基础设施:公共设施:公共厕所",
        "type": 0,
        "location": {
            "lat": 31.574437,
            "lng": 107.130461
        },
        "ad_info": {
            "adcode": 511923,
            "province": "四川省",
            "city": "巴中市",
            "district": "平昌县"
        }
    },
    {
        "id": "4414268993679325155",
        "title": "巴中服务区公共厕所",
        "address": "四川省巴中市恩阳区中国石化巴中服务区加气站西北侧",
        "tel": "",
        "category": "基础设施:公共设施:公共厕所",
        "type": 0,
        "location": {
            "lat": 31.869674,
            "lng": 106.659086
        },
        "ad_info": {
            "adcode": 511903,
            "province": "四川省",
            "city": "巴中市",
            "district": "恩阳区"
        }
    },
    {
        "id": "12539314542155928956",
        "title": "下八庙服务区第二公共厕所",
        "address": "四川省巴中市恩阳区S2成巴高速与下八庙服务区交叉口北240米",
        "tel": "",
        "category": "基础设施:公共设施:公共厕所",
        "type": 0,
        "location": {
            "lat": 31.625991,
            "lng": 106.485217
        },
        "ad_info": {
            "adcode": 511903,
            "province": "四川省",
            "city": "巴中市",
            "district": "恩阳区"
        }
    },
    {
        "id": "6954912782618614729",
        "title": "曾口服务区第一公共厕所",
        "address": "四川省巴中市巴州区银昆高速曾口服务区",
        "tel": "",
        "category": "基础设施:公共设施:公共厕所",
        "type": 0,
        "location": {
            "lat": 31.761008,
            "lng": 106.838265
        },
        "ad_info": {
            "adcode": 511902,
            "province": "四川省",
            "city": "巴中市",
            "district": "巴州区"
        }
    },
    {
        "id": "7102509132425152375",
        "title": "公共厕所(空港花田)",
        "address": "四川省巴中市恩阳区S303与机场大道交叉口东南方向1309米左右",
        "tel": "",
        "category": "基础设施:公共设施:公共厕所",
        "type": 0,
        "location": {
            "lat": 31.73574,
            "lng": 106.66547
        },
        "ad_info": {
            "adcode": 511903,
            "province": "四川省",
            "city": "巴中市",
            "district": "恩阳区"
        }
    },
    {
        "id": "7652697150018474331",
        "title": "公共厕所",
        "address": "四川省巴中市通江县南街与诺江中路交叉口正西方向76米左右",
        "tel": "",
        "category": "基础设施:公共设施:公共厕所",
        "type": 0,
        "location": {
            "lat": 31.910306,
            "lng": 107.246417
        },
        "ad_info": {
            "adcode": 511921,
            "province": "四川省",
            "city": "巴中市",
            "district": "通江县"
        }
    },
    {
        "id": "11488220863605734417",
        "title": "九寨山景区非物质文化旅游公共厕所",
        "address": "四川省巴中市巴州区九寨山景区巴山秋池环湖",
        "tel": "",
        "category": "基础设施:公共设施:公共厕所",
        "type": 0,
        "location": {
            "lat": 31.859693,
            "lng": 106.87181
        },
        "ad_info": {
            "adcode": 511902,
            "province": "四川省",
            "city": "巴中市",
            "district": "巴州区"
        }
    },
    {
        "id": "414811484030491327",
        "title": "杨柏服务区公共厕所",
        "address": "四川省巴中市通江县中国石油葛洲坝交投杨柏服务区加气站东北侧70米",
        "tel": "",
        "category": "基础设施:公共设施:公共厕所",
        "type": 0,
        "location": {
            "lat": 31.857072,
            "lng": 107.101249
        },
        "ad_info": {
            "adcode": 511921,
            "province": "四川省",
            "city": "巴中市",
            "district": "通江县"
        }
    },
    {
        "id": "6561529069683466034",
        "title": "公共厕所(谭家河湿地公园咨询服务中心)",
        "address": "四川省巴中市通江县谭家河湿地公园",
        "tel": "",
        "category": "基础设施:公共设施:公共厕所",
        "type": 0,
        "location": {
            "lat": 31.909422,
            "lng": 107.200937
        },
        "ad_info": {
            "adcode": 511921,
            "province": "四川省",
            "city": "巴中市",
            "district": "通江县"
        }
    },
    {
        "id": "10982575998461528890",
        "title": "公共厕所",
        "address": "四川省巴中市巴州区清江中心卫生院北侧170米",
        "tel": "",
        "category": "基础设施:公共设施:公共厕所",
        "type": 0,
        "location": {
            "lat": 31.853302,
            "lng": 106.972758
        },
        "ad_info": {
            "adcode": 511902,
            "province": "四川省",
            "city": "巴中市",
            "district": "巴州区"
        }
    },
    {
        "id": "10660132225914862935",
        "title": "公共厕所",
        "address": "四川省巴中市巴州区江北大道东段与莲花街交叉口西南方向103米左右",
        "tel": "",
        "category": "基础设施:公共设施:公共厕所",
        "type": 0,
        "location": {
            "lat": 31.857214,
            "lng": 106.770597
        },
        "ad_info": {
            "adcode": 511902,
            "province": "四川省",
            "city": "巴中市",
            "district": "巴州区"
        }
    },
    {
        "id": "4008462248084708508",
        "title": "曾口服务区公共厕所",
        "address": "四川省巴中市巴州区Y030与巴玉路交叉口正东方向1789米左右",
        "tel": "",
        "category": "基础设施:公共设施:公共厕所",
        "type": 0,
        "location": {
            "lat": 31.760848,
            "lng": 106.83544
        },
        "ad_info": {
            "adcode": 511902,
            "province": "四川省",
            "city": "巴中市",
            "district": "巴州区"
        }
    },
    {
        "id": "13984291460725386923",
        "title": "公共厕所",
        "address": "四川省巴中市恩阳区恩阳大道34号",
        "tel": "",
        "category": "基础设施:公共设施:公共厕所",
        "type": 0,
        "location": {
            "lat": 31.797749,
            "lng": 106.63046
        },
        "ad_info": {
            "adcode": 511903,
            "province": "四川省",
            "city": "巴中市",
            "district": "恩阳区"
        }
    },
    {
        "id": "10130082513484549311",
        "title": "公共厕所(巴州区集散中心)",
        "address": "四川省巴中市巴州区巴州区集散中心内",
        "tel": "",
        "category": "基础设施:公共设施:公共厕所",
        "type": 0,
        "location": {
            "lat": 31.859923,
            "lng": 106.748662
        },
        "ad_info": {
            "adcode": 511902,
            "province": "四川省",
            "city": "巴中市",
            "district": "巴州区"
        }
    },
    {
        "id": "11327857388688856769",
        "title": "元潭停车区公共厕所",
        "address": "四川省巴中市南江县元潭停车区南50米",
        "tel": "",
        "category": "基础设施:公共设施:公共厕所",
        "type": 0,
        "location": {
            "lat": 32.008631,
            "lng": 106.774845
        },
        "ad_info": {
            "adcode": 511922,
            "province": "四川省",
            "city": "巴中市",
            "district": "南江县"
        }
    },
    {
        "id": "8306928736230731976",
        "title": "元潭停车区公共厕所",
        "address": "四川省巴中市南江县元潭停车区北50米",
        "tel": "",
        "category": "基础设施:公共设施:公共厕所",
        "type": 0,
        "location": {
            "lat": 32.0098,
            "lng": 106.775382
        },
        "ad_info": {
            "adcode": 511922,
            "province": "四川省",
            "city": "巴中市",
            "district": "南江县"
        }
    },
    {
        "id": "9618248296516919441",
        "title": "公共厕所",
        "address": "四川省巴中市通江县空山镇李先念纪念园停车场旁",
        "tel": "",
        "category": "基础设施:公共设施:公共厕所",
        "type": 0,
        "location": {
            "lat": 32.486583,
            "lng": 107.362514
        },
        "ad_info": {
            "adcode": 511921,
            "province": "四川省",
            "city": "巴中市",
            "district": "通江县"
        }
    },
    {
        "id": "9680308364151362176",
        "title": "公共厕所(登科公园1号)",
        "address": "四川省巴中市恩阳区滨河东路与登科路二段交叉口西南方向102米左右",
        "tel": "",
        "category": "基础设施:公共设施:公共厕所",
        "type": 0,
        "location": {
            "lat": 31.795252,
            "lng": 106.641754
        },
        "ad_info": {
            "adcode": 511903,
            "province": "四川省",
            "city": "巴中市",
            "district": "恩阳区"
        }
    },
    {
        "id": "8478095649492128028",
        "title": "公共厕所(云上青山)",
        "address": "四川省巴中市巴州区平梁镇青包山村四组云上青山",
        "tel": "",
        "category": "基础设施:公共设施:公共厕所",
        "type": 0,
        "location": {
            "lat": 31.93804,
            "lng": 106.68446
        },
        "ad_info": {
            "adcode": 511902,
            "province": "四川省",
            "city": "巴中市",
            "district": "巴州区"
        }
    },
    {
        "id": "13620553313180857551",
        "title": "芝苞服务区公共厕所",
        "address": "四川省巴中市通江县芝苞服务区北30米",
        "tel": "",
        "category": "基础设施:公共设施:公共厕所",
        "type": 0,
        "location": {
            "lat": 31.895144,
            "lng": 107.474934
        },
        "ad_info": {
            "adcode": 511921,
            "province": "四川省",
            "city": "巴中市",
            "district": "通江县"
        }
    },
    {
        "id": "1952833093713972826",
        "title": "松树湾农贸市场公共厕所",
        "address": "四川省巴中市南江县长赤镇松树湾农贸市场2楼",
        "tel": "",
        "category": "基础设施:公共设施:公共厕所",
        "type": 0,
        "location": {
            "lat": 32.159429,
            "lng": 106.664435
        },
        "ad_info": {
            "adcode": 511922,
            "province": "四川省",
            "city": "巴中市",
            "district": "南江县"
        }
    },
    {
        "id": "4480417227741862714",
        "title": "公共厕所",
        "address": "四川省巴中市南江县西厢村石头记旅游厕所(网红草旁)",
        "tel": "",
        "category": "基础设施:公共设施:公共厕所",
        "type": 0,
        "location": {
            "lat": 32.120131,
            "lng": 106.730845
        },
        "ad_info": {
            "adcode": 511922,
            "province": "四川省",
            "city": "巴中市",
            "district": "南江县"
        }
    },
    {
        "id": "8771085814666952908",
        "title": "公共厕所",
        "address": "四川省巴中市巴州区东城街与小东门街交叉口正东方向61米左右",
        "tel": "",
        "category": "基础设施:公共设施:公共厕所",
        "type": 0,
        "location": {
            "lat": 31.849361,
            "lng": 106.770973
        },
        "ad_info": {
            "adcode": 511902,
            "province": "四川省",
            "city": "巴中市",
            "district": "巴州区"
        }
    },
    {
        "id": "1574541276559593976",
        "title": "下八庙服务区第一公共厕所",
        "address": "四川省巴中市恩阳区下八庙服务区与S2成巴高速交叉口北200米",
        "tel": "",
        "category": "基础设施:公共设施:公共厕所",
        "type": 0,
        "location": {
            "lat": 31.625605,
            "lng": 106.484977
        },
        "ad_info": {
            "adcode": 511903,
            "province": "四川省",
            "city": "巴中市",
            "district": "恩阳区"
        }
    },
    {
        "id": "12180904917970425175",
        "title": "公共厕所",
        "address": "四川省巴中市巴州区滨河南路与滨河南路中段交叉口正西方向65米左右",
        "tel": "",
        "category": "基础设施:公共设施:公共厕所",
        "type": 0,
        "location": {
            "lat": 31.855703,
            "lng": 106.767991
        },
        "ad_info": {
            "adcode": 511902,
            "province": "四川省",
            "city": "巴中市",
            "district": "巴州区"
        }
    },
    {
        "id": "42855914682686166",
        "title": "巴中服务区公共厕所",
        "address": "四川省巴中市恩阳区Y024与古井街交叉口西南方向1596米左右",
        "tel": "",
        "category": "基础设施:公共设施:公共厕所",
        "type": 0,
        "location": {
            "lat": 31.868626,
            "lng": 106.661118
        },
        "ad_info": {
            "adcode": 511903,
            "province": "四川省",
            "city": "巴中市",
            "district": "恩阳区"
        }
    },
    {
        "id": "431425015864573347",
        "title": "公共厕所",
        "address": "四川省巴中市南江县米仓山大道南磷段与米仓山大道南磷路交叉口正北方向37米左右",
        "tel": "",
        "category": "基础设施:公共设施:公共厕所",
        "type": 0,
        "location": {
            "lat": 32.34527,
            "lng": 106.83961
        },
        "ad_info": {
            "adcode": 511922,
            "province": "四川省",
            "city": "巴中市",
            "district": "南江县"
        }
    },
    {
        "id": "10472881778500026095",
        "title": "公共厕所",
        "address": "四川省巴中市巴州区红佛路与通佛路交叉口正东方向69米左右",
        "tel": "",
        "category": "基础设施:公共设施:公共厕所",
        "type": 0,
        "location": {
            "lat": 31.849973,
            "lng": 106.753092
        },
        "ad_info": {
            "adcode": 511902,
            "province": "四川省",
            "city": "巴中市",
            "district": "巴州区"
        }
    },
    {
        "id": "1576968900096250917",
        "title": "公共厕所",
        "address": "四川省巴中市通江县S201与通宣路交叉口西南方向125米左右",
        "tel": "",
        "category": "基础设施:公共设施:公共厕所",
        "type": 0,
        "location": {
            "lat": 32.375735,
            "lng": 107.196001
        },
        "ad_info": {
            "adcode": 511921,
            "province": "四川省",
            "city": "巴中市",
            "district": "通江县"
        }
    },
    {
        "id": "5523892109288055279",
        "title": "公共厕所",
        "address": "四川省巴中市巴州区滨河北路西段与白云台街交叉口西南方向316米左右",
        "tel": "",
        "category": "基础设施:公共设施:公共厕所",
        "type": 0,
        "location": {
            "lat": 31.863365,
            "lng": 106.741411
        },
        "ad_info": {
            "adcode": 511902,
            "province": "四川省",
            "city": "巴中市",
            "district": "巴州区"
        }
    },
    {
        "id": "3184360610516827994",
        "title": "公共厕所",
        "address": "四川省巴中市南江县滨河西路110号",
        "tel": "",
        "category": "基础设施:公共设施:公共厕所",
        "type": 0,
        "location": {
            "lat": 32.346279,
            "lng": 106.829299
        },
        "ad_info": {
            "adcode": 511922,
            "province": "四川省",
            "city": "巴中市",
            "district": "南江县"
        }
    },
    {
        "id": "5637950191982468606",
        "title": "公共厕所",
        "address": "四川省巴中市南江县光雾山大道红星中段与下河街交叉口南260米",
        "tel": "",
        "category": "基础设施:公共设施:公共厕所",
        "type": 0,
        "location": {
            "lat": 32.348153,
            "lng": 106.837111
        },
        "ad_info": {
            "adcode": 511922,
            "province": "四川省",
            "city": "巴中市",
            "district": "南江县"
        }
    },
    {
        "id": "8340273157214212269",
        "title": "公共厕所",
        "address": "四川省巴中市通江县S201",
        "tel": "",
        "category": "基础设施:公共设施:公共厕所",
        "type": 0,
        "location": {
            "lat": 31.979175,
            "lng": 107.210547
        },
        "ad_info": {
            "adcode": 511921,
            "province": "四川省",
            "city": "巴中市",
            "district": "通江县"
        }
    },
    {
        "id": "16741722658480274561",
        "title": "公共厕所",
        "address": "四川省巴中市巴州区后河路与晏阳初大道南段交叉口正北方向73米左右",
        "tel": "",
        "category": "基础设施:公共设施:公共厕所",
        "type": 0,
        "location": {
            "lat": 31.838327,
            "lng": 106.773946
        },
        "ad_info": {
            "adcode": 511902,
            "province": "四川省",
            "city": "巴中市",
            "district": "巴州区"
        }
    },
    {
        "id": "1069832187977880964",
        "title": "洗手间",
        "address": "四川省巴中市通江县新场公路服务区",
        "tel": "",
        "category": "基础设施:公共设施:公共厕所",
        "type": 0,
        "location": {
            "lat": 32.128581,
            "lng": 107.182086
        },
        "ad_info": {
            "adcode": 511921,
            "province": "四川省",
            "city": "巴中市",
            "district": "通江县"
        }
    },
    {
        "id": "7012952887145317966",
        "title": "公共厕所",
        "address": "四川省巴中市通江县南街与诺江中路交叉口西南方向73米左右",
        "tel": "",
        "category": "基础设施:公共设施:公共厕所",
        "type": 0,
        "location": {
            "lat": 31.909928,
            "lng": 107.24671
        },
        "ad_info": {
            "adcode": 511921,
            "province": "四川省",
            "city": "巴中市",
            "district": "通江县"
        }
    },
    {
        "id": "2400815239652329779",
        "title": "公共厕所",
        "address": "四川省巴中市巴州区二环路与云台街交叉口正西方向130米左右",
        "tel": "",
        "category": "基础设施:公共设施:公共厕所",
        "type": 0,
        "location": {
            "lat": 31.859107,
            "lng": 106.743384
        },
        "ad_info": {
            "adcode": 511902,
            "province": "四川省",
            "city": "巴中市",
            "district": "巴州区"
        }
    },
    {
        "id": "578573160435788624",
        "title": "公共厕所(龙熙国际)",
        "address": "四川省巴中市平昌县龙熙国际高速方向路口",
        "tel": "",
        "category": "基础设施:公共设施:公共厕所",
        "type": 0,
        "location": {
            "lat": 31.584694,
            "lng": 107.090716
        },
        "ad_info": {
            "adcode": 511923,
            "province": "四川省",
            "city": "巴中市",
            "district": "平昌县"
        }
    },
    {
        "id": "13025292455541240596",
        "title": "公共厕所",
        "address": "四川省巴中市巴州区宕梁街与插旗山路交叉口正北方向95米左右",
        "tel": "",
        "category": "基础设施:公共设施:公共厕所",
        "type": 0,
        "location": {
            "lat": 31.850217,
            "lng": 106.7798
        },
        "ad_info": {
            "adcode": 511902,
            "province": "四川省",
            "city": "巴中市",
            "district": "巴州区"
        }
    },
    {
        "id": "14933115524748194445",
        "title": "公共厕所",
        "address": "四川省巴中市巴州区滨河南路62号",
        "tel": "",
        "category": "基础设施:公共设施:公共厕所",
        "type": 0,
        "location": {
            "lat": 31.854469,
            "lng": 106.76473
        },
        "ad_info": {
            "adcode": 511902,
            "province": "四川省",
            "city": "巴中市",
            "district": "巴州区"
        }
    },
    {
        "id": "13662729100570867502",
        "title": "公共厕所",
        "address": "四川省巴中市南江县XY01与Y073交叉口东南方向321米左右",
        "tel": "",
        "category": "基础设施:公共设施:公共厕所",
        "type": 0,
        "location": {
            "lat": 32.099144,
            "lng": 106.669715
        },
        "ad_info": {
            "adcode": 511922,
            "province": "四川省",
            "city": "巴中市",
            "district": "南江县"
        }
    },
    {
        "id": "5007283157076955201",
        "title": "公共厕所",
        "address": "四川省巴中市南江县G244与东榆大桥交叉口正北方向82米左右",
        "tel": "",
        "category": "基础设施:公共设施:公共厕所",
        "type": 0,
        "location": {
            "lat": 32.297677,
            "lng": 106.817782
        },
        "ad_info": {
            "adcode": 511922,
            "province": "四川省",
            "city": "巴中市",
            "district": "南江县"
        }
    },
    {
        "id": "18274711475276168924",
        "title": "公共厕所",
        "address": "四川省巴中市巴州区滨河南路中段与凤谷街交叉口东南260米",
        "tel": "",
        "category": "基础设施:公共设施:公共厕所",
        "type": 0,
        "location": {
            "lat": 31.853662,
            "lng": 106.753106
        },
        "ad_info": {
            "adcode": 511902,
            "province": "四川省",
            "city": "巴中市",
            "district": "巴州区"
        }
    },
    {
        "id": "18299624138931304368",
        "title": "公共厕所",
        "address": "四川省巴中市恩阳区G347中国石油渔溪加油站",
        "tel": "",
        "category": "基础设施:公共设施:公共厕所",
        "type": 0,
        "location": {
            "lat": 31.813752,
            "lng": 106.495451
        },
        "ad_info": {
            "adcode": 511903,
            "province": "四川省",
            "city": "巴中市",
            "district": "恩阳区"
        }
    },
    {
        "id": "5273447951759825912",
        "title": "公共厕所",
        "address": "四川省巴中市巴州区回风路与江北大道西段交叉口东南方向331米左右",
        "tel": "",
        "category": "基础设施:公共设施:公共厕所",
        "type": 0,
        "location": {
            "lat": 31.890734,
            "lng": 106.748972
        },
        "ad_info": {
            "adcode": 511902,
            "province": "四川省",
            "city": "巴中市",
            "district": "巴州区"
        }
    },
    {
        "id": "4567922876605250457",
        "title": "公共厕所",
        "address": "四川省巴中市南江县西佛路与光雾山大道红星段交叉口东北100米",
        "tel": "",
        "category": "基础设施:公共设施:公共厕所",
        "type": 0,
        "location": {
            "lat": 32.353074,
            "lng": 106.839177
        },
        "ad_info": {
            "adcode": 511922,
            "province": "四川省",
            "city": "巴中市",
            "district": "南江县"
        }
    },
    {
        "id": "15121899687347074022",
        "title": "公共厕所",
        "address": "四川省巴中市通江县江城街与石牛大道交叉口正东方向234米左右",
        "tel": "",
        "category": "基础设施:公共设施:公共厕所",
        "type": 0,
        "location": {
            "lat": 31.912917,
            "lng": 107.21078
        },
        "ad_info": {
            "adcode": 511921,
            "province": "四川省",
            "city": "巴中市",
            "district": "通江县"
        }
    },
    {
        "id": "3017927129561133256",
        "title": "公共厕所",
        "address": "四川省巴中市恩阳区团结街与龙门街交叉口西北方向1472米左右",
        "tel": "",
        "category": "基础设施:公共设施:公共厕所",
        "type": 0,
        "location": {
            "lat": 31.600609,
            "lng": 106.471659
        },
        "ad_info": {
            "adcode": 511903,
            "province": "四川省",
            "city": "巴中市",
            "district": "恩阳区"
        }
    },
    {
        "id": "8369662266608400269",
        "title": "公共厕所",
        "address": "四川省巴中市恩阳区凤凰街193号附近",
        "tel": "",
        "category": "基础设施:公共设施:公共厕所",
        "type": 0,
        "location": {
            "lat": 31.625875,
            "lng": 106.458499
        },
        "ad_info": {
            "adcode": 511903,
            "province": "四川省",
            "city": "巴中市",
            "district": "恩阳区"
        }
    },
    {
        "id": "12841958026030587054",
        "title": "公共厕所",
        "address": "四川省巴中市巴州区二环路与凤谷街交叉口西南方向208米左右",
        "tel": "",
        "category": "基础设施:公共设施:公共厕所",
        "type": 0,
        "location": {
            "lat": 31.850619,
            "lng": 106.746786
        },
        "ad_info": {
            "adcode": 511902,
            "province": "四川省",
            "city": "巴中市",
            "district": "巴州区"
        }
    },
    {
        "id": "11232566819289351914",
        "title": "公共厕所",
        "address": "四川省巴中市南江县光雾山大道与黄金大桥交叉口正北方向120米左右",
        "tel": "",
        "category": "基础设施:公共设施:公共厕所",
        "type": 0,
        "location": {
            "lat": 32.328141,
            "lng": 106.818088
        },
        "ad_info": {
            "adcode": 511922,
            "province": "四川省",
            "city": "巴中市",
            "district": "南江县"
        }
    },
    {
        "id": "11095111002719777317",
        "title": "公共厕所",
        "address": "四川省巴中市平昌县北滨路与黄滩坝大道一段交叉口西南100米",
        "tel": "",
        "category": "基础设施:公共设施:公共厕所",
        "type": 0,
        "location": {
            "lat": 31.575146,
            "lng": 107.067625
        },
        "ad_info": {
            "adcode": 511923,
            "province": "四川省",
            "city": "巴中市",
            "district": "平昌县"
        }
    },
    {
        "id": "4098811346747769091",
        "title": "公共厕所",
        "address": "四川省巴中市巴州区将军大道与福源街交叉口东南方向808米左右",
        "tel": "",
        "category": "基础设施:公共设施:公共厕所",
        "type": 0,
        "location": {
            "lat": 31.830587,
            "lng": 106.768899
        },
        "ad_info": {
            "adcode": 511902,
            "province": "四川省",
            "city": "巴中市",
            "district": "巴州区"
        }
    },
    {
        "id": "9018785048210774374",
        "title": "渔溪镇公共厕所",
        "address": "四川省巴中市恩阳区龙嘴大街5号",
        "tel": "",
        "category": "基础设施:公共设施:公共厕所",
        "type": 0,
        "location": {
            "lat": 31.814802,
            "lng": 106.489009
        },
        "ad_info": {
            "adcode": 511903,
            "province": "四川省",
            "city": "巴中市",
            "district": "恩阳区"
        }
    },
    {
        "id": "2031214803083217262",
        "title": "公共厕所",
        "address": "四川省巴中市巴州区万阿路与东岳路交叉口东北方向875米左右",
        "tel": "",
        "category": "基础设施:公共设施:公共厕所",
        "type": 0,
        "location": {
            "lat": 31.83604,
            "lng": 106.697793
        },
        "ad_info": {
            "adcode": 511902,
            "province": "四川省",
            "city": "巴中市",
            "district": "巴州区"
        }
    },
    {
        "id": "9181373970919281583",
        "title": "公共厕所",
        "address": "四川省巴中市巴州区凤谷街与滨河南路中段交叉口正西方向42米左右",
        "tel": "",
        "category": "基础设施:公共设施:公共厕所",
        "type": 0,
        "location": {
            "lat": 31.85483,
            "lng": 106.750274
        },
        "ad_info": {
            "adcode": 511902,
            "province": "四川省",
            "city": "巴中市",
            "district": "巴州区"
        }
    },
    {
        "id": "8787687321075354494",
        "title": "公共厕所",
        "address": "四川省巴中市巴州区宕梁街与插旗山路交叉口正西方向40米左右",
        "tel": "",
        "category": "基础设施:公共设施:公共厕所",
        "type": 0,
        "location": {
            "lat": 31.84936,
            "lng": 106.779555
        },
        "ad_info": {
            "adcode": 511902,
            "province": "四川省",
            "city": "巴中市",
            "district": "巴州区"
        }
    },
    {
        "id": "10133815856983510847",
        "title": "公共厕所",
        "address": "四川省巴中市巴州区江北大道中段与状元巷交叉口东南100米",
        "tel": "",
        "category": "基础设施:公共设施:公共厕所",
        "type": 0,
        "location": {
            "lat": 31.85636,
            "lng": 106.763003
        },
        "ad_info": {
            "adcode": 511902,
            "province": "四川省",
            "city": "巴中市",
            "district": "巴州区"
        }
    },
    {
        "id": "18103902029479932554",
        "title": "无障碍公共厕所",
        "address": "四川省巴中市巴州区二环路与红佛路交叉口正西方向135米左右",
        "tel": "",
        "category": "基础设施:公共设施:公共厕所",
        "type": 0,
        "location": {
            "lat": 31.848688,
            "lng": 106.74974
        },
        "ad_info": {
            "adcode": 511902,
            "province": "四川省",
            "city": "巴中市",
            "district": "巴州区"
        }
    },
    {
        "id": "6605329235011749968",
        "title": "公共厕所",
        "address": "四川省巴中市平昌县新华街西段与新平街西段交叉口正北方向525米左右",
        "tel": "",
        "category": "基础设施:公共设施:公共厕所",
        "type": 0,
        "location": {
            "lat": 31.57757,
            "lng": 107.094848
        },
        "ad_info": {
            "adcode": 511923,
            "province": "四川省",
            "city": "巴中市",
            "district": "平昌县"
        }
    },
    {
        "id": "14318530813083367284",
        "title": "光雾山旅游景区-公共厕所",
        "address": "四川省巴中市南江县大圣护经景点附近",
        "tel": "",
        "category": "基础设施:公共设施:公共厕所",
        "type": 0,
        "location": {
            "lat": 32.657775,
            "lng": 106.748035
        },
        "ad_info": {
            "adcode": 511922,
            "province": "四川省",
            "city": "巴中市",
            "district": "南江县"
        }
    },
    {
        "id": "2461614937478737258",
        "title": "公共厕所",
        "address": "四川省巴中市巴州区南杨大桥与将军大道交叉口东北方向91米左右",
        "tel": "",
        "category": "基础设施:公共设施:公共厕所",
        "type": 0,
        "location": {
            "lat": 31.82597,
            "lng": 106.761755
        },
        "ad_info": {
            "adcode": 511902,
            "province": "四川省",
            "city": "巴中市",
            "district": "巴州区"
        }
    },
    {
        "id": "15718614023581252082",
        "title": "古镇游客中心三号公共厕所",
        "address": "四川省巴中市恩阳区魁字湾一街197号",
        "tel": "",
        "category": "基础设施:公共设施:公共厕所",
        "type": 0,
        "location": {
            "lat": 31.793945,
            "lng": 106.632134
        },
        "ad_info": {
            "adcode": 511903,
            "province": "四川省",
            "city": "巴中市",
            "district": "恩阳区"
        }
    },
    {
        "id": "7508708877123128846",
        "title": "曾口服务区第二公共厕所",
        "address": "四川省巴中市巴州区Y030与巴玉路交叉口正东方向1937米左右",
        "tel": "",
        "category": "基础设施:公共设施:公共厕所",
        "type": 0,
        "location": {
            "lat": 31.761876,
            "lng": 106.837327
        },
        "ad_info": {
            "adcode": 511902,
            "province": "四川省",
            "city": "巴中市",
            "district": "巴州区"
        }
    },
    {
        "id": "815233661242621423",
        "title": "公共厕所",
        "address": "四川省巴中市巴州区G244与成巴高速交叉口东北方向826米左右",
        "tel": "",
        "category": "基础设施:公共设施:公共厕所",
        "type": 0,
        "location": {
            "lat": 31.920862,
            "lng": 106.754523
        },
        "ad_info": {
            "adcode": 511902,
            "province": "四川省",
            "city": "巴中市",
            "district": "巴州区"
        }
    },
    {
        "id": "8875590063265648885",
        "title": "公共厕所",
        "address": "四川省巴中市巴州区将军大道与福源街交叉口东南方向796米左右",
        "tel": "",
        "category": "基础设施:公共设施:公共厕所",
        "type": 0,
        "location": {
            "lat": 31.830805,
            "lng": 106.769073
        },
        "ad_info": {
            "adcode": 511902,
            "province": "四川省",
            "city": "巴中市",
            "district": "巴州区"
        }
    },
    {
        "id": "7765894517333139373",
        "title": "公共厕所",
        "address": "四川省巴中市平昌县北滨路与新平街西段交叉口正西方向203米左右",
        "tel": "",
        "category": "基础设施:公共设施:公共厕所",
        "type": 0,
        "location": {
            "lat": 31.579553,
            "lng": 107.081459
        },
        "ad_info": {
            "adcode": 511923,
            "province": "四川省",
            "city": "巴中市",
            "district": "平昌县"
        }
    },
    {
        "id": "9000881880535975979",
        "title": "公共厕所",
        "address": "四川省巴中市巴州区状元桥街与轿子巷交叉口正北方向33米左右",
        "tel": "",
        "category": "基础设施:公共设施:公共厕所",
        "type": 0,
        "location": {
            "lat": 31.859454,
            "lng": 106.762059
        },
        "ad_info": {
            "adcode": 511902,
            "province": "四川省",
            "city": "巴中市",
            "district": "巴州区"
        }
    },
    {
        "id": "9161889328457462350",
        "title": "公共厕所",
        "address": "四川省巴中市通江县书院街与红星路中段交叉口正西方向39米左右",
        "tel": "",
        "category": "基础设施:公共设施:公共厕所",
        "type": 0,
        "location": {
            "lat": 31.911348,
            "lng": 107.246874
        },
        "ad_info": {
            "adcode": 511921,
            "province": "四川省",
            "city": "巴中市",
            "district": "通江县"
        }
    },
    {
        "id": "2543860414349740792",
        "title": "公共厕所",
        "address": "四川省巴中市南江县米仓山国家森林公园游客中心西侧400米",
        "tel": "",
        "category": "基础设施:公共设施:公共厕所",
        "type": 0,
        "location": {
            "lat": 32.713185,
            "lng": 106.860012
        },
        "ad_info": {
            "adcode": 511922,
            "province": "四川省",
            "city": "巴中市",
            "district": "南江县"
        }
    },
    {
        "id": "8456636282077924336",
        "title": "公共厕所",
        "address": "四川省巴中市南江县长赤镇书院街191号巷子尽头拐角处",
        "tel": "",
        "category": "基础设施:公共设施:公共厕所",
        "type": 0,
        "location": {
            "lat": 32.160027,
            "lng": 106.663452
        },
        "ad_info": {
            "adcode": 511922,
            "province": "四川省",
            "city": "巴中市",
            "district": "南江县"
        }
    },
    {
        "id": "9865294886960306098",
        "title": "单位公共厕所",
        "address": "四川省巴中市巴州区八角楼街16号",
        "tel": "",
        "category": "基础设施:公共设施:公共厕所",
        "type": 0,
        "location": {
            "lat": 31.851434,
            "lng": 106.763194
        },
        "ad_info": {
            "adcode": 511902,
            "province": "四川省",
            "city": "巴中市",
            "district": "巴州区"
        }
    },
    {
        "id": "13247838004887751586",
        "title": "公共卫生间",
        "address": "四川省巴中市巴州区新市街34号",
        "tel": "",
        "category": "基础设施:公共设施:公共厕所",
        "type": 0,
        "location": {
            "lat": 31.849075,
            "lng": 106.765169
        },
        "ad_info": {
            "adcode": 511902,
            "province": "四川省",
            "city": "巴中市",
            "district": "巴州区"
        }
    },
    {
        "id": "2640147462650012900",
        "title": "公共厕所(神牛溪农耕文化产业园)",
        "address": "四川省巴中市恩阳区神牛溪农场西北侧",
        "tel": "",
        "category": "基础设施:公共设施:公共厕所",
        "type": 0,
        "location": {
            "lat": 31.615579,
            "lng": 106.615178
        },
        "ad_info": {
            "adcode": 511903,
            "province": "四川省",
            "city": "巴中市",
            "district": "恩阳区"
        }
    },
    {
        "id": "14185413301485042837",
        "title": "公共厕所",
        "address": "四川省巴中市南江县滨河东路11号",
        "tel": "",
        "category": "基础设施:公共设施:公共厕所",
        "type": 0,
        "location": {
            "lat": 32.356663,
            "lng": 106.847281
        },
        "ad_info": {
            "adcode": 511922,
            "province": "四川省",
            "city": "巴中市",
            "district": "南江县"
        }
    },
    {
        "id": "12196526640796791398",
        "title": "公共厕所",
        "address": "四川省巴中市恩阳区凤鸣街与新凤街交叉口东北方向302米左右",
        "tel": "",
        "category": "基础设施:公共设施:公共厕所",
        "type": 0,
        "location": {
            "lat": 31.708724,
            "lng": 106.553535
        },
        "ad_info": {
            "adcode": 511903,
            "province": "四川省",
            "city": "巴中市",
            "district": "恩阳区"
        }
    },
    {
        "id": "12033301861390895943",
        "title": "公共厕所",
        "address": "四川省巴中市南江县滨河西路84号",
        "tel": "",
        "category": "基础设施:公共设施:公共厕所",
        "type": 0,
        "location": {
            "lat": 32.348247,
            "lng": 106.831748
        },
        "ad_info": {
            "adcode": 511922,
            "province": "四川省",
            "city": "巴中市",
            "district": "南江县"
        }
    },
    {
        "id": "6909275246970658936",
        "title": "通木嘴公共厕所",
        "address": "四川省巴中市南江县光雾山景区通木嘴景点",
        "tel": "",
        "category": "基础设施:公共设施:公共厕所",
        "type": 0,
        "location": {
            "lat": 32.660617,
            "lng": 106.749069
        },
        "ad_info": {
            "adcode": 511922,
            "province": "四川省",
            "city": "巴中市",
            "district": "南江县"
        }
    },
    {
        "id": "2681030772414297706",
        "title": "公共厕所",
        "address": "四川省巴中市巴州区铁塔街与长寿路交叉口正东方向50米左右",
        "tel": "",
        "category": "基础设施:公共设施:公共厕所",
        "type": 0,
        "location": {
            "lat": 31.862817,
            "lng": 106.730657
        },
        "ad_info": {
            "adcode": 511902,
            "province": "四川省",
            "city": "巴中市",
            "district": "巴州区"
        }
    },
    {
        "id": "11559523683456661333",
        "title": "公共厕所",
        "address": "四川省巴中市巴州区油房后街与莲花街交叉口正南方向56米左右",
        "tel": "",
        "category": "基础设施:公共设施:公共厕所",
        "type": 0,
        "location": {
            "lat": 31.855913,
            "lng": 106.778074
        },
        "ad_info": {
            "adcode": 511902,
            "province": "四川省",
            "city": "巴中市",
            "district": "巴州区"
        }
    },
    {
        "id": "15902143633530214363",
        "title": "公共厕所",
        "address": "四川省巴中市巴州区白云台街27号",
        "tel": "",
        "category": "基础设施:公共设施:公共厕所",
        "type": 0,
        "location": {
            "lat": 31.862584,
            "lng": 106.745762
        },
        "ad_info": {
            "adcode": 511902,
            "province": "四川省",
            "city": "巴中市",
            "district": "巴州区"
        }
    },
    {
        "id": "2659447515098139429",
        "title": "公共厕所",
        "address": "四川省巴中市巴州区江北大道西段445西南方向110米",
        "tel": "",
        "category": "基础设施:公共设施:公共厕所",
        "type": 0,
        "location": {
            "lat": 31.882715,
            "lng": 106.74581
        },
        "ad_info": {
            "adcode": 511902,
            "province": "四川省",
            "city": "巴中市",
            "district": "巴州区"
        }
    }
]