[
    {
        "id": "15556372101937844548",
        "title": "公共厕所",
        "address": "内蒙古自治区巴彦淖尔市临河区新华西街与水源路交叉口东南方向149米左右",
        "tel": "",
        "category": "基础设施:公共设施:公共厕所",
        "type": 0,
        "location": {
            "lat": 40.744783,
            "lng": 107.399125
        },
        "ad_info": {
            "adcode": 150802,
            "province": "内蒙古自治区",
            "city": "巴彦淖尔市",
            "district": "临河区"
        }
    },
    {
        "id": "6232374220533857298",
        "title": "公共厕所",
        "address": "内蒙古自治区巴彦淖尔市乌拉特后旗东环路与那仁宝力格街交叉口正北方向96米左右",
        "tel": "",
        "category": "基础设施:公共设施:公共厕所",
        "type": 0,
        "location": {
            "lat": 41.08034,
            "lng": 107.095381
        },
        "ad_info": {
            "adcode": 150825,
            "province": "内蒙古自治区",
            "city": "巴彦淖尔市",
            "district": "乌拉特后旗"
        }
    },
    {
        "id": "5323830984730847005",
        "title": "公共厕所",
        "address": "内蒙古自治区巴彦淖尔市临河区临河区财政局南",
        "tel": "",
        "category": "基础设施:公共设施:公共厕所",
        "type": 0,
        "location": {
            "lat": 40.739896,
            "lng": 107.384474
        },
        "ad_info": {
            "adcode": 150802,
            "province": "内蒙古自治区",
            "city": "巴彦淖尔市",
            "district": "临河区"
        }
    },
    {
        "id": "10714705102342030677",
        "title": "公共厕所",
        "address": "内蒙古自治区巴彦淖尔市临河区光辉路与永安街交叉口西南方向156米左右",
        "tel": "",
        "category": "基础设施:公共设施:公共厕所",
        "type": 0,
        "location": {
            "lat": 40.7588,
            "lng": 107.422338
        },
        "ad_info": {
            "adcode": 150802,
            "province": "内蒙古自治区",
            "city": "巴彦淖尔市",
            "district": "临河区"
        }
    },
    {
        "id": "3603861206313497409",
        "title": "公共厕所",
        "address": "内蒙古自治区巴彦淖尔市临河区沃野街巴彦淖尔市医院",
        "tel": "",
        "category": "基础设施:公共设施:公共厕所",
        "type": 0,
        "location": {
            "lat": 40.730533,
            "lng": 107.385189
        },
        "ad_info": {
            "adcode": 150802,
            "province": "内蒙古自治区",
            "city": "巴彦淖尔市",
            "district": "临河区"
        }
    },
    {
        "id": "10734698299575398217",
        "title": "公共厕所",
        "address": "内蒙古自治区巴彦淖尔市临河区建设路与新华东街交叉口西北方向51米左右",
        "tel": "",
        "category": "基础设施:公共设施:公共厕所",
        "type": 0,
        "location": {
            "lat": 40.759419,
            "lng": 107.427011
        },
        "ad_info": {
            "adcode": 150802,
            "province": "内蒙古自治区",
            "city": "巴彦淖尔市",
            "district": "临河区"
        }
    },
    {
        "id": "15272216848070917956",
        "title": "公共厕所",
        "address": "内蒙古自治区巴彦淖尔市临河区万丰街与光辉路交叉口正北方向90米左右",
        "tel": "",
        "category": "基础设施:公共设施:公共厕所",
        "type": 0,
        "location": {
            "lat": 40.750953,
            "lng": 107.430573
        },
        "ad_info": {
            "adcode": 150802,
            "province": "内蒙古自治区",
            "city": "巴彦淖尔市",
            "district": "临河区"
        }
    },
    {
        "id": "108175229814307051",
        "title": "公共厕所",
        "address": "内蒙古自治区巴彦淖尔市临河区利民东街与利民街交叉口正东方向39米左右",
        "tel": "",
        "category": "基础设施:公共设施:公共厕所",
        "type": 0,
        "location": {
            "lat": 40.763458,
            "lng": 107.424602
        },
        "ad_info": {
            "adcode": 150802,
            "province": "内蒙古自治区",
            "city": "巴彦淖尔市",
            "district": "临河区"
        }
    },
    {
        "id": "7776409098328763741",
        "title": "公共厕所",
        "address": "内蒙古自治区巴彦淖尔市临河区车站办事处火车站出站口",
        "tel": "",
        "category": "基础设施:公共设施:公共厕所",
        "type": 0,
        "location": {
            "lat": 40.744606,
            "lng": 107.429232
        },
        "ad_info": {
            "adcode": 150802,
            "province": "内蒙古自治区",
            "city": "巴彦淖尔市",
            "district": "临河区"
        }
    },
    {
        "id": "1374409467978302172",
        "title": "公共厕所",
        "address": "内蒙古自治区巴彦淖尔市临河区北环办社区卫生服务中心南侧80米",
        "tel": "",
        "category": "基础设施:公共设施:公共厕所",
        "type": 0,
        "location": {
            "lat": 40.780303,
            "lng": 107.411724
        },
        "ad_info": {
            "adcode": 150802,
            "province": "内蒙古自治区",
            "city": "巴彦淖尔市",
            "district": "临河区"
        }
    },
    {
        "id": "1066368936784490184",
        "title": "公共厕所",
        "address": "内蒙古自治区巴彦淖尔市临河区曙光街与胜利南路交叉口东北方向79米左右",
        "tel": "",
        "category": "基础设施:公共设施:公共厕所",
        "type": 0,
        "location": {
            "lat": 40.746389,
            "lng": 107.42769
        },
        "ad_info": {
            "adcode": 150802,
            "province": "内蒙古自治区",
            "city": "巴彦淖尔市",
            "district": "临河区"
        }
    },
    {
        "id": "12654753465464088931",
        "title": "公共厕所",
        "address": "内蒙古自治区巴彦淖尔市临河区利民西街与水源路交叉口东北方向285米左右",
        "tel": "",
        "category": "基础设施:公共设施:公共厕所",
        "type": 0,
        "location": {
            "lat": 40.751843,
            "lng": 107.397025
        },
        "ad_info": {
            "adcode": 150802,
            "province": "内蒙古自治区",
            "city": "巴彦淖尔市",
            "district": "临河区"
        }
    },
    {
        "id": "7800452736353860229",
        "title": "公共厕所",
        "address": "内蒙古自治区巴彦淖尔市临河区团结路中国石油新华街加油站旁",
        "tel": "",
        "category": "基础设施:公共设施:公共厕所",
        "type": 0,
        "location": {
            "lat": 40.751511,
            "lng": 107.412917
        },
        "ad_info": {
            "adcode": 150802,
            "province": "内蒙古自治区",
            "city": "巴彦淖尔市",
            "district": "临河区"
        }
    },
    {
        "id": "8617096290482870943",
        "title": "公共厕所",
        "address": "内蒙古自治区巴彦淖尔市乌拉特前旗教育路桃李苑",
        "tel": "",
        "category": "基础设施:公共设施:公共厕所",
        "type": 0,
        "location": {
            "lat": 40.726996,
            "lng": 108.654512
        },
        "ad_info": {
            "adcode": 150823,
            "province": "内蒙古自治区",
            "city": "巴彦淖尔市",
            "district": "乌拉特前旗"
        }
    },
    {
        "id": "5457421534717534932",
        "title": "公共厕所",
        "address": "内蒙古自治区巴彦淖尔市临河区团结南路51号",
        "tel": "",
        "category": "基础设施:公共设施:公共厕所",
        "type": 0,
        "location": {
            "lat": 40.746528,
            "lng": 107.410807
        },
        "ad_info": {
            "adcode": 150802,
            "province": "内蒙古自治区",
            "city": "巴彦淖尔市",
            "district": "临河区"
        }
    },
    {
        "id": "11533188943642154147",
        "title": "公共厕所",
        "address": "内蒙古自治区巴彦淖尔市乌拉特后旗巴音宝力格路辅路与那仁宝力格街交叉口北40米",
        "tel": "",
        "category": "基础设施:公共设施:公共厕所",
        "type": 0,
        "location": {
            "lat": 41.07953,
            "lng": 107.072249
        },
        "ad_info": {
            "adcode": 150825,
            "province": "内蒙古自治区",
            "city": "巴彦淖尔市",
            "district": "乌拉特后旗"
        }
    },
    {
        "id": "1364919327691934337",
        "title": "公共厕所",
        "address": "内蒙古自治区巴彦淖尔市临河区利民西街与团结路交叉口正北方向116米左右",
        "tel": "",
        "category": "基础设施:公共设施:公共厕所",
        "type": 0,
        "location": {
            "lat": 40.7574,
            "lng": 107.408582
        },
        "ad_info": {
            "adcode": 150802,
            "province": "内蒙古自治区",
            "city": "巴彦淖尔市",
            "district": "临河区"
        }
    },
    {
        "id": "14179536288985205823",
        "title": "公共厕所",
        "address": "内蒙古自治区巴彦淖尔市临河区国际家具建材城东南侧370米",
        "tel": "",
        "category": "基础设施:公共设施:公共厕所",
        "type": 0,
        "location": {
            "lat": 40.763273,
            "lng": 107.442241
        },
        "ad_info": {
            "adcode": 150802,
            "province": "内蒙古自治区",
            "city": "巴彦淖尔市",
            "district": "临河区"
        }
    },
    {
        "id": "7170857628682081617",
        "title": "公共卫生间",
        "address": "内蒙古自治区巴彦淖尔市临河区富强路与长春东街交叉口西北方向67米左右",
        "tel": "",
        "category": "基础设施:公共设施:公共厕所",
        "type": 0,
        "location": {
            "lat": 40.767719,
            "lng": 107.4262
        },
        "ad_info": {
            "adcode": 150802,
            "province": "内蒙古自治区",
            "city": "巴彦淖尔市",
            "district": "临河区"
        }
    },
    {
        "id": "14222037449613318218",
        "title": "公共厕所",
        "address": "内蒙古自治区巴彦淖尔市临河区万丰街与向阳路交叉口正北方向52米左右",
        "tel": "",
        "category": "基础设施:公共设施:公共厕所",
        "type": 0,
        "location": {
            "lat": 40.749534,
            "lng": 107.428364
        },
        "ad_info": {
            "adcode": 150802,
            "province": "内蒙古自治区",
            "city": "巴彦淖尔市",
            "district": "临河区"
        }
    },
    {
        "id": "12864417369677941525",
        "title": "公共厕所",
        "address": "内蒙古自治区巴彦淖尔市临河区团结路富贵园",
        "tel": "",
        "category": "基础设施:公共设施:公共厕所",
        "type": 0,
        "location": {
            "lat": 40.745109,
            "lng": 107.416885
        },
        "ad_info": {
            "adcode": 150802,
            "province": "内蒙古自治区",
            "city": "巴彦淖尔市",
            "district": "临河区"
        }
    },
    {
        "id": "15986428942693447128",
        "title": "公共厕所",
        "address": "内蒙古自治区巴彦淖尔市临河区和平路与解放街交叉口西北方向65米左右",
        "tel": "",
        "category": "基础设施:公共设施:公共厕所",
        "type": 0,
        "location": {
            "lat": 40.767404,
            "lng": 107.400536
        },
        "ad_info": {
            "adcode": 150802,
            "province": "内蒙古自治区",
            "city": "巴彦淖尔市",
            "district": "临河区"
        }
    },
    {
        "id": "16649401226682578840",
        "title": "公共厕所",
        "address": "内蒙古自治区巴彦淖尔市临河区北环路与幸福路交叉口正北方向385米左右",
        "tel": "",
        "category": "基础设施:公共设施:公共厕所",
        "type": 0,
        "location": {
            "lat": 40.778968,
            "lng": 107.399383
        },
        "ad_info": {
            "adcode": 150802,
            "province": "内蒙古自治区",
            "city": "巴彦淖尔市",
            "district": "临河区"
        }
    },
    {
        "id": "8541139063321420636",
        "title": "公共厕所",
        "address": "内蒙古自治区巴彦淖尔市临河区健康路与育红街交叉口东南方向129米左右",
        "tel": "",
        "category": "基础设施:公共设施:公共厕所",
        "type": 0,
        "location": {
            "lat": 40.747823,
            "lng": 107.422413
        },
        "ad_info": {
            "adcode": 150802,
            "province": "内蒙古自治区",
            "city": "巴彦淖尔市",
            "district": "临河区"
        }
    },
    {
        "id": "16920516113395901753",
        "title": "公共厕所",
        "address": "内蒙古自治区巴彦淖尔市临河区光辉路今典花园",
        "tel": "",
        "category": "基础设施:公共设施:公共厕所",
        "type": 0,
        "location": {
            "lat": 40.762778,
            "lng": 107.421328
        },
        "ad_info": {
            "adcode": 150802,
            "province": "内蒙古自治区",
            "city": "巴彦淖尔市",
            "district": "临河区"
        }
    },
    {
        "id": "1879223651918729083",
        "title": "公共厕所",
        "address": "内蒙古自治区巴彦淖尔市临河区乌兰布和路与汇丰街交叉口正南方向105米左右",
        "tel": "",
        "category": "基础设施:公共设施:公共厕所",
        "type": 0,
        "location": {
            "lat": 40.749093,
            "lng": 107.370054
        },
        "ad_info": {
            "adcode": 150802,
            "province": "内蒙古自治区",
            "city": "巴彦淖尔市",
            "district": "临河区"
        }
    },
    {
        "id": "7669509550315570208",
        "title": "公共厕所",
        "address": "内蒙古自治区巴彦淖尔市临河区银河路河套书苑",
        "tel": "",
        "category": "基础设施:公共设施:公共厕所",
        "type": 0,
        "location": {
            "lat": 40.729705,
            "lng": 107.39105
        },
        "ad_info": {
            "adcode": 150802,
            "province": "内蒙古自治区",
            "city": "巴彦淖尔市",
            "district": "临河区"
        }
    },
    {
        "id": "6964632476911709575",
        "title": "公共厕所",
        "address": "内蒙古自治区巴彦淖尔市临河区S312与五原街交叉口正西方向82米左右",
        "tel": "",
        "category": "基础设施:公共设施:公共厕所",
        "type": 0,
        "location": {
            "lat": 40.789852,
            "lng": 107.44366
        },
        "ad_info": {
            "adcode": 150802,
            "province": "内蒙古自治区",
            "city": "巴彦淖尔市",
            "district": "临河区"
        }
    },
    {
        "id": "4750253020938008437",
        "title": "公共厕所",
        "address": "内蒙古自治区巴彦淖尔市临河区团结路与长春西街交叉口正北方向34米左右",
        "tel": "",
        "category": "基础设施:公共设施:公共厕所",
        "type": 0,
        "location": {
            "lat": 40.75862,
            "lng": 107.407071
        },
        "ad_info": {
            "adcode": 150802,
            "province": "内蒙古自治区",
            "city": "巴彦淖尔市",
            "district": "临河区"
        }
    },
    {
        "id": "3612724552638599984",
        "title": "公共厕所",
        "address": "内蒙古自治区巴彦淖尔市临河区红星美凯龙巴彦淖尔临河商场南侧130米",
        "tel": "",
        "category": "基础设施:公共设施:公共厕所",
        "type": 0,
        "location": {
            "lat": 40.769015,
            "lng": 107.449018
        },
        "ad_info": {
            "adcode": 150802,
            "province": "内蒙古自治区",
            "city": "巴彦淖尔市",
            "district": "临河区"
        }
    },
    {
        "id": "8201526579214698459",
        "title": "公共厕所",
        "address": "内蒙古自治区巴彦淖尔市临河区解放街与金川大道交叉口东北方向71米左右",
        "tel": "",
        "category": "基础设施:公共设施:公共厕所",
        "type": 0,
        "location": {
            "lat": 40.767131,
            "lng": 107.375778
        },
        "ad_info": {
            "adcode": 150802,
            "province": "内蒙古自治区",
            "city": "巴彦淖尔市",
            "district": "临河区"
        }
    },
    {
        "id": "17182399530123020345",
        "title": "公共厕所",
        "address": "内蒙古自治区巴彦淖尔市临河区水源路明珠城-北区",
        "tel": "",
        "category": "基础设施:公共设施:公共厕所",
        "type": 0,
        "location": {
            "lat": 40.739421,
            "lng": 107.402626
        },
        "ad_info": {
            "adcode": 150802,
            "province": "内蒙古自治区",
            "city": "巴彦淖尔市",
            "district": "临河区"
        }
    },
    {
        "id": "10928129606780994307",
        "title": "公共卫生间",
        "address": "内蒙古自治区巴彦淖尔市乌拉特中旗巴音街与迎宾路交叉口正南方向60米左右",
        "tel": "",
        "category": "基础设施:公共设施:公共厕所",
        "type": 0,
        "location": {
            "lat": 41.568934,
            "lng": 108.525321
        },
        "ad_info": {
            "adcode": 150824,
            "province": "内蒙古自治区",
            "city": "巴彦淖尔市",
            "district": "乌拉特中旗"
        }
    },
    {
        "id": "17000996568515998613",
        "title": "公共厕所",
        "address": "内蒙古自治区巴彦淖尔市乌拉特前旗京藏高速与公庙子立交交叉口东南方向1444米左右",
        "tel": "",
        "category": "基础设施:公共设施:公共厕所",
        "type": 0,
        "location": {
            "lat": 40.625765,
            "lng": 108.961291
        },
        "ad_info": {
            "adcode": 150823,
            "province": "内蒙古自治区",
            "city": "巴彦淖尔市",
            "district": "乌拉特前旗"
        }
    },
    {
        "id": "6985015756947929848",
        "title": "公共厕所",
        "address": "内蒙古自治区巴彦淖尔市临河区利民街与胜利路交叉口西南方向52米左右",
        "tel": "",
        "category": "基础设施:公共设施:公共厕所",
        "type": 0,
        "location": {
            "lat": 40.759499,
            "lng": 107.41585
        },
        "ad_info": {
            "adcode": 150802,
            "province": "内蒙古自治区",
            "city": "巴彦淖尔市",
            "district": "临河区"
        }
    },
    {
        "id": "10605223333260439003",
        "title": "公共厕所",
        "address": "内蒙古自治区巴彦淖尔市乌拉特前旗港湾石油加油站北侧270米",
        "tel": "",
        "category": "基础设施:公共设施:公共厕所",
        "type": 0,
        "location": {
            "lat": 40.718865,
            "lng": 108.677968
        },
        "ad_info": {
            "adcode": 150823,
            "province": "内蒙古自治区",
            "city": "巴彦淖尔市",
            "district": "乌拉特前旗"
        }
    },
    {
        "id": "2043384110093734435",
        "title": "公共厕所",
        "address": "内蒙古自治区巴彦淖尔市乌拉特前旗乡企大街与团结路交叉口正西方向78米左右",
        "tel": "",
        "category": "基础设施:公共设施:公共厕所",
        "type": 0,
        "location": {
            "lat": 40.729686,
            "lng": 108.654996
        },
        "ad_info": {
            "adcode": 150823,
            "province": "内蒙古自治区",
            "city": "巴彦淖尔市",
            "district": "乌拉特前旗"
        }
    },
    {
        "id": "9684139743342385723",
        "title": "公共厕所",
        "address": "内蒙古自治区巴彦淖尔市临河区永安街与胜利路交叉口正北方向117米左右",
        "tel": "",
        "category": "基础设施:公共设施:公共厕所",
        "type": 0,
        "location": {
            "lat": 40.758705,
            "lng": 107.41809
        },
        "ad_info": {
            "adcode": 150802,
            "province": "内蒙古自治区",
            "city": "巴彦淖尔市",
            "district": "临河区"
        }
    },
    {
        "id": "8407230577269858935",
        "title": "公共厕所",
        "address": "内蒙古自治区巴彦淖尔市临河区建设路与解放街交叉口东北方向250米左右",
        "tel": "",
        "category": "基础设施:公共设施:公共厕所",
        "type": 0,
        "location": {
            "lat": 40.769222,
            "lng": 107.422934
        },
        "ad_info": {
            "adcode": 150802,
            "province": "内蒙古自治区",
            "city": "巴彦淖尔市",
            "district": "临河区"
        }
    },
    {
        "id": "10027842168010833542",
        "title": "公共厕所",
        "address": "内蒙古自治区巴彦淖尔市乌拉特前旗政法路与林场路交叉口西北方向197米左右",
        "tel": "",
        "category": "基础设施:公共设施:公共厕所",
        "type": 0,
        "location": {
            "lat": 40.732262,
            "lng": 108.644224
        },
        "ad_info": {
            "adcode": 150823,
            "province": "内蒙古自治区",
            "city": "巴彦淖尔市",
            "district": "乌拉特前旗"
        }
    },
    {
        "id": "17553842364539988040",
        "title": "公共厕所",
        "address": "内蒙古自治区巴彦淖尔市临河区育红街与胜利路交叉口正东方向126米左右",
        "tel": "",
        "category": "基础设施:公共设施:公共厕所",
        "type": 0,
        "location": {
            "lat": 40.749795,
            "lng": 107.425575
        },
        "ad_info": {
            "adcode": 150802,
            "province": "内蒙古自治区",
            "city": "巴彦淖尔市",
            "district": "临河区"
        }
    },
    {
        "id": "9663543261426480898",
        "title": "公共卫生间",
        "address": "内蒙古自治区巴彦淖尔市临河区解放街与进修路交叉口东南方向222米左右",
        "tel": "",
        "category": "基础设施:公共设施:公共厕所",
        "type": 0,
        "location": {
            "lat": 40.765569,
            "lng": 107.389759
        },
        "ad_info": {
            "adcode": 150802,
            "province": "内蒙古自治区",
            "city": "巴彦淖尔市",
            "district": "临河区"
        }
    },
    {
        "id": "1807419892579884446",
        "title": "公共厕所",
        "address": "内蒙古自治区巴彦淖尔市乌拉特前旗215省道与209乡道交叉口东南40米",
        "tel": "",
        "category": "基础设施:公共设施:公共厕所",
        "type": 0,
        "location": {
            "lat": 40.630618,
            "lng": 108.811579
        },
        "ad_info": {
            "adcode": 150823,
            "province": "内蒙古自治区",
            "city": "巴彦淖尔市",
            "district": "乌拉特前旗"
        }
    },
    {
        "id": "3664030185604116331",
        "title": "公共厕所",
        "address": "内蒙古自治区巴彦淖尔市临河区锦聿山荘A5座东南(新华东街南)",
        "tel": "",
        "category": "基础设施:公共设施:公共厕所",
        "type": 0,
        "location": {
            "lat": 40.761873,
            "lng": 107.436104
        },
        "ad_info": {
            "adcode": 150802,
            "province": "内蒙古自治区",
            "city": "巴彦淖尔市",
            "district": "临河区"
        }
    },
    {
        "id": "17320003940315427862",
        "title": "公共厕所",
        "address": "内蒙古自治区巴彦淖尔市乌拉特前旗红旗中路欣泽园",
        "tel": "",
        "category": "基础设施:公共设施:公共厕所",
        "type": 0,
        "location": {
            "lat": 40.730298,
            "lng": 108.648214
        },
        "ad_info": {
            "adcode": 150823,
            "province": "内蒙古自治区",
            "city": "巴彦淖尔市",
            "district": "乌拉特前旗"
        }
    },
    {
        "id": "5979401095523169067",
        "title": "公共厕所",
        "address": "内蒙古自治区巴彦淖尔市临河区利民东街与利民街交叉口东北方向142米左右",
        "tel": "",
        "category": "基础设施:公共设施:公共厕所",
        "type": 0,
        "location": {
            "lat": 40.764316,
            "lng": 107.425266
        },
        "ad_info": {
            "adcode": 150802,
            "province": "内蒙古自治区",
            "city": "巴彦淖尔市",
            "district": "临河区"
        }
    },
    {
        "id": "6169586576920642846",
        "title": "公共厕所",
        "address": "内蒙古自治区巴彦淖尔市临河区帅丰街与金川大道交叉口东北方向256米左右",
        "tel": "",
        "category": "基础设施:公共设施:公共厕所",
        "type": 0,
        "location": {
            "lat": 40.761497,
            "lng": 107.380164
        },
        "ad_info": {
            "adcode": 150802,
            "province": "内蒙古自治区",
            "city": "巴彦淖尔市",
            "district": "临河区"
        }
    },
    {
        "id": "3233059180181852224",
        "title": "公共厕所",
        "address": "内蒙古自治区巴彦淖尔市乌拉特前旗东风大街与政法路交叉口正北方向100米左右",
        "tel": "",
        "category": "基础设施:公共设施:公共厕所",
        "type": 0,
        "location": {
            "lat": 40.72389,
            "lng": 108.646091
        },
        "ad_info": {
            "adcode": 150823,
            "province": "内蒙古自治区",
            "city": "巴彦淖尔市",
            "district": "乌拉特前旗"
        }
    },
    {
        "id": "18019841578064464619",
        "title": "公共厕所",
        "address": "内蒙古自治区巴彦淖尔市杭锦后旗X713与公园南街交叉口正南方向162米左右",
        "tel": "",
        "category": "基础设施:公共设施:公共厕所",
        "type": 0,
        "location": {
            "lat": 40.873768,
            "lng": 107.146537
        },
        "ad_info": {
            "adcode": 150826,
            "province": "内蒙古自治区",
            "city": "巴彦淖尔市",
            "district": "杭锦后旗"
        }
    },
    {
        "id": "14197806053377440626",
        "title": "公共厕所",
        "address": "内蒙古自治区巴彦淖尔市杭锦后旗亚细亚街与将军路交叉口正南方向107米左右",
        "tel": "",
        "category": "基础设施:公共设施:公共厕所",
        "type": 0,
        "location": {
            "lat": 40.883342,
            "lng": 107.149653
        },
        "ad_info": {
            "adcode": 150826,
            "province": "内蒙古自治区",
            "city": "巴彦淖尔市",
            "district": "杭锦后旗"
        }
    },
    {
        "id": "15413003226184888876",
        "title": "公共厕所",
        "address": "内蒙古自治区巴彦淖尔市杭锦后旗亚细亚街启智家园",
        "tel": "",
        "category": "基础设施:公共设施:公共厕所",
        "type": 0,
        "location": {
            "lat": 40.88605,
            "lng": 107.140262
        },
        "ad_info": {
            "adcode": 150826,
            "province": "内蒙古自治区",
            "city": "巴彦淖尔市",
            "district": "杭锦后旗"
        }
    },
    {
        "id": "8130476316217669201",
        "title": "公共厕所",
        "address": "内蒙古自治区巴彦淖尔市临河区联邦制药生活区北侧240米",
        "tel": "",
        "category": "基础设施:公共设施:公共厕所",
        "type": 0,
        "location": {
            "lat": 40.808732,
            "lng": 107.506851
        },
        "ad_info": {
            "adcode": 150802,
            "province": "内蒙古自治区",
            "city": "巴彦淖尔市",
            "district": "临河区"
        }
    },
    {
        "id": "15301344438955432732",
        "title": "公共卫生间",
        "address": "内蒙古自治区巴彦淖尔市杭锦后旗健康路与龙宝西街交叉口正西方向287米左右",
        "tel": "",
        "category": "基础设施:公共设施:公共厕所",
        "type": 0,
        "location": {
            "lat": 40.891167,
            "lng": 107.133413
        },
        "ad_info": {
            "adcode": 150826,
            "province": "内蒙古自治区",
            "city": "巴彦淖尔市",
            "district": "杭锦后旗"
        }
    },
    {
        "id": "5196257188473394872",
        "title": "公共厕所",
        "address": "内蒙古自治区巴彦淖尔市磴口县城南商店南侧160米",
        "tel": "",
        "category": "基础设施:公共设施:公共厕所",
        "type": 0,
        "location": {
            "lat": 40.312768,
            "lng": 107.00134
        },
        "ad_info": {
            "adcode": 150822,
            "province": "内蒙古自治区",
            "city": "巴彦淖尔市",
            "district": "磴口县"
        }
    },
    {
        "id": "2481468631721632961",
        "title": "公共厕所",
        "address": "内蒙古自治区巴彦淖尔市临河区解放街与进修路交叉口正北方向374米左右",
        "tel": "",
        "category": "基础设施:公共设施:公共厕所",
        "type": 0,
        "location": {
            "lat": 40.77027,
            "lng": 107.387581
        },
        "ad_info": {
            "adcode": 150802,
            "province": "内蒙古自治区",
            "city": "巴彦淖尔市",
            "district": "临河区"
        }
    },
    {
        "id": "15337480940193063155",
        "title": "公共厕所",
        "address": "内蒙古自治区巴彦淖尔市临河区利民东街(河套学院附属实验中学)",
        "tel": "",
        "category": "基础设施:公共设施:公共厕所",
        "type": 0,
        "location": {
            "lat": 40.771892,
            "lng": 107.442113
        },
        "ad_info": {
            "adcode": 150802,
            "province": "内蒙古自治区",
            "city": "巴彦淖尔市",
            "district": "临河区"
        }
    },
    {
        "id": "18202535603826222454",
        "title": "公共厕所",
        "address": "内蒙古自治区巴彦淖尔市五原县团结路与新华北路交叉口西北方向140米左右",
        "tel": "",
        "category": "基础设施:公共设施:公共厕所",
        "type": 0,
        "location": {
            "lat": 41.095451,
            "lng": 108.269076
        },
        "ad_info": {
            "adcode": 150821,
            "province": "内蒙古自治区",
            "city": "巴彦淖尔市",
            "district": "五原县"
        }
    },
    {
        "id": "17465925747623706981",
        "title": "没有公厕",
        "address": "内蒙古自治区巴彦淖尔市临河区新华西街与明珠路交叉口西北方向249米左右",
        "tel": "",
        "category": "基础设施:公共设施:公共厕所",
        "type": 0,
        "location": {
            "lat": 40.746028,
            "lng": 107.392718
        },
        "ad_info": {
            "adcode": 150802,
            "province": "内蒙古自治区",
            "city": "巴彦淖尔市",
            "district": "临河区"
        }
    },
    {
        "id": "15886852012794427118",
        "title": "公共厕所",
        "address": "内蒙古自治区巴彦淖尔市杭锦后旗垃圾转运站北侧",
        "tel": "",
        "category": "基础设施:公共设施:公共厕所",
        "type": 0,
        "location": {
            "lat": 40.869415,
            "lng": 107.17403
        },
        "ad_info": {
            "adcode": 150826,
            "province": "内蒙古自治区",
            "city": "巴彦淖尔市",
            "district": "杭锦后旗"
        }
    },
    {
        "id": "2970704065392556000",
        "title": "河套公园公共厕所",
        "address": "内蒙古自治区巴彦淖尔市临河区五一街与开源路交叉口正北方向179米左右",
        "tel": "",
        "category": "基础设施:公共设施:公共厕所",
        "type": 0,
        "location": {
            "lat": 40.738212,
            "lng": 107.388888
        },
        "ad_info": {
            "adcode": 150802,
            "province": "内蒙古自治区",
            "city": "巴彦淖尔市",
            "district": "临河区"
        }
    },
    {
        "id": "14746363752232327457",
        "title": "公共厕所",
        "address": "内蒙古自治区巴彦淖尔市乌拉特前旗红旗南路与邮电路交叉口西北方向55米左右",
        "tel": "",
        "category": "基础设施:公共设施:公共厕所",
        "type": 0,
        "location": {
            "lat": 40.71311,
            "lng": 108.651346
        },
        "ad_info": {
            "adcode": 150823,
            "province": "内蒙古自治区",
            "city": "巴彦淖尔市",
            "district": "乌拉特前旗"
        }
    },
    {
        "id": "6353936638211536742",
        "title": "公共厕所",
        "address": "内蒙古自治区巴彦淖尔市乌拉特前旗乌拉特大街与西水道交叉口正南方向86米左右",
        "tel": "",
        "category": "基础设施:公共设施:公共厕所",
        "type": 0,
        "location": {
            "lat": 40.735842,
            "lng": 108.634071
        },
        "ad_info": {
            "adcode": 150823,
            "province": "内蒙古自治区",
            "city": "巴彦淖尔市",
            "district": "乌拉特前旗"
        }
    },
    {
        "id": "2872516632917472759",
        "title": "公共厕所",
        "address": "内蒙古自治区巴彦淖尔市乌拉特中旗S215与固查线交叉口正西方向103米左右",
        "tel": "",
        "category": "基础设施:公共设施:公共厕所",
        "type": 0,
        "location": {
            "lat": 41.307475,
            "lng": 108.500549
        },
        "ad_info": {
            "adcode": 150824,
            "province": "内蒙古自治区",
            "city": "巴彦淖尔市",
            "district": "乌拉特中旗"
        }
    },
    {
        "id": "16454770754478691558",
        "title": "公共厕所",
        "address": "内蒙古自治区巴彦淖尔市乌拉特前旗长隆湾三期东南侧180米",
        "tel": "",
        "category": "基础设施:公共设施:公共厕所",
        "type": 0,
        "location": {
            "lat": 40.73192,
            "lng": 108.640975
        },
        "ad_info": {
            "adcode": 150823,
            "province": "内蒙古自治区",
            "city": "巴彦淖尔市",
            "district": "乌拉特前旗"
        }
    },
    {
        "id": "4518587851037600684",
        "title": "公共厕所",
        "address": "内蒙古自治区巴彦淖尔市乌拉特前旗红卫南路与红旗南路交叉口东南方向89米左右",
        "tel": "",
        "category": "基础设施:公共设施:公共厕所",
        "type": 0,
        "location": {
            "lat": 40.711996,
            "lng": 108.653141
        },
        "ad_info": {
            "adcode": 150823,
            "province": "内蒙古自治区",
            "city": "巴彦淖尔市",
            "district": "乌拉特前旗"
        }
    },
    {
        "id": "1052257443329844585",
        "title": "公共厕所",
        "address": "内蒙古自治区巴彦淖尔市五原县东方红路与东风路交叉口正西方向130米左右",
        "tel": "",
        "category": "基础设施:公共设施:公共厕所",
        "type": 0,
        "location": {
            "lat": 41.102994,
            "lng": 108.278998
        },
        "ad_info": {
            "adcode": 150821,
            "province": "内蒙古自治区",
            "city": "巴彦淖尔市",
            "district": "五原县"
        }
    },
    {
        "id": "16886625648565220170",
        "title": "旅游公共厕所",
        "address": "内蒙古自治区巴彦淖尔市乌拉特前旗东风大街与红旗中路交叉口东南方向30米左右",
        "tel": "",
        "category": "基础设施:公共设施:公共厕所",
        "type": 0,
        "location": {
            "lat": 40.722768,
            "lng": 108.64895
        },
        "ad_info": {
            "adcode": 150823,
            "province": "内蒙古自治区",
            "city": "巴彦淖尔市",
            "district": "乌拉特前旗"
        }
    },
    {
        "id": "876323095474854576",
        "title": "公共卫生间",
        "address": "内蒙古自治区巴彦淖尔市五原县兴原南路与建设路交叉口正西方向222米左右",
        "tel": "",
        "category": "基础设施:公共设施:公共厕所",
        "type": 0,
        "location": {
            "lat": 41.089302,
            "lng": 108.261212
        },
        "ad_info": {
            "adcode": 150821,
            "province": "内蒙古自治区",
            "city": "巴彦淖尔市",
            "district": "五原县"
        }
    },
    {
        "id": "9367599870043782977",
        "title": "公共厕所",
        "address": "内蒙古自治区巴彦淖尔市五原县建设路与繁荣路交叉口西北方向798米左右",
        "tel": "",
        "category": "基础设施:公共设施:公共厕所",
        "type": 0,
        "location": {
            "lat": 41.090732,
            "lng": 108.244991
        },
        "ad_info": {
            "adcode": 150821,
            "province": "内蒙古自治区",
            "city": "巴彦淖尔市",
            "district": "五原县"
        }
    },
    {
        "id": "5239666049913473846",
        "title": "公共厕所",
        "address": "内蒙古自治区巴彦淖尔市五原县S212与S311交叉口东北方向234米左右",
        "tel": "",
        "category": "基础设施:公共设施:公共厕所",
        "type": 0,
        "location": {
            "lat": 41.132217,
            "lng": 108.291381
        },
        "ad_info": {
            "adcode": 150821,
            "province": "内蒙古自治区",
            "city": "巴彦淖尔市",
            "district": "五原县"
        }
    },
    {
        "id": "391859402227784418",
        "title": "公共卫生间",
        "address": "内蒙古自治区巴彦淖尔市临河区教师进修学校(光辉路东)",
        "tel": "",
        "category": "基础设施:公共设施:公共厕所",
        "type": 0,
        "location": {
            "lat": 40.766527,
            "lng": 107.418377
        },
        "ad_info": {
            "adcode": 150802,
            "province": "内蒙古自治区",
            "city": "巴彦淖尔市",
            "district": "临河区"
        }
    },
    {
        "id": "18032313994365145910",
        "title": "公共卫生间",
        "address": "内蒙古自治区巴彦淖尔市临河区明珠路四季花城-六区",
        "tel": "",
        "category": "基础设施:公共设施:公共厕所",
        "type": 0,
        "location": {
            "lat": 40.74877,
            "lng": 107.39052
        },
        "ad_info": {
            "adcode": 150802,
            "province": "内蒙古自治区",
            "city": "巴彦淖尔市",
            "district": "临河区"
        }
    },
    {
        "id": "16274347948237895750",
        "title": "公共厕所",
        "address": "内蒙古自治区巴彦淖尔市五原县新华北路与红旗西路交叉口东北方向267米左右",
        "tel": "",
        "category": "基础设施:公共设施:公共厕所",
        "type": 0,
        "location": {
            "lat": 41.106453,
            "lng": 108.26814
        },
        "ad_info": {
            "adcode": 150821,
            "province": "内蒙古自治区",
            "city": "巴彦淖尔市",
            "district": "五原县"
        }
    },
    {
        "id": "7464430009361994069",
        "title": "公共厕所",
        "address": "内蒙古自治区巴彦淖尔市杭锦后旗中山南路与塞上西街交叉口正东方向161米左右",
        "tel": "",
        "category": "基础设施:公共设施:公共厕所",
        "type": 0,
        "location": {
            "lat": 40.886599,
            "lng": 107.148349
        },
        "ad_info": {
            "adcode": 150826,
            "province": "内蒙古自治区",
            "city": "巴彦淖尔市",
            "district": "杭锦后旗"
        }
    },
    {
        "id": "1896392189239692314",
        "title": "公共厕所",
        "address": "内蒙古自治区巴彦淖尔市临河区帅丰街与金川大道交叉口正北方向215米左右",
        "tel": "",
        "category": "基础设施:公共设施:公共厕所",
        "type": 0,
        "location": {
            "lat": 40.761243,
            "lng": 107.377997
        },
        "ad_info": {
            "adcode": 150802,
            "province": "内蒙古自治区",
            "city": "巴彦淖尔市",
            "district": "临河区"
        }
    },
    {
        "id": "5463884646324962620",
        "title": "女洗手间(维多利商厦)",
        "address": "内蒙古自治区巴彦淖尔市临河区胜利路75号维多利商厦F3层",
        "tel": "",
        "category": "基础设施:公共设施:公共厕所",
        "type": 0,
        "location": {
            "lat": 40.751956,
            "lng": 107.420252
        },
        "ad_info": {
            "adcode": 150802,
            "province": "内蒙古自治区",
            "city": "巴彦淖尔市",
            "district": "临河区"
        }
    },
    {
        "id": "12160275796066067755",
        "title": "公共厕所",
        "address": "内蒙古自治区巴彦淖尔市临河区五一街与银河路交叉口东南方向74米左右",
        "tel": "",
        "category": "基础设施:公共设施:公共厕所",
        "type": 0,
        "location": {
            "lat": 40.735141,
            "lng": 107.38729
        },
        "ad_info": {
            "adcode": 150802,
            "province": "内蒙古自治区",
            "city": "巴彦淖尔市",
            "district": "临河区"
        }
    },
    {
        "id": "6115278967909884641",
        "title": "公共厕所",
        "address": "内蒙古自治区巴彦淖尔市临河区北环路与吉祥路交叉口正北方向86米左右",
        "tel": "",
        "category": "基础设施:公共设施:公共厕所",
        "type": 0,
        "location": {
            "lat": 40.776163,
            "lng": 107.407744
        },
        "ad_info": {
            "adcode": 150802,
            "province": "内蒙古自治区",
            "city": "巴彦淖尔市",
            "district": "临河区"
        }
    },
    {
        "id": "849402611424242137",
        "title": "公共厕所",
        "address": "内蒙古自治区巴彦淖尔市杭锦后旗体育广场",
        "tel": "",
        "category": "基础设施:公共设施:公共厕所",
        "type": 0,
        "location": {
            "lat": 40.870964,
            "lng": 107.159235
        },
        "ad_info": {
            "adcode": 150826,
            "province": "内蒙古自治区",
            "city": "巴彦淖尔市",
            "district": "杭锦后旗"
        }
    },
    {
        "id": "3244185119327026654",
        "title": "公共厕所",
        "address": "内蒙古自治区巴彦淖尔市临河区新华东街2号",
        "tel": "",
        "category": "基础设施:公共设施:公共厕所",
        "type": 0,
        "location": {
            "lat": 40.750128,
            "lng": 107.407151
        },
        "ad_info": {
            "adcode": 150802,
            "province": "内蒙古自治区",
            "city": "巴彦淖尔市",
            "district": "临河区"
        }
    },
    {
        "id": "7609370327024166004",
        "title": "公共厕所",
        "address": "内蒙古自治区巴彦淖尔市磴口县巴音北路与粮台西街交叉口东南方向252米左右",
        "tel": "",
        "category": "基础设施:公共设施:公共厕所",
        "type": 0,
        "location": {
            "lat": 40.331558,
            "lng": 107.006279
        },
        "ad_info": {
            "adcode": 150822,
            "province": "内蒙古自治区",
            "city": "巴彦淖尔市",
            "district": "磴口县"
        }
    },
    {
        "id": "14352931342643038834",
        "title": "公共厕所",
        "address": "内蒙古自治区巴彦淖尔市临河区汇丰街与西苑路交叉口东南方向229米左右",
        "tel": "",
        "category": "基础设施:公共设施:公共厕所",
        "type": 0,
        "location": {
            "lat": 40.743043,
            "lng": 107.360088
        },
        "ad_info": {
            "adcode": 150802,
            "province": "内蒙古自治区",
            "city": "巴彦淖尔市",
            "district": "临河区"
        }
    },
    {
        "id": "9906009659940051973",
        "title": "公共厕所",
        "address": "内蒙古自治区巴彦淖尔市临河区和平路阳光花园",
        "tel": "",
        "category": "基础设施:公共设施:公共厕所",
        "type": 0,
        "location": {
            "lat": 40.764095,
            "lng": 107.401056
        },
        "ad_info": {
            "adcode": 150802,
            "province": "内蒙古自治区",
            "city": "巴彦淖尔市",
            "district": "临河区"
        }
    },
    {
        "id": "18387644323750184655",
        "title": "公共厕所",
        "address": "内蒙古自治区巴彦淖尔市临河区丰河路高新世家",
        "tel": "",
        "category": "基础设施:公共设施:公共厕所",
        "type": 0,
        "location": {
            "lat": 40.753219,
            "lng": 107.36338
        },
        "ad_info": {
            "adcode": 150802,
            "province": "内蒙古自治区",
            "city": "巴彦淖尔市",
            "district": "临河区"
        }
    },
    {
        "id": "11177456886684618603",
        "title": "公共厕所",
        "address": "内蒙古自治区巴彦淖尔市临河区五原街与塞北街交叉口正东方向132米左右",
        "tel": "",
        "category": "基础设施:公共设施:公共厕所",
        "type": 0,
        "location": {
            "lat": 40.771418,
            "lng": 107.413009
        },
        "ad_info": {
            "adcode": 150802,
            "province": "内蒙古自治区",
            "city": "巴彦淖尔市",
            "district": "临河区"
        }
    },
    {
        "id": "10064160007701346330",
        "title": "公共厕所",
        "address": "内蒙古自治区巴彦淖尔市杭锦后旗思源南路与迎宾街交叉口正东方向76米左右",
        "tel": "",
        "category": "基础设施:公共设施:公共厕所",
        "type": 0,
        "location": {
            "lat": 40.877497,
            "lng": 107.155771
        },
        "ad_info": {
            "adcode": 150826,
            "province": "内蒙古自治区",
            "city": "巴彦淖尔市",
            "district": "杭锦后旗"
        }
    },
    {
        "id": "5774486256636264866",
        "title": "公共厕所",
        "address": "内蒙古自治区巴彦淖尔市临河区解放街与金川大道交叉口正南方向91米左右",
        "tel": "",
        "category": "基础设施:公共设施:公共厕所",
        "type": 0,
        "location": {
            "lat": 40.765784,
            "lng": 107.375022
        },
        "ad_info": {
            "adcode": 150802,
            "province": "内蒙古自治区",
            "city": "巴彦淖尔市",
            "district": "临河区"
        }
    },
    {
        "id": "12673276422827434369",
        "title": "公共厕所",
        "address": "内蒙古自治区巴彦淖尔市临河区汇丰街与银河路交叉口正北方向87米左右",
        "tel": "",
        "category": "基础设施:公共设施:公共厕所",
        "type": 0,
        "location": {
            "lat": 40.75215,
            "lng": 107.372859
        },
        "ad_info": {
            "adcode": 150802,
            "province": "内蒙古自治区",
            "city": "巴彦淖尔市",
            "district": "临河区"
        }
    },
    {
        "id": "7694348675983076329",
        "title": "公共厕所",
        "address": "内蒙古自治区巴彦淖尔市临河区乌兰布和路与五一街交叉口正北方向122米左右",
        "tel": "",
        "category": "基础设施:公共设施:公共厕所",
        "type": 0,
        "location": {
            "lat": 40.734977,
            "lng": 107.382644
        },
        "ad_info": {
            "adcode": 150802,
            "province": "内蒙古自治区",
            "city": "巴彦淖尔市",
            "district": "临河区"
        }
    },
    {
        "id": "12786290673463212575",
        "title": "公共厕所",
        "address": "内蒙古自治区巴彦淖尔市杭锦后旗健康北路与健康路交叉口东北方向66米左右",
        "tel": "",
        "category": "基础设施:公共设施:公共厕所",
        "type": 0,
        "location": {
            "lat": 40.892216,
            "lng": 107.137312
        },
        "ad_info": {
            "adcode": 150826,
            "province": "内蒙古自治区",
            "city": "巴彦淖尔市",
            "district": "杭锦后旗"
        }
    },
    {
        "id": "3266358066767535734",
        "title": "公共厕所",
        "address": "内蒙古自治区巴彦淖尔市临河区农科路与庆丰街交叉口正北方向84米左右",
        "tel": "",
        "category": "基础设施:公共设施:公共厕所",
        "type": 0,
        "location": {
            "lat": 40.764298,
            "lng": 107.386075
        },
        "ad_info": {
            "adcode": 150802,
            "province": "内蒙古自治区",
            "city": "巴彦淖尔市",
            "district": "临河区"
        }
    },
    {
        "id": "1780879604971356861",
        "title": "公共厕所",
        "address": "内蒙古自治区巴彦淖尔市临河区乌拉特大街与五原街交叉口西南方向333米左右",
        "tel": "",
        "category": "基础设施:公共设施:公共厕所",
        "type": 0,
        "location": {
            "lat": 40.772438,
            "lng": 107.415645
        },
        "ad_info": {
            "adcode": 150802,
            "province": "内蒙古自治区",
            "city": "巴彦淖尔市",
            "district": "临河区"
        }
    },
    {
        "id": "15424584841100023361",
        "title": "公共厕所",
        "address": "内蒙古自治区巴彦淖尔市临河区利民西街与前进路交叉口西北方向104米左右",
        "tel": "",
        "category": "基础设施:公共设施:公共厕所",
        "type": 0,
        "location": {
            "lat": 40.755002,
            "lng": 107.403279
        },
        "ad_info": {
            "adcode": 150802,
            "province": "内蒙古自治区",
            "city": "巴彦淖尔市",
            "district": "临河区"
        }
    },
    {
        "id": "15967533505247318788",
        "title": "公共厕所",
        "address": "内蒙古自治区巴彦淖尔市临河区新华西街与新华西街农科巷交叉口西北140米",
        "tel": "",
        "category": "基础设施:公共设施:公共厕所",
        "type": 0,
        "location": {
            "lat": 40.747512,
            "lng": 107.402428
        },
        "ad_info": {
            "adcode": 150802,
            "province": "内蒙古自治区",
            "city": "巴彦淖尔市",
            "district": "临河区"
        }
    },
    {
        "id": "12087160738007511527",
        "title": "西小召服务区公共厕所",
        "address": "内蒙古自治区巴彦淖尔市乌拉特前旗京藏高速公路西小召服务区",
        "tel": "",
        "category": "基础设施:公共设施:公共厕所",
        "type": 0,
        "location": {
            "lat": 40.853758,
            "lng": 108.42495
        },
        "ad_info": {
            "adcode": 150823,
            "province": "内蒙古自治区",
            "city": "巴彦淖尔市",
            "district": "乌拉特前旗"
        }
    },
    {
        "id": "3031641196586926704",
        "title": "白彦花服务区公共厕所",
        "address": "内蒙古自治区巴彦淖尔市乌拉特前旗中国石油白彦花服务区加油站西侧",
        "tel": "",
        "category": "基础设施:公共设施:公共厕所",
        "type": 0,
        "location": {
            "lat": 40.630573,
            "lng": 109.398538
        },
        "ad_info": {
            "adcode": 150823,
            "province": "内蒙古自治区",
            "city": "巴彦淖尔市",
            "district": "乌拉特前旗"
        }
    },
    {
        "id": "8705187008035277782",
        "title": "公共厕所",
        "address": "内蒙古自治区巴彦淖尔市临河区乌拉特大街与北环路交叉口正东方向119米左右",
        "tel": "",
        "category": "基础设施:公共设施:公共厕所",
        "type": 0,
        "location": {
            "lat": 40.775084,
            "lng": 107.412748
        },
        "ad_info": {
            "adcode": 150802,
            "province": "内蒙古自治区",
            "city": "巴彦淖尔市",
            "district": "临河区"
        }
    },
    {
        "id": "1721528424371443982",
        "title": "公共厕所",
        "address": "内蒙古自治区巴彦淖尔市临河区同治街与金川大道交叉口东北方向33米左右",
        "tel": "",
        "category": "基础设施:公共设施:公共厕所",
        "type": 0,
        "location": {
            "lat": 40.755387,
            "lng": 107.382573
        },
        "ad_info": {
            "adcode": 150802,
            "province": "内蒙古自治区",
            "city": "巴彦淖尔市",
            "district": "临河区"
        }
    },
    {
        "id": "14396363218548899757",
        "title": "公共厕所",
        "address": "内蒙古自治区巴彦淖尔市临河区利民西街与银河路交叉口西南方向187米左右",
        "tel": "",
        "category": "基础设施:公共设施:公共厕所",
        "type": 0,
        "location": {
            "lat": 40.74266,
            "lng": 107.378595
        },
        "ad_info": {
            "adcode": 150802,
            "province": "内蒙古自治区",
            "city": "巴彦淖尔市",
            "district": "临河区"
        }
    },
    {
        "id": "11777001874857939458",
        "title": "公共厕所",
        "address": "内蒙古自治区巴彦淖尔市临河区沃野街江南华府(五一街)",
        "tel": "",
        "category": "基础设施:公共设施:公共厕所",
        "type": 0,
        "location": {
            "lat": 40.734961,
            "lng": 107.39346
        },
        "ad_info": {
            "adcode": 150802,
            "province": "内蒙古自治区",
            "city": "巴彦淖尔市",
            "district": "临河区"
        }
    },
    {
        "id": "10140686526997423761",
        "title": "公共厕所",
        "address": "内蒙古自治区巴彦淖尔市临河区庆丰街与银河路交叉口正南方向44米左右",
        "tel": "",
        "category": "基础设施:公共设施:公共厕所",
        "type": 0,
        "location": {
            "lat": 40.75895,
            "lng": 107.367072
        },
        "ad_info": {
            "adcode": 150802,
            "province": "内蒙古自治区",
            "city": "巴彦淖尔市",
            "district": "临河区"
        }
    },
    {
        "id": "2950198613386968644",
        "title": "公共厕所",
        "address": "内蒙古自治区巴彦淖尔市五原县新华南路古郡国际",
        "tel": "",
        "category": "基础设施:公共设施:公共厕所",
        "type": 0,
        "location": {
            "lat": 41.089958,
            "lng": 108.26904
        },
        "ad_info": {
            "adcode": 150821,
            "province": "内蒙古自治区",
            "city": "巴彦淖尔市",
            "district": "五原县"
        }
    },
    {
        "id": "4173213728012035451",
        "title": "临河新区服务区公共厕所",
        "address": "内蒙古自治区巴彦淖尔市临河区服务区与G6京藏高速交叉口南380米",
        "tel": "",
        "category": "基础设施:公共设施:公共厕所",
        "type": 0,
        "location": {
            "lat": 40.75819,
            "lng": 107.277456
        },
        "ad_info": {
            "adcode": 150802,
            "province": "内蒙古自治区",
            "city": "巴彦淖尔市",
            "district": "临河区"
        }
    },
    {
        "id": "12919214114206842625",
        "title": "公共厕所",
        "address": "内蒙古自治区巴彦淖尔市临河区山河湾1期西北侧270米",
        "tel": "",
        "category": "基础设施:公共设施:公共厕所",
        "type": 0,
        "location": {
            "lat": 40.765697,
            "lng": 107.443297
        },
        "ad_info": {
            "adcode": 150802,
            "province": "内蒙古自治区",
            "city": "巴彦淖尔市",
            "district": "临河区"
        }
    },
    {
        "id": "12711904704619017177",
        "title": "乌拉山服务区公共厕所",
        "address": "内蒙古自治区巴彦淖尔市乌拉特前旗白彦花镇京藏高速公路乌拉山服务区",
        "tel": "",
        "category": "基础设施:公共设施:公共厕所",
        "type": 0,
        "location": {
            "lat": 40.634613,
            "lng": 108.89277
        },
        "ad_info": {
            "adcode": 150823,
            "province": "内蒙古自治区",
            "city": "巴彦淖尔市",
            "district": "乌拉特前旗"
        }
    },
    {
        "id": "1577971996299819458",
        "title": "公共厕所",
        "address": "内蒙古自治区巴彦淖尔市临河区育红街临河永康医院北",
        "tel": "",
        "category": "基础设施:公共设施:公共厕所",
        "type": 0,
        "location": {
            "lat": 40.74693,
            "lng": 107.41787
        },
        "ad_info": {
            "adcode": 150802,
            "province": "内蒙古自治区",
            "city": "巴彦淖尔市",
            "district": "临河区"
        }
    },
    {
        "id": "10527611318671953563",
        "title": "公共厕所",
        "address": "内蒙古自治区巴彦淖尔市临河区帅丰街与西苑路交叉口正北方向111米左右",
        "tel": "",
        "category": "基础设施:公共设施:公共厕所",
        "type": 0,
        "location": {
            "lat": 40.750201,
            "lng": 107.356009
        },
        "ad_info": {
            "adcode": 150802,
            "province": "内蒙古自治区",
            "city": "巴彦淖尔市",
            "district": "临河区"
        }
    },
    {
        "id": "6113159830194609340",
        "title": "磴口服务区公共厕所",
        "address": "内蒙古自治区巴彦淖尔市磴口县磴口服务区与G6京藏高速交叉口北240米",
        "tel": "",
        "category": "基础设施:公共设施:公共厕所",
        "type": 0,
        "location": {
            "lat": 40.454848,
            "lng": 107.046689
        },
        "ad_info": {
            "adcode": 150822,
            "province": "内蒙古自治区",
            "city": "巴彦淖尔市",
            "district": "磴口县"
        }
    },
    {
        "id": "8123042487430908376",
        "title": "磴口服务区公共厕所",
        "address": "内蒙古自治区巴彦淖尔市磴口县乌兰布和农场京藏高速公路磴口服务区",
        "tel": "",
        "category": "基础设施:公共设施:公共厕所",
        "type": 0,
        "location": {
            "lat": 40.454019,
            "lng": 107.048826
        },
        "ad_info": {
            "adcode": 150822,
            "province": "内蒙古自治区",
            "city": "巴彦淖尔市",
            "district": "磴口县"
        }
    },
    {
        "id": "9212802252996553076",
        "title": "公共厕所",
        "address": "内蒙古自治区巴彦淖尔市五原县G110",
        "tel": "",
        "category": "基础设施:公共设施:公共厕所",
        "type": 0,
        "location": {
            "lat": 41.029293,
            "lng": 108.120113
        },
        "ad_info": {
            "adcode": 150821,
            "province": "内蒙古自治区",
            "city": "巴彦淖尔市",
            "district": "五原县"
        }
    },
    {
        "id": "12043406700397249172",
        "title": "西小召服务区公共厕所",
        "address": "内蒙古自治区巴彦淖尔市乌拉特前旗G6京藏高速与西小召服务区交叉口西北220米",
        "tel": "",
        "category": "基础设施:公共设施:公共厕所",
        "type": 0,
        "location": {
            "lat": 40.854424,
            "lng": 108.426487
        },
        "ad_info": {
            "adcode": 150823,
            "province": "内蒙古自治区",
            "city": "巴彦淖尔市",
            "district": "乌拉特前旗"
        }
    },
    {
        "id": "17862049569269436071",
        "title": "公共厕所",
        "address": "内蒙古自治区巴彦淖尔市临河区乌兰布和路与景观大道交叉口西南方向88米左右",
        "tel": "",
        "category": "基础设施:公共设施:公共厕所",
        "type": 0,
        "location": {
            "lat": 40.758365,
            "lng": 107.361487
        },
        "ad_info": {
            "adcode": 150802,
            "province": "内蒙古自治区",
            "city": "巴彦淖尔市",
            "district": "临河区"
        }
    },
    {
        "id": "13651695045293031281",
        "title": "公共厕所",
        "address": "内蒙古自治区巴彦淖尔市临河区胜利北路地税小区",
        "tel": "",
        "category": "基础设施:公共设施:公共厕所",
        "type": 0,
        "location": {
            "lat": 40.777628,
            "lng": 107.411003
        },
        "ad_info": {
            "adcode": 150802,
            "province": "内蒙古自治区",
            "city": "巴彦淖尔市",
            "district": "临河区"
        }
    },
    {
        "id": "14865606343041951519",
        "title": "公共厕所",
        "address": "内蒙古自治区巴彦淖尔市五原县东风路与红旗东路交叉口正北方向197米左右",
        "tel": "",
        "category": "基础设施:公共设施:公共厕所",
        "type": 0,
        "location": {
            "lat": 41.108924,
            "lng": 108.280308
        },
        "ad_info": {
            "adcode": 150821,
            "province": "内蒙古自治区",
            "city": "巴彦淖尔市",
            "district": "五原县"
        }
    },
    {
        "id": "6089782957628617465",
        "title": "白彦花服务区公共厕所",
        "address": "内蒙古自治区巴彦淖尔市乌拉特前旗京藏高速公路白彦花服务区",
        "tel": "",
        "category": "基础设施:公共设施:公共厕所",
        "type": 0,
        "location": {
            "lat": 40.631912,
            "lng": 109.398226
        },
        "ad_info": {
            "adcode": 150823,
            "province": "内蒙古自治区",
            "city": "巴彦淖尔市",
            "district": "乌拉特前旗"
        }
    },
    {
        "id": "495678378159187579",
        "title": "共公共厕所",
        "address": "内蒙古自治区巴彦淖尔市临河区沃野街与金沙路交叉口正南方向53米左右",
        "tel": "",
        "category": "基础设施:公共设施:公共厕所",
        "type": 0,
        "location": {
            "lat": 40.727676,
            "lng": 107.379577
        },
        "ad_info": {
            "adcode": 150802,
            "province": "内蒙古自治区",
            "city": "巴彦淖尔市",
            "district": "临河区"
        }
    },
    {
        "id": "12339188339151254274",
        "title": "无障碍公共厕所",
        "address": "内蒙古自治区巴彦淖尔市杭锦后旗塞上东街与赛上街交叉口正南方向391米左右",
        "tel": "",
        "category": "基础设施:公共设施:公共厕所",
        "type": 0,
        "location": {
            "lat": 40.8817,
            "lng": 107.15394
        },
        "ad_info": {
            "adcode": 150826,
            "province": "内蒙古自治区",
            "city": "巴彦淖尔市",
            "district": "杭锦后旗"
        }
    },
    {
        "id": "12952593305753653965",
        "title": "临河服务区公共厕所",
        "address": "内蒙古自治区巴彦淖尔市五原县G110与X709交叉口西北方向1403米左右",
        "tel": "",
        "category": "基础设施:公共设施:公共厕所",
        "type": 0,
        "location": {
            "lat": 40.905938,
            "lng": 107.754711
        },
        "ad_info": {
            "adcode": 150821,
            "province": "内蒙古自治区",
            "city": "巴彦淖尔市",
            "district": "五原县"
        }
    },
    {
        "id": "8017163242994231040",
        "title": "河套农耕文博苑公共厕所",
        "address": "内蒙古自治区巴彦淖尔市五原县G110与X723交叉口正南方向773米左右",
        "tel": "",
        "category": "基础设施:公共设施:公共厕所",
        "type": 0,
        "location": {
            "lat": 41.05861,
            "lng": 108.21112
        },
        "ad_info": {
            "adcode": 150821,
            "province": "内蒙古自治区",
            "city": "巴彦淖尔市",
            "district": "五原县"
        }
    },
    {
        "id": "12436079695920122481",
        "title": "公共厕所",
        "address": "内蒙古自治区巴彦淖尔市杭锦后旗塞上东街与赛上街交叉口正北方向71米左右",
        "tel": "",
        "category": "基础设施:公共设施:公共厕所",
        "type": 0,
        "location": {
            "lat": 40.885631,
            "lng": 107.155387
        },
        "ad_info": {
            "adcode": 150826,
            "province": "内蒙古自治区",
            "city": "巴彦淖尔市",
            "district": "杭锦后旗"
        }
    },
    {
        "id": "17298049502145763477",
        "title": "无障碍公共厕所",
        "address": "内蒙古自治区巴彦淖尔市磴口县粮台东街与钢铁路交叉口正北方向80米左右",
        "tel": "",
        "category": "基础设施:公共设施:公共厕所",
        "type": 0,
        "location": {
            "lat": 40.334267,
            "lng": 107.015745
        },
        "ad_info": {
            "adcode": 150822,
            "province": "内蒙古自治区",
            "city": "巴彦淖尔市",
            "district": "磴口县"
        }
    },
    {
        "id": "16222057632609439181",
        "title": "公共厕所",
        "address": "内蒙古自治区巴彦淖尔市乌拉特中旗云英街与川井北路交叉口正北方向1099米左右",
        "tel": "",
        "category": "基础设施:公共设施:公共厕所",
        "type": 0,
        "location": {
            "lat": 41.598892,
            "lng": 108.5104
        },
        "ad_info": {
            "adcode": 150824,
            "province": "内蒙古自治区",
            "city": "巴彦淖尔市",
            "district": "乌拉特中旗"
        }
    },
    {
        "id": "8791312860650189197",
        "title": "公共厕所",
        "address": "内蒙古自治区巴彦淖尔市临河区南一街与和平路交叉口正西方向71米左右",
        "tel": "",
        "category": "基础设施:公共设施:公共厕所",
        "type": 0,
        "location": {
            "lat": 40.766239,
            "lng": 107.400009
        },
        "ad_info": {
            "adcode": 150802,
            "province": "内蒙古自治区",
            "city": "巴彦淖尔市",
            "district": "临河区"
        }
    },
    {
        "id": "6233353601991282225",
        "title": "公共厕所",
        "address": "内蒙古自治区巴彦淖尔市乌拉特前旗乌拉特大街与民族路交叉口东北方向42米左右",
        "tel": "",
        "category": "基础设施:公共设施:公共厕所",
        "type": 0,
        "location": {
            "lat": 40.738091,
            "lng": 108.658869
        },
        "ad_info": {
            "adcode": 150823,
            "province": "内蒙古自治区",
            "city": "巴彦淖尔市",
            "district": "乌拉特前旗"
        }
    },
    {
        "id": "11654384025270284272",
        "title": "公共厕所",
        "address": "内蒙古自治区巴彦淖尔市杭锦后旗米仓北路与米仓路交叉口西北方向335米左右",
        "tel": "",
        "category": "基础设施:公共设施:公共厕所",
        "type": 0,
        "location": {
            "lat": 40.893852,
            "lng": 107.140632
        },
        "ad_info": {
            "adcode": 150826,
            "province": "内蒙古自治区",
            "city": "巴彦淖尔市",
            "district": "杭锦后旗"
        }
    },
    {
        "id": "13815661554376806020",
        "title": "公共厕所",
        "address": "内蒙古自治区巴彦淖尔市五原县虹亚A区东南侧210米",
        "tel": "",
        "category": "基础设施:公共设施:公共厕所",
        "type": 0,
        "location": {
            "lat": 41.101649,
            "lng": 108.289911
        },
        "ad_info": {
            "adcode": 150821,
            "province": "内蒙古自治区",
            "city": "巴彦淖尔市",
            "district": "五原县"
        }
    },
    {
        "id": "11346975944572946197",
        "title": "公共厕所",
        "address": "内蒙古自治区巴彦淖尔市临河区双拥路与曙光街交叉口东南方向158米左右",
        "tel": "",
        "category": "基础设施:公共设施:公共厕所",
        "type": 0,
        "location": {
            "lat": 40.730708,
            "lng": 107.397577
        },
        "ad_info": {
            "adcode": 150802,
            "province": "内蒙古自治区",
            "city": "巴彦淖尔市",
            "district": "临河区"
        }
    },
    {
        "id": "432666146317795476",
        "title": "公共厕所",
        "address": "内蒙古自治区巴彦淖尔市杭锦后旗奋斗街与建设街交叉口正北方向443米左右",
        "tel": "",
        "category": "基础设施:公共设施:公共厕所",
        "type": 0,
        "location": {
            "lat": 40.897872,
            "lng": 107.15377
        },
        "ad_info": {
            "adcode": 150826,
            "province": "内蒙古自治区",
            "city": "巴彦淖尔市",
            "district": "杭锦后旗"
        }
    },
    {
        "id": "8838251447115913397",
        "title": "公共厕所",
        "address": "内蒙古自治区巴彦淖尔市乌拉特中旗巴音街与甘泉南路交叉口正南方向182米左右",
        "tel": "",
        "category": "基础设施:公共设施:公共厕所",
        "type": 0,
        "location": {
            "lat": 41.567387,
            "lng": 108.511171
        },
        "ad_info": {
            "adcode": 150824,
            "province": "内蒙古自治区",
            "city": "巴彦淖尔市",
            "district": "乌拉特中旗"
        }
    },
    {
        "id": "8079952768116676750",
        "title": "公共厕所",
        "address": "内蒙古自治区巴彦淖尔市临河区乌兰布和路与汇丰街交叉口正南方向226米左右",
        "tel": "",
        "category": "基础设施:公共设施:公共厕所",
        "type": 0,
        "location": {
            "lat": 40.748023,
            "lng": 107.37076
        },
        "ad_info": {
            "adcode": 150802,
            "province": "内蒙古自治区",
            "city": "巴彦淖尔市",
            "district": "临河区"
        }
    },
    {
        "id": "7002450266013141347",
        "title": "公共厕所",
        "address": "内蒙古自治区巴彦淖尔市杭锦后旗站前大道与龙宝西街交叉口正东方向479米左右",
        "tel": "",
        "category": "基础设施:公共设施:公共厕所",
        "type": 0,
        "location": {
            "lat": 40.890791,
            "lng": 107.129868
        },
        "ad_info": {
            "adcode": 150826,
            "province": "内蒙古自治区",
            "city": "巴彦淖尔市",
            "district": "杭锦后旗"
        }
    },
    {
        "id": "3785320193415537361",
        "title": "公共厕所",
        "address": "内蒙古自治区巴彦淖尔市乌拉特前旗东环路与红旗南路交叉口正西方向440米左右",
        "tel": "",
        "category": "基础设施:公共设施:公共厕所",
        "type": 0,
        "location": {
            "lat": 40.710886,
            "lng": 108.659626
        },
        "ad_info": {
            "adcode": 150823,
            "province": "内蒙古自治区",
            "city": "巴彦淖尔市",
            "district": "乌拉特前旗"
        }
    },
    {
        "id": "14175653083734122903",
        "title": "公共厕所",
        "address": "内蒙古自治区巴彦淖尔市杭锦后旗将军路与迎宾街交叉口西北方向69米左右",
        "tel": "",
        "category": "基础设施:公共设施:公共厕所",
        "type": 0,
        "location": {
            "lat": 40.88164,
            "lng": 107.14807
        },
        "ad_info": {
            "adcode": 150826,
            "province": "内蒙古自治区",
            "city": "巴彦淖尔市",
            "district": "杭锦后旗"
        }
    },
    {
        "id": "18244658680190576463",
        "title": "公共厕所",
        "address": "内蒙古自治区巴彦淖尔市乌拉特前旗东风大街与佘太路交叉口正南方向53米左右",
        "tel": "",
        "category": "基础设施:公共设施:公共厕所",
        "type": 0,
        "location": {
            "lat": 40.723355,
            "lng": 108.663127
        },
        "ad_info": {
            "adcode": 150823,
            "province": "内蒙古自治区",
            "city": "巴彦淖尔市",
            "district": "乌拉特前旗"
        }
    },
    {
        "id": "7136914271893121400",
        "title": "公共厕所",
        "address": "内蒙古自治区巴彦淖尔市杭锦后旗梅林街与站前大街交叉口正西方向234米左右",
        "tel": "",
        "category": "基础设施:公共设施:公共厕所",
        "type": 0,
        "location": {
            "lat": 40.886224,
            "lng": 107.121976
        },
        "ad_info": {
            "adcode": 150826,
            "province": "内蒙古自治区",
            "city": "巴彦淖尔市",
            "district": "杭锦后旗"
        }
    },
    {
        "id": "7607587571570208993",
        "title": "公共厕所",
        "address": "内蒙古自治区巴彦淖尔市临河区河套大街逸城首郡",
        "tel": "",
        "category": "基础设施:公共设施:公共厕所",
        "type": 0,
        "location": {
            "lat": 40.752014,
            "lng": 107.387678
        },
        "ad_info": {
            "adcode": 150802,
            "province": "内蒙古自治区",
            "city": "巴彦淖尔市",
            "district": "临河区"
        }
    },
    {
        "id": "9469295002428882762",
        "title": "公共厕所",
        "address": "内蒙古自治区巴彦淖尔市磴口县南开街与南开西街交叉口正西方向74米左右",
        "tel": "",
        "category": "基础设施:公共设施:公共厕所",
        "type": 0,
        "location": {
            "lat": 40.327515,
            "lng": 107.003751
        },
        "ad_info": {
            "adcode": 150822,
            "province": "内蒙古自治区",
            "city": "巴彦淖尔市",
            "district": "磴口县"
        }
    },
    {
        "id": "6417690080692661937",
        "title": "公共厕所",
        "address": "内蒙古自治区巴彦淖尔市乌拉特前旗振兴大街与红卫中路交叉口东南方向96米左右",
        "tel": "",
        "category": "基础设施:公共设施:公共厕所",
        "type": 0,
        "location": {
            "lat": 40.734237,
            "lng": 108.653107
        },
        "ad_info": {
            "adcode": 150823,
            "province": "内蒙古自治区",
            "city": "巴彦淖尔市",
            "district": "乌拉特前旗"
        }
    },
    {
        "id": "13021147295228033434",
        "title": "公共厕所",
        "address": "内蒙古自治区巴彦淖尔市临河区沃野街明珠城-北区",
        "tel": "",
        "category": "基础设施:公共设施:公共厕所",
        "type": 0,
        "location": {
            "lat": 40.737981,
            "lng": 107.400595
        },
        "ad_info": {
            "adcode": 150802,
            "province": "内蒙古自治区",
            "city": "巴彦淖尔市",
            "district": "临河区"
        }
    },
    {
        "id": "13532207444631599134",
        "title": "公共厕所",
        "address": "内蒙古自治区巴彦淖尔市临河区中华路与北一街交叉口东南方向30米左右",
        "tel": "",
        "category": "基础设施:公共设施:公共厕所",
        "type": 0,
        "location": {
            "lat": 40.767345,
            "lng": 107.399345
        },
        "ad_info": {
            "adcode": 150802,
            "province": "内蒙古自治区",
            "city": "巴彦淖尔市",
            "district": "临河区"
        }
    },
    {
        "id": "6828712016868668170",
        "title": "公共厕所",
        "address": "内蒙古自治区巴彦淖尔市临河区北二街与胜利路交叉口西南方向18米左右",
        "tel": "",
        "category": "基础设施:公共设施:公共厕所",
        "type": 0,
        "location": {
            "lat": 40.768056,
            "lng": 107.411054
        },
        "ad_info": {
            "adcode": 150802,
            "province": "内蒙古自治区",
            "city": "巴彦淖尔市",
            "district": "临河区"
        }
    },
    {
        "id": "18442485207933360108",
        "title": "公共厕所",
        "address": "内蒙古自治区巴彦淖尔市乌拉特前旗东风大街与民族路交叉口东南方向125米左右",
        "tel": "",
        "category": "基础设施:公共设施:公共厕所",
        "type": 0,
        "location": {
            "lat": 40.722658,
            "lng": 108.660356
        },
        "ad_info": {
            "adcode": 150823,
            "province": "内蒙古自治区",
            "city": "巴彦淖尔市",
            "district": "乌拉特前旗"
        }
    },
    {
        "id": "204805238882460507",
        "title": "无障碍公共厕所",
        "address": "内蒙古自治区巴彦淖尔市杭锦后旗米仓北路与米仓路交叉口正西方向122米左右",
        "tel": "",
        "category": "基础设施:公共设施:公共厕所",
        "type": 0,
        "location": {
            "lat": 40.892147,
            "lng": 107.142431
        },
        "ad_info": {
            "adcode": 150826,
            "province": "内蒙古自治区",
            "city": "巴彦淖尔市",
            "district": "杭锦后旗"
        }
    },
    {
        "id": "6554159464428658122",
        "title": "公共厕所",
        "address": "内蒙古自治区巴彦淖尔市乌拉特前旗G110与景观河北路交叉口正西方向68米左右",
        "tel": "",
        "category": "基础设施:公共设施:公共厕所",
        "type": 0,
        "location": {
            "lat": 40.722176,
            "lng": 108.670567
        },
        "ad_info": {
            "adcode": 150823,
            "province": "内蒙古自治区",
            "city": "巴彦淖尔市",
            "district": "乌拉特前旗"
        }
    },
    {
        "id": "9033147358007520866",
        "title": "公共厕所",
        "address": "内蒙古自治区巴彦淖尔市临河区巴特路与庆丰街交叉口东南方向199米左右",
        "tel": "",
        "category": "基础设施:公共设施:公共厕所",
        "type": 0,
        "location": {
            "lat": 40.762264,
            "lng": 107.391621
        },
        "ad_info": {
            "adcode": 150802,
            "province": "内蒙古自治区",
            "city": "巴彦淖尔市",
            "district": "临河区"
        }
    },
    {
        "id": "15401993876658081659",
        "title": "公共厕所",
        "address": "内蒙古自治区巴彦淖尔市临河区长春东街育英巷与长春街交叉口正南方向459米左右",
        "tel": "",
        "category": "基础设施:公共设施:公共厕所",
        "type": 0,
        "location": {
            "lat": 40.765977,
            "lng": 107.433996
        },
        "ad_info": {
            "adcode": 150802,
            "province": "内蒙古自治区",
            "city": "巴彦淖尔市",
            "district": "临河区"
        }
    },
    {
        "id": "8515978530773982181",
        "title": "公共厕所",
        "address": "内蒙古自治区巴彦淖尔市乌拉特前旗东兴大街与邮电路交叉口正北方向93米左右",
        "tel": "",
        "category": "基础设施:公共设施:公共厕所",
        "type": 0,
        "location": {
            "lat": 40.715559,
            "lng": 108.651832
        },
        "ad_info": {
            "adcode": 150823,
            "province": "内蒙古自治区",
            "city": "巴彦淖尔市",
            "district": "乌拉特前旗"
        }
    },
    {
        "id": "4095468030086111388",
        "title": "公共厕所",
        "address": "内蒙古自治区巴彦淖尔市磴口县Y301与五乌线交叉口东北方向560米左右",
        "tel": "",
        "category": "基础设施:公共设施:公共厕所",
        "type": 0,
        "location": {
            "lat": 40.767267,
            "lng": 106.50869
        },
        "ad_info": {
            "adcode": 150822,
            "province": "内蒙古自治区",
            "city": "巴彦淖尔市",
            "district": "磴口县"
        }
    },
    {
        "id": "9834154358300006284",
        "title": "公共厕所",
        "address": "内蒙古自治区巴彦淖尔市临河区建材路与滨河街交叉口西南方向202米左右",
        "tel": "",
        "category": "基础设施:公共设施:公共厕所",
        "type": 0,
        "location": {
            "lat": 40.75585,
            "lng": 107.435568
        },
        "ad_info": {
            "adcode": 150802,
            "province": "内蒙古自治区",
            "city": "巴彦淖尔市",
            "district": "临河区"
        }
    },
    {
        "id": "16686455112479423168",
        "title": "公共厕所",
        "address": "内蒙古自治区巴彦淖尔市乌拉特前旗政法路与林场路交叉口正西方向54米左右",
        "tel": "",
        "category": "基础设施:公共设施:公共厕所",
        "type": 0,
        "location": {
            "lat": 40.731147,
            "lng": 108.645332
        },
        "ad_info": {
            "adcode": 150823,
            "province": "内蒙古自治区",
            "city": "巴彦淖尔市",
            "district": "乌拉特前旗"
        }
    },
    {
        "id": "8339342584011091599",
        "title": "公共厕所",
        "address": "内蒙古自治区巴彦淖尔市杭锦后旗环卫局(奋斗街南)",
        "tel": "",
        "category": "基础设施:公共设施:公共厕所",
        "type": 0,
        "location": {
            "lat": 40.89553,
            "lng": 107.14074
        },
        "ad_info": {
            "adcode": 150826,
            "province": "内蒙古自治区",
            "city": "巴彦淖尔市",
            "district": "杭锦后旗"
        }
    },
    {
        "id": "12500013130367172105",
        "title": "公共厕所",
        "address": "内蒙古自治区巴彦淖尔市临河区光辉路与兴隆街交叉口西北方向199米左右",
        "tel": "",
        "category": "基础设施:公共设施:公共厕所",
        "type": 0,
        "location": {
            "lat": 40.755538,
            "lng": 107.426594
        },
        "ad_info": {
            "adcode": 150802,
            "province": "内蒙古自治区",
            "city": "巴彦淖尔市",
            "district": "临河区"
        }
    },
    {
        "id": "14720241457464623924",
        "title": "公共厕所",
        "address": "内蒙古自治区巴彦淖尔市临河区临巴线与胜利路交叉口正西方向499米左右",
        "tel": "",
        "category": "基础设施:公共设施:公共厕所",
        "type": 0,
        "location": {
            "lat": 40.782287,
            "lng": 107.405555
        },
        "ad_info": {
            "adcode": 150802,
            "province": "内蒙古自治区",
            "city": "巴彦淖尔市",
            "district": "临河区"
        }
    },
    {
        "id": "10832072215390570344",
        "title": "公共厕所",
        "address": "内蒙古自治区巴彦淖尔市磴口县东升北路与振兴东街交叉口正西方向132米左右",
        "tel": "",
        "category": "基础设施:公共设施:公共厕所",
        "type": 0,
        "location": {
            "lat": 40.335501,
            "lng": 107.02018
        },
        "ad_info": {
            "adcode": 150822,
            "province": "内蒙古自治区",
            "city": "巴彦淖尔市",
            "district": "磴口县"
        }
    },
    {
        "id": "13887785566054799882",
        "title": "公共厕所",
        "address": "内蒙古自治区巴彦淖尔市临河区利民西街与团结路交叉口东南方向217米左右",
        "tel": "",
        "category": "基础设施:公共设施:公共厕所",
        "type": 0,
        "location": {
            "lat": 40.754751,
            "lng": 107.41011
        },
        "ad_info": {
            "adcode": 150802,
            "province": "内蒙古自治区",
            "city": "巴彦淖尔市",
            "district": "临河区"
        }
    },
    {
        "id": "809803748230493610",
        "title": "公共厕所",
        "address": "内蒙古自治区巴彦淖尔市五原县中山北路与中山南路交叉口正南方向58米左右",
        "tel": "",
        "category": "基础设施:公共设施:公共厕所",
        "type": 0,
        "location": {
            "lat": 41.100784,
            "lng": 108.276664
        },
        "ad_info": {
            "adcode": 150821,
            "province": "内蒙古自治区",
            "city": "巴彦淖尔市",
            "district": "五原县"
        }
    },
    {
        "id": "10595604188375731325",
        "title": "公共厕所",
        "address": "内蒙古自治区巴彦淖尔市临河区利民东街与富强路交叉口东北方向53米左右",
        "tel": "",
        "category": "基础设施:公共设施:公共厕所",
        "type": 0,
        "location": {
            "lat": 40.76561,
            "lng": 107.428672
        },
        "ad_info": {
            "adcode": 150802,
            "province": "内蒙古自治区",
            "city": "巴彦淖尔市",
            "district": "临河区"
        }
    },
    {
        "id": "18221025100815289574",
        "title": "公共厕所",
        "address": "内蒙古自治区巴彦淖尔市临河区S213与解放街交叉口正南方向194米左右",
        "tel": "",
        "category": "基础设施:公共设施:公共厕所",
        "type": 0,
        "location": {
            "lat": 40.764524,
            "lng": 107.368845
        },
        "ad_info": {
            "adcode": 150802,
            "province": "内蒙古自治区",
            "city": "巴彦淖尔市",
            "district": "临河区"
        }
    },
    {
        "id": "9019148963973011638",
        "title": "公共卫生间",
        "address": "内蒙古自治区巴彦淖尔市临河区建设路与滨河街交叉口东北方向241米左右",
        "tel": "",
        "category": "基础设施:公共设施:公共厕所",
        "type": 0,
        "location": {
            "lat": 40.755493,
            "lng": 107.433613
        },
        "ad_info": {
            "adcode": 150802,
            "province": "内蒙古自治区",
            "city": "巴彦淖尔市",
            "district": "临河区"
        }
    },
    {
        "id": "6119595510316064996",
        "title": "公共厕所",
        "address": "内蒙古自治区巴彦淖尔市杭锦后旗亚细亚街与将军路交叉口正东方向153米左右",
        "tel": "",
        "category": "基础设施:公共设施:公共厕所",
        "type": 0,
        "location": {
            "lat": 40.8842,
            "lng": 107.15141
        },
        "ad_info": {
            "adcode": 150826,
            "province": "内蒙古自治区",
            "city": "巴彦淖尔市",
            "district": "杭锦后旗"
        }
    },
    {
        "id": "12063672212447186891",
        "title": "公共厕所",
        "address": "内蒙古自治区巴彦淖尔市乌拉特前旗乡企大街与政法路交叉口正北方向29米左右",
        "tel": "",
        "category": "基础设施:公共设施:公共厕所",
        "type": 0,
        "location": {
            "lat": 40.729502,
            "lng": 108.645848
        },
        "ad_info": {
            "adcode": 150823,
            "province": "内蒙古自治区",
            "city": "巴彦淖尔市",
            "district": "乌拉特前旗"
        }
    },
    {
        "id": "11077963476602365652",
        "title": "公共厕所",
        "address": "内蒙古自治区巴彦淖尔市乌拉特中旗巴音街与花园西路交叉口正西方向137米左右",
        "tel": "",
        "category": "基础设施:公共设施:公共厕所",
        "type": 0,
        "location": {
            "lat": 41.569047,
            "lng": 108.517891
        },
        "ad_info": {
            "adcode": 150824,
            "province": "内蒙古自治区",
            "city": "巴彦淖尔市",
            "district": "乌拉特中旗"
        }
    },
    {
        "id": "3566413230301167902",
        "title": "公共厕所",
        "address": "内蒙古自治区巴彦淖尔市临河区富强路与新华东街交叉口西南方向190米左右",
        "tel": "",
        "category": "基础设施:公共设施:公共厕所",
        "type": 0,
        "location": {
            "lat": 40.760306,
            "lng": 107.42953
        },
        "ad_info": {
            "adcode": 150802,
            "province": "内蒙古自治区",
            "city": "巴彦淖尔市",
            "district": "临河区"
        }
    },
    {
        "id": "8506323591234607133",
        "title": "公共厕所",
        "address": "内蒙古自治区巴彦淖尔市临河区临友线与先锋南路交叉口东南方向124米左右",
        "tel": "",
        "category": "基础设施:公共设施:公共厕所",
        "type": 0,
        "location": {
            "lat": 40.741477,
            "lng": 107.421563
        },
        "ad_info": {
            "adcode": 150802,
            "province": "内蒙古自治区",
            "city": "巴彦淖尔市",
            "district": "临河区"
        }
    },
    {
        "id": "7060984385806677654",
        "title": "公共厕所",
        "address": "内蒙古自治区巴彦淖尔市临河区铁南办事处",
        "tel": "",
        "category": "基础设施:公共设施:公共厕所",
        "type": 0,
        "location": {
            "lat": 40.737254,
            "lng": 107.425439
        },
        "ad_info": {
            "adcode": 150802,
            "province": "内蒙古自治区",
            "city": "巴彦淖尔市",
            "district": "临河区"
        }
    },
    {
        "id": "9035589312969469404",
        "title": "公共厕所",
        "address": "内蒙古自治区巴彦淖尔市临河区健康路与育红街交叉口东南方向110米左右",
        "tel": "",
        "category": "基础设施:公共设施:公共厕所",
        "type": 0,
        "location": {
            "lat": 40.747779,
            "lng": 107.42193
        },
        "ad_info": {
            "adcode": 150802,
            "province": "内蒙古自治区",
            "city": "巴彦淖尔市",
            "district": "临河区"
        }
    },
    {
        "id": "5871507272007634131",
        "title": "公共厕所",
        "address": "内蒙古自治区巴彦淖尔市临河区五一街与团结路交叉口正南方向114米左右",
        "tel": "",
        "category": "基础设施:公共设施:公共厕所",
        "type": 0,
        "location": {
            "lat": 40.74728,
            "lng": 107.415107
        },
        "ad_info": {
            "adcode": 150802,
            "province": "内蒙古自治区",
            "city": "巴彦淖尔市",
            "district": "临河区"
        }
    },
    {
        "id": "1064427999931046754",
        "title": "公共厕所",
        "address": "内蒙古自治区巴彦淖尔市杭锦后旗中山南路与龙宝东街交叉口西南方向64米左右",
        "tel": "",
        "category": "基础设施:公共设施:公共厕所",
        "type": 0,
        "location": {
            "lat": 40.889259,
            "lng": 107.146583
        },
        "ad_info": {
            "adcode": 150826,
            "province": "内蒙古自治区",
            "city": "巴彦淖尔市",
            "district": "杭锦后旗"
        }
    },
    {
        "id": "8672930338587211890",
        "title": "公共厕所",
        "address": "内蒙古自治区巴彦淖尔市临河区水源路与河套大街交叉口正东方向100米左右",
        "tel": "",
        "category": "基础设施:公共设施:公共厕所",
        "type": 0,
        "location": {
            "lat": 40.754285,
            "lng": 107.392604
        },
        "ad_info": {
            "adcode": 150802,
            "province": "内蒙古自治区",
            "city": "巴彦淖尔市",
            "district": "临河区"
        }
    },
    {
        "id": "16606257716124469039",
        "title": "女洗手间",
        "address": "内蒙古自治区巴彦淖尔市临河区新华西街与水源路东100米维多利广场(巴彦淖尔店)F5",
        "tel": "",
        "category": "基础设施:公共设施:女洗手间",
        "type": 0,
        "location": {
            "lat": 40.747813,
            "lng": 107.401065
        },
        "ad_info": {
            "adcode": 150802,
            "province": "内蒙古自治区",
            "city": "巴彦淖尔市",
            "district": "临河区"
        }
    },
    {
        "id": "12567639274171163590",
        "title": "公共厕所",
        "address": "内蒙古自治区巴彦淖尔市杭锦后旗盛裕家园西北侧140米",
        "tel": "",
        "category": "基础设施:公共设施:公共厕所",
        "type": 0,
        "location": {
            "lat": 40.896793,
            "lng": 107.131575
        },
        "ad_info": {
            "adcode": 150826,
            "province": "内蒙古自治区",
            "city": "巴彦淖尔市",
            "district": "杭锦后旗"
        }
    },
    {
        "id": "4174618372896264893",
        "title": "公共厕所",
        "address": "内蒙古自治区巴彦淖尔市杭锦后旗梅林街与站前大街交叉口东北方向336米左右",
        "tel": "",
        "category": "基础设施:公共设施:公共厕所",
        "type": 0,
        "location": {
            "lat": 40.888577,
            "lng": 107.127802
        },
        "ad_info": {
            "adcode": 150826,
            "province": "内蒙古自治区",
            "city": "巴彦淖尔市",
            "district": "杭锦后旗"
        }
    },
    {
        "id": "1871451693567007096",
        "title": "公共厕所",
        "address": "内蒙古自治区巴彦淖尔市五原县盛世佳苑1期北侧90米",
        "tel": "",
        "category": "基础设施:公共设施:公共厕所",
        "type": 0,
        "location": {
            "lat": 41.09599,
            "lng": 108.28415
        },
        "ad_info": {
            "adcode": 150821,
            "province": "内蒙古自治区",
            "city": "巴彦淖尔市",
            "district": "五原县"
        }
    },
    {
        "id": "12912687591860690542",
        "title": "公共厕所",
        "address": "内蒙古自治区巴彦淖尔市临河区解放街与进修路交叉口正北方向497米左右",
        "tel": "",
        "category": "基础设施:公共设施:公共厕所",
        "type": 0,
        "location": {
            "lat": 40.771388,
            "lng": 107.387859
        },
        "ad_info": {
            "adcode": 150802,
            "province": "内蒙古自治区",
            "city": "巴彦淖尔市",
            "district": "临河区"
        }
    },
    {
        "id": "2666791265168869288",
        "title": "公共厕所",
        "address": "内蒙古自治区巴彦淖尔市乌拉特中旗川井北路与哈萨尔大街交叉口正东方向43米",
        "tel": "",
        "category": "基础设施:公共设施:公共厕所",
        "type": 0,
        "location": {
            "lat": 41.581176,
            "lng": 108.513576
        },
        "ad_info": {
            "adcode": 150824,
            "province": "内蒙古自治区",
            "city": "巴彦淖尔市",
            "district": "乌拉特中旗"
        }
    },
    {
        "id": "3923039680329161807",
        "title": "公共卫生间",
        "address": "内蒙古自治区巴彦淖尔市磴口县团结北路与粮台东街交叉口正南方向112米左右",
        "tel": "",
        "category": "基础设施:公共设施:公共厕所",
        "type": 0,
        "location": {
            "lat": 40.332407,
            "lng": 107.008075
        },
        "ad_info": {
            "adcode": 150822,
            "province": "内蒙古自治区",
            "city": "巴彦淖尔市",
            "district": "磴口县"
        }
    },
    {
        "id": "10865591064698947906",
        "title": "公共厕所",
        "address": "内蒙古自治区巴彦淖尔市五原县S507与X709交叉口西南方向194米左右",
        "tel": "",
        "category": "基础设施:公共设施:公共厕所",
        "type": 0,
        "location": {
            "lat": 41.087529,
            "lng": 107.888156
        },
        "ad_info": {
            "adcode": 150821,
            "province": "内蒙古自治区",
            "city": "巴彦淖尔市",
            "district": "五原县"
        }
    },
    {
        "id": "15762549832625314822",
        "title": "公共厕所",
        "address": "内蒙古自治区巴彦淖尔市五原县G110与世纪大道交叉口西南方向495米左右",
        "tel": "",
        "category": "基础设施:公共设施:公共厕所",
        "type": 0,
        "location": {
            "lat": 41.079297,
            "lng": 108.246716
        },
        "ad_info": {
            "adcode": 150821,
            "province": "内蒙古自治区",
            "city": "巴彦淖尔市",
            "district": "五原县"
        }
    },
    {
        "id": "4158813253770791815",
        "title": "公共厕所",
        "address": "内蒙古自治区巴彦淖尔市临河区夏爱平中医诊所南侧180米",
        "tel": "",
        "category": "基础设施:公共设施:公共厕所",
        "type": 0,
        "location": {
            "lat": 40.783409,
            "lng": 107.433317
        },
        "ad_info": {
            "adcode": 150802,
            "province": "内蒙古自治区",
            "city": "巴彦淖尔市",
            "district": "临河区"
        }
    },
    {
        "id": "7600159914495738402",
        "title": "公共厕所",
        "address": "内蒙古自治区巴彦淖尔市临河区向阳路与育红街交叉口西北方向46米左右",
        "tel": "",
        "category": "基础设施:公共设施:公共厕所",
        "type": 0,
        "location": {
            "lat": 40.751436,
            "lng": 107.426478
        },
        "ad_info": {
            "adcode": 150802,
            "province": "内蒙古自治区",
            "city": "巴彦淖尔市",
            "district": "临河区"
        }
    },
    {
        "id": "7825474841374025951",
        "title": "公共厕所",
        "address": "内蒙古自治区巴彦淖尔市乌拉特后旗固察线与赛陕线交叉口正北方向77米左右",
        "tel": "",
        "category": "基础设施:公共设施:公共厕所",
        "type": 0,
        "location": {
            "lat": 41.171373,
            "lng": 107.153962
        },
        "ad_info": {
            "adcode": 150825,
            "province": "内蒙古自治区",
            "city": "巴彦淖尔市",
            "district": "乌拉特后旗"
        }
    },
    {
        "id": "5534905417112916140",
        "title": "公共厕所",
        "address": "内蒙古自治区巴彦淖尔市乌拉特前旗乡企大街与团结路交叉口正南方向72米左右",
        "tel": "",
        "category": "基础设施:公共设施:公共厕所",
        "type": 0,
        "location": {
            "lat": 40.729282,
            "lng": 108.655661
        },
        "ad_info": {
            "adcode": 150823,
            "province": "内蒙古自治区",
            "city": "巴彦淖尔市",
            "district": "乌拉特前旗"
        }
    },
    {
        "id": "5308192000198440611",
        "title": "旅游公共厕所",
        "address": "内蒙古自治区巴彦淖尔市乌拉特前旗振兴大街与民族路交叉口东北方向54米左右",
        "tel": "",
        "category": "基础设施:公共设施:公共厕所",
        "type": 0,
        "location": {
            "lat": 40.735273,
            "lng": 108.659245
        },
        "ad_info": {
            "adcode": 150823,
            "province": "内蒙古自治区",
            "city": "巴彦淖尔市",
            "district": "乌拉特前旗"
        }
    },
    {
        "id": "6725557514598001997",
        "title": "公共厕所",
        "address": "内蒙古自治区巴彦淖尔市临河区人民路与北一街交叉口正南方向29米左右",
        "tel": "",
        "category": "基础设施:公共设施:公共厕所",
        "type": 0,
        "location": {
            "lat": 40.767258,
            "lng": 107.402493
        },
        "ad_info": {
            "adcode": 150802,
            "province": "内蒙古自治区",
            "city": "巴彦淖尔市",
            "district": "临河区"
        }
    },
    {
        "id": "6331799525859284178",
        "title": "公共厕所",
        "address": "内蒙古自治区巴彦淖尔市乌拉特中旗和谐巷与鸿雁大街辅路交叉口西南方向33米左右",
        "tel": "",
        "category": "基础设施:公共设施:公共厕所",
        "type": 0,
        "location": {
            "lat": 41.584431,
            "lng": 108.514566
        },
        "ad_info": {
            "adcode": 150824,
            "province": "内蒙古自治区",
            "city": "巴彦淖尔市",
            "district": "乌拉特中旗"
        }
    },
    {
        "id": "9164126501371191824",
        "title": "公共厕所",
        "address": "内蒙古自治区巴彦淖尔市磴口县绕城路与贺兰北路交叉口正西方向608米左右",
        "tel": "",
        "category": "基础设施:公共设施:公共厕所",
        "type": 0,
        "location": {
            "lat": 40.358414,
            "lng": 106.992674
        },
        "ad_info": {
            "adcode": 150822,
            "province": "内蒙古自治区",
            "city": "巴彦淖尔市",
            "district": "磴口县"
        }
    },
    {
        "id": "4397503042065828826",
        "title": "公共厕所",
        "address": "内蒙古自治区巴彦淖尔市临河区庆丰街与金川大道交叉口正东方向292米左右",
        "tel": "",
        "category": "基础设施:公共设施:公共厕所",
        "type": 0,
        "location": {
            "lat": 40.763323,
            "lng": 107.379311
        },
        "ad_info": {
            "adcode": 150802,
            "province": "内蒙古自治区",
            "city": "巴彦淖尔市",
            "district": "临河区"
        }
    },
    {
        "id": "4206389981372960938",
        "title": "公共厕所",
        "address": "内蒙古自治区巴彦淖尔市磴口县南开街与南开西街交叉口正北方向62米左右",
        "tel": "",
        "category": "基础设施:公共设施:公共厕所",
        "type": 0,
        "location": {
            "lat": 40.327962,
            "lng": 107.004831
        },
        "ad_info": {
            "adcode": 150822,
            "province": "内蒙古自治区",
            "city": "巴彦淖尔市",
            "district": "磴口县"
        }
    },
    {
        "id": "13482822049455092889",
        "title": "公共厕所",
        "address": "内蒙古自治区巴彦淖尔市临河区新华西街与金沙路交叉口西南方向176米左右",
        "tel": "",
        "category": "基础设施:公共设施:公共厕所",
        "type": 0,
        "location": {
            "lat": 40.733482,
            "lng": 107.373098
        },
        "ad_info": {
            "adcode": 150802,
            "province": "内蒙古自治区",
            "city": "巴彦淖尔市",
            "district": "临河区"
        }
    },
    {
        "id": "14774968013731980207",
        "title": "公共厕所",
        "address": "内蒙古自治区巴彦淖尔市临河区曙光街与西苑路交叉口正西方向73米左右",
        "tel": "",
        "category": "基础设施:公共设施:公共厕所",
        "type": 0,
        "location": {
            "lat": 40.724451,
            "lng": 107.379657
        },
        "ad_info": {
            "adcode": 150802,
            "province": "内蒙古自治区",
            "city": "巴彦淖尔市",
            "district": "临河区"
        }
    },
    {
        "id": "5222919651287225804",
        "title": "公共厕所",
        "address": "内蒙古自治区巴彦淖尔市五原县兴原南路和谐家园(隆兴昌西街)",
        "tel": "",
        "category": "基础设施:公共设施:公共厕所",
        "type": 0,
        "location": {
            "lat": 41.093721,
            "lng": 108.26148
        },
        "ad_info": {
            "adcode": 150821,
            "province": "内蒙古自治区",
            "city": "巴彦淖尔市",
            "district": "五原县"
        }
    },
    {
        "id": "2772637243794825368",
        "title": "公共厕所",
        "address": "内蒙古自治区巴彦淖尔市临河区水源路与沃野街交叉口东南方向83米左右",
        "tel": "",
        "category": "基础设施:公共设施:公共厕所",
        "type": 0,
        "location": {
            "lat": 40.738541,
            "lng": 107.4041
        },
        "ad_info": {
            "adcode": 150802,
            "province": "内蒙古自治区",
            "city": "巴彦淖尔市",
            "district": "临河区"
        }
    },
    {
        "id": "18254790217256948133",
        "title": "公共厕所",
        "address": "内蒙古自治区巴彦淖尔市临河区曙光街与水源路交叉口东北方向588米左右",
        "tel": "",
        "category": "基础设施:公共设施:公共厕所",
        "type": 0,
        "location": {
            "lat": 40.738241,
            "lng": 107.411868
        },
        "ad_info": {
            "adcode": 150802,
            "province": "内蒙古自治区",
            "city": "巴彦淖尔市",
            "district": "临河区"
        }
    },
    {
        "id": "12174862935209999345",
        "title": "公共厕所",
        "address": "内蒙古自治区巴彦淖尔市临河区吉祥路与解放街交叉口正南方向89米左右",
        "tel": "",
        "category": "基础设施:公共设施:公共厕所",
        "type": 0,
        "location": {
            "lat": 40.766044,
            "lng": 107.406787
        },
        "ad_info": {
            "adcode": 150802,
            "province": "内蒙古自治区",
            "city": "巴彦淖尔市",
            "district": "临河区"
        }
    },
    {
        "id": "5404642532600222547",
        "title": "公共厕所",
        "address": "内蒙古自治区巴彦淖尔市磴口县建筑西街与贺兰南路交叉口正北方向113米左右",
        "tel": "",
        "category": "基础设施:公共设施:公共厕所",
        "type": 0,
        "location": {
            "lat": 40.326419,
            "lng": 107.000546
        },
        "ad_info": {
            "adcode": 150822,
            "province": "内蒙古自治区",
            "city": "巴彦淖尔市",
            "district": "磴口县"
        }
    },
    {
        "id": "12726935056791486259",
        "title": "公共厕所",
        "address": "内蒙古自治区巴彦淖尔市磴口县永进东街与钢铁路交叉口正北方向55米左右",
        "tel": "",
        "category": "基础设施:公共设施:公共厕所",
        "type": 0,
        "location": {
            "lat": 40.332113,
            "lng": 107.015452
        },
        "ad_info": {
            "adcode": 150822,
            "province": "内蒙古自治区",
            "city": "巴彦淖尔市",
            "district": "磴口县"
        }
    },
    {
        "id": "8438841771715659434",
        "title": "公共厕所",
        "address": "内蒙古自治区巴彦淖尔市五原县文明路与红旗西路交叉口正东方向128米左右",
        "tel": "",
        "category": "基础设施:公共设施:公共厕所",
        "type": 0,
        "location": {
            "lat": 41.103921,
            "lng": 108.263937
        },
        "ad_info": {
            "adcode": 150821,
            "province": "内蒙古自治区",
            "city": "巴彦淖尔市",
            "district": "五原县"
        }
    },
    {
        "id": "7621347336877838499",
        "title": "公共厕所",
        "address": "内蒙古自治区巴彦淖尔市临河区丰州路与解放街交叉口正北方向52米左右",
        "tel": "",
        "category": "基础设施:公共设施:公共厕所",
        "type": 0,
        "location": {
            "lat": 40.767307,
            "lng": 107.393708
        },
        "ad_info": {
            "adcode": 150802,
            "province": "内蒙古自治区",
            "city": "巴彦淖尔市",
            "district": "临河区"
        }
    },
    {
        "id": "9215086533287055250",
        "title": "公共厕所",
        "address": "内蒙古自治区巴彦淖尔市临河区健康南路与曙光街交叉口正南方向197米左右",
        "tel": "",
        "category": "基础设施:公共设施:公共厕所",
        "type": 0,
        "location": {
            "lat": 40.742846,
            "lng": 107.425433
        },
        "ad_info": {
            "adcode": 150802,
            "province": "内蒙古自治区",
            "city": "巴彦淖尔市",
            "district": "临河区"
        }
    },
    {
        "id": "8579832114705473833",
        "title": "公共厕所",
        "address": "内蒙古自治区巴彦淖尔市临河区利民街与胜利路交叉口正南方向147米左右",
        "tel": "",
        "category": "基础设施:公共设施:公共厕所",
        "type": 0,
        "location": {
            "lat": 40.758522,
            "lng": 107.415962
        },
        "ad_info": {
            "adcode": 150802,
            "province": "内蒙古自治区",
            "city": "巴彦淖尔市",
            "district": "临河区"
        }
    },
    {
        "id": "7825474841374025951",
        "title": "公共厕所",
        "address": "内蒙古自治区巴彦淖尔市乌拉特后旗固察线与赛陕线交叉口正北方向77米左右",
        "tel": "",
        "category": "基础设施:公共设施:公共厕所",
        "type": 0,
        "location": {
            "lat": 41.171373,
            "lng": 107.153962
        },
        "ad_info": {
            "adcode": 150825,
            "province": "内蒙古自治区",
            "city": "巴彦淖尔市",
            "district": "乌拉特后旗"
        }
    },
    {
        "id": "5534905417112916140",
        "title": "公共厕所",
        "address": "内蒙古自治区巴彦淖尔市乌拉特前旗乡企大街与团结路交叉口正南方向72米左右",
        "tel": "",
        "category": "基础设施:公共设施:公共厕所",
        "type": 0,
        "location": {
            "lat": 40.729282,
            "lng": 108.655661
        },
        "ad_info": {
            "adcode": 150823,
            "province": "内蒙古自治区",
            "city": "巴彦淖尔市",
            "district": "乌拉特前旗"
        }
    },
    {
        "id": "5308192000198440611",
        "title": "旅游公共厕所",
        "address": "内蒙古自治区巴彦淖尔市乌拉特前旗振兴大街与民族路交叉口东北方向54米左右",
        "tel": "",
        "category": "基础设施:公共设施:公共厕所",
        "type": 0,
        "location": {
            "lat": 40.735273,
            "lng": 108.659245
        },
        "ad_info": {
            "adcode": 150823,
            "province": "内蒙古自治区",
            "city": "巴彦淖尔市",
            "district": "乌拉特前旗"
        }
    },
    {
        "id": "6725557514598001997",
        "title": "公共厕所",
        "address": "内蒙古自治区巴彦淖尔市临河区人民路与北一街交叉口正南方向29米左右",
        "tel": "",
        "category": "基础设施:公共设施:公共厕所",
        "type": 0,
        "location": {
            "lat": 40.767258,
            "lng": 107.402493
        },
        "ad_info": {
            "adcode": 150802,
            "province": "内蒙古自治区",
            "city": "巴彦淖尔市",
            "district": "临河区"
        }
    },
    {
        "id": "6331799525859284178",
        "title": "公共厕所",
        "address": "内蒙古自治区巴彦淖尔市乌拉特中旗和谐巷与鸿雁大街辅路交叉口西南方向33米左右",
        "tel": "",
        "category": "基础设施:公共设施:公共厕所",
        "type": 0,
        "location": {
            "lat": 41.584431,
            "lng": 108.514566
        },
        "ad_info": {
            "adcode": 150824,
            "province": "内蒙古自治区",
            "city": "巴彦淖尔市",
            "district": "乌拉特中旗"
        }
    },
    {
        "id": "9164126501371191824",
        "title": "公共厕所",
        "address": "内蒙古自治区巴彦淖尔市磴口县绕城路与贺兰北路交叉口正西方向608米左右",
        "tel": "",
        "category": "基础设施:公共设施:公共厕所",
        "type": 0,
        "location": {
            "lat": 40.358414,
            "lng": 106.992674
        },
        "ad_info": {
            "adcode": 150822,
            "province": "内蒙古自治区",
            "city": "巴彦淖尔市",
            "district": "磴口县"
        }
    },
    {
        "id": "4397503042065828826",
        "title": "公共厕所",
        "address": "内蒙古自治区巴彦淖尔市临河区庆丰街与金川大道交叉口正东方向292米左右",
        "tel": "",
        "category": "基础设施:公共设施:公共厕所",
        "type": 0,
        "location": {
            "lat": 40.763323,
            "lng": 107.379311
        },
        "ad_info": {
            "adcode": 150802,
            "province": "内蒙古自治区",
            "city": "巴彦淖尔市",
            "district": "临河区"
        }
    },
    {
        "id": "4206389981372960938",
        "title": "公共厕所",
        "address": "内蒙古自治区巴彦淖尔市磴口县南开街与南开西街交叉口正北方向62米左右",
        "tel": "",
        "category": "基础设施:公共设施:公共厕所",
        "type": 0,
        "location": {
            "lat": 40.327962,
            "lng": 107.004831
        },
        "ad_info": {
            "adcode": 150822,
            "province": "内蒙古自治区",
            "city": "巴彦淖尔市",
            "district": "磴口县"
        }
    },
    {
        "id": "13482822049455092889",
        "title": "公共厕所",
        "address": "内蒙古自治区巴彦淖尔市临河区新华西街与金沙路交叉口西南方向176米左右",
        "tel": "",
        "category": "基础设施:公共设施:公共厕所",
        "type": 0,
        "location": {
            "lat": 40.733482,
            "lng": 107.373098
        },
        "ad_info": {
            "adcode": 150802,
            "province": "内蒙古自治区",
            "city": "巴彦淖尔市",
            "district": "临河区"
        }
    },
    {
        "id": "14774968013731980207",
        "title": "公共厕所",
        "address": "内蒙古自治区巴彦淖尔市临河区曙光街与西苑路交叉口正西方向73米左右",
        "tel": "",
        "category": "基础设施:公共设施:公共厕所",
        "type": 0,
        "location": {
            "lat": 40.724451,
            "lng": 107.379657
        },
        "ad_info": {
            "adcode": 150802,
            "province": "内蒙古自治区",
            "city": "巴彦淖尔市",
            "district": "临河区"
        }
    },
    {
        "id": "5222919651287225804",
        "title": "公共厕所",
        "address": "内蒙古自治区巴彦淖尔市五原县兴原南路和谐家园(隆兴昌西街)",
        "tel": "",
        "category": "基础设施:公共设施:公共厕所",
        "type": 0,
        "location": {
            "lat": 41.093721,
            "lng": 108.26148
        },
        "ad_info": {
            "adcode": 150821,
            "province": "内蒙古自治区",
            "city": "巴彦淖尔市",
            "district": "五原县"
        }
    },
    {
        "id": "2772637243794825368",
        "title": "公共厕所",
        "address": "内蒙古自治区巴彦淖尔市临河区水源路与沃野街交叉口东南方向83米左右",
        "tel": "",
        "category": "基础设施:公共设施:公共厕所",
        "type": 0,
        "location": {
            "lat": 40.738541,
            "lng": 107.4041
        },
        "ad_info": {
            "adcode": 150802,
            "province": "内蒙古自治区",
            "city": "巴彦淖尔市",
            "district": "临河区"
        }
    },
    {
        "id": "18254790217256948133",
        "title": "公共厕所",
        "address": "内蒙古自治区巴彦淖尔市临河区曙光街与水源路交叉口东北方向588米左右",
        "tel": "",
        "category": "基础设施:公共设施:公共厕所",
        "type": 0,
        "location": {
            "lat": 40.738241,
            "lng": 107.411868
        },
        "ad_info": {
            "adcode": 150802,
            "province": "内蒙古自治区",
            "city": "巴彦淖尔市",
            "district": "临河区"
        }
    },
    {
        "id": "12174862935209999345",
        "title": "公共厕所",
        "address": "内蒙古自治区巴彦淖尔市临河区吉祥路与解放街交叉口正南方向89米左右",
        "tel": "",
        "category": "基础设施:公共设施:公共厕所",
        "type": 0,
        "location": {
            "lat": 40.766044,
            "lng": 107.406787
        },
        "ad_info": {
            "adcode": 150802,
            "province": "内蒙古自治区",
            "city": "巴彦淖尔市",
            "district": "临河区"
        }
    },
    {
        "id": "5404642532600222547",
        "title": "公共厕所",
        "address": "内蒙古自治区巴彦淖尔市磴口县建筑西街与贺兰南路交叉口正北方向113米左右",
        "tel": "",
        "category": "基础设施:公共设施:公共厕所",
        "type": 0,
        "location": {
            "lat": 40.326419,
            "lng": 107.000546
        },
        "ad_info": {
            "adcode": 150822,
            "province": "内蒙古自治区",
            "city": "巴彦淖尔市",
            "district": "磴口县"
        }
    },
    {
        "id": "12726935056791486259",
        "title": "公共厕所",
        "address": "内蒙古自治区巴彦淖尔市磴口县永进东街与钢铁路交叉口正北方向55米左右",
        "tel": "",
        "category": "基础设施:公共设施:公共厕所",
        "type": 0,
        "location": {
            "lat": 40.332113,
            "lng": 107.015452
        },
        "ad_info": {
            "adcode": 150822,
            "province": "内蒙古自治区",
            "city": "巴彦淖尔市",
            "district": "磴口县"
        }
    },
    {
        "id": "8438841771715659434",
        "title": "公共厕所",
        "address": "内蒙古自治区巴彦淖尔市五原县文明路与红旗西路交叉口正东方向128米左右",
        "tel": "",
        "category": "基础设施:公共设施:公共厕所",
        "type": 0,
        "location": {
            "lat": 41.103921,
            "lng": 108.263937
        },
        "ad_info": {
            "adcode": 150821,
            "province": "内蒙古自治区",
            "city": "巴彦淖尔市",
            "district": "五原县"
        }
    },
    {
        "id": "7621347336877838499",
        "title": "公共厕所",
        "address": "内蒙古自治区巴彦淖尔市临河区丰州路与解放街交叉口正北方向52米左右",
        "tel": "",
        "category": "基础设施:公共设施:公共厕所",
        "type": 0,
        "location": {
            "lat": 40.767307,
            "lng": 107.393708
        },
        "ad_info": {
            "adcode": 150802,
            "province": "内蒙古自治区",
            "city": "巴彦淖尔市",
            "district": "临河区"
        }
    },
    {
        "id": "9215086533287055250",
        "title": "公共厕所",
        "address": "内蒙古自治区巴彦淖尔市临河区健康南路与曙光街交叉口正南方向197米左右",
        "tel": "",
        "category": "基础设施:公共设施:公共厕所",
        "type": 0,
        "location": {
            "lat": 40.742846,
            "lng": 107.425433
        },
        "ad_info": {
            "adcode": 150802,
            "province": "内蒙古自治区",
            "city": "巴彦淖尔市",
            "district": "临河区"
        }
    },
    {
        "id": "8579832114705473833",
        "title": "公共厕所",
        "address": "内蒙古自治区巴彦淖尔市临河区利民街与胜利路交叉口正南方向147米左右",
        "tel": "",
        "category": "基础设施:公共设施:公共厕所",
        "type": 0,
        "location": {
            "lat": 40.758522,
            "lng": 107.415962
        },
        "ad_info": {
            "adcode": 150802,
            "province": "内蒙古自治区",
            "city": "巴彦淖尔市",
            "district": "临河区"
        }
    },
    {
        "id": "7825474841374025951",
        "title": "公共厕所",
        "address": "内蒙古自治区巴彦淖尔市乌拉特后旗固察线与赛陕线交叉口正北方向77米左右",
        "tel": "",
        "category": "基础设施:公共设施:公共厕所",
        "type": 0,
        "location": {
            "lat": 41.171373,
            "lng": 107.153962
        },
        "ad_info": {
            "adcode": 150825,
            "province": "内蒙古自治区",
            "city": "巴彦淖尔市",
            "district": "乌拉特后旗"
        }
    },
    {
        "id": "5534905417112916140",
        "title": "公共厕所",
        "address": "内蒙古自治区巴彦淖尔市乌拉特前旗乡企大街与团结路交叉口正南方向72米左右",
        "tel": "",
        "category": "基础设施:公共设施:公共厕所",
        "type": 0,
        "location": {
            "lat": 40.729282,
            "lng": 108.655661
        },
        "ad_info": {
            "adcode": 150823,
            "province": "内蒙古自治区",
            "city": "巴彦淖尔市",
            "district": "乌拉特前旗"
        }
    },
    {
        "id": "5308192000198440611",
        "title": "旅游公共厕所",
        "address": "内蒙古自治区巴彦淖尔市乌拉特前旗振兴大街与民族路交叉口东北方向54米左右",
        "tel": "",
        "category": "基础设施:公共设施:公共厕所",
        "type": 0,
        "location": {
            "lat": 40.735273,
            "lng": 108.659245
        },
        "ad_info": {
            "adcode": 150823,
            "province": "内蒙古自治区",
            "city": "巴彦淖尔市",
            "district": "乌拉特前旗"
        }
    },
    {
        "id": "6725557514598001997",
        "title": "公共厕所",
        "address": "内蒙古自治区巴彦淖尔市临河区人民路与北一街交叉口正南方向29米左右",
        "tel": "",
        "category": "基础设施:公共设施:公共厕所",
        "type": 0,
        "location": {
            "lat": 40.767258,
            "lng": 107.402493
        },
        "ad_info": {
            "adcode": 150802,
            "province": "内蒙古自治区",
            "city": "巴彦淖尔市",
            "district": "临河区"
        }
    },
    {
        "id": "6331799525859284178",
        "title": "公共厕所",
        "address": "内蒙古自治区巴彦淖尔市乌拉特中旗和谐巷与鸿雁大街辅路交叉口西南方向33米左右",
        "tel": "",
        "category": "基础设施:公共设施:公共厕所",
        "type": 0,
        "location": {
            "lat": 41.584431,
            "lng": 108.514566
        },
        "ad_info": {
            "adcode": 150824,
            "province": "内蒙古自治区",
            "city": "巴彦淖尔市",
            "district": "乌拉特中旗"
        }
    },
    {
        "id": "9164126501371191824",
        "title": "公共厕所",
        "address": "内蒙古自治区巴彦淖尔市磴口县绕城路与贺兰北路交叉口正西方向608米左右",
        "tel": "",
        "category": "基础设施:公共设施:公共厕所",
        "type": 0,
        "location": {
            "lat": 40.358414,
            "lng": 106.992674
        },
        "ad_info": {
            "adcode": 150822,
            "province": "内蒙古自治区",
            "city": "巴彦淖尔市",
            "district": "磴口县"
        }
    },
    {
        "id": "4397503042065828826",
        "title": "公共厕所",
        "address": "内蒙古自治区巴彦淖尔市临河区庆丰街与金川大道交叉口正东方向292米左右",
        "tel": "",
        "category": "基础设施:公共设施:公共厕所",
        "type": 0,
        "location": {
            "lat": 40.763323,
            "lng": 107.379311
        },
        "ad_info": {
            "adcode": 150802,
            "province": "内蒙古自治区",
            "city": "巴彦淖尔市",
            "district": "临河区"
        }
    },
    {
        "id": "4206389981372960938",
        "title": "公共厕所",
        "address": "内蒙古自治区巴彦淖尔市磴口县南开街与南开西街交叉口正北方向62米左右",
        "tel": "",
        "category": "基础设施:公共设施:公共厕所",
        "type": 0,
        "location": {
            "lat": 40.327962,
            "lng": 107.004831
        },
        "ad_info": {
            "adcode": 150822,
            "province": "内蒙古自治区",
            "city": "巴彦淖尔市",
            "district": "磴口县"
        }
    },
    {
        "id": "13482822049455092889",
        "title": "公共厕所",
        "address": "内蒙古自治区巴彦淖尔市临河区新华西街与金沙路交叉口西南方向176米左右",
        "tel": "",
        "category": "基础设施:公共设施:公共厕所",
        "type": 0,
        "location": {
            "lat": 40.733482,
            "lng": 107.373098
        },
        "ad_info": {
            "adcode": 150802,
            "province": "内蒙古自治区",
            "city": "巴彦淖尔市",
            "district": "临河区"
        }
    },
    {
        "id": "14774968013731980207",
        "title": "公共厕所",
        "address": "内蒙古自治区巴彦淖尔市临河区曙光街与西苑路交叉口正西方向73米左右",
        "tel": "",
        "category": "基础设施:公共设施:公共厕所",
        "type": 0,
        "location": {
            "lat": 40.724451,
            "lng": 107.379657
        },
        "ad_info": {
            "adcode": 150802,
            "province": "内蒙古自治区",
            "city": "巴彦淖尔市",
            "district": "临河区"
        }
    },
    {
        "id": "5222919651287225804",
        "title": "公共厕所",
        "address": "内蒙古自治区巴彦淖尔市五原县兴原南路和谐家园(隆兴昌西街)",
        "tel": "",
        "category": "基础设施:公共设施:公共厕所",
        "type": 0,
        "location": {
            "lat": 41.093721,
            "lng": 108.26148
        },
        "ad_info": {
            "adcode": 150821,
            "province": "内蒙古自治区",
            "city": "巴彦淖尔市",
            "district": "五原县"
        }
    },
    {
        "id": "2772637243794825368",
        "title": "公共厕所",
        "address": "内蒙古自治区巴彦淖尔市临河区水源路与沃野街交叉口东南方向83米左右",
        "tel": "",
        "category": "基础设施:公共设施:公共厕所",
        "type": 0,
        "location": {
            "lat": 40.738541,
            "lng": 107.4041
        },
        "ad_info": {
            "adcode": 150802,
            "province": "内蒙古自治区",
            "city": "巴彦淖尔市",
            "district": "临河区"
        }
    },
    {
        "id": "18254790217256948133",
        "title": "公共厕所",
        "address": "内蒙古自治区巴彦淖尔市临河区曙光街与水源路交叉口东北方向588米左右",
        "tel": "",
        "category": "基础设施:公共设施:公共厕所",
        "type": 0,
        "location": {
            "lat": 40.738241,
            "lng": 107.411868
        },
        "ad_info": {
            "adcode": 150802,
            "province": "内蒙古自治区",
            "city": "巴彦淖尔市",
            "district": "临河区"
        }
    },
    {
        "id": "12174862935209999345",
        "title": "公共厕所",
        "address": "内蒙古自治区巴彦淖尔市临河区吉祥路与解放街交叉口正南方向89米左右",
        "tel": "",
        "category": "基础设施:公共设施:公共厕所",
        "type": 0,
        "location": {
            "lat": 40.766044,
            "lng": 107.406787
        },
        "ad_info": {
            "adcode": 150802,
            "province": "内蒙古自治区",
            "city": "巴彦淖尔市",
            "district": "临河区"
        }
    },
    {
        "id": "5404642532600222547",
        "title": "公共厕所",
        "address": "内蒙古自治区巴彦淖尔市磴口县建筑西街与贺兰南路交叉口正北方向113米左右",
        "tel": "",
        "category": "基础设施:公共设施:公共厕所",
        "type": 0,
        "location": {
            "lat": 40.326419,
            "lng": 107.000546
        },
        "ad_info": {
            "adcode": 150822,
            "province": "内蒙古自治区",
            "city": "巴彦淖尔市",
            "district": "磴口县"
        }
    },
    {
        "id": "12726935056791486259",
        "title": "公共厕所",
        "address": "内蒙古自治区巴彦淖尔市磴口县永进东街与钢铁路交叉口正北方向55米左右",
        "tel": "",
        "category": "基础设施:公共设施:公共厕所",
        "type": 0,
        "location": {
            "lat": 40.332113,
            "lng": 107.015452
        },
        "ad_info": {
            "adcode": 150822,
            "province": "内蒙古自治区",
            "city": "巴彦淖尔市",
            "district": "磴口县"
        }
    },
    {
        "id": "8438841771715659434",
        "title": "公共厕所",
        "address": "内蒙古自治区巴彦淖尔市五原县文明路与红旗西路交叉口正东方向128米左右",
        "tel": "",
        "category": "基础设施:公共设施:公共厕所",
        "type": 0,
        "location": {
            "lat": 41.103921,
            "lng": 108.263937
        },
        "ad_info": {
            "adcode": 150821,
            "province": "内蒙古自治区",
            "city": "巴彦淖尔市",
            "district": "五原县"
        }
    },
    {
        "id": "7621347336877838499",
        "title": "公共厕所",
        "address": "内蒙古自治区巴彦淖尔市临河区丰州路与解放街交叉口正北方向52米左右",
        "tel": "",
        "category": "基础设施:公共设施:公共厕所",
        "type": 0,
        "location": {
            "lat": 40.767307,
            "lng": 107.393708
        },
        "ad_info": {
            "adcode": 150802,
            "province": "内蒙古自治区",
            "city": "巴彦淖尔市",
            "district": "临河区"
        }
    },
    {
        "id": "9215086533287055250",
        "title": "公共厕所",
        "address": "内蒙古自治区巴彦淖尔市临河区健康南路与曙光街交叉口正南方向197米左右",
        "tel": "",
        "category": "基础设施:公共设施:公共厕所",
        "type": 0,
        "location": {
            "lat": 40.742846,
            "lng": 107.425433
        },
        "ad_info": {
            "adcode": 150802,
            "province": "内蒙古自治区",
            "city": "巴彦淖尔市",
            "district": "临河区"
        }
    },
    {
        "id": "8579832114705473833",
        "title": "公共厕所",
        "address": "内蒙古自治区巴彦淖尔市临河区利民街与胜利路交叉口正南方向147米左右",
        "tel": "",
        "category": "基础设施:公共设施:公共厕所",
        "type": 0,
        "location": {
            "lat": 40.758522,
            "lng": 107.415962
        },
        "ad_info": {
            "adcode": 150802,
            "province": "内蒙古自治区",
            "city": "巴彦淖尔市",
            "district": "临河区"
        }
    },
    {
        "id": "7825474841374025951",
        "title": "公共厕所",
        "address": "内蒙古自治区巴彦淖尔市乌拉特后旗固察线与赛陕线交叉口正北方向77米左右",
        "tel": "",
        "category": "基础设施:公共设施:公共厕所",
        "type": 0,
        "location": {
            "lat": 41.171373,
            "lng": 107.153962
        },
        "ad_info": {
            "adcode": 150825,
            "province": "内蒙古自治区",
            "city": "巴彦淖尔市",
            "district": "乌拉特后旗"
        }
    },
    {
        "id": "5534905417112916140",
        "title": "公共厕所",
        "address": "内蒙古自治区巴彦淖尔市乌拉特前旗乡企大街与团结路交叉口正南方向72米左右",
        "tel": "",
        "category": "基础设施:公共设施:公共厕所",
        "type": 0,
        "location": {
            "lat": 40.729282,
            "lng": 108.655661
        },
        "ad_info": {
            "adcode": 150823,
            "province": "内蒙古自治区",
            "city": "巴彦淖尔市",
            "district": "乌拉特前旗"
        }
    },
    {
        "id": "5308192000198440611",
        "title": "旅游公共厕所",
        "address": "内蒙古自治区巴彦淖尔市乌拉特前旗振兴大街与民族路交叉口东北方向54米左右",
        "tel": "",
        "category": "基础设施:公共设施:公共厕所",
        "type": 0,
        "location": {
            "lat": 40.735273,
            "lng": 108.659245
        },
        "ad_info": {
            "adcode": 150823,
            "province": "内蒙古自治区",
            "city": "巴彦淖尔市",
            "district": "乌拉特前旗"
        }
    },
    {
        "id": "6725557514598001997",
        "title": "公共厕所",
        "address": "内蒙古自治区巴彦淖尔市临河区人民路与北一街交叉口正南方向29米左右",
        "tel": "",
        "category": "基础设施:公共设施:公共厕所",
        "type": 0,
        "location": {
            "lat": 40.767258,
            "lng": 107.402493
        },
        "ad_info": {
            "adcode": 150802,
            "province": "内蒙古自治区",
            "city": "巴彦淖尔市",
            "district": "临河区"
        }
    },
    {
        "id": "6331799525859284178",
        "title": "公共厕所",
        "address": "内蒙古自治区巴彦淖尔市乌拉特中旗和谐巷与鸿雁大街辅路交叉口西南方向33米左右",
        "tel": "",
        "category": "基础设施:公共设施:公共厕所",
        "type": 0,
        "location": {
            "lat": 41.584431,
            "lng": 108.514566
        },
        "ad_info": {
            "adcode": 150824,
            "province": "内蒙古自治区",
            "city": "巴彦淖尔市",
            "district": "乌拉特中旗"
        }
    },
    {
        "id": "9164126501371191824",
        "title": "公共厕所",
        "address": "内蒙古自治区巴彦淖尔市磴口县绕城路与贺兰北路交叉口正西方向608米左右",
        "tel": "",
        "category": "基础设施:公共设施:公共厕所",
        "type": 0,
        "location": {
            "lat": 40.358414,
            "lng": 106.992674
        },
        "ad_info": {
            "adcode": 150822,
            "province": "内蒙古自治区",
            "city": "巴彦淖尔市",
            "district": "磴口县"
        }
    },
    {
        "id": "4397503042065828826",
        "title": "公共厕所",
        "address": "内蒙古自治区巴彦淖尔市临河区庆丰街与金川大道交叉口正东方向292米左右",
        "tel": "",
        "category": "基础设施:公共设施:公共厕所",
        "type": 0,
        "location": {
            "lat": 40.763323,
            "lng": 107.379311
        },
        "ad_info": {
            "adcode": 150802,
            "province": "内蒙古自治区",
            "city": "巴彦淖尔市",
            "district": "临河区"
        }
    },
    {
        "id": "4206389981372960938",
        "title": "公共厕所",
        "address": "内蒙古自治区巴彦淖尔市磴口县南开街与南开西街交叉口正北方向62米左右",
        "tel": "",
        "category": "基础设施:公共设施:公共厕所",
        "type": 0,
        "location": {
            "lat": 40.327962,
            "lng": 107.004831
        },
        "ad_info": {
            "adcode": 150822,
            "province": "内蒙古自治区",
            "city": "巴彦淖尔市",
            "district": "磴口县"
        }
    },
    {
        "id": "13482822049455092889",
        "title": "公共厕所",
        "address": "内蒙古自治区巴彦淖尔市临河区新华西街与金沙路交叉口西南方向176米左右",
        "tel": "",
        "category": "基础设施:公共设施:公共厕所",
        "type": 0,
        "location": {
            "lat": 40.733482,
            "lng": 107.373098
        },
        "ad_info": {
            "adcode": 150802,
            "province": "内蒙古自治区",
            "city": "巴彦淖尔市",
            "district": "临河区"
        }
    },
    {
        "id": "14774968013731980207",
        "title": "公共厕所",
        "address": "内蒙古自治区巴彦淖尔市临河区曙光街与西苑路交叉口正西方向73米左右",
        "tel": "",
        "category": "基础设施:公共设施:公共厕所",
        "type": 0,
        "location": {
            "lat": 40.724451,
            "lng": 107.379657
        },
        "ad_info": {
            "adcode": 150802,
            "province": "内蒙古自治区",
            "city": "巴彦淖尔市",
            "district": "临河区"
        }
    },
    {
        "id": "5222919651287225804",
        "title": "公共厕所",
        "address": "内蒙古自治区巴彦淖尔市五原县兴原南路和谐家园(隆兴昌西街)",
        "tel": "",
        "category": "基础设施:公共设施:公共厕所",
        "type": 0,
        "location": {
            "lat": 41.093721,
            "lng": 108.26148
        },
        "ad_info": {
            "adcode": 150821,
            "province": "内蒙古自治区",
            "city": "巴彦淖尔市",
            "district": "五原县"
        }
    },
    {
        "id": "2772637243794825368",
        "title": "公共厕所",
        "address": "内蒙古自治区巴彦淖尔市临河区水源路与沃野街交叉口东南方向83米左右",
        "tel": "",
        "category": "基础设施:公共设施:公共厕所",
        "type": 0,
        "location": {
            "lat": 40.738541,
            "lng": 107.4041
        },
        "ad_info": {
            "adcode": 150802,
            "province": "内蒙古自治区",
            "city": "巴彦淖尔市",
            "district": "临河区"
        }
    },
    {
        "id": "18254790217256948133",
        "title": "公共厕所",
        "address": "内蒙古自治区巴彦淖尔市临河区曙光街与水源路交叉口东北方向588米左右",
        "tel": "",
        "category": "基础设施:公共设施:公共厕所",
        "type": 0,
        "location": {
            "lat": 40.738241,
            "lng": 107.411868
        },
        "ad_info": {
            "adcode": 150802,
            "province": "内蒙古自治区",
            "city": "巴彦淖尔市",
            "district": "临河区"
        }
    },
    {
        "id": "12174862935209999345",
        "title": "公共厕所",
        "address": "内蒙古自治区巴彦淖尔市临河区吉祥路与解放街交叉口正南方向89米左右",
        "tel": "",
        "category": "基础设施:公共设施:公共厕所",
        "type": 0,
        "location": {
            "lat": 40.766044,
            "lng": 107.406787
        },
        "ad_info": {
            "adcode": 150802,
            "province": "内蒙古自治区",
            "city": "巴彦淖尔市",
            "district": "临河区"
        }
    },
    {
        "id": "5404642532600222547",
        "title": "公共厕所",
        "address": "内蒙古自治区巴彦淖尔市磴口县建筑西街与贺兰南路交叉口正北方向113米左右",
        "tel": "",
        "category": "基础设施:公共设施:公共厕所",
        "type": 0,
        "location": {
            "lat": 40.326419,
            "lng": 107.000546
        },
        "ad_info": {
            "adcode": 150822,
            "province": "内蒙古自治区",
            "city": "巴彦淖尔市",
            "district": "磴口县"
        }
    },
    {
        "id": "12726935056791486259",
        "title": "公共厕所",
        "address": "内蒙古自治区巴彦淖尔市磴口县永进东街与钢铁路交叉口正北方向55米左右",
        "tel": "",
        "category": "基础设施:公共设施:公共厕所",
        "type": 0,
        "location": {
            "lat": 40.332113,
            "lng": 107.015452
        },
        "ad_info": {
            "adcode": 150822,
            "province": "内蒙古自治区",
            "city": "巴彦淖尔市",
            "district": "磴口县"
        }
    },
    {
        "id": "8438841771715659434",
        "title": "公共厕所",
        "address": "内蒙古自治区巴彦淖尔市五原县文明路与红旗西路交叉口正东方向128米左右",
        "tel": "",
        "category": "基础设施:公共设施:公共厕所",
        "type": 0,
        "location": {
            "lat": 41.103921,
            "lng": 108.263937
        },
        "ad_info": {
            "adcode": 150821,
            "province": "内蒙古自治区",
            "city": "巴彦淖尔市",
            "district": "五原县"
        }
    },
    {
        "id": "7621347336877838499",
        "title": "公共厕所",
        "address": "内蒙古自治区巴彦淖尔市临河区丰州路与解放街交叉口正北方向52米左右",
        "tel": "",
        "category": "基础设施:公共设施:公共厕所",
        "type": 0,
        "location": {
            "lat": 40.767307,
            "lng": 107.393708
        },
        "ad_info": {
            "adcode": 150802,
            "province": "内蒙古自治区",
            "city": "巴彦淖尔市",
            "district": "临河区"
        }
    },
    {
        "id": "9215086533287055250",
        "title": "公共厕所",
        "address": "内蒙古自治区巴彦淖尔市临河区健康南路与曙光街交叉口正南方向197米左右",
        "tel": "",
        "category": "基础设施:公共设施:公共厕所",
        "type": 0,
        "location": {
            "lat": 40.742846,
            "lng": 107.425433
        },
        "ad_info": {
            "adcode": 150802,
            "province": "内蒙古自治区",
            "city": "巴彦淖尔市",
            "district": "临河区"
        }
    },
    {
        "id": "8579832114705473833",
        "title": "公共厕所",
        "address": "内蒙古自治区巴彦淖尔市临河区利民街与胜利路交叉口正南方向147米左右",
        "tel": "",
        "category": "基础设施:公共设施:公共厕所",
        "type": 0,
        "location": {
            "lat": 40.758522,
            "lng": 107.415962
        },
        "ad_info": {
            "adcode": 150802,
            "province": "内蒙古自治区",
            "city": "巴彦淖尔市",
            "district": "临河区"
        }
    },
    {
        "id": "7825474841374025951",
        "title": "公共厕所",
        "address": "内蒙古自治区巴彦淖尔市乌拉特后旗固察线与赛陕线交叉口正北方向77米左右",
        "tel": "",
        "category": "基础设施:公共设施:公共厕所",
        "type": 0,
        "location": {
            "lat": 41.171373,
            "lng": 107.153962
        },
        "ad_info": {
            "adcode": 150825,
            "province": "内蒙古自治区",
            "city": "巴彦淖尔市",
            "district": "乌拉特后旗"
        }
    },
    {
        "id": "5534905417112916140",
        "title": "公共厕所",
        "address": "内蒙古自治区巴彦淖尔市乌拉特前旗乡企大街与团结路交叉口正南方向72米左右",
        "tel": "",
        "category": "基础设施:公共设施:公共厕所",
        "type": 0,
        "location": {
            "lat": 40.729282,
            "lng": 108.655661
        },
        "ad_info": {
            "adcode": 150823,
            "province": "内蒙古自治区",
            "city": "巴彦淖尔市",
            "district": "乌拉特前旗"
        }
    },
    {
        "id": "5308192000198440611",
        "title": "旅游公共厕所",
        "address": "内蒙古自治区巴彦淖尔市乌拉特前旗振兴大街与民族路交叉口东北方向54米左右",
        "tel": "",
        "category": "基础设施:公共设施:公共厕所",
        "type": 0,
        "location": {
            "lat": 40.735273,
            "lng": 108.659245
        },
        "ad_info": {
            "adcode": 150823,
            "province": "内蒙古自治区",
            "city": "巴彦淖尔市",
            "district": "乌拉特前旗"
        }
    },
    {
        "id": "6725557514598001997",
        "title": "公共厕所",
        "address": "内蒙古自治区巴彦淖尔市临河区人民路与北一街交叉口正南方向29米左右",
        "tel": "",
        "category": "基础设施:公共设施:公共厕所",
        "type": 0,
        "location": {
            "lat": 40.767258,
            "lng": 107.402493
        },
        "ad_info": {
            "adcode": 150802,
            "province": "内蒙古自治区",
            "city": "巴彦淖尔市",
            "district": "临河区"
        }
    },
    {
        "id": "6331799525859284178",
        "title": "公共厕所",
        "address": "内蒙古自治区巴彦淖尔市乌拉特中旗和谐巷与鸿雁大街辅路交叉口西南方向33米左右",
        "tel": "",
        "category": "基础设施:公共设施:公共厕所",
        "type": 0,
        "location": {
            "lat": 41.584431,
            "lng": 108.514566
        },
        "ad_info": {
            "adcode": 150824,
            "province": "内蒙古自治区",
            "city": "巴彦淖尔市",
            "district": "乌拉特中旗"
        }
    },
    {
        "id": "9164126501371191824",
        "title": "公共厕所",
        "address": "内蒙古自治区巴彦淖尔市磴口县绕城路与贺兰北路交叉口正西方向608米左右",
        "tel": "",
        "category": "基础设施:公共设施:公共厕所",
        "type": 0,
        "location": {
            "lat": 40.358414,
            "lng": 106.992674
        },
        "ad_info": {
            "adcode": 150822,
            "province": "内蒙古自治区",
            "city": "巴彦淖尔市",
            "district": "磴口县"
        }
    },
    {
        "id": "4397503042065828826",
        "title": "公共厕所",
        "address": "内蒙古自治区巴彦淖尔市临河区庆丰街与金川大道交叉口正东方向292米左右",
        "tel": "",
        "category": "基础设施:公共设施:公共厕所",
        "type": 0,
        "location": {
            "lat": 40.763323,
            "lng": 107.379311
        },
        "ad_info": {
            "adcode": 150802,
            "province": "内蒙古自治区",
            "city": "巴彦淖尔市",
            "district": "临河区"
        }
    },
    {
        "id": "4206389981372960938",
        "title": "公共厕所",
        "address": "内蒙古自治区巴彦淖尔市磴口县南开街与南开西街交叉口正北方向62米左右",
        "tel": "",
        "category": "基础设施:公共设施:公共厕所",
        "type": 0,
        "location": {
            "lat": 40.327962,
            "lng": 107.004831
        },
        "ad_info": {
            "adcode": 150822,
            "province": "内蒙古自治区",
            "city": "巴彦淖尔市",
            "district": "磴口县"
        }
    },
    {
        "id": "13482822049455092889",
        "title": "公共厕所",
        "address": "内蒙古自治区巴彦淖尔市临河区新华西街与金沙路交叉口西南方向176米左右",
        "tel": "",
        "category": "基础设施:公共设施:公共厕所",
        "type": 0,
        "location": {
            "lat": 40.733482,
            "lng": 107.373098
        },
        "ad_info": {
            "adcode": 150802,
            "province": "内蒙古自治区",
            "city": "巴彦淖尔市",
            "district": "临河区"
        }
    },
    {
        "id": "14774968013731980207",
        "title": "公共厕所",
        "address": "内蒙古自治区巴彦淖尔市临河区曙光街与西苑路交叉口正西方向73米左右",
        "tel": "",
        "category": "基础设施:公共设施:公共厕所",
        "type": 0,
        "location": {
            "lat": 40.724451,
            "lng": 107.379657
        },
        "ad_info": {
            "adcode": 150802,
            "province": "内蒙古自治区",
            "city": "巴彦淖尔市",
            "district": "临河区"
        }
    },
    {
        "id": "5222919651287225804",
        "title": "公共厕所",
        "address": "内蒙古自治区巴彦淖尔市五原县兴原南路和谐家园(隆兴昌西街)",
        "tel": "",
        "category": "基础设施:公共设施:公共厕所",
        "type": 0,
        "location": {
            "lat": 41.093721,
            "lng": 108.26148
        },
        "ad_info": {
            "adcode": 150821,
            "province": "内蒙古自治区",
            "city": "巴彦淖尔市",
            "district": "五原县"
        }
    },
    {
        "id": "2772637243794825368",
        "title": "公共厕所",
        "address": "内蒙古自治区巴彦淖尔市临河区水源路与沃野街交叉口东南方向83米左右",
        "tel": "",
        "category": "基础设施:公共设施:公共厕所",
        "type": 0,
        "location": {
            "lat": 40.738541,
            "lng": 107.4041
        },
        "ad_info": {
            "adcode": 150802,
            "province": "内蒙古自治区",
            "city": "巴彦淖尔市",
            "district": "临河区"
        }
    },
    {
        "id": "18254790217256948133",
        "title": "公共厕所",
        "address": "内蒙古自治区巴彦淖尔市临河区曙光街与水源路交叉口东北方向588米左右",
        "tel": "",
        "category": "基础设施:公共设施:公共厕所",
        "type": 0,
        "location": {
            "lat": 40.738241,
            "lng": 107.411868
        },
        "ad_info": {
            "adcode": 150802,
            "province": "内蒙古自治区",
            "city": "巴彦淖尔市",
            "district": "临河区"
        }
    },
    {
        "id": "12174862935209999345",
        "title": "公共厕所",
        "address": "内蒙古自治区巴彦淖尔市临河区吉祥路与解放街交叉口正南方向89米左右",
        "tel": "",
        "category": "基础设施:公共设施:公共厕所",
        "type": 0,
        "location": {
            "lat": 40.766044,
            "lng": 107.406787
        },
        "ad_info": {
            "adcode": 150802,
            "province": "内蒙古自治区",
            "city": "巴彦淖尔市",
            "district": "临河区"
        }
    },
    {
        "id": "5404642532600222547",
        "title": "公共厕所",
        "address": "内蒙古自治区巴彦淖尔市磴口县建筑西街与贺兰南路交叉口正北方向113米左右",
        "tel": "",
        "category": "基础设施:公共设施:公共厕所",
        "type": 0,
        "location": {
            "lat": 40.326419,
            "lng": 107.000546
        },
        "ad_info": {
            "adcode": 150822,
            "province": "内蒙古自治区",
            "city": "巴彦淖尔市",
            "district": "磴口县"
        }
    },
    {
        "id": "12726935056791486259",
        "title": "公共厕所",
        "address": "内蒙古自治区巴彦淖尔市磴口县永进东街与钢铁路交叉口正北方向55米左右",
        "tel": "",
        "category": "基础设施:公共设施:公共厕所",
        "type": 0,
        "location": {
            "lat": 40.332113,
            "lng": 107.015452
        },
        "ad_info": {
            "adcode": 150822,
            "province": "内蒙古自治区",
            "city": "巴彦淖尔市",
            "district": "磴口县"
        }
    },
    {
        "id": "8438841771715659434",
        "title": "公共厕所",
        "address": "内蒙古自治区巴彦淖尔市五原县文明路与红旗西路交叉口正东方向128米左右",
        "tel": "",
        "category": "基础设施:公共设施:公共厕所",
        "type": 0,
        "location": {
            "lat": 41.103921,
            "lng": 108.263937
        },
        "ad_info": {
            "adcode": 150821,
            "province": "内蒙古自治区",
            "city": "巴彦淖尔市",
            "district": "五原县"
        }
    },
    {
        "id": "7621347336877838499",
        "title": "公共厕所",
        "address": "内蒙古自治区巴彦淖尔市临河区丰州路与解放街交叉口正北方向52米左右",
        "tel": "",
        "category": "基础设施:公共设施:公共厕所",
        "type": 0,
        "location": {
            "lat": 40.767307,
            "lng": 107.393708
        },
        "ad_info": {
            "adcode": 150802,
            "province": "内蒙古自治区",
            "city": "巴彦淖尔市",
            "district": "临河区"
        }
    },
    {
        "id": "9215086533287055250",
        "title": "公共厕所",
        "address": "内蒙古自治区巴彦淖尔市临河区健康南路与曙光街交叉口正南方向197米左右",
        "tel": "",
        "category": "基础设施:公共设施:公共厕所",
        "type": 0,
        "location": {
            "lat": 40.742846,
            "lng": 107.425433
        },
        "ad_info": {
            "adcode": 150802,
            "province": "内蒙古自治区",
            "city": "巴彦淖尔市",
            "district": "临河区"
        }
    },
    {
        "id": "8579832114705473833",
        "title": "公共厕所",
        "address": "内蒙古自治区巴彦淖尔市临河区利民街与胜利路交叉口正南方向147米左右",
        "tel": "",
        "category": "基础设施:公共设施:公共厕所",
        "type": 0,
        "location": {
            "lat": 40.758522,
            "lng": 107.415962
        },
        "ad_info": {
            "adcode": 150802,
            "province": "内蒙古自治区",
            "city": "巴彦淖尔市",
            "district": "临河区"
        }
    },
    {
        "id": "7825474841374025951",
        "title": "公共厕所",
        "address": "内蒙古自治区巴彦淖尔市乌拉特后旗固察线与赛陕线交叉口正北方向77米左右",
        "tel": "",
        "category": "基础设施:公共设施:公共厕所",
        "type": 0,
        "location": {
            "lat": 41.171373,
            "lng": 107.153962
        },
        "ad_info": {
            "adcode": 150825,
            "province": "内蒙古自治区",
            "city": "巴彦淖尔市",
            "district": "乌拉特后旗"
        }
    },
    {
        "id": "5534905417112916140",
        "title": "公共厕所",
        "address": "内蒙古自治区巴彦淖尔市乌拉特前旗乡企大街与团结路交叉口正南方向72米左右",
        "tel": "",
        "category": "基础设施:公共设施:公共厕所",
        "type": 0,
        "location": {
            "lat": 40.729282,
            "lng": 108.655661
        },
        "ad_info": {
            "adcode": 150823,
            "province": "内蒙古自治区",
            "city": "巴彦淖尔市",
            "district": "乌拉特前旗"
        }
    },
    {
        "id": "5308192000198440611",
        "title": "旅游公共厕所",
        "address": "内蒙古自治区巴彦淖尔市乌拉特前旗振兴大街与民族路交叉口东北方向54米左右",
        "tel": "",
        "category": "基础设施:公共设施:公共厕所",
        "type": 0,
        "location": {
            "lat": 40.735273,
            "lng": 108.659245
        },
        "ad_info": {
            "adcode": 150823,
            "province": "内蒙古自治区",
            "city": "巴彦淖尔市",
            "district": "乌拉特前旗"
        }
    },
    {
        "id": "6725557514598001997",
        "title": "公共厕所",
        "address": "内蒙古自治区巴彦淖尔市临河区人民路与北一街交叉口正南方向29米左右",
        "tel": "",
        "category": "基础设施:公共设施:公共厕所",
        "type": 0,
        "location": {
            "lat": 40.767258,
            "lng": 107.402493
        },
        "ad_info": {
            "adcode": 150802,
            "province": "内蒙古自治区",
            "city": "巴彦淖尔市",
            "district": "临河区"
        }
    },
    {
        "id": "6331799525859284178",
        "title": "公共厕所",
        "address": "内蒙古自治区巴彦淖尔市乌拉特中旗和谐巷与鸿雁大街辅路交叉口西南方向33米左右",
        "tel": "",
        "category": "基础设施:公共设施:公共厕所",
        "type": 0,
        "location": {
            "lat": 41.584431,
            "lng": 108.514566
        },
        "ad_info": {
            "adcode": 150824,
            "province": "内蒙古自治区",
            "city": "巴彦淖尔市",
            "district": "乌拉特中旗"
        }
    },
    {
        "id": "9164126501371191824",
        "title": "公共厕所",
        "address": "内蒙古自治区巴彦淖尔市磴口县绕城路与贺兰北路交叉口正西方向608米左右",
        "tel": "",
        "category": "基础设施:公共设施:公共厕所",
        "type": 0,
        "location": {
            "lat": 40.358414,
            "lng": 106.992674
        },
        "ad_info": {
            "adcode": 150822,
            "province": "内蒙古自治区",
            "city": "巴彦淖尔市",
            "district": "磴口县"
        }
    },
    {
        "id": "4397503042065828826",
        "title": "公共厕所",
        "address": "内蒙古自治区巴彦淖尔市临河区庆丰街与金川大道交叉口正东方向292米左右",
        "tel": "",
        "category": "基础设施:公共设施:公共厕所",
        "type": 0,
        "location": {
            "lat": 40.763323,
            "lng": 107.379311
        },
        "ad_info": {
            "adcode": 150802,
            "province": "内蒙古自治区",
            "city": "巴彦淖尔市",
            "district": "临河区"
        }
    },
    {
        "id": "4206389981372960938",
        "title": "公共厕所",
        "address": "内蒙古自治区巴彦淖尔市磴口县南开街与南开西街交叉口正北方向62米左右",
        "tel": "",
        "category": "基础设施:公共设施:公共厕所",
        "type": 0,
        "location": {
            "lat": 40.327962,
            "lng": 107.004831
        },
        "ad_info": {
            "adcode": 150822,
            "province": "内蒙古自治区",
            "city": "巴彦淖尔市",
            "district": "磴口县"
        }
    },
    {
        "id": "13482822049455092889",
        "title": "公共厕所",
        "address": "内蒙古自治区巴彦淖尔市临河区新华西街与金沙路交叉口西南方向176米左右",
        "tel": "",
        "category": "基础设施:公共设施:公共厕所",
        "type": 0,
        "location": {
            "lat": 40.733482,
            "lng": 107.373098
        },
        "ad_info": {
            "adcode": 150802,
            "province": "内蒙古自治区",
            "city": "巴彦淖尔市",
            "district": "临河区"
        }
    },
    {
        "id": "14774968013731980207",
        "title": "公共厕所",
        "address": "内蒙古自治区巴彦淖尔市临河区曙光街与西苑路交叉口正西方向73米左右",
        "tel": "",
        "category": "基础设施:公共设施:公共厕所",
        "type": 0,
        "location": {
            "lat": 40.724451,
            "lng": 107.379657
        },
        "ad_info": {
            "adcode": 150802,
            "province": "内蒙古自治区",
            "city": "巴彦淖尔市",
            "district": "临河区"
        }
    },
    {
        "id": "5222919651287225804",
        "title": "公共厕所",
        "address": "内蒙古自治区巴彦淖尔市五原县兴原南路和谐家园(隆兴昌西街)",
        "tel": "",
        "category": "基础设施:公共设施:公共厕所",
        "type": 0,
        "location": {
            "lat": 41.093721,
            "lng": 108.26148
        },
        "ad_info": {
            "adcode": 150821,
            "province": "内蒙古自治区",
            "city": "巴彦淖尔市",
            "district": "五原县"
        }
    },
    {
        "id": "2772637243794825368",
        "title": "公共厕所",
        "address": "内蒙古自治区巴彦淖尔市临河区水源路与沃野街交叉口东南方向83米左右",
        "tel": "",
        "category": "基础设施:公共设施:公共厕所",
        "type": 0,
        "location": {
            "lat": 40.738541,
            "lng": 107.4041
        },
        "ad_info": {
            "adcode": 150802,
            "province": "内蒙古自治区",
            "city": "巴彦淖尔市",
            "district": "临河区"
        }
    },
    {
        "id": "18254790217256948133",
        "title": "公共厕所",
        "address": "内蒙古自治区巴彦淖尔市临河区曙光街与水源路交叉口东北方向588米左右",
        "tel": "",
        "category": "基础设施:公共设施:公共厕所",
        "type": 0,
        "location": {
            "lat": 40.738241,
            "lng": 107.411868
        },
        "ad_info": {
            "adcode": 150802,
            "province": "内蒙古自治区",
            "city": "巴彦淖尔市",
            "district": "临河区"
        }
    },
    {
        "id": "12174862935209999345",
        "title": "公共厕所",
        "address": "内蒙古自治区巴彦淖尔市临河区吉祥路与解放街交叉口正南方向89米左右",
        "tel": "",
        "category": "基础设施:公共设施:公共厕所",
        "type": 0,
        "location": {
            "lat": 40.766044,
            "lng": 107.406787
        },
        "ad_info": {
            "adcode": 150802,
            "province": "内蒙古自治区",
            "city": "巴彦淖尔市",
            "district": "临河区"
        }
    },
    {
        "id": "5404642532600222547",
        "title": "公共厕所",
        "address": "内蒙古自治区巴彦淖尔市磴口县建筑西街与贺兰南路交叉口正北方向113米左右",
        "tel": "",
        "category": "基础设施:公共设施:公共厕所",
        "type": 0,
        "location": {
            "lat": 40.326419,
            "lng": 107.000546
        },
        "ad_info": {
            "adcode": 150822,
            "province": "内蒙古自治区",
            "city": "巴彦淖尔市",
            "district": "磴口县"
        }
    },
    {
        "id": "12726935056791486259",
        "title": "公共厕所",
        "address": "内蒙古自治区巴彦淖尔市磴口县永进东街与钢铁路交叉口正北方向55米左右",
        "tel": "",
        "category": "基础设施:公共设施:公共厕所",
        "type": 0,
        "location": {
            "lat": 40.332113,
            "lng": 107.015452
        },
        "ad_info": {
            "adcode": 150822,
            "province": "内蒙古自治区",
            "city": "巴彦淖尔市",
            "district": "磴口县"
        }
    },
    {
        "id": "8438841771715659434",
        "title": "公共厕所",
        "address": "内蒙古自治区巴彦淖尔市五原县文明路与红旗西路交叉口正东方向128米左右",
        "tel": "",
        "category": "基础设施:公共设施:公共厕所",
        "type": 0,
        "location": {
            "lat": 41.103921,
            "lng": 108.263937
        },
        "ad_info": {
            "adcode": 150821,
            "province": "内蒙古自治区",
            "city": "巴彦淖尔市",
            "district": "五原县"
        }
    },
    {
        "id": "7621347336877838499",
        "title": "公共厕所",
        "address": "内蒙古自治区巴彦淖尔市临河区丰州路与解放街交叉口正北方向52米左右",
        "tel": "",
        "category": "基础设施:公共设施:公共厕所",
        "type": 0,
        "location": {
            "lat": 40.767307,
            "lng": 107.393708
        },
        "ad_info": {
            "adcode": 150802,
            "province": "内蒙古自治区",
            "city": "巴彦淖尔市",
            "district": "临河区"
        }
    },
    {
        "id": "9215086533287055250",
        "title": "公共厕所",
        "address": "内蒙古自治区巴彦淖尔市临河区健康南路与曙光街交叉口正南方向197米左右",
        "tel": "",
        "category": "基础设施:公共设施:公共厕所",
        "type": 0,
        "location": {
            "lat": 40.742846,
            "lng": 107.425433
        },
        "ad_info": {
            "adcode": 150802,
            "province": "内蒙古自治区",
            "city": "巴彦淖尔市",
            "district": "临河区"
        }
    },
    {
        "id": "8579832114705473833",
        "title": "公共厕所",
        "address": "内蒙古自治区巴彦淖尔市临河区利民街与胜利路交叉口正南方向147米左右",
        "tel": "",
        "category": "基础设施:公共设施:公共厕所",
        "type": 0,
        "location": {
            "lat": 40.758522,
            "lng": 107.415962
        },
        "ad_info": {
            "adcode": 150802,
            "province": "内蒙古自治区",
            "city": "巴彦淖尔市",
            "district": "临河区"
        }
    },
    {
        "id": "7825474841374025951",
        "title": "公共厕所",
        "address": "内蒙古自治区巴彦淖尔市乌拉特后旗固察线与赛陕线交叉口正北方向77米左右",
        "tel": "",
        "category": "基础设施:公共设施:公共厕所",
        "type": 0,
        "location": {
            "lat": 41.171373,
            "lng": 107.153962
        },
        "ad_info": {
            "adcode": 150825,
            "province": "内蒙古自治区",
            "city": "巴彦淖尔市",
            "district": "乌拉特后旗"
        }
    },
    {
        "id": "5534905417112916140",
        "title": "公共厕所",
        "address": "内蒙古自治区巴彦淖尔市乌拉特前旗乡企大街与团结路交叉口正南方向72米左右",
        "tel": "",
        "category": "基础设施:公共设施:公共厕所",
        "type": 0,
        "location": {
            "lat": 40.729282,
            "lng": 108.655661
        },
        "ad_info": {
            "adcode": 150823,
            "province": "内蒙古自治区",
            "city": "巴彦淖尔市",
            "district": "乌拉特前旗"
        }
    },
    {
        "id": "5308192000198440611",
        "title": "旅游公共厕所",
        "address": "内蒙古自治区巴彦淖尔市乌拉特前旗振兴大街与民族路交叉口东北方向54米左右",
        "tel": "",
        "category": "基础设施:公共设施:公共厕所",
        "type": 0,
        "location": {
            "lat": 40.735273,
            "lng": 108.659245
        },
        "ad_info": {
            "adcode": 150823,
            "province": "内蒙古自治区",
            "city": "巴彦淖尔市",
            "district": "乌拉特前旗"
        }
    },
    {
        "id": "6725557514598001997",
        "title": "公共厕所",
        "address": "内蒙古自治区巴彦淖尔市临河区人民路与北一街交叉口正南方向29米左右",
        "tel": "",
        "category": "基础设施:公共设施:公共厕所",
        "type": 0,
        "location": {
            "lat": 40.767258,
            "lng": 107.402493
        },
        "ad_info": {
            "adcode": 150802,
            "province": "内蒙古自治区",
            "city": "巴彦淖尔市",
            "district": "临河区"
        }
    },
    {
        "id": "6331799525859284178",
        "title": "公共厕所",
        "address": "内蒙古自治区巴彦淖尔市乌拉特中旗和谐巷与鸿雁大街辅路交叉口西南方向33米左右",
        "tel": "",
        "category": "基础设施:公共设施:公共厕所",
        "type": 0,
        "location": {
            "lat": 41.584431,
            "lng": 108.514566
        },
        "ad_info": {
            "adcode": 150824,
            "province": "内蒙古自治区",
            "city": "巴彦淖尔市",
            "district": "乌拉特中旗"
        }
    },
    {
        "id": "9164126501371191824",
        "title": "公共厕所",
        "address": "内蒙古自治区巴彦淖尔市磴口县绕城路与贺兰北路交叉口正西方向608米左右",
        "tel": "",
        "category": "基础设施:公共设施:公共厕所",
        "type": 0,
        "location": {
            "lat": 40.358414,
            "lng": 106.992674
        },
        "ad_info": {
            "adcode": 150822,
            "province": "内蒙古自治区",
            "city": "巴彦淖尔市",
            "district": "磴口县"
        }
    },
    {
        "id": "4397503042065828826",
        "title": "公共厕所",
        "address": "内蒙古自治区巴彦淖尔市临河区庆丰街与金川大道交叉口正东方向292米左右",
        "tel": "",
        "category": "基础设施:公共设施:公共厕所",
        "type": 0,
        "location": {
            "lat": 40.763323,
            "lng": 107.379311
        },
        "ad_info": {
            "adcode": 150802,
            "province": "内蒙古自治区",
            "city": "巴彦淖尔市",
            "district": "临河区"
        }
    },
    {
        "id": "4206389981372960938",
        "title": "公共厕所",
        "address": "内蒙古自治区巴彦淖尔市磴口县南开街与南开西街交叉口正北方向62米左右",
        "tel": "",
        "category": "基础设施:公共设施:公共厕所",
        "type": 0,
        "location": {
            "lat": 40.327962,
            "lng": 107.004831
        },
        "ad_info": {
            "adcode": 150822,
            "province": "内蒙古自治区",
            "city": "巴彦淖尔市",
            "district": "磴口县"
        }
    },
    {
        "id": "13482822049455092889",
        "title": "公共厕所",
        "address": "内蒙古自治区巴彦淖尔市临河区新华西街与金沙路交叉口西南方向176米左右",
        "tel": "",
        "category": "基础设施:公共设施:公共厕所",
        "type": 0,
        "location": {
            "lat": 40.733482,
            "lng": 107.373098
        },
        "ad_info": {
            "adcode": 150802,
            "province": "内蒙古自治区",
            "city": "巴彦淖尔市",
            "district": "临河区"
        }
    },
    {
        "id": "14774968013731980207",
        "title": "公共厕所",
        "address": "内蒙古自治区巴彦淖尔市临河区曙光街与西苑路交叉口正西方向73米左右",
        "tel": "",
        "category": "基础设施:公共设施:公共厕所",
        "type": 0,
        "location": {
            "lat": 40.724451,
            "lng": 107.379657
        },
        "ad_info": {
            "adcode": 150802,
            "province": "内蒙古自治区",
            "city": "巴彦淖尔市",
            "district": "临河区"
        }
    },
    {
        "id": "5222919651287225804",
        "title": "公共厕所",
        "address": "内蒙古自治区巴彦淖尔市五原县兴原南路和谐家园(隆兴昌西街)",
        "tel": "",
        "category": "基础设施:公共设施:公共厕所",
        "type": 0,
        "location": {
            "lat": 41.093721,
            "lng": 108.26148
        },
        "ad_info": {
            "adcode": 150821,
            "province": "内蒙古自治区",
            "city": "巴彦淖尔市",
            "district": "五原县"
        }
    },
    {
        "id": "2772637243794825368",
        "title": "公共厕所",
        "address": "内蒙古自治区巴彦淖尔市临河区水源路与沃野街交叉口东南方向83米左右",
        "tel": "",
        "category": "基础设施:公共设施:公共厕所",
        "type": 0,
        "location": {
            "lat": 40.738541,
            "lng": 107.4041
        },
        "ad_info": {
            "adcode": 150802,
            "province": "内蒙古自治区",
            "city": "巴彦淖尔市",
            "district": "临河区"
        }
    },
    {
        "id": "18254790217256948133",
        "title": "公共厕所",
        "address": "内蒙古自治区巴彦淖尔市临河区曙光街与水源路交叉口东北方向588米左右",
        "tel": "",
        "category": "基础设施:公共设施:公共厕所",
        "type": 0,
        "location": {
            "lat": 40.738241,
            "lng": 107.411868
        },
        "ad_info": {
            "adcode": 150802,
            "province": "内蒙古自治区",
            "city": "巴彦淖尔市",
            "district": "临河区"
        }
    },
    {
        "id": "12174862935209999345",
        "title": "公共厕所",
        "address": "内蒙古自治区巴彦淖尔市临河区吉祥路与解放街交叉口正南方向89米左右",
        "tel": "",
        "category": "基础设施:公共设施:公共厕所",
        "type": 0,
        "location": {
            "lat": 40.766044,
            "lng": 107.406787
        },
        "ad_info": {
            "adcode": 150802,
            "province": "内蒙古自治区",
            "city": "巴彦淖尔市",
            "district": "临河区"
        }
    },
    {
        "id": "5404642532600222547",
        "title": "公共厕所",
        "address": "内蒙古自治区巴彦淖尔市磴口县建筑西街与贺兰南路交叉口正北方向113米左右",
        "tel": "",
        "category": "基础设施:公共设施:公共厕所",
        "type": 0,
        "location": {
            "lat": 40.326419,
            "lng": 107.000546
        },
        "ad_info": {
            "adcode": 150822,
            "province": "内蒙古自治区",
            "city": "巴彦淖尔市",
            "district": "磴口县"
        }
    },
    {
        "id": "12726935056791486259",
        "title": "公共厕所",
        "address": "内蒙古自治区巴彦淖尔市磴口县永进东街与钢铁路交叉口正北方向55米左右",
        "tel": "",
        "category": "基础设施:公共设施:公共厕所",
        "type": 0,
        "location": {
            "lat": 40.332113,
            "lng": 107.015452
        },
        "ad_info": {
            "adcode": 150822,
            "province": "内蒙古自治区",
            "city": "巴彦淖尔市",
            "district": "磴口县"
        }
    },
    {
        "id": "8438841771715659434",
        "title": "公共厕所",
        "address": "内蒙古自治区巴彦淖尔市五原县文明路与红旗西路交叉口正东方向128米左右",
        "tel": "",
        "category": "基础设施:公共设施:公共厕所",
        "type": 0,
        "location": {
            "lat": 41.103921,
            "lng": 108.263937
        },
        "ad_info": {
            "adcode": 150821,
            "province": "内蒙古自治区",
            "city": "巴彦淖尔市",
            "district": "五原县"
        }
    },
    {
        "id": "7621347336877838499",
        "title": "公共厕所",
        "address": "内蒙古自治区巴彦淖尔市临河区丰州路与解放街交叉口正北方向52米左右",
        "tel": "",
        "category": "基础设施:公共设施:公共厕所",
        "type": 0,
        "location": {
            "lat": 40.767307,
            "lng": 107.393708
        },
        "ad_info": {
            "adcode": 150802,
            "province": "内蒙古自治区",
            "city": "巴彦淖尔市",
            "district": "临河区"
        }
    },
    {
        "id": "9215086533287055250",
        "title": "公共厕所",
        "address": "内蒙古自治区巴彦淖尔市临河区健康南路与曙光街交叉口正南方向197米左右",
        "tel": "",
        "category": "基础设施:公共设施:公共厕所",
        "type": 0,
        "location": {
            "lat": 40.742846,
            "lng": 107.425433
        },
        "ad_info": {
            "adcode": 150802,
            "province": "内蒙古自治区",
            "city": "巴彦淖尔市",
            "district": "临河区"
        }
    },
    {
        "id": "8579832114705473833",
        "title": "公共厕所",
        "address": "内蒙古自治区巴彦淖尔市临河区利民街与胜利路交叉口正南方向147米左右",
        "tel": "",
        "category": "基础设施:公共设施:公共厕所",
        "type": 0,
        "location": {
            "lat": 40.758522,
            "lng": 107.415962
        },
        "ad_info": {
            "adcode": 150802,
            "province": "内蒙古自治区",
            "city": "巴彦淖尔市",
            "district": "临河区"
        }
    },
    {
        "id": "7825474841374025951",
        "title": "公共厕所",
        "address": "内蒙古自治区巴彦淖尔市乌拉特后旗固察线与赛陕线交叉口正北方向77米左右",
        "tel": "",
        "category": "基础设施:公共设施:公共厕所",
        "type": 0,
        "location": {
            "lat": 41.171373,
            "lng": 107.153962
        },
        "ad_info": {
            "adcode": 150825,
            "province": "内蒙古自治区",
            "city": "巴彦淖尔市",
            "district": "乌拉特后旗"
        }
    },
    {
        "id": "5534905417112916140",
        "title": "公共厕所",
        "address": "内蒙古自治区巴彦淖尔市乌拉特前旗乡企大街与团结路交叉口正南方向72米左右",
        "tel": "",
        "category": "基础设施:公共设施:公共厕所",
        "type": 0,
        "location": {
            "lat": 40.729282,
            "lng": 108.655661
        },
        "ad_info": {
            "adcode": 150823,
            "province": "内蒙古自治区",
            "city": "巴彦淖尔市",
            "district": "乌拉特前旗"
        }
    },
    {
        "id": "5308192000198440611",
        "title": "旅游公共厕所",
        "address": "内蒙古自治区巴彦淖尔市乌拉特前旗振兴大街与民族路交叉口东北方向54米左右",
        "tel": "",
        "category": "基础设施:公共设施:公共厕所",
        "type": 0,
        "location": {
            "lat": 40.735273,
            "lng": 108.659245
        },
        "ad_info": {
            "adcode": 150823,
            "province": "内蒙古自治区",
            "city": "巴彦淖尔市",
            "district": "乌拉特前旗"
        }
    },
    {
        "id": "6725557514598001997",
        "title": "公共厕所",
        "address": "内蒙古自治区巴彦淖尔市临河区人民路与北一街交叉口正南方向29米左右",
        "tel": "",
        "category": "基础设施:公共设施:公共厕所",
        "type": 0,
        "location": {
            "lat": 40.767258,
            "lng": 107.402493
        },
        "ad_info": {
            "adcode": 150802,
            "province": "内蒙古自治区",
            "city": "巴彦淖尔市",
            "district": "临河区"
        }
    },
    {
        "id": "6331799525859284178",
        "title": "公共厕所",
        "address": "内蒙古自治区巴彦淖尔市乌拉特中旗和谐巷与鸿雁大街辅路交叉口西南方向33米左右",
        "tel": "",
        "category": "基础设施:公共设施:公共厕所",
        "type": 0,
        "location": {
            "lat": 41.584431,
            "lng": 108.514566
        },
        "ad_info": {
            "adcode": 150824,
            "province": "内蒙古自治区",
            "city": "巴彦淖尔市",
            "district": "乌拉特中旗"
        }
    },
    {
        "id": "9164126501371191824",
        "title": "公共厕所",
        "address": "内蒙古自治区巴彦淖尔市磴口县绕城路与贺兰北路交叉口正西方向608米左右",
        "tel": "",
        "category": "基础设施:公共设施:公共厕所",
        "type": 0,
        "location": {
            "lat": 40.358414,
            "lng": 106.992674
        },
        "ad_info": {
            "adcode": 150822,
            "province": "内蒙古自治区",
            "city": "巴彦淖尔市",
            "district": "磴口县"
        }
    },
    {
        "id": "4397503042065828826",
        "title": "公共厕所",
        "address": "内蒙古自治区巴彦淖尔市临河区庆丰街与金川大道交叉口正东方向292米左右",
        "tel": "",
        "category": "基础设施:公共设施:公共厕所",
        "type": 0,
        "location": {
            "lat": 40.763323,
            "lng": 107.379311
        },
        "ad_info": {
            "adcode": 150802,
            "province": "内蒙古自治区",
            "city": "巴彦淖尔市",
            "district": "临河区"
        }
    },
    {
        "id": "4206389981372960938",
        "title": "公共厕所",
        "address": "内蒙古自治区巴彦淖尔市磴口县南开街与南开西街交叉口正北方向62米左右",
        "tel": "",
        "category": "基础设施:公共设施:公共厕所",
        "type": 0,
        "location": {
            "lat": 40.327962,
            "lng": 107.004831
        },
        "ad_info": {
            "adcode": 150822,
            "province": "内蒙古自治区",
            "city": "巴彦淖尔市",
            "district": "磴口县"
        }
    },
    {
        "id": "13482822049455092889",
        "title": "公共厕所",
        "address": "内蒙古自治区巴彦淖尔市临河区新华西街与金沙路交叉口西南方向176米左右",
        "tel": "",
        "category": "基础设施:公共设施:公共厕所",
        "type": 0,
        "location": {
            "lat": 40.733482,
            "lng": 107.373098
        },
        "ad_info": {
            "adcode": 150802,
            "province": "内蒙古自治区",
            "city": "巴彦淖尔市",
            "district": "临河区"
        }
    },
    {
        "id": "14774968013731980207",
        "title": "公共厕所",
        "address": "内蒙古自治区巴彦淖尔市临河区曙光街与西苑路交叉口正西方向73米左右",
        "tel": "",
        "category": "基础设施:公共设施:公共厕所",
        "type": 0,
        "location": {
            "lat": 40.724451,
            "lng": 107.379657
        },
        "ad_info": {
            "adcode": 150802,
            "province": "内蒙古自治区",
            "city": "巴彦淖尔市",
            "district": "临河区"
        }
    },
    {
        "id": "5222919651287225804",
        "title": "公共厕所",
        "address": "内蒙古自治区巴彦淖尔市五原县兴原南路和谐家园(隆兴昌西街)",
        "tel": "",
        "category": "基础设施:公共设施:公共厕所",
        "type": 0,
        "location": {
            "lat": 41.093721,
            "lng": 108.26148
        },
        "ad_info": {
            "adcode": 150821,
            "province": "内蒙古自治区",
            "city": "巴彦淖尔市",
            "district": "五原县"
        }
    },
    {
        "id": "2772637243794825368",
        "title": "公共厕所",
        "address": "内蒙古自治区巴彦淖尔市临河区水源路与沃野街交叉口东南方向83米左右",
        "tel": "",
        "category": "基础设施:公共设施:公共厕所",
        "type": 0,
        "location": {
            "lat": 40.738541,
            "lng": 107.4041
        },
        "ad_info": {
            "adcode": 150802,
            "province": "内蒙古自治区",
            "city": "巴彦淖尔市",
            "district": "临河区"
        }
    },
    {
        "id": "18254790217256948133",
        "title": "公共厕所",
        "address": "内蒙古自治区巴彦淖尔市临河区曙光街与水源路交叉口东北方向588米左右",
        "tel": "",
        "category": "基础设施:公共设施:公共厕所",
        "type": 0,
        "location": {
            "lat": 40.738241,
            "lng": 107.411868
        },
        "ad_info": {
            "adcode": 150802,
            "province": "内蒙古自治区",
            "city": "巴彦淖尔市",
            "district": "临河区"
        }
    },
    {
        "id": "12174862935209999345",
        "title": "公共厕所",
        "address": "内蒙古自治区巴彦淖尔市临河区吉祥路与解放街交叉口正南方向89米左右",
        "tel": "",
        "category": "基础设施:公共设施:公共厕所",
        "type": 0,
        "location": {
            "lat": 40.766044,
            "lng": 107.406787
        },
        "ad_info": {
            "adcode": 150802,
            "province": "内蒙古自治区",
            "city": "巴彦淖尔市",
            "district": "临河区"
        }
    },
    {
        "id": "5404642532600222547",
        "title": "公共厕所",
        "address": "内蒙古自治区巴彦淖尔市磴口县建筑西街与贺兰南路交叉口正北方向113米左右",
        "tel": "",
        "category": "基础设施:公共设施:公共厕所",
        "type": 0,
        "location": {
            "lat": 40.326419,
            "lng": 107.000546
        },
        "ad_info": {
            "adcode": 150822,
            "province": "内蒙古自治区",
            "city": "巴彦淖尔市",
            "district": "磴口县"
        }
    },
    {
        "id": "12726935056791486259",
        "title": "公共厕所",
        "address": "内蒙古自治区巴彦淖尔市磴口县永进东街与钢铁路交叉口正北方向55米左右",
        "tel": "",
        "category": "基础设施:公共设施:公共厕所",
        "type": 0,
        "location": {
            "lat": 40.332113,
            "lng": 107.015452
        },
        "ad_info": {
            "adcode": 150822,
            "province": "内蒙古自治区",
            "city": "巴彦淖尔市",
            "district": "磴口县"
        }
    },
    {
        "id": "8438841771715659434",
        "title": "公共厕所",
        "address": "内蒙古自治区巴彦淖尔市五原县文明路与红旗西路交叉口正东方向128米左右",
        "tel": "",
        "category": "基础设施:公共设施:公共厕所",
        "type": 0,
        "location": {
            "lat": 41.103921,
            "lng": 108.263937
        },
        "ad_info": {
            "adcode": 150821,
            "province": "内蒙古自治区",
            "city": "巴彦淖尔市",
            "district": "五原县"
        }
    },
    {
        "id": "7621347336877838499",
        "title": "公共厕所",
        "address": "内蒙古自治区巴彦淖尔市临河区丰州路与解放街交叉口正北方向52米左右",
        "tel": "",
        "category": "基础设施:公共设施:公共厕所",
        "type": 0,
        "location": {
            "lat": 40.767307,
            "lng": 107.393708
        },
        "ad_info": {
            "adcode": 150802,
            "province": "内蒙古自治区",
            "city": "巴彦淖尔市",
            "district": "临河区"
        }
    },
    {
        "id": "9215086533287055250",
        "title": "公共厕所",
        "address": "内蒙古自治区巴彦淖尔市临河区健康南路与曙光街交叉口正南方向197米左右",
        "tel": "",
        "category": "基础设施:公共设施:公共厕所",
        "type": 0,
        "location": {
            "lat": 40.742846,
            "lng": 107.425433
        },
        "ad_info": {
            "adcode": 150802,
            "province": "内蒙古自治区",
            "city": "巴彦淖尔市",
            "district": "临河区"
        }
    },
    {
        "id": "8579832114705473833",
        "title": "公共厕所",
        "address": "内蒙古自治区巴彦淖尔市临河区利民街与胜利路交叉口正南方向147米左右",
        "tel": "",
        "category": "基础设施:公共设施:公共厕所",
        "type": 0,
        "location": {
            "lat": 40.758522,
            "lng": 107.415962
        },
        "ad_info": {
            "adcode": 150802,
            "province": "内蒙古自治区",
            "city": "巴彦淖尔市",
            "district": "临河区"
        }
    },
    {
        "id": "7825474841374025951",
        "title": "公共厕所",
        "address": "内蒙古自治区巴彦淖尔市乌拉特后旗固察线与赛陕线交叉口正北方向77米左右",
        "tel": "",
        "category": "基础设施:公共设施:公共厕所",
        "type": 0,
        "location": {
            "lat": 41.171373,
            "lng": 107.153962
        },
        "ad_info": {
            "adcode": 150825,
            "province": "内蒙古自治区",
            "city": "巴彦淖尔市",
            "district": "乌拉特后旗"
        }
    },
    {
        "id": "5534905417112916140",
        "title": "公共厕所",
        "address": "内蒙古自治区巴彦淖尔市乌拉特前旗乡企大街与团结路交叉口正南方向72米左右",
        "tel": "",
        "category": "基础设施:公共设施:公共厕所",
        "type": 0,
        "location": {
            "lat": 40.729282,
            "lng": 108.655661
        },
        "ad_info": {
            "adcode": 150823,
            "province": "内蒙古自治区",
            "city": "巴彦淖尔市",
            "district": "乌拉特前旗"
        }
    },
    {
        "id": "5308192000198440611",
        "title": "旅游公共厕所",
        "address": "内蒙古自治区巴彦淖尔市乌拉特前旗振兴大街与民族路交叉口东北方向54米左右",
        "tel": "",
        "category": "基础设施:公共设施:公共厕所",
        "type": 0,
        "location": {
            "lat": 40.735273,
            "lng": 108.659245
        },
        "ad_info": {
            "adcode": 150823,
            "province": "内蒙古自治区",
            "city": "巴彦淖尔市",
            "district": "乌拉特前旗"
        }
    },
    {
        "id": "6725557514598001997",
        "title": "公共厕所",
        "address": "内蒙古自治区巴彦淖尔市临河区人民路与北一街交叉口正南方向29米左右",
        "tel": "",
        "category": "基础设施:公共设施:公共厕所",
        "type": 0,
        "location": {
            "lat": 40.767258,
            "lng": 107.402493
        },
        "ad_info": {
            "adcode": 150802,
            "province": "内蒙古自治区",
            "city": "巴彦淖尔市",
            "district": "临河区"
        }
    },
    {
        "id": "6331799525859284178",
        "title": "公共厕所",
        "address": "内蒙古自治区巴彦淖尔市乌拉特中旗和谐巷与鸿雁大街辅路交叉口西南方向33米左右",
        "tel": "",
        "category": "基础设施:公共设施:公共厕所",
        "type": 0,
        "location": {
            "lat": 41.584431,
            "lng": 108.514566
        },
        "ad_info": {
            "adcode": 150824,
            "province": "内蒙古自治区",
            "city": "巴彦淖尔市",
            "district": "乌拉特中旗"
        }
    },
    {
        "id": "9164126501371191824",
        "title": "公共厕所",
        "address": "内蒙古自治区巴彦淖尔市磴口县绕城路与贺兰北路交叉口正西方向608米左右",
        "tel": "",
        "category": "基础设施:公共设施:公共厕所",
        "type": 0,
        "location": {
            "lat": 40.358414,
            "lng": 106.992674
        },
        "ad_info": {
            "adcode": 150822,
            "province": "内蒙古自治区",
            "city": "巴彦淖尔市",
            "district": "磴口县"
        }
    },
    {
        "id": "4397503042065828826",
        "title": "公共厕所",
        "address": "内蒙古自治区巴彦淖尔市临河区庆丰街与金川大道交叉口正东方向292米左右",
        "tel": "",
        "category": "基础设施:公共设施:公共厕所",
        "type": 0,
        "location": {
            "lat": 40.763323,
            "lng": 107.379311
        },
        "ad_info": {
            "adcode": 150802,
            "province": "内蒙古自治区",
            "city": "巴彦淖尔市",
            "district": "临河区"
        }
    },
    {
        "id": "4206389981372960938",
        "title": "公共厕所",
        "address": "内蒙古自治区巴彦淖尔市磴口县南开街与南开西街交叉口正北方向62米左右",
        "tel": "",
        "category": "基础设施:公共设施:公共厕所",
        "type": 0,
        "location": {
            "lat": 40.327962,
            "lng": 107.004831
        },
        "ad_info": {
            "adcode": 150822,
            "province": "内蒙古自治区",
            "city": "巴彦淖尔市",
            "district": "磴口县"
        }
    },
    {
        "id": "13482822049455092889",
        "title": "公共厕所",
        "address": "内蒙古自治区巴彦淖尔市临河区新华西街与金沙路交叉口西南方向176米左右",
        "tel": "",
        "category": "基础设施:公共设施:公共厕所",
        "type": 0,
        "location": {
            "lat": 40.733482,
            "lng": 107.373098
        },
        "ad_info": {
            "adcode": 150802,
            "province": "内蒙古自治区",
            "city": "巴彦淖尔市",
            "district": "临河区"
        }
    },
    {
        "id": "14774968013731980207",
        "title": "公共厕所",
        "address": "内蒙古自治区巴彦淖尔市临河区曙光街与西苑路交叉口正西方向73米左右",
        "tel": "",
        "category": "基础设施:公共设施:公共厕所",
        "type": 0,
        "location": {
            "lat": 40.724451,
            "lng": 107.379657
        },
        "ad_info": {
            "adcode": 150802,
            "province": "内蒙古自治区",
            "city": "巴彦淖尔市",
            "district": "临河区"
        }
    },
    {
        "id": "5222919651287225804",
        "title": "公共厕所",
        "address": "内蒙古自治区巴彦淖尔市五原县兴原南路和谐家园(隆兴昌西街)",
        "tel": "",
        "category": "基础设施:公共设施:公共厕所",
        "type": 0,
        "location": {
            "lat": 41.093721,
            "lng": 108.26148
        },
        "ad_info": {
            "adcode": 150821,
            "province": "内蒙古自治区",
            "city": "巴彦淖尔市",
            "district": "五原县"
        }
    },
    {
        "id": "2772637243794825368",
        "title": "公共厕所",
        "address": "内蒙古自治区巴彦淖尔市临河区水源路与沃野街交叉口东南方向83米左右",
        "tel": "",
        "category": "基础设施:公共设施:公共厕所",
        "type": 0,
        "location": {
            "lat": 40.738541,
            "lng": 107.4041
        },
        "ad_info": {
            "adcode": 150802,
            "province": "内蒙古自治区",
            "city": "巴彦淖尔市",
            "district": "临河区"
        }
    },
    {
        "id": "18254790217256948133",
        "title": "公共厕所",
        "address": "内蒙古自治区巴彦淖尔市临河区曙光街与水源路交叉口东北方向588米左右",
        "tel": "",
        "category": "基础设施:公共设施:公共厕所",
        "type": 0,
        "location": {
            "lat": 40.738241,
            "lng": 107.411868
        },
        "ad_info": {
            "adcode": 150802,
            "province": "内蒙古自治区",
            "city": "巴彦淖尔市",
            "district": "临河区"
        }
    },
    {
        "id": "12174862935209999345",
        "title": "公共厕所",
        "address": "内蒙古自治区巴彦淖尔市临河区吉祥路与解放街交叉口正南方向89米左右",
        "tel": "",
        "category": "基础设施:公共设施:公共厕所",
        "type": 0,
        "location": {
            "lat": 40.766044,
            "lng": 107.406787
        },
        "ad_info": {
            "adcode": 150802,
            "province": "内蒙古自治区",
            "city": "巴彦淖尔市",
            "district": "临河区"
        }
    },
    {
        "id": "5404642532600222547",
        "title": "公共厕所",
        "address": "内蒙古自治区巴彦淖尔市磴口县建筑西街与贺兰南路交叉口正北方向113米左右",
        "tel": "",
        "category": "基础设施:公共设施:公共厕所",
        "type": 0,
        "location": {
            "lat": 40.326419,
            "lng": 107.000546
        },
        "ad_info": {
            "adcode": 150822,
            "province": "内蒙古自治区",
            "city": "巴彦淖尔市",
            "district": "磴口县"
        }
    },
    {
        "id": "12726935056791486259",
        "title": "公共厕所",
        "address": "内蒙古自治区巴彦淖尔市磴口县永进东街与钢铁路交叉口正北方向55米左右",
        "tel": "",
        "category": "基础设施:公共设施:公共厕所",
        "type": 0,
        "location": {
            "lat": 40.332113,
            "lng": 107.015452
        },
        "ad_info": {
            "adcode": 150822,
            "province": "内蒙古自治区",
            "city": "巴彦淖尔市",
            "district": "磴口县"
        }
    },
    {
        "id": "8438841771715659434",
        "title": "公共厕所",
        "address": "内蒙古自治区巴彦淖尔市五原县文明路与红旗西路交叉口正东方向128米左右",
        "tel": "",
        "category": "基础设施:公共设施:公共厕所",
        "type": 0,
        "location": {
            "lat": 41.103921,
            "lng": 108.263937
        },
        "ad_info": {
            "adcode": 150821,
            "province": "内蒙古自治区",
            "city": "巴彦淖尔市",
            "district": "五原县"
        }
    },
    {
        "id": "7621347336877838499",
        "title": "公共厕所",
        "address": "内蒙古自治区巴彦淖尔市临河区丰州路与解放街交叉口正北方向52米左右",
        "tel": "",
        "category": "基础设施:公共设施:公共厕所",
        "type": 0,
        "location": {
            "lat": 40.767307,
            "lng": 107.393708
        },
        "ad_info": {
            "adcode": 150802,
            "province": "内蒙古自治区",
            "city": "巴彦淖尔市",
            "district": "临河区"
        }
    },
    {
        "id": "9215086533287055250",
        "title": "公共厕所",
        "address": "内蒙古自治区巴彦淖尔市临河区健康南路与曙光街交叉口正南方向197米左右",
        "tel": "",
        "category": "基础设施:公共设施:公共厕所",
        "type": 0,
        "location": {
            "lat": 40.742846,
            "lng": 107.425433
        },
        "ad_info": {
            "adcode": 150802,
            "province": "内蒙古自治区",
            "city": "巴彦淖尔市",
            "district": "临河区"
        }
    },
    {
        "id": "8579832114705473833",
        "title": "公共厕所",
        "address": "内蒙古自治区巴彦淖尔市临河区利民街与胜利路交叉口正南方向147米左右",
        "tel": "",
        "category": "基础设施:公共设施:公共厕所",
        "type": 0,
        "location": {
            "lat": 40.758522,
            "lng": 107.415962
        },
        "ad_info": {
            "adcode": 150802,
            "province": "内蒙古自治区",
            "city": "巴彦淖尔市",
            "district": "临河区"
        }
    },
    {
        "id": "7825474841374025951",
        "title": "公共厕所",
        "address": "内蒙古自治区巴彦淖尔市乌拉特后旗固察线与赛陕线交叉口正北方向77米左右",
        "tel": "",
        "category": "基础设施:公共设施:公共厕所",
        "type": 0,
        "location": {
            "lat": 41.171373,
            "lng": 107.153962
        },
        "ad_info": {
            "adcode": 150825,
            "province": "内蒙古自治区",
            "city": "巴彦淖尔市",
            "district": "乌拉特后旗"
        }
    },
    {
        "id": "5534905417112916140",
        "title": "公共厕所",
        "address": "内蒙古自治区巴彦淖尔市乌拉特前旗乡企大街与团结路交叉口正南方向72米左右",
        "tel": "",
        "category": "基础设施:公共设施:公共厕所",
        "type": 0,
        "location": {
            "lat": 40.729282,
            "lng": 108.655661
        },
        "ad_info": {
            "adcode": 150823,
            "province": "内蒙古自治区",
            "city": "巴彦淖尔市",
            "district": "乌拉特前旗"
        }
    },
    {
        "id": "5308192000198440611",
        "title": "旅游公共厕所",
        "address": "内蒙古自治区巴彦淖尔市乌拉特前旗振兴大街与民族路交叉口东北方向54米左右",
        "tel": "",
        "category": "基础设施:公共设施:公共厕所",
        "type": 0,
        "location": {
            "lat": 40.735273,
            "lng": 108.659245
        },
        "ad_info": {
            "adcode": 150823,
            "province": "内蒙古自治区",
            "city": "巴彦淖尔市",
            "district": "乌拉特前旗"
        }
    },
    {
        "id": "6725557514598001997",
        "title": "公共厕所",
        "address": "内蒙古自治区巴彦淖尔市临河区人民路与北一街交叉口正南方向29米左右",
        "tel": "",
        "category": "基础设施:公共设施:公共厕所",
        "type": 0,
        "location": {
            "lat": 40.767258,
            "lng": 107.402493
        },
        "ad_info": {
            "adcode": 150802,
            "province": "内蒙古自治区",
            "city": "巴彦淖尔市",
            "district": "临河区"
        }
    },
    {
        "id": "6331799525859284178",
        "title": "公共厕所",
        "address": "内蒙古自治区巴彦淖尔市乌拉特中旗和谐巷与鸿雁大街辅路交叉口西南方向33米左右",
        "tel": "",
        "category": "基础设施:公共设施:公共厕所",
        "type": 0,
        "location": {
            "lat": 41.584431,
            "lng": 108.514566
        },
        "ad_info": {
            "adcode": 150824,
            "province": "内蒙古自治区",
            "city": "巴彦淖尔市",
            "district": "乌拉特中旗"
        }
    },
    {
        "id": "9164126501371191824",
        "title": "公共厕所",
        "address": "内蒙古自治区巴彦淖尔市磴口县绕城路与贺兰北路交叉口正西方向608米左右",
        "tel": "",
        "category": "基础设施:公共设施:公共厕所",
        "type": 0,
        "location": {
            "lat": 40.358414,
            "lng": 106.992674
        },
        "ad_info": {
            "adcode": 150822,
            "province": "内蒙古自治区",
            "city": "巴彦淖尔市",
            "district": "磴口县"
        }
    },
    {
        "id": "4397503042065828826",
        "title": "公共厕所",
        "address": "内蒙古自治区巴彦淖尔市临河区庆丰街与金川大道交叉口正东方向292米左右",
        "tel": "",
        "category": "基础设施:公共设施:公共厕所",
        "type": 0,
        "location": {
            "lat": 40.763323,
            "lng": 107.379311
        },
        "ad_info": {
            "adcode": 150802,
            "province": "内蒙古自治区",
            "city": "巴彦淖尔市",
            "district": "临河区"
        }
    },
    {
        "id": "4206389981372960938",
        "title": "公共厕所",
        "address": "内蒙古自治区巴彦淖尔市磴口县南开街与南开西街交叉口正北方向62米左右",
        "tel": "",
        "category": "基础设施:公共设施:公共厕所",
        "type": 0,
        "location": {
            "lat": 40.327962,
            "lng": 107.004831
        },
        "ad_info": {
            "adcode": 150822,
            "province": "内蒙古自治区",
            "city": "巴彦淖尔市",
            "district": "磴口县"
        }
    },
    {
        "id": "13482822049455092889",
        "title": "公共厕所",
        "address": "内蒙古自治区巴彦淖尔市临河区新华西街与金沙路交叉口西南方向176米左右",
        "tel": "",
        "category": "基础设施:公共设施:公共厕所",
        "type": 0,
        "location": {
            "lat": 40.733482,
            "lng": 107.373098
        },
        "ad_info": {
            "adcode": 150802,
            "province": "内蒙古自治区",
            "city": "巴彦淖尔市",
            "district": "临河区"
        }
    },
    {
        "id": "14774968013731980207",
        "title": "公共厕所",
        "address": "内蒙古自治区巴彦淖尔市临河区曙光街与西苑路交叉口正西方向73米左右",
        "tel": "",
        "category": "基础设施:公共设施:公共厕所",
        "type": 0,
        "location": {
            "lat": 40.724451,
            "lng": 107.379657
        },
        "ad_info": {
            "adcode": 150802,
            "province": "内蒙古自治区",
            "city": "巴彦淖尔市",
            "district": "临河区"
        }
    },
    {
        "id": "5222919651287225804",
        "title": "公共厕所",
        "address": "内蒙古自治区巴彦淖尔市五原县兴原南路和谐家园(隆兴昌西街)",
        "tel": "",
        "category": "基础设施:公共设施:公共厕所",
        "type": 0,
        "location": {
            "lat": 41.093721,
            "lng": 108.26148
        },
        "ad_info": {
            "adcode": 150821,
            "province": "内蒙古自治区",
            "city": "巴彦淖尔市",
            "district": "五原县"
        }
    },
    {
        "id": "2772637243794825368",
        "title": "公共厕所",
        "address": "内蒙古自治区巴彦淖尔市临河区水源路与沃野街交叉口东南方向83米左右",
        "tel": "",
        "category": "基础设施:公共设施:公共厕所",
        "type": 0,
        "location": {
            "lat": 40.738541,
            "lng": 107.4041
        },
        "ad_info": {
            "adcode": 150802,
            "province": "内蒙古自治区",
            "city": "巴彦淖尔市",
            "district": "临河区"
        }
    },
    {
        "id": "18254790217256948133",
        "title": "公共厕所",
        "address": "内蒙古自治区巴彦淖尔市临河区曙光街与水源路交叉口东北方向588米左右",
        "tel": "",
        "category": "基础设施:公共设施:公共厕所",
        "type": 0,
        "location": {
            "lat": 40.738241,
            "lng": 107.411868
        },
        "ad_info": {
            "adcode": 150802,
            "province": "内蒙古自治区",
            "city": "巴彦淖尔市",
            "district": "临河区"
        }
    },
    {
        "id": "12174862935209999345",
        "title": "公共厕所",
        "address": "内蒙古自治区巴彦淖尔市临河区吉祥路与解放街交叉口正南方向89米左右",
        "tel": "",
        "category": "基础设施:公共设施:公共厕所",
        "type": 0,
        "location": {
            "lat": 40.766044,
            "lng": 107.406787
        },
        "ad_info": {
            "adcode": 150802,
            "province": "内蒙古自治区",
            "city": "巴彦淖尔市",
            "district": "临河区"
        }
    },
    {
        "id": "5404642532600222547",
        "title": "公共厕所",
        "address": "内蒙古自治区巴彦淖尔市磴口县建筑西街与贺兰南路交叉口正北方向113米左右",
        "tel": "",
        "category": "基础设施:公共设施:公共厕所",
        "type": 0,
        "location": {
            "lat": 40.326419,
            "lng": 107.000546
        },
        "ad_info": {
            "adcode": 150822,
            "province": "内蒙古自治区",
            "city": "巴彦淖尔市",
            "district": "磴口县"
        }
    },
    {
        "id": "12726935056791486259",
        "title": "公共厕所",
        "address": "内蒙古自治区巴彦淖尔市磴口县永进东街与钢铁路交叉口正北方向55米左右",
        "tel": "",
        "category": "基础设施:公共设施:公共厕所",
        "type": 0,
        "location": {
            "lat": 40.332113,
            "lng": 107.015452
        },
        "ad_info": {
            "adcode": 150822,
            "province": "内蒙古自治区",
            "city": "巴彦淖尔市",
            "district": "磴口县"
        }
    },
    {
        "id": "8438841771715659434",
        "title": "公共厕所",
        "address": "内蒙古自治区巴彦淖尔市五原县文明路与红旗西路交叉口正东方向128米左右",
        "tel": "",
        "category": "基础设施:公共设施:公共厕所",
        "type": 0,
        "location": {
            "lat": 41.103921,
            "lng": 108.263937
        },
        "ad_info": {
            "adcode": 150821,
            "province": "内蒙古自治区",
            "city": "巴彦淖尔市",
            "district": "五原县"
        }
    },
    {
        "id": "7621347336877838499",
        "title": "公共厕所",
        "address": "内蒙古自治区巴彦淖尔市临河区丰州路与解放街交叉口正北方向52米左右",
        "tel": "",
        "category": "基础设施:公共设施:公共厕所",
        "type": 0,
        "location": {
            "lat": 40.767307,
            "lng": 107.393708
        },
        "ad_info": {
            "adcode": 150802,
            "province": "内蒙古自治区",
            "city": "巴彦淖尔市",
            "district": "临河区"
        }
    },
    {
        "id": "9215086533287055250",
        "title": "公共厕所",
        "address": "内蒙古自治区巴彦淖尔市临河区健康南路与曙光街交叉口正南方向197米左右",
        "tel": "",
        "category": "基础设施:公共设施:公共厕所",
        "type": 0,
        "location": {
            "lat": 40.742846,
            "lng": 107.425433
        },
        "ad_info": {
            "adcode": 150802,
            "province": "内蒙古自治区",
            "city": "巴彦淖尔市",
            "district": "临河区"
        }
    },
    {
        "id": "8579832114705473833",
        "title": "公共厕所",
        "address": "内蒙古自治区巴彦淖尔市临河区利民街与胜利路交叉口正南方向147米左右",
        "tel": "",
        "category": "基础设施:公共设施:公共厕所",
        "type": 0,
        "location": {
            "lat": 40.758522,
            "lng": 107.415962
        },
        "ad_info": {
            "adcode": 150802,
            "province": "内蒙古自治区",
            "city": "巴彦淖尔市",
            "district": "临河区"
        }
    },
    {
        "id": "7825474841374025951",
        "title": "公共厕所",
        "address": "内蒙古自治区巴彦淖尔市乌拉特后旗固察线与赛陕线交叉口正北方向77米左右",
        "tel": "",
        "category": "基础设施:公共设施:公共厕所",
        "type": 0,
        "location": {
            "lat": 41.171373,
            "lng": 107.153962
        },
        "ad_info": {
            "adcode": 150825,
            "province": "内蒙古自治区",
            "city": "巴彦淖尔市",
            "district": "乌拉特后旗"
        }
    },
    {
        "id": "5534905417112916140",
        "title": "公共厕所",
        "address": "内蒙古自治区巴彦淖尔市乌拉特前旗乡企大街与团结路交叉口正南方向72米左右",
        "tel": "",
        "category": "基础设施:公共设施:公共厕所",
        "type": 0,
        "location": {
            "lat": 40.729282,
            "lng": 108.655661
        },
        "ad_info": {
            "adcode": 150823,
            "province": "内蒙古自治区",
            "city": "巴彦淖尔市",
            "district": "乌拉特前旗"
        }
    },
    {
        "id": "5308192000198440611",
        "title": "旅游公共厕所",
        "address": "内蒙古自治区巴彦淖尔市乌拉特前旗振兴大街与民族路交叉口东北方向54米左右",
        "tel": "",
        "category": "基础设施:公共设施:公共厕所",
        "type": 0,
        "location": {
            "lat": 40.735273,
            "lng": 108.659245
        },
        "ad_info": {
            "adcode": 150823,
            "province": "内蒙古自治区",
            "city": "巴彦淖尔市",
            "district": "乌拉特前旗"
        }
    },
    {
        "id": "6725557514598001997",
        "title": "公共厕所",
        "address": "内蒙古自治区巴彦淖尔市临河区人民路与北一街交叉口正南方向29米左右",
        "tel": "",
        "category": "基础设施:公共设施:公共厕所",
        "type": 0,
        "location": {
            "lat": 40.767258,
            "lng": 107.402493
        },
        "ad_info": {
            "adcode": 150802,
            "province": "内蒙古自治区",
            "city": "巴彦淖尔市",
            "district": "临河区"
        }
    },
    {
        "id": "6331799525859284178",
        "title": "公共厕所",
        "address": "内蒙古自治区巴彦淖尔市乌拉特中旗和谐巷与鸿雁大街辅路交叉口西南方向33米左右",
        "tel": "",
        "category": "基础设施:公共设施:公共厕所",
        "type": 0,
        "location": {
            "lat": 41.584431,
            "lng": 108.514566
        },
        "ad_info": {
            "adcode": 150824,
            "province": "内蒙古自治区",
            "city": "巴彦淖尔市",
            "district": "乌拉特中旗"
        }
    },
    {
        "id": "9164126501371191824",
        "title": "公共厕所",
        "address": "内蒙古自治区巴彦淖尔市磴口县绕城路与贺兰北路交叉口正西方向608米左右",
        "tel": "",
        "category": "基础设施:公共设施:公共厕所",
        "type": 0,
        "location": {
            "lat": 40.358414,
            "lng": 106.992674
        },
        "ad_info": {
            "adcode": 150822,
            "province": "内蒙古自治区",
            "city": "巴彦淖尔市",
            "district": "磴口县"
        }
    },
    {
        "id": "4397503042065828826",
        "title": "公共厕所",
        "address": "内蒙古自治区巴彦淖尔市临河区庆丰街与金川大道交叉口正东方向292米左右",
        "tel": "",
        "category": "基础设施:公共设施:公共厕所",
        "type": 0,
        "location": {
            "lat": 40.763323,
            "lng": 107.379311
        },
        "ad_info": {
            "adcode": 150802,
            "province": "内蒙古自治区",
            "city": "巴彦淖尔市",
            "district": "临河区"
        }
    },
    {
        "id": "4206389981372960938",
        "title": "公共厕所",
        "address": "内蒙古自治区巴彦淖尔市磴口县南开街与南开西街交叉口正北方向62米左右",
        "tel": "",
        "category": "基础设施:公共设施:公共厕所",
        "type": 0,
        "location": {
            "lat": 40.327962,
            "lng": 107.004831
        },
        "ad_info": {
            "adcode": 150822,
            "province": "内蒙古自治区",
            "city": "巴彦淖尔市",
            "district": "磴口县"
        }
    },
    {
        "id": "13482822049455092889",
        "title": "公共厕所",
        "address": "内蒙古自治区巴彦淖尔市临河区新华西街与金沙路交叉口西南方向176米左右",
        "tel": "",
        "category": "基础设施:公共设施:公共厕所",
        "type": 0,
        "location": {
            "lat": 40.733482,
            "lng": 107.373098
        },
        "ad_info": {
            "adcode": 150802,
            "province": "内蒙古自治区",
            "city": "巴彦淖尔市",
            "district": "临河区"
        }
    },
    {
        "id": "14774968013731980207",
        "title": "公共厕所",
        "address": "内蒙古自治区巴彦淖尔市临河区曙光街与西苑路交叉口正西方向73米左右",
        "tel": "",
        "category": "基础设施:公共设施:公共厕所",
        "type": 0,
        "location": {
            "lat": 40.724451,
            "lng": 107.379657
        },
        "ad_info": {
            "adcode": 150802,
            "province": "内蒙古自治区",
            "city": "巴彦淖尔市",
            "district": "临河区"
        }
    },
    {
        "id": "5222919651287225804",
        "title": "公共厕所",
        "address": "内蒙古自治区巴彦淖尔市五原县兴原南路和谐家园(隆兴昌西街)",
        "tel": "",
        "category": "基础设施:公共设施:公共厕所",
        "type": 0,
        "location": {
            "lat": 41.093721,
            "lng": 108.26148
        },
        "ad_info": {
            "adcode": 150821,
            "province": "内蒙古自治区",
            "city": "巴彦淖尔市",
            "district": "五原县"
        }
    },
    {
        "id": "2772637243794825368",
        "title": "公共厕所",
        "address": "内蒙古自治区巴彦淖尔市临河区水源路与沃野街交叉口东南方向83米左右",
        "tel": "",
        "category": "基础设施:公共设施:公共厕所",
        "type": 0,
        "location": {
            "lat": 40.738541,
            "lng": 107.4041
        },
        "ad_info": {
            "adcode": 150802,
            "province": "内蒙古自治区",
            "city": "巴彦淖尔市",
            "district": "临河区"
        }
    },
    {
        "id": "18254790217256948133",
        "title": "公共厕所",
        "address": "内蒙古自治区巴彦淖尔市临河区曙光街与水源路交叉口东北方向588米左右",
        "tel": "",
        "category": "基础设施:公共设施:公共厕所",
        "type": 0,
        "location": {
            "lat": 40.738241,
            "lng": 107.411868
        },
        "ad_info": {
            "adcode": 150802,
            "province": "内蒙古自治区",
            "city": "巴彦淖尔市",
            "district": "临河区"
        }
    },
    {
        "id": "12174862935209999345",
        "title": "公共厕所",
        "address": "内蒙古自治区巴彦淖尔市临河区吉祥路与解放街交叉口正南方向89米左右",
        "tel": "",
        "category": "基础设施:公共设施:公共厕所",
        "type": 0,
        "location": {
            "lat": 40.766044,
            "lng": 107.406787
        },
        "ad_info": {
            "adcode": 150802,
            "province": "内蒙古自治区",
            "city": "巴彦淖尔市",
            "district": "临河区"
        }
    },
    {
        "id": "5404642532600222547",
        "title": "公共厕所",
        "address": "内蒙古自治区巴彦淖尔市磴口县建筑西街与贺兰南路交叉口正北方向113米左右",
        "tel": "",
        "category": "基础设施:公共设施:公共厕所",
        "type": 0,
        "location": {
            "lat": 40.326419,
            "lng": 107.000546
        },
        "ad_info": {
            "adcode": 150822,
            "province": "内蒙古自治区",
            "city": "巴彦淖尔市",
            "district": "磴口县"
        }
    },
    {
        "id": "12726935056791486259",
        "title": "公共厕所",
        "address": "内蒙古自治区巴彦淖尔市磴口县永进东街与钢铁路交叉口正北方向55米左右",
        "tel": "",
        "category": "基础设施:公共设施:公共厕所",
        "type": 0,
        "location": {
            "lat": 40.332113,
            "lng": 107.015452
        },
        "ad_info": {
            "adcode": 150822,
            "province": "内蒙古自治区",
            "city": "巴彦淖尔市",
            "district": "磴口县"
        }
    },
    {
        "id": "8438841771715659434",
        "title": "公共厕所",
        "address": "内蒙古自治区巴彦淖尔市五原县文明路与红旗西路交叉口正东方向128米左右",
        "tel": "",
        "category": "基础设施:公共设施:公共厕所",
        "type": 0,
        "location": {
            "lat": 41.103921,
            "lng": 108.263937
        },
        "ad_info": {
            "adcode": 150821,
            "province": "内蒙古自治区",
            "city": "巴彦淖尔市",
            "district": "五原县"
        }
    },
    {
        "id": "7621347336877838499",
        "title": "公共厕所",
        "address": "内蒙古自治区巴彦淖尔市临河区丰州路与解放街交叉口正北方向52米左右",
        "tel": "",
        "category": "基础设施:公共设施:公共厕所",
        "type": 0,
        "location": {
            "lat": 40.767307,
            "lng": 107.393708
        },
        "ad_info": {
            "adcode": 150802,
            "province": "内蒙古自治区",
            "city": "巴彦淖尔市",
            "district": "临河区"
        }
    },
    {
        "id": "9215086533287055250",
        "title": "公共厕所",
        "address": "内蒙古自治区巴彦淖尔市临河区健康南路与曙光街交叉口正南方向197米左右",
        "tel": "",
        "category": "基础设施:公共设施:公共厕所",
        "type": 0,
        "location": {
            "lat": 40.742846,
            "lng": 107.425433
        },
        "ad_info": {
            "adcode": 150802,
            "province": "内蒙古自治区",
            "city": "巴彦淖尔市",
            "district": "临河区"
        }
    },
    {
        "id": "8579832114705473833",
        "title": "公共厕所",
        "address": "内蒙古自治区巴彦淖尔市临河区利民街与胜利路交叉口正南方向147米左右",
        "tel": "",
        "category": "基础设施:公共设施:公共厕所",
        "type": 0,
        "location": {
            "lat": 40.758522,
            "lng": 107.415962
        },
        "ad_info": {
            "adcode": 150802,
            "province": "内蒙古自治区",
            "city": "巴彦淖尔市",
            "district": "临河区"
        }
    },
    {
        "id": "7825474841374025951",
        "title": "公共厕所",
        "address": "内蒙古自治区巴彦淖尔市乌拉特后旗固察线与赛陕线交叉口正北方向77米左右",
        "tel": "",
        "category": "基础设施:公共设施:公共厕所",
        "type": 0,
        "location": {
            "lat": 41.171373,
            "lng": 107.153962
        },
        "ad_info": {
            "adcode": 150825,
            "province": "内蒙古自治区",
            "city": "巴彦淖尔市",
            "district": "乌拉特后旗"
        }
    },
    {
        "id": "5534905417112916140",
        "title": "公共厕所",
        "address": "内蒙古自治区巴彦淖尔市乌拉特前旗乡企大街与团结路交叉口正南方向72米左右",
        "tel": "",
        "category": "基础设施:公共设施:公共厕所",
        "type": 0,
        "location": {
            "lat": 40.729282,
            "lng": 108.655661
        },
        "ad_info": {
            "adcode": 150823,
            "province": "内蒙古自治区",
            "city": "巴彦淖尔市",
            "district": "乌拉特前旗"
        }
    },
    {
        "id": "5308192000198440611",
        "title": "旅游公共厕所",
        "address": "内蒙古自治区巴彦淖尔市乌拉特前旗振兴大街与民族路交叉口东北方向54米左右",
        "tel": "",
        "category": "基础设施:公共设施:公共厕所",
        "type": 0,
        "location": {
            "lat": 40.735273,
            "lng": 108.659245
        },
        "ad_info": {
            "adcode": 150823,
            "province": "内蒙古自治区",
            "city": "巴彦淖尔市",
            "district": "乌拉特前旗"
        }
    },
    {
        "id": "6725557514598001997",
        "title": "公共厕所",
        "address": "内蒙古自治区巴彦淖尔市临河区人民路与北一街交叉口正南方向29米左右",
        "tel": "",
        "category": "基础设施:公共设施:公共厕所",
        "type": 0,
        "location": {
            "lat": 40.767258,
            "lng": 107.402493
        },
        "ad_info": {
            "adcode": 150802,
            "province": "内蒙古自治区",
            "city": "巴彦淖尔市",
            "district": "临河区"
        }
    },
    {
        "id": "6331799525859284178",
        "title": "公共厕所",
        "address": "内蒙古自治区巴彦淖尔市乌拉特中旗和谐巷与鸿雁大街辅路交叉口西南方向33米左右",
        "tel": "",
        "category": "基础设施:公共设施:公共厕所",
        "type": 0,
        "location": {
            "lat": 41.584431,
            "lng": 108.514566
        },
        "ad_info": {
            "adcode": 150824,
            "province": "内蒙古自治区",
            "city": "巴彦淖尔市",
            "district": "乌拉特中旗"
        }
    },
    {
        "id": "9164126501371191824",
        "title": "公共厕所",
        "address": "内蒙古自治区巴彦淖尔市磴口县绕城路与贺兰北路交叉口正西方向608米左右",
        "tel": "",
        "category": "基础设施:公共设施:公共厕所",
        "type": 0,
        "location": {
            "lat": 40.358414,
            "lng": 106.992674
        },
        "ad_info": {
            "adcode": 150822,
            "province": "内蒙古自治区",
            "city": "巴彦淖尔市",
            "district": "磴口县"
        }
    },
    {
        "id": "4397503042065828826",
        "title": "公共厕所",
        "address": "内蒙古自治区巴彦淖尔市临河区庆丰街与金川大道交叉口正东方向292米左右",
        "tel": "",
        "category": "基础设施:公共设施:公共厕所",
        "type": 0,
        "location": {
            "lat": 40.763323,
            "lng": 107.379311
        },
        "ad_info": {
            "adcode": 150802,
            "province": "内蒙古自治区",
            "city": "巴彦淖尔市",
            "district": "临河区"
        }
    },
    {
        "id": "4206389981372960938",
        "title": "公共厕所",
        "address": "内蒙古自治区巴彦淖尔市磴口县南开街与南开西街交叉口正北方向62米左右",
        "tel": "",
        "category": "基础设施:公共设施:公共厕所",
        "type": 0,
        "location": {
            "lat": 40.327962,
            "lng": 107.004831
        },
        "ad_info": {
            "adcode": 150822,
            "province": "内蒙古自治区",
            "city": "巴彦淖尔市",
            "district": "磴口县"
        }
    },
    {
        "id": "13482822049455092889",
        "title": "公共厕所",
        "address": "内蒙古自治区巴彦淖尔市临河区新华西街与金沙路交叉口西南方向176米左右",
        "tel": "",
        "category": "基础设施:公共设施:公共厕所",
        "type": 0,
        "location": {
            "lat": 40.733482,
            "lng": 107.373098
        },
        "ad_info": {
            "adcode": 150802,
            "province": "内蒙古自治区",
            "city": "巴彦淖尔市",
            "district": "临河区"
        }
    },
    {
        "id": "14774968013731980207",
        "title": "公共厕所",
        "address": "内蒙古自治区巴彦淖尔市临河区曙光街与西苑路交叉口正西方向73米左右",
        "tel": "",
        "category": "基础设施:公共设施:公共厕所",
        "type": 0,
        "location": {
            "lat": 40.724451,
            "lng": 107.379657
        },
        "ad_info": {
            "adcode": 150802,
            "province": "内蒙古自治区",
            "city": "巴彦淖尔市",
            "district": "临河区"
        }
    },
    {
        "id": "5222919651287225804",
        "title": "公共厕所",
        "address": "内蒙古自治区巴彦淖尔市五原县兴原南路和谐家园(隆兴昌西街)",
        "tel": "",
        "category": "基础设施:公共设施:公共厕所",
        "type": 0,
        "location": {
            "lat": 41.093721,
            "lng": 108.26148
        },
        "ad_info": {
            "adcode": 150821,
            "province": "内蒙古自治区",
            "city": "巴彦淖尔市",
            "district": "五原县"
        }
    },
    {
        "id": "2772637243794825368",
        "title": "公共厕所",
        "address": "内蒙古自治区巴彦淖尔市临河区水源路与沃野街交叉口东南方向83米左右",
        "tel": "",
        "category": "基础设施:公共设施:公共厕所",
        "type": 0,
        "location": {
            "lat": 40.738541,
            "lng": 107.4041
        },
        "ad_info": {
            "adcode": 150802,
            "province": "内蒙古自治区",
            "city": "巴彦淖尔市",
            "district": "临河区"
        }
    },
    {
        "id": "18254790217256948133",
        "title": "公共厕所",
        "address": "内蒙古自治区巴彦淖尔市临河区曙光街与水源路交叉口东北方向588米左右",
        "tel": "",
        "category": "基础设施:公共设施:公共厕所",
        "type": 0,
        "location": {
            "lat": 40.738241,
            "lng": 107.411868
        },
        "ad_info": {
            "adcode": 150802,
            "province": "内蒙古自治区",
            "city": "巴彦淖尔市",
            "district": "临河区"
        }
    },
    {
        "id": "12174862935209999345",
        "title": "公共厕所",
        "address": "内蒙古自治区巴彦淖尔市临河区吉祥路与解放街交叉口正南方向89米左右",
        "tel": "",
        "category": "基础设施:公共设施:公共厕所",
        "type": 0,
        "location": {
            "lat": 40.766044,
            "lng": 107.406787
        },
        "ad_info": {
            "adcode": 150802,
            "province": "内蒙古自治区",
            "city": "巴彦淖尔市",
            "district": "临河区"
        }
    },
    {
        "id": "5404642532600222547",
        "title": "公共厕所",
        "address": "内蒙古自治区巴彦淖尔市磴口县建筑西街与贺兰南路交叉口正北方向113米左右",
        "tel": "",
        "category": "基础设施:公共设施:公共厕所",
        "type": 0,
        "location": {
            "lat": 40.326419,
            "lng": 107.000546
        },
        "ad_info": {
            "adcode": 150822,
            "province": "内蒙古自治区",
            "city": "巴彦淖尔市",
            "district": "磴口县"
        }
    },
    {
        "id": "12726935056791486259",
        "title": "公共厕所",
        "address": "内蒙古自治区巴彦淖尔市磴口县永进东街与钢铁路交叉口正北方向55米左右",
        "tel": "",
        "category": "基础设施:公共设施:公共厕所",
        "type": 0,
        "location": {
            "lat": 40.332113,
            "lng": 107.015452
        },
        "ad_info": {
            "adcode": 150822,
            "province": "内蒙古自治区",
            "city": "巴彦淖尔市",
            "district": "磴口县"
        }
    },
    {
        "id": "8438841771715659434",
        "title": "公共厕所",
        "address": "内蒙古自治区巴彦淖尔市五原县文明路与红旗西路交叉口正东方向128米左右",
        "tel": "",
        "category": "基础设施:公共设施:公共厕所",
        "type": 0,
        "location": {
            "lat": 41.103921,
            "lng": 108.263937
        },
        "ad_info": {
            "adcode": 150821,
            "province": "内蒙古自治区",
            "city": "巴彦淖尔市",
            "district": "五原县"
        }
    },
    {
        "id": "7621347336877838499",
        "title": "公共厕所",
        "address": "内蒙古自治区巴彦淖尔市临河区丰州路与解放街交叉口正北方向52米左右",
        "tel": "",
        "category": "基础设施:公共设施:公共厕所",
        "type": 0,
        "location": {
            "lat": 40.767307,
            "lng": 107.393708
        },
        "ad_info": {
            "adcode": 150802,
            "province": "内蒙古自治区",
            "city": "巴彦淖尔市",
            "district": "临河区"
        }
    },
    {
        "id": "9215086533287055250",
        "title": "公共厕所",
        "address": "内蒙古自治区巴彦淖尔市临河区健康南路与曙光街交叉口正南方向197米左右",
        "tel": "",
        "category": "基础设施:公共设施:公共厕所",
        "type": 0,
        "location": {
            "lat": 40.742846,
            "lng": 107.425433
        },
        "ad_info": {
            "adcode": 150802,
            "province": "内蒙古自治区",
            "city": "巴彦淖尔市",
            "district": "临河区"
        }
    },
    {
        "id": "8579832114705473833",
        "title": "公共厕所",
        "address": "内蒙古自治区巴彦淖尔市临河区利民街与胜利路交叉口正南方向147米左右",
        "tel": "",
        "category": "基础设施:公共设施:公共厕所",
        "type": 0,
        "location": {
            "lat": 40.758522,
            "lng": 107.415962
        },
        "ad_info": {
            "adcode": 150802,
            "province": "内蒙古自治区",
            "city": "巴彦淖尔市",
            "district": "临河区"
        }
    }
]