[
    {
        "id": "5230419669432218006",
        "title": "公共厕所",
        "address": "新疆维吾尔自治区巴音郭楞蒙古自治州库尔勒市美湖·尚街4-1-15西北方向100米",
        "tel": "",
        "category": "基础设施:公共设施:公共厕所",
        "type": 0,
        "location": {
            "lat": 41.73979,
            "lng": 86.159178
        },
        "ad_info": {
            "adcode": 652801,
            "province": "新疆维吾尔自治区",
            "city": "巴音郭楞蒙古自治州",
            "district": "库尔勒市"
        }
    },
    {
        "id": "15362827156269318175",
        "title": "公共厕所",
        "address": "新疆维吾尔自治区巴音郭楞蒙古自治州库尔勒市团结北路与朝阳路交叉口正南方向237米左右",
        "tel": "",
        "category": "基础设施:公共设施:公共厕所",
        "type": 0,
        "location": {
            "lat": 41.740086,
            "lng": 86.144689
        },
        "ad_info": {
            "adcode": 652801,
            "province": "新疆维吾尔自治区",
            "city": "巴音郭楞蒙古自治州",
            "district": "库尔勒市"
        }
    },
    {
        "id": "2814288836104044517",
        "title": "公共厕所",
        "address": "新疆维吾尔自治区巴音郭楞蒙古自治州库尔勒市新华路与生活路交叉口西北方向139米左右",
        "tel": "",
        "category": "基础设施:公共设施:公共厕所",
        "type": 0,
        "location": {
            "lat": 41.747048,
            "lng": 86.192454
        },
        "ad_info": {
            "adcode": 652801,
            "province": "新疆维吾尔自治区",
            "city": "巴音郭楞蒙古自治州",
            "district": "库尔勒市"
        }
    },
    {
        "id": "13367862661704498435",
        "title": "公共厕所",
        "address": "新疆维吾尔自治区巴音郭楞蒙古自治州库尔勒市团结北路葵花桥广场",
        "tel": "",
        "category": "基础设施:公共设施:公共厕所",
        "type": 0,
        "location": {
            "lat": 41.75085,
            "lng": 86.145193
        },
        "ad_info": {
            "adcode": 652801,
            "province": "新疆维吾尔自治区",
            "city": "巴音郭楞蒙古自治州",
            "district": "库尔勒市"
        }
    },
    {
        "id": "12280982590177744831",
        "title": "公共厕所",
        "address": "新疆维吾尔自治区巴音郭楞蒙古自治州库尔勒市新城南路与石化大道交叉口东南方向259米左右",
        "tel": "",
        "category": "基础设施:公共设施:公共厕所",
        "type": 0,
        "location": {
            "lat": 41.719793,
            "lng": 86.202119
        },
        "ad_info": {
            "adcode": 652801,
            "province": "新疆维吾尔自治区",
            "city": "巴音郭楞蒙古自治州",
            "district": "库尔勒市"
        }
    },
    {
        "id": "4583381708442038757",
        "title": "公共厕所",
        "address": "新疆维吾尔自治区巴音郭楞蒙古自治州库尔勒市九洲奇乐花园门口",
        "tel": "",
        "category": "基础设施:公共设施:公共厕所",
        "type": 0,
        "location": {
            "lat": 41.755679,
            "lng": 86.13799
        },
        "ad_info": {
            "adcode": 652801,
            "province": "新疆维吾尔自治区",
            "city": "巴音郭楞蒙古自治州",
            "district": "库尔勒市"
        }
    },
    {
        "id": "17402187138964299088",
        "title": "公共厕所",
        "address": "新疆维吾尔自治区巴音郭楞蒙古自治州库尔勒市库尉北路与新华路交叉口东南方向154米左右",
        "tel": "",
        "category": "基础设施:公共设施:公共厕所",
        "type": 0,
        "location": {
            "lat": 41.741532,
            "lng": 86.189572
        },
        "ad_info": {
            "adcode": 652801,
            "province": "新疆维吾尔自治区",
            "city": "巴音郭楞蒙古自治州",
            "district": "库尔勒市"
        }
    },
    {
        "id": "4377456729313780243",
        "title": "公共厕所",
        "address": "新疆维吾尔自治区巴音郭楞蒙古自治州库尔勒市同心路与蓝天路交叉口西南方向35米左右",
        "tel": "",
        "category": "基础设施:公共设施:公共厕所",
        "type": 0,
        "location": {
            "lat": 41.707469,
            "lng": 86.230495
        },
        "ad_info": {
            "adcode": 652801,
            "province": "新疆维吾尔自治区",
            "city": "巴音郭楞蒙古自治州",
            "district": "库尔勒市"
        }
    },
    {
        "id": "5083661787002672872",
        "title": "公共厕所",
        "address": "新疆维吾尔自治区巴音郭楞蒙古自治州库尔勒市石化大道玫瑰·庄园",
        "tel": "",
        "category": "基础设施:公共设施:公共厕所",
        "type": 0,
        "location": {
            "lat": 41.72457,
            "lng": 86.191645
        },
        "ad_info": {
            "adcode": 652801,
            "province": "新疆维吾尔自治区",
            "city": "巴音郭楞蒙古自治州",
            "district": "库尔勒市"
        }
    },
    {
        "id": "12465703789976701256",
        "title": "公共厕所",
        "address": "新疆维吾尔自治区巴音郭楞蒙古自治州库尔勒市库尉北路与机场路交叉口西北方向356米左右",
        "tel": "",
        "category": "基础设施:公共设施:公共厕所",
        "type": 0,
        "location": {
            "lat": 41.729127,
            "lng": 86.185518
        },
        "ad_info": {
            "adcode": 652801,
            "province": "新疆维吾尔自治区",
            "city": "巴音郭楞蒙古自治州",
            "district": "库尔勒市"
        }
    },
    {
        "id": "1024696708484939008",
        "title": "公共厕所",
        "address": "新疆维吾尔自治区巴音郭楞蒙古自治州库尔勒市圣果路与阿克塔什路交叉口西北方向153米左右",
        "tel": "",
        "category": "基础设施:公共设施:公共厕所",
        "type": 0,
        "location": {
            "lat": 41.746802,
            "lng": 86.178983
        },
        "ad_info": {
            "adcode": 652801,
            "province": "新疆维吾尔自治区",
            "city": "巴音郭楞蒙古自治州",
            "district": "库尔勒市"
        }
    },
    {
        "id": "18096968825008045158",
        "title": "公共厕所",
        "address": "新疆维吾尔自治区巴音郭楞蒙古自治州库尔勒市库尉北路与新华路交叉口正南方向95米左右",
        "tel": "",
        "category": "基础设施:公共设施:公共厕所",
        "type": 0,
        "location": {
            "lat": 41.741585,
            "lng": 86.187766
        },
        "ad_info": {
            "adcode": 652801,
            "province": "新疆维吾尔自治区",
            "city": "巴音郭楞蒙古自治州",
            "district": "库尔勒市"
        }
    },
    {
        "id": "4999371759943569513",
        "title": "公共厕所",
        "address": "新疆维吾尔自治区巴音郭楞蒙古自治州库尔勒市塔指东路与梨乡路交叉口东南方向116米左右",
        "tel": "",
        "category": "基础设施:公共设施:公共厕所",
        "type": 0,
        "location": {
            "lat": 41.756425,
            "lng": 86.163548
        },
        "ad_info": {
            "adcode": 652801,
            "province": "新疆维吾尔自治区",
            "city": "巴音郭楞蒙古自治州",
            "district": "库尔勒市"
        }
    },
    {
        "id": "7181490802685758907",
        "title": "公共厕所",
        "address": "新疆维吾尔自治区巴音郭楞蒙古自治州库尔勒市兰干路与退水渠路交叉口西北方向177米左右",
        "tel": "",
        "category": "基础设施:公共设施:公共厕所",
        "type": 0,
        "location": {
            "lat": 41.755945,
            "lng": 86.128993
        },
        "ad_info": {
            "adcode": 652801,
            "province": "新疆维吾尔自治区",
            "city": "巴音郭楞蒙古自治州",
            "district": "库尔勒市"
        }
    },
    {
        "id": "136121978454932446",
        "title": "公共厕所",
        "address": "新疆维吾尔自治区巴音郭楞蒙古自治州库尔勒市人民西路与人民西路南二巷交叉口东南方向35米左右",
        "tel": "",
        "category": "基础设施:公共设施:公共厕所",
        "type": 0,
        "location": {
            "lat": 41.76024,
            "lng": 86.134763
        },
        "ad_info": {
            "adcode": 652801,
            "province": "新疆维吾尔自治区",
            "city": "巴音郭楞蒙古自治州",
            "district": "库尔勒市"
        }
    },
    {
        "id": "11175186618284839311",
        "title": "公共厕所",
        "address": "新疆维吾尔自治区巴音郭楞蒙古自治州库尔勒市塔指西路与延安路交叉口正西方向148米左右",
        "tel": "",
        "category": "基础设施:公共设施:公共厕所",
        "type": 0,
        "location": {
            "lat": 41.748234,
            "lng": 86.148652
        },
        "ad_info": {
            "adcode": 652801,
            "province": "新疆维吾尔自治区",
            "city": "巴音郭楞蒙古自治州",
            "district": "库尔勒市"
        }
    },
    {
        "id": "3065398930121110861",
        "title": "公共厕所",
        "address": "新疆维吾尔自治区巴音郭楞蒙古自治州库尔勒市新华路与生活路交叉口正东方向204米左右",
        "tel": "",
        "category": "基础设施:公共设施:公共厕所",
        "type": 0,
        "location": {
            "lat": 41.746392,
            "lng": 86.195727
        },
        "ad_info": {
            "adcode": 652801,
            "province": "新疆维吾尔自治区",
            "city": "巴音郭楞蒙古自治州",
            "district": "库尔勒市"
        }
    },
    {
        "id": "1264290123419843192",
        "title": "公共厕所",
        "address": "新疆维吾尔自治区巴音郭楞蒙古自治州库尔勒市新华路与生活路交叉口正东方向113米左右",
        "tel": "",
        "category": "基础设施:公共设施:公共厕所",
        "type": 0,
        "location": {
            "lat": 41.74588,
            "lng": 86.194692
        },
        "ad_info": {
            "adcode": 652801,
            "province": "新疆维吾尔自治区",
            "city": "巴音郭楞蒙古自治州",
            "district": "库尔勒市"
        }
    },
    {
        "id": "15569681121258733920",
        "title": "公共厕所",
        "address": "新疆维吾尔自治区巴音郭楞蒙古自治州库尔勒市G218与龙山立交桥交叉口东北方向703米左右",
        "tel": "",
        "category": "基础设施:公共设施:公共厕所",
        "type": 0,
        "location": {
            "lat": 41.771679,
            "lng": 86.192316
        },
        "ad_info": {
            "adcode": 652801,
            "province": "新疆维吾尔自治区",
            "city": "巴音郭楞蒙古自治州",
            "district": "库尔勒市"
        }
    },
    {
        "id": "4223989913723520448",
        "title": "公共厕所",
        "address": "新疆维吾尔自治区巴音郭楞蒙古自治州库尔勒市团结南路和合家园",
        "tel": "",
        "category": "基础设施:公共设施:公共厕所",
        "type": 0,
        "location": {
            "lat": 41.719765,
            "lng": 86.170567
        },
        "ad_info": {
            "adcode": 652801,
            "province": "新疆维吾尔自治区",
            "city": "巴音郭楞蒙古自治州",
            "district": "库尔勒市"
        }
    },
    {
        "id": "5429235494536056333",
        "title": "公共厕所",
        "address": "新疆维吾尔自治区巴音郭楞蒙古自治州库尔勒市石化大道与花园街交叉口东北方向101米左右",
        "tel": "",
        "category": "基础设施:公共设施:公共厕所",
        "type": 0,
        "location": {
            "lat": 41.748664,
            "lng": 86.160847
        },
        "ad_info": {
            "adcode": 652801,
            "province": "新疆维吾尔自治区",
            "city": "巴音郭楞蒙古自治州",
            "district": "库尔勒市"
        }
    },
    {
        "id": "15263030347844604222",
        "title": "公共厕所",
        "address": "新疆维吾尔自治区巴音郭楞蒙古自治州库尔勒市延安路与延安路东一巷交叉口东北方向276米左右",
        "tel": "",
        "category": "基础设施:公共设施:公共厕所",
        "type": 0,
        "location": {
            "lat": 41.723504,
            "lng": 86.180675
        },
        "ad_info": {
            "adcode": 652801,
            "province": "新疆维吾尔自治区",
            "city": "巴音郭楞蒙古自治州",
            "district": "库尔勒市"
        }
    },
    {
        "id": "17205364005702465970",
        "title": "公共厕所",
        "address": "新疆维吾尔自治区巴音郭楞蒙古自治州库尔勒市人民东路与梨乡路交叉口正东方向29米左右",
        "tel": "",
        "category": "基础设施:公共设施:公共厕所",
        "type": 0,
        "location": {
            "lat": 41.764785,
            "lng": 86.154296
        },
        "ad_info": {
            "adcode": 652801,
            "province": "新疆维吾尔自治区",
            "city": "巴音郭楞蒙古自治州",
            "district": "库尔勒市"
        }
    },
    {
        "id": "14543655041613889156",
        "title": "公共厕所",
        "address": "新疆维吾尔自治区巴音郭楞蒙古自治州库尔勒市圣果路与石化大道交叉口东北方向116米左右",
        "tel": "",
        "category": "基础设施:公共设施:公共厕所",
        "type": 0,
        "location": {
            "lat": 41.740358,
            "lng": 86.170996
        },
        "ad_info": {
            "adcode": 652801,
            "province": "新疆维吾尔自治区",
            "city": "巴音郭楞蒙古自治州",
            "district": "库尔勒市"
        }
    },
    {
        "id": "16567727430334151930",
        "title": "公共厕所",
        "address": "新疆维吾尔自治区巴音郭楞蒙古自治州库尔勒市和静路与建国南路交叉口西南方向251米左右",
        "tel": "",
        "category": "基础设施:公共设施:公共厕所",
        "type": 0,
        "location": {
            "lat": 41.720463,
            "lng": 86.15025
        },
        "ad_info": {
            "adcode": 652801,
            "province": "新疆维吾尔自治区",
            "city": "巴音郭楞蒙古自治州",
            "district": "库尔勒市"
        }
    },
    {
        "id": "12256138243669763217",
        "title": "公共厕所",
        "address": "新疆维吾尔自治区巴音郭楞蒙古自治州博湖县兴业巷与振兴南路交叉口正东方向105米左右",
        "tel": "",
        "category": "基础设施:公共设施:公共厕所",
        "type": 0,
        "location": {
            "lat": 41.978117,
            "lng": 86.632423
        },
        "ad_info": {
            "adcode": 652829,
            "province": "新疆维吾尔自治区",
            "city": "巴音郭楞蒙古自治州",
            "district": "博湖县"
        }
    },
    {
        "id": "6181561517110899373",
        "title": "公共厕所",
        "address": "新疆维吾尔自治区巴音郭楞蒙古自治州库尔勒市孔雀公园内",
        "tel": "",
        "category": "基础设施:公共设施:公共厕所",
        "type": 0,
        "location": {
            "lat": 41.754369,
            "lng": 86.151009
        },
        "ad_info": {
            "adcode": 652801,
            "province": "新疆维吾尔自治区",
            "city": "巴音郭楞蒙古自治州",
            "district": "库尔勒市"
        }
    },
    {
        "id": "12851336318366795006",
        "title": "公共厕所",
        "address": "新疆维吾尔自治区巴音郭楞蒙古自治州库尔勒市众鑫石材东北侧90米",
        "tel": "",
        "category": "基础设施:公共设施:公共厕所",
        "type": 0,
        "location": {
            "lat": 41.794488,
            "lng": 86.144319
        },
        "ad_info": {
            "adcode": 652801,
            "province": "新疆维吾尔自治区",
            "city": "巴音郭楞蒙古自治州",
            "district": "库尔勒市"
        }
    },
    {
        "id": "2418041851940733483",
        "title": "公共厕所",
        "address": "新疆维吾尔自治区巴音郭楞蒙古自治州库尔勒市小康城商业街与巴音东路交叉口西北方向88米左右",
        "tel": "",
        "category": "基础设施:公共设施:公共厕所",
        "type": 0,
        "location": {
            "lat": 41.765213,
            "lng": 86.146145
        },
        "ad_info": {
            "adcode": 652801,
            "province": "新疆维吾尔自治区",
            "city": "巴音郭楞蒙古自治州",
            "district": "库尔勒市"
        }
    },
    {
        "id": "10939576037809191784",
        "title": "公共厕所",
        "address": "新疆维吾尔自治区巴音郭楞蒙古自治州库尔勒市北山路辅路与华凌立交桥交叉口西北方向432米左右",
        "tel": "",
        "category": "基础设施:公共设施:公共厕所",
        "type": 0,
        "location": {
            "lat": 41.78938,
            "lng": 86.151149
        },
        "ad_info": {
            "adcode": 652801,
            "province": "新疆维吾尔自治区",
            "city": "巴音郭楞蒙古自治州",
            "district": "库尔勒市"
        }
    },
    {
        "id": "12916762929920520733",
        "title": "公共厕所",
        "address": "新疆维吾尔自治区巴音郭楞蒙古自治州库尔勒市铁克其路一品嘉园",
        "tel": "",
        "category": "基础设施:公共设施:公共厕所",
        "type": 0,
        "location": {
            "lat": 41.733389,
            "lng": 86.162085
        },
        "ad_info": {
            "adcode": 652801,
            "province": "新疆维吾尔自治区",
            "city": "巴音郭楞蒙古自治州",
            "district": "库尔勒市"
        }
    },
    {
        "id": "14184472435082035110",
        "title": "公共厕所",
        "address": "新疆维吾尔自治区巴音郭楞蒙古自治州库尔勒市建国北路与萨依巴格西一巷交叉口正西方向222米左右",
        "tel": "",
        "category": "基础设施:公共设施:公共厕所",
        "type": 0,
        "location": {
            "lat": 41.76917,
            "lng": 86.13604
        },
        "ad_info": {
            "adcode": 652801,
            "province": "新疆维吾尔自治区",
            "city": "巴音郭楞蒙古自治州",
            "district": "库尔勒市"
        }
    },
    {
        "id": "6121876754697756013",
        "title": "公共厕所",
        "address": "新疆维吾尔自治区巴音郭楞蒙古自治州轮台县交通东路与幸福北路交叉口正东方向96米左右",
        "tel": "",
        "category": "基础设施:公共设施:公共厕所",
        "type": 0,
        "location": {
            "lat": 41.792293,
            "lng": 84.281686
        },
        "ad_info": {
            "adcode": 652822,
            "province": "新疆维吾尔自治区",
            "city": "巴音郭楞蒙古自治州",
            "district": "轮台县"
        }
    },
    {
        "id": "14613962114415740252",
        "title": "公共厕所",
        "address": "新疆维吾尔自治区巴音郭楞蒙古自治州库尔勒市开元大酒店对面",
        "tel": "",
        "category": "基础设施:公共设施:公共厕所",
        "type": 0,
        "location": {
            "lat": 41.7684,
            "lng": 86.162764
        },
        "ad_info": {
            "adcode": 652801,
            "province": "新疆维吾尔自治区",
            "city": "巴音郭楞蒙古自治州",
            "district": "库尔勒市"
        }
    },
    {
        "id": "16680780470210125105",
        "title": "公共厕所",
        "address": "新疆维吾尔自治区巴音郭楞蒙古自治州库尔勒市交通西路盛世名居",
        "tel": "",
        "category": "基础设施:公共设施:公共厕所",
        "type": 0,
        "location": {
            "lat": 41.771981,
            "lng": 86.132113
        },
        "ad_info": {
            "adcode": 652801,
            "province": "新疆维吾尔自治区",
            "city": "巴音郭楞蒙古自治州",
            "district": "库尔勒市"
        }
    },
    {
        "id": "1943208173828459309",
        "title": "公共厕所",
        "address": "新疆维吾尔自治区巴音郭楞蒙古自治州库尔勒市G3012吐和高速与G3012吐和高速出口交叉口西南280米",
        "tel": "",
        "category": "基础设施:公共设施:公共厕所",
        "type": 0,
        "location": {
            "lat": 41.783319,
            "lng": 86.145484
        },
        "ad_info": {
            "adcode": 652801,
            "province": "新疆维吾尔自治区",
            "city": "巴音郭楞蒙古自治州",
            "district": "库尔勒市"
        }
    },
    {
        "id": "6301790501957097158",
        "title": "公共厕所",
        "address": "新疆维吾尔自治区巴音郭楞蒙古自治州库尔勒市交通西路与库铁大道交叉口正东方向177米左右",
        "tel": "",
        "category": "基础设施:公共设施:公共厕所",
        "type": 0,
        "location": {
            "lat": 41.770747,
            "lng": 86.128191
        },
        "ad_info": {
            "adcode": 652801,
            "province": "新疆维吾尔自治区",
            "city": "巴音郭楞蒙古自治州",
            "district": "库尔勒市"
        }
    },
    {
        "id": "8019887414424108803",
        "title": "公共厕所",
        "address": "新疆维吾尔自治区巴音郭楞蒙古自治州库尔勒市兴场大道与利民路交叉口西南方向138米左右",
        "tel": "",
        "category": "基础设施:公共设施:公共厕所",
        "type": 0,
        "location": {
            "lat": 41.667197,
            "lng": 86.116956
        },
        "ad_info": {
            "adcode": 652801,
            "province": "新疆维吾尔自治区",
            "city": "巴音郭楞蒙古自治州",
            "district": "库尔勒市"
        }
    },
    {
        "id": "16770783182933847664",
        "title": "公共厕所",
        "address": "新疆维吾尔自治区巴音郭楞蒙古自治州库尔勒市天山东路与天山西路交叉口西北方向641米左右",
        "tel": "",
        "category": "基础设施:公共设施:公共厕所",
        "type": 0,
        "location": {
            "lat": 41.784701,
            "lng": 86.134886
        },
        "ad_info": {
            "adcode": 652801,
            "province": "新疆维吾尔自治区",
            "city": "巴音郭楞蒙古自治州",
            "district": "库尔勒市"
        }
    },
    {
        "id": "1246716833811696860",
        "title": "公共厕所",
        "address": "新疆维吾尔自治区巴音郭楞蒙古自治州库尔勒市迎宾路时代花园",
        "tel": "",
        "category": "基础设施:公共设施:公共厕所",
        "type": 0,
        "location": {
            "lat": 41.73187,
            "lng": 86.172218
        },
        "ad_info": {
            "adcode": 652801,
            "province": "新疆维吾尔自治区",
            "city": "巴音郭楞蒙古自治州",
            "district": "库尔勒市"
        }
    },
    {
        "id": "1282204844237473950",
        "title": "公共厕所",
        "address": "新疆维吾尔自治区巴音郭楞蒙古自治州库尔勒市新华路与石化大道交叉口东南方向209米左右",
        "tel": "",
        "category": "基础设施:公共设施:公共厕所",
        "type": 0,
        "location": {
            "lat": 41.733579,
            "lng": 86.178489
        },
        "ad_info": {
            "adcode": 652801,
            "province": "新疆维吾尔自治区",
            "city": "巴音郭楞蒙古自治州",
            "district": "库尔勒市"
        }
    },
    {
        "id": "5729176357849368634",
        "title": "公共厕所",
        "address": "新疆维吾尔自治区巴音郭楞蒙古自治州库尔勒市康盛路与鼎兴路交叉口西北方向381米左右",
        "tel": "",
        "category": "基础设施:公共设施:公共厕所",
        "type": 0,
        "location": {
            "lat": 41.650301,
            "lng": 86.20365
        },
        "ad_info": {
            "adcode": 652801,
            "province": "新疆维吾尔自治区",
            "city": "巴音郭楞蒙古自治州",
            "district": "库尔勒市"
        }
    },
    {
        "id": "13828485358522648424",
        "title": "公共厕所",
        "address": "新疆维吾尔自治区巴音郭楞蒙古自治州库尔勒市天山东路与天山路南一巷交叉口正西方向30米左右",
        "tel": "",
        "category": "基础设施:公共设施:公共厕所",
        "type": 0,
        "location": {
            "lat": 41.780738,
            "lng": 86.14271
        },
        "ad_info": {
            "adcode": 652801,
            "province": "新疆维吾尔自治区",
            "city": "巴音郭楞蒙古自治州",
            "district": "库尔勒市"
        }
    },
    {
        "id": "3105205969001421025",
        "title": "公共厕所",
        "address": "新疆维吾尔自治区巴音郭楞蒙古自治州库尔勒市梨乡路杏林中医院",
        "tel": "",
        "category": "基础设施:公共设施:公共厕所",
        "type": 0,
        "location": {
            "lat": 41.766002,
            "lng": 86.152562
        },
        "ad_info": {
            "adcode": 652801,
            "province": "新疆维吾尔自治区",
            "city": "巴音郭楞蒙古自治州",
            "district": "库尔勒市"
        }
    },
    {
        "id": "6928125395856054336",
        "title": "公共厕所",
        "address": "新疆维吾尔自治区巴音郭楞蒙古自治州库尔勒市康盛路与鼎兴路交叉口东北方向73米左右",
        "tel": "",
        "category": "基础设施:公共设施:公共厕所",
        "type": 0,
        "location": {
            "lat": 41.648189,
            "lng": 86.207712
        },
        "ad_info": {
            "adcode": 652801,
            "province": "新疆维吾尔自治区",
            "city": "巴音郭楞蒙古自治州",
            "district": "库尔勒市"
        }
    },
    {
        "id": "9827100717537324075",
        "title": "公共厕所",
        "address": "新疆维吾尔自治区巴音郭楞蒙古自治州库尔勒市石油第四中学西南侧260米",
        "tel": "",
        "category": "基础设施:公共设施:公共厕所",
        "type": 0,
        "location": {
            "lat": 41.705176,
            "lng": 86.178317
        },
        "ad_info": {
            "adcode": 652801,
            "province": "新疆维吾尔自治区",
            "city": "巴音郭楞蒙古自治州",
            "district": "库尔勒市"
        }
    },
    {
        "id": "17125825583706922834",
        "title": "公共厕所",
        "address": "新疆维吾尔自治区巴音郭楞蒙古自治州库尔勒市Z598与横一路交叉口正南方向1010米左右",
        "tel": "",
        "category": "基础设施:公共设施:公共厕所",
        "type": 0,
        "location": {
            "lat": 41.627249,
            "lng": 86.181721
        },
        "ad_info": {
            "adcode": 652801,
            "province": "新疆维吾尔自治区",
            "city": "巴音郭楞蒙古自治州",
            "district": "库尔勒市"
        }
    },
    {
        "id": "12365940531401206127",
        "title": "公共厕所",
        "address": "新疆维吾尔自治区巴音郭楞蒙古自治州库尔勒市梨乡路与滨河东路交叉口西南方向90米左右",
        "tel": "",
        "category": "基础设施:公共设施:公共厕所",
        "type": 0,
        "location": {
            "lat": 41.761486,
            "lng": 86.155728
        },
        "ad_info": {
            "adcode": 652801,
            "province": "新疆维吾尔自治区",
            "city": "巴音郭楞蒙古自治州",
            "district": "库尔勒市"
        }
    },
    {
        "id": "11486852904100196216",
        "title": "公共厕所",
        "address": "新疆维吾尔自治区巴音郭楞蒙古自治州库尔勒市X222与兰干路交叉口正东方向147米左右",
        "tel": "",
        "category": "基础设施:公共设施:公共厕所",
        "type": 0,
        "location": {
            "lat": 41.754944,
            "lng": 86.127171
        },
        "ad_info": {
            "adcode": 652801,
            "province": "新疆维吾尔自治区",
            "city": "巴音郭楞蒙古自治州",
            "district": "库尔勒市"
        }
    },
    {
        "id": "2541090029503071862",
        "title": "公共厕所",
        "address": "新疆维吾尔自治区巴音郭楞蒙古自治州和硕县G314与清水河北路交叉口东南方向82米左右",
        "tel": "",
        "category": "基础设施:公共设施:公共厕所",
        "type": 0,
        "location": {
            "lat": 42.292272,
            "lng": 86.86517
        },
        "ad_info": {
            "adcode": 652828,
            "province": "新疆维吾尔自治区",
            "city": "巴音郭楞蒙古自治州",
            "district": "和硕县"
        }
    },
    {
        "id": "14636714286080896349",
        "title": "公共厕所",
        "address": "新疆维吾尔自治区巴音郭楞蒙古自治州焉耆回族自治县G218与紫泥泉立交桥交叉口东北方向105米左右",
        "tel": "",
        "category": "基础设施:公共设施:公共厕所",
        "type": 0,
        "location": {
            "lat": 41.867535,
            "lng": 86.342883
        },
        "ad_info": {
            "adcode": 652826,
            "province": "新疆维吾尔自治区",
            "city": "巴音郭楞蒙古自治州",
            "district": "焉耆回族自治县"
        }
    },
    {
        "id": "13500537488302779373",
        "title": "公共厕所",
        "address": "新疆维吾尔自治区巴音郭楞蒙古自治州库尔勒市X222与兰干路交叉口东北方向160米左右",
        "tel": "",
        "category": "基础设施:公共设施:公共厕所",
        "type": 0,
        "location": {
            "lat": 41.755488,
            "lng": 86.127107
        },
        "ad_info": {
            "adcode": 652801,
            "province": "新疆维吾尔自治区",
            "city": "巴音郭楞蒙古自治州",
            "district": "库尔勒市"
        }
    },
    {
        "id": "9166431164671733564",
        "title": "公共厕所",
        "address": "新疆维吾尔自治区巴音郭楞蒙古自治州尉犁县团结路11号",
        "tel": "",
        "category": "基础设施:公共设施:公共厕所",
        "type": 0,
        "location": {
            "lat": 41.337563,
            "lng": 86.266021
        },
        "ad_info": {
            "adcode": 652823,
            "province": "新疆维吾尔自治区",
            "city": "巴音郭楞蒙古自治州",
            "district": "尉犁县"
        }
    },
    {
        "id": "10845104752740747110",
        "title": "公共厕所",
        "address": "新疆维吾尔自治区巴音郭楞蒙古自治州库尔勒市塔里木石油小区居民自助读书室",
        "tel": "",
        "category": "基础设施:公共设施:公共厕所",
        "type": 0,
        "location": {
            "lat": 41.762695,
            "lng": 86.162996
        },
        "ad_info": {
            "adcode": 652801,
            "province": "新疆维吾尔自治区",
            "city": "巴音郭楞蒙古自治州",
            "district": "库尔勒市"
        }
    },
    {
        "id": "11264002696879739547",
        "title": "公共厕所",
        "address": "新疆维吾尔自治区巴音郭楞蒙古自治州库尔勒市圣果路与香梨大道交叉口西南方向356米左右",
        "tel": "",
        "category": "基础设施:公共设施:公共厕所",
        "type": 0,
        "location": {
            "lat": 41.742346,
            "lng": 86.174518
        },
        "ad_info": {
            "adcode": 652801,
            "province": "新疆维吾尔自治区",
            "city": "巴音郭楞蒙古自治州",
            "district": "库尔勒市"
        }
    },
    {
        "id": "15952437244573251274",
        "title": "公共厕所",
        "address": "新疆维吾尔自治区巴音郭楞蒙古自治州库尔勒市延安路与腾飞路交叉口东南方向212米左右",
        "tel": "",
        "category": "基础设施:公共设施:公共厕所",
        "type": 0,
        "location": {
            "lat": 41.728078,
            "lng": 86.167296
        },
        "ad_info": {
            "adcode": 652801,
            "province": "新疆维吾尔自治区",
            "city": "巴音郭楞蒙古自治州",
            "district": "库尔勒市"
        }
    },
    {
        "id": "8441660946054279566",
        "title": "公共厕所",
        "address": "新疆维吾尔自治区巴音郭楞蒙古自治州库尔勒市人民西路南二巷与兰干路交叉口正西方向124米左右",
        "tel": "",
        "category": "基础设施:公共设施:公共厕所",
        "type": 0,
        "location": {
            "lat": 41.755046,
            "lng": 86.132711
        },
        "ad_info": {
            "adcode": 652801,
            "province": "新疆维吾尔自治区",
            "city": "巴音郭楞蒙古自治州",
            "district": "库尔勒市"
        }
    },
    {
        "id": "10224003493103444378",
        "title": "公共厕所",
        "address": "新疆维吾尔自治区巴音郭楞蒙古自治州库尔勒市天山东路五星花园",
        "tel": "",
        "category": "基础设施:公共设施:公共厕所",
        "type": 0,
        "location": {
            "lat": 41.775464,
            "lng": 86.155578
        },
        "ad_info": {
            "adcode": 652801,
            "province": "新疆维吾尔自治区",
            "city": "巴音郭楞蒙古自治州",
            "district": "库尔勒市"
        }
    },
    {
        "id": "11822714040952458192",
        "title": "公共厕所",
        "address": "新疆维吾尔自治区巴音郭楞蒙古自治州博湖县G218与X293交叉口正南方向1789米左右",
        "tel": "",
        "category": "基础设施:公共设施:公共厕所",
        "type": 0,
        "location": {
            "lat": 41.946466,
            "lng": 86.649789
        },
        "ad_info": {
            "adcode": 652829,
            "province": "新疆维吾尔自治区",
            "city": "巴音郭楞蒙古自治州",
            "district": "博湖县"
        }
    },
    {
        "id": "11995544456667322536",
        "title": "公共厕所",
        "address": "新疆维吾尔自治区巴音郭楞蒙古自治州库尔勒市天山雪域路与科创路交叉口正西方向157米左右",
        "tel": "",
        "category": "基础设施:公共设施:公共厕所",
        "type": 0,
        "location": {
            "lat": 41.713676,
            "lng": 86.220909
        },
        "ad_info": {
            "adcode": 652801,
            "province": "新疆维吾尔自治区",
            "city": "巴音郭楞蒙古自治州",
            "district": "库尔勒市"
        }
    },
    {
        "id": "1862434059859694007",
        "title": "公共厕所",
        "address": "新疆维吾尔自治区巴音郭楞蒙古自治州且末县埃塔路1号",
        "tel": "",
        "category": "基础设施:公共设施:公共厕所",
        "type": 0,
        "location": {
            "lat": 38.134881,
            "lng": 85.532655
        },
        "ad_info": {
            "adcode": 652825,
            "province": "新疆维吾尔自治区",
            "city": "巴音郭楞蒙古自治州",
            "district": "且末县"
        }
    },
    {
        "id": "16437647593229751834",
        "title": "公共厕所",
        "address": "新疆维吾尔自治区巴音郭楞蒙古自治州库尔勒市机场路669号库尔勒梨城机场",
        "tel": "",
        "category": "基础设施:公共设施:公共厕所",
        "type": 0,
        "location": {
            "lat": 41.625367,
            "lng": 86.142713
        },
        "ad_info": {
            "adcode": 652801,
            "province": "新疆维吾尔自治区",
            "city": "巴音郭楞蒙古自治州",
            "district": "库尔勒市"
        }
    },
    {
        "id": "8018284933211973882",
        "title": "公共厕所",
        "address": "新疆维吾尔自治区巴音郭楞蒙古自治州和硕县人民路与振兴路交叉口正东方向54米左右",
        "tel": "",
        "category": "基础设施:公共设施:公共厕所",
        "type": 0,
        "location": {
            "lat": 42.273263,
            "lng": 86.734339
        },
        "ad_info": {
            "adcode": 652828,
            "province": "新疆维吾尔自治区",
            "city": "巴音郭楞蒙古自治州",
            "district": "和硕县"
        }
    },
    {
        "id": "612738724086627955",
        "title": "公共厕所",
        "address": "新疆维吾尔自治区巴音郭楞蒙古自治州库尔勒市X229与机场路交叉口正北方向259米左右",
        "tel": "",
        "category": "基础设施:公共设施:公共厕所",
        "type": 0,
        "location": {
            "lat": 41.650495,
            "lng": 86.159189
        },
        "ad_info": {
            "adcode": 652801,
            "province": "新疆维吾尔自治区",
            "city": "巴音郭楞蒙古自治州",
            "district": "库尔勒市"
        }
    },
    {
        "id": "14294996118573288754",
        "title": "公共厕所",
        "address": "新疆维吾尔自治区巴音郭楞蒙古自治州库尔勒市延安路与铁克其路交叉口东南方向253米左右",
        "tel": "",
        "category": "基础设施:公共设施:公共厕所",
        "type": 0,
        "location": {
            "lat": 41.7314,
            "lng": 86.162539
        },
        "ad_info": {
            "adcode": 652801,
            "province": "新疆维吾尔自治区",
            "city": "巴音郭楞蒙古自治州",
            "district": "库尔勒市"
        }
    },
    {
        "id": "10359646753895574415",
        "title": "公共厕所",
        "address": "新疆维吾尔自治区巴音郭楞蒙古自治州若羌县光明路与长安路交叉口正北方向46米左右",
        "tel": "",
        "category": "基础设施:公共设施:公共厕所",
        "type": 0,
        "location": {
            "lat": 39.242693,
            "lng": 88.899311
        },
        "ad_info": {
            "adcode": 652824,
            "province": "新疆维吾尔自治区",
            "city": "巴音郭楞蒙古自治州",
            "district": "若羌县"
        }
    },
    {
        "id": "10118602021406753328",
        "title": "公共厕所",
        "address": "新疆维吾尔自治区巴音郭楞蒙古自治州库尔勒市南岸西路与塔什店南路交叉口正南方向939米左右",
        "tel": "",
        "category": "基础设施:公共设施:公共厕所",
        "type": 0,
        "location": {
            "lat": 41.822792,
            "lng": 86.271211
        },
        "ad_info": {
            "adcode": 652801,
            "province": "新疆维吾尔自治区",
            "city": "巴音郭楞蒙古自治州",
            "district": "库尔勒市"
        }
    },
    {
        "id": "9290391518408556782",
        "title": "公共厕所",
        "address": "新疆维吾尔自治区巴音郭楞蒙古自治州焉耆回族自治县新桥路与解放路交叉口正南方向120米左右",
        "tel": "",
        "category": "基础设施:公共设施:公共厕所",
        "type": 0,
        "location": {
            "lat": 42.056176,
            "lng": 86.580394
        },
        "ad_info": {
            "adcode": 652826,
            "province": "新疆维吾尔自治区",
            "city": "巴音郭楞蒙古自治州",
            "district": "焉耆回族自治县"
        }
    },
    {
        "id": "15165249105993844014",
        "title": "公共厕所",
        "address": "新疆维吾尔自治区巴音郭楞蒙古自治州若羌县G315与依吞布拉克路交叉口正北方向186米左右",
        "tel": "",
        "category": "基础设施:公共设施:公共厕所",
        "type": 0,
        "location": {
            "lat": 38.39521,
            "lng": 90.157461
        },
        "ad_info": {
            "adcode": 652824,
            "province": "新疆维吾尔自治区",
            "city": "巴音郭楞蒙古自治州",
            "district": "若羌县"
        }
    },
    {
        "id": "5019415238522041952",
        "title": "公共厕所",
        "address": "新疆维吾尔自治区巴音郭楞蒙古自治州若羌县米兰路与胜利路交叉口正东方向175米左右",
        "tel": "",
        "category": "基础设施:公共设施:公共厕所",
        "type": 0,
        "location": {
            "lat": 39.028915,
            "lng": 88.170739
        },
        "ad_info": {
            "adcode": 652824,
            "province": "新疆维吾尔自治区",
            "city": "巴音郭楞蒙古自治州",
            "district": "若羌县"
        }
    },
    {
        "id": "6775055047612104011",
        "title": "公共厕所",
        "address": "新疆维吾尔自治区巴音郭楞蒙古自治州库尔勒市库尔勒轻重不锈钢有限责任公司南侧",
        "tel": "",
        "category": "基础设施:公共设施:公共厕所",
        "type": 0,
        "location": {
            "lat": 41.792607,
            "lng": 86.144395
        },
        "ad_info": {
            "adcode": 652801,
            "province": "新疆维吾尔自治区",
            "city": "巴音郭楞蒙古自治州",
            "district": "库尔勒市"
        }
    },
    {
        "id": "9685941725722590802",
        "title": "公共厕所",
        "address": "新疆维吾尔自治区巴音郭楞蒙古自治州若羌县218国道南50米",
        "tel": "",
        "category": "基础设施:公共设施:公共厕所",
        "type": 0,
        "location": {
            "lat": 40.150738,
            "lng": 88.352756
        },
        "ad_info": {
            "adcode": 652824,
            "province": "新疆维吾尔自治区",
            "city": "巴音郭楞蒙古自治州",
            "district": "若羌县"
        }
    },
    {
        "id": "12123537230214520613",
        "title": "公共厕所",
        "address": "新疆维吾尔自治区巴音郭楞蒙古自治州尉犁县G218与塔里木南路交叉口正东方向148米左右",
        "tel": "",
        "category": "基础设施:公共设施:公共厕所",
        "type": 0,
        "location": {
            "lat": 40.827192,
            "lng": 87.194104
        },
        "ad_info": {
            "adcode": 652823,
            "province": "新疆维吾尔自治区",
            "city": "巴音郭楞蒙古自治州",
            "district": "尉犁县"
        }
    },
    {
        "id": "6906133250197980085",
        "title": "公共厕所",
        "address": "新疆维吾尔自治区巴音郭楞蒙古自治州尉犁县G218与十学段交叉口正东方向245米左右",
        "tel": "",
        "category": "基础设施:公共设施:公共厕所",
        "type": 0,
        "location": {
            "lat": 40.652372,
            "lng": 87.692872
        },
        "ad_info": {
            "adcode": 652823,
            "province": "新疆维吾尔自治区",
            "city": "巴音郭楞蒙古自治州",
            "district": "尉犁县"
        }
    },
    {
        "id": "17330230265991866068",
        "title": "公共厕所",
        "address": "新疆维吾尔自治区巴音郭楞蒙古自治州博湖县白鹭洲国际房车露营地",
        "tel": "",
        "category": "基础设施:公共设施:公共厕所",
        "type": 0,
        "location": {
            "lat": 41.902763,
            "lng": 87.003999
        },
        "ad_info": {
            "adcode": 652829,
            "province": "新疆维吾尔自治区",
            "city": "巴音郭楞蒙古自治州",
            "district": "博湖县"
        }
    },
    {
        "id": "7882422964614643177",
        "title": "公共厕所",
        "address": "新疆维吾尔自治区巴音郭楞蒙古自治州博湖县博斯腾湖景区沙漠公园",
        "tel": "",
        "category": "基础设施:公共设施:公共厕所",
        "type": 0,
        "location": {
            "lat": 41.747367,
            "lng": 86.567963
        },
        "ad_info": {
            "adcode": 652829,
            "province": "新疆维吾尔自治区",
            "city": "巴音郭楞蒙古自治州",
            "district": "博湖县"
        }
    },
    {
        "id": "11698437128783718105",
        "title": "公共厕所",
        "address": "新疆维吾尔自治区巴音郭楞蒙古自治州轮台县交通西路与齐满路交叉口东北方向33米左右",
        "tel": "",
        "category": "基础设施:公共设施:公共厕所",
        "type": 0,
        "location": {
            "lat": 41.785222,
            "lng": 84.244857
        },
        "ad_info": {
            "adcode": 652822,
            "province": "新疆维吾尔自治区",
            "city": "巴音郭楞蒙古自治州",
            "district": "轮台县"
        }
    },
    {
        "id": "15127457077156947057",
        "title": "公共厕所",
        "address": "新疆维吾尔自治区巴音郭楞蒙古自治州轮台县博斯坦北路与新新西路交叉口西北方向233米左右",
        "tel": "",
        "category": "基础设施:公共设施:公共厕所",
        "type": 0,
        "location": {
            "lat": 41.781987,
            "lng": 84.245162
        },
        "ad_info": {
            "adcode": 652822,
            "province": "新疆维吾尔自治区",
            "city": "巴音郭楞蒙古自治州",
            "district": "轮台县"
        }
    },
    {
        "id": "11555222788454457433",
        "title": "公共厕所",
        "address": "新疆维吾尔自治区巴音郭楞蒙古自治州且末县Z592与胡杨路交叉口正南方向297米左右",
        "tel": "",
        "category": "基础设施:公共设施:公共厕所",
        "type": 0,
        "location": {
            "lat": 38.139197,
            "lng": 85.512959
        },
        "ad_info": {
            "adcode": 652825,
            "province": "新疆维吾尔自治区",
            "city": "巴音郭楞蒙古自治州",
            "district": "且末县"
        }
    },
    {
        "id": "5643080180204082783",
        "title": "公共厕所",
        "address": "新疆维吾尔自治区巴音郭楞蒙古自治州轮台县文化北路与新新东路交叉口正西方向156米左右",
        "tel": "",
        "category": "基础设施:公共设施:公共厕所",
        "type": 0,
        "location": {
            "lat": 41.780728,
            "lng": 84.2491
        },
        "ad_info": {
            "adcode": 652822,
            "province": "新疆维吾尔自治区",
            "city": "巴音郭楞蒙古自治州",
            "district": "轮台县"
        }
    },
    {
        "id": "4323739120720224619",
        "title": "公共厕所",
        "address": "新疆维吾尔自治区巴音郭楞蒙古自治州且末县丝绸路与团结路交叉口正南方向122米左右",
        "tel": "",
        "category": "基础设施:公共设施:公共厕所",
        "type": 0,
        "location": {
            "lat": 38.135375,
            "lng": 85.534633
        },
        "ad_info": {
            "adcode": 652825,
            "province": "新疆维吾尔自治区",
            "city": "巴音郭楞蒙古自治州",
            "district": "且末县"
        }
    },
    {
        "id": "3511084307078311014",
        "title": "公共厕所",
        "address": "新疆维吾尔自治区巴音郭楞蒙古自治州轮台县新新西路与迪那北路交叉口东南方向45米左右",
        "tel": "",
        "category": "基础设施:公共设施:公共厕所",
        "type": 0,
        "location": {
            "lat": 41.779009,
            "lng": 84.243365
        },
        "ad_info": {
            "adcode": 652822,
            "province": "新疆维吾尔自治区",
            "city": "巴音郭楞蒙古自治州",
            "district": "轮台县"
        }
    },
    {
        "id": "4271682569202790984",
        "title": "公共厕所",
        "address": "新疆维吾尔自治区巴音郭楞蒙古自治州轮台县文化北路与新新东路交叉口西北方向71米左右",
        "tel": "",
        "category": "基础设施:公共设施:公共厕所",
        "type": 0,
        "location": {
            "lat": 41.781698,
            "lng": 84.250213
        },
        "ad_info": {
            "adcode": 652822,
            "province": "新疆维吾尔自治区",
            "city": "巴音郭楞蒙古自治州",
            "district": "轮台县"
        }
    },
    {
        "id": "7508656841188686353",
        "title": "公共厕所",
        "address": "新疆维吾尔自治区巴音郭楞蒙古自治州和静县团结东路与阿尔夏特西路交叉口西南方向140米左右",
        "tel": "",
        "category": "基础设施:公共设施:公共厕所",
        "type": 0,
        "location": {
            "lat": 42.317044,
            "lng": 86.399379
        },
        "ad_info": {
            "adcode": 652827,
            "province": "新疆维吾尔自治区",
            "city": "巴音郭楞蒙古自治州",
            "district": "和静县"
        }
    },
    {
        "id": "4992174578299183692",
        "title": "公共厕所",
        "address": "新疆维吾尔自治区巴音郭楞蒙古自治州和硕县G314与金沙滩路交叉口正东方向127米左右",
        "tel": "",
        "category": "基础设施:公共设施:公共厕所",
        "type": 0,
        "location": {
            "lat": 42.228156,
            "lng": 87.279716
        },
        "ad_info": {
            "adcode": 652828,
            "province": "新疆维吾尔自治区",
            "city": "巴音郭楞蒙古自治州",
            "district": "和硕县"
        }
    },
    {
        "id": "11412151561379676441",
        "title": "公共厕所",
        "address": "新疆维吾尔自治区巴音郭楞蒙古自治州轮台县新新西路与迪那北路交叉口正东方向105米左右",
        "tel": "",
        "category": "基础设施:公共设施:公共厕所",
        "type": 0,
        "location": {
            "lat": 41.779452,
            "lng": 84.244276
        },
        "ad_info": {
            "adcode": 652822,
            "province": "新疆维吾尔自治区",
            "city": "巴音郭楞蒙古自治州",
            "district": "轮台县"
        }
    },
    {
        "id": "8514549603707007899",
        "title": "公共厕所",
        "address": "新疆维吾尔自治区巴音郭楞蒙古自治州轮台县G3012吐和高速与轮台西立交桥交叉口南200米",
        "tel": "",
        "category": "基础设施:公共设施:公共厕所",
        "type": 0,
        "location": {
            "lat": 41.833328,
            "lng": 83.994339
        },
        "ad_info": {
            "adcode": 652822,
            "province": "新疆维吾尔自治区",
            "city": "巴音郭楞蒙古自治州",
            "district": "轮台县"
        }
    },
    {
        "id": "6172694077556037158",
        "title": "公共厕所",
        "address": "新疆维吾尔自治区巴音郭楞蒙古自治州轮台县G216与Y069交叉口正东方向55米左右",
        "tel": "",
        "category": "基础设施:公共设施:公共厕所",
        "type": 0,
        "location": {
            "lat": 41.942476,
            "lng": 84.567245
        },
        "ad_info": {
            "adcode": 652822,
            "province": "新疆维吾尔自治区",
            "city": "巴音郭楞蒙古自治州",
            "district": "轮台县"
        }
    },
    {
        "id": "16924204708153980554",
        "title": "尉犁县罗布人村寨景区神女湖-旅游厕所",
        "address": "新疆维吾尔自治区巴音郭楞蒙古自治州尉犁县罗布人村",
        "tel": "",
        "category": "基础设施:公共设施:公共厕所",
        "type": 0,
        "location": {
            "lat": 41.043991,
            "lng": 86.097135
        },
        "ad_info": {
            "adcode": 652823,
            "province": "新疆维吾尔自治区",
            "city": "巴音郭楞蒙古自治州",
            "district": "尉犁县"
        }
    },
    {
        "id": "17079657097584769258",
        "title": "公共厕所",
        "address": "新疆维吾尔自治区巴音郭楞蒙古自治州和静县G218与天鹅湖路交叉口正南方向106米左右",
        "tel": "",
        "category": "基础设施:公共设施:公共厕所",
        "type": 0,
        "location": {
            "lat": 42.307719,
            "lng": 86.396384
        },
        "ad_info": {
            "adcode": 652827,
            "province": "新疆维吾尔自治区",
            "city": "巴音郭楞蒙古自治州",
            "district": "和静县"
        }
    },
    {
        "id": "6542322685120407650",
        "title": "公共厕所",
        "address": "新疆维吾尔自治区巴音郭楞蒙古自治州轮台县拉依苏路与阿克库台克路交叉口正北方向1278米左右",
        "tel": "",
        "category": "基础设施:公共设施:公共厕所",
        "type": 0,
        "location": {
            "lat": 41.839086,
            "lng": 84.081166
        },
        "ad_info": {
            "adcode": 652822,
            "province": "新疆维吾尔自治区",
            "city": "巴音郭楞蒙古自治州",
            "district": "轮台县"
        }
    },
    {
        "id": "6305094669366718083",
        "title": "公共卫生间",
        "address": "新疆维吾尔自治区巴音郭楞蒙古自治州和静县团结东路155-2号",
        "tel": "",
        "category": "基础设施:公共设施:公共厕所",
        "type": 0,
        "location": {
            "lat": 42.3174,
            "lng": 86.398022
        },
        "ad_info": {
            "adcode": 652827,
            "province": "新疆维吾尔自治区",
            "city": "巴音郭楞蒙古自治州",
            "district": "和静县"
        }
    },
    {
        "id": "4627783746114929887",
        "title": "公共厕所",
        "address": "新疆维吾尔自治区巴音郭楞蒙古自治州和静县健康南路与开泽东路交叉口东南方向48米左右",
        "tel": "",
        "category": "基础设施:公共设施:公共厕所",
        "type": 0,
        "location": {
            "lat": 42.313079,
            "lng": 86.402043
        },
        "ad_info": {
            "adcode": 652827,
            "province": "新疆维吾尔自治区",
            "city": "巴音郭楞蒙古自治州",
            "district": "和静县"
        }
    },
    {
        "id": "8789576782616517713",
        "title": "公共厕所",
        "address": "新疆维吾尔自治区巴音郭楞蒙古自治州和静县星瀚超市东南侧240米",
        "tel": "",
        "category": "基础设施:公共设施:公共厕所",
        "type": 0,
        "location": {
            "lat": 43.020559,
            "lng": 84.139605
        },
        "ad_info": {
            "adcode": 652827,
            "province": "新疆维吾尔自治区",
            "city": "巴音郭楞蒙古自治州",
            "district": "和静县"
        }
    },
    {
        "id": "11835261503578337323",
        "title": "公共厕所",
        "address": "新疆维吾尔自治区巴音郭楞蒙古自治州库尔勒市人民西路南一巷与梨园街交叉口东北方向134米左右",
        "tel": "",
        "category": "基础设施:公共设施:公共厕所",
        "type": 0,
        "location": {
            "lat": 41.758618,
            "lng": 86.143163
        },
        "ad_info": {
            "adcode": 652801,
            "province": "新疆维吾尔自治区",
            "city": "巴音郭楞蒙古自治州",
            "district": "库尔勒市"
        }
    },
    {
        "id": "17943838936554961300",
        "title": "公共厕所",
        "address": "新疆维吾尔自治区巴音郭楞蒙古自治州和静县G216与登德尔特巷交叉口正北方向931米左右",
        "tel": "",
        "category": "基础设施:公共设施:公共厕所",
        "type": 0,
        "location": {
            "lat": 42.745446,
            "lng": 86.311438
        },
        "ad_info": {
            "adcode": 652827,
            "province": "新疆维吾尔自治区",
            "city": "巴音郭楞蒙古自治州",
            "district": "和静县"
        }
    },
    {
        "id": "12251474077033407556",
        "title": "公共厕所",
        "address": "新疆维吾尔自治区巴音郭楞蒙古自治州和静县团结东路与团结西路交叉口正北方向77米左右",
        "tel": "",
        "category": "基础设施:公共设施:公共厕所",
        "type": 0,
        "location": {
            "lat": 42.317222,
            "lng": 86.390539
        },
        "ad_info": {
            "adcode": 652827,
            "province": "新疆维吾尔自治区",
            "city": "巴音郭楞蒙古自治州",
            "district": "和静县"
        }
    },
    {
        "id": "15136035636728675199",
        "title": "公共厕所",
        "address": "新疆维吾尔自治区巴音郭楞蒙古自治州和静县阿尔夏特东路与阿尔夏特西路交叉口西南方向170米左右",
        "tel": "",
        "category": "基础设施:公共设施:公共厕所",
        "type": 0,
        "location": {
            "lat": 42.315115,
            "lng": 86.400419
        },
        "ad_info": {
            "adcode": 652827,
            "province": "新疆维吾尔自治区",
            "city": "巴音郭楞蒙古自治州",
            "district": "和静县"
        }
    },
    {
        "id": "10891462232538145826",
        "title": "公共厕所",
        "address": "新疆维吾尔自治区巴音郭楞蒙古自治州和静县Y280与巴音街交叉口正北方向406米左右",
        "tel": "",
        "category": "基础设施:公共设施:公共厕所",
        "type": 0,
        "location": {
            "lat": 42.25797,
            "lng": 86.133173
        },
        "ad_info": {
            "adcode": 652827,
            "province": "新疆维吾尔自治区",
            "city": "巴音郭楞蒙古自治州",
            "district": "和静县"
        }
    },
    {
        "id": "3871062809984803705",
        "title": "公共厕所",
        "address": "新疆维吾尔自治区巴音郭楞蒙古自治州库尔勒市巴音西路1-14号",
        "tel": "",
        "category": "基础设施:公共设施:公共厕所",
        "type": 0,
        "location": {
            "lat": 41.762795,
            "lng": 86.143652
        },
        "ad_info": {
            "adcode": 652801,
            "province": "新疆维吾尔自治区",
            "city": "巴音郭楞蒙古自治州",
            "district": "库尔勒市"
        }
    },
    {
        "id": "230046831768383000",
        "title": "公共厕所",
        "address": "新疆维吾尔自治区巴音郭楞蒙古自治州库尔勒市S349与北山路交叉口正北方向162米左右",
        "tel": "",
        "category": "基础设施:公共设施:公共厕所",
        "type": 0,
        "location": {
            "lat": 41.7734,
            "lng": 86.14697
        },
        "ad_info": {
            "adcode": 652801,
            "province": "新疆维吾尔自治区",
            "city": "巴音郭楞蒙古自治州",
            "district": "库尔勒市"
        }
    },
    {
        "id": "2825164039443805234",
        "title": "公共厕所",
        "address": "新疆维吾尔自治区巴音郭楞蒙古自治州和静县开泽东路与鸿雁路交叉口正北方向23米左右",
        "tel": "",
        "category": "基础设施:公共设施:公共厕所",
        "type": 0,
        "location": {
            "lat": 42.313221,
            "lng": 86.399052
        },
        "ad_info": {
            "adcode": 652827,
            "province": "新疆维吾尔自治区",
            "city": "巴音郭楞蒙古自治州",
            "district": "和静县"
        }
    },
    {
        "id": "2789231833407753788",
        "title": "铁门关服务区第三公共厕所",
        "address": "新疆维吾尔自治区巴音郭楞蒙古自治州库尔勒市与服务器交叉口东北50米",
        "tel": "",
        "category": "基础设施:公共设施:公共厕所",
        "type": 0,
        "location": {
            "lat": 41.878845,
            "lng": 85.644941
        },
        "ad_info": {
            "adcode": 652801,
            "province": "新疆维吾尔自治区",
            "city": "巴音郭楞蒙古自治州",
            "district": "库尔勒市"
        }
    },
    {
        "id": "14040409062192559924",
        "title": "人民广场-公共厕所",
        "address": "新疆维吾尔自治区巴音郭楞蒙古自治州库尔勒市巴音东路与巴音西路交叉口正东方向63米左右",
        "tel": "",
        "category": "基础设施:公共设施:公共厕所",
        "type": 0,
        "location": {
            "lat": 41.763555,
            "lng": 86.144988
        },
        "ad_info": {
            "adcode": 652801,
            "province": "新疆维吾尔自治区",
            "city": "巴音郭楞蒙古自治州",
            "district": "库尔勒市"
        }
    },
    {
        "id": "4924556908916605870",
        "title": "库尔勒服务区公共厕所",
        "address": "新疆维吾尔自治区巴音郭楞蒙古自治州库尔勒市G216与塔什店南路交叉口正北方向172米左右",
        "tel": "",
        "category": "基础设施:公共设施:公共厕所",
        "type": 0,
        "location": {
            "lat": 41.782169,
            "lng": 86.21537
        },
        "ad_info": {
            "adcode": 652801,
            "province": "新疆维吾尔自治区",
            "city": "巴音郭楞蒙古自治州",
            "district": "库尔勒市"
        }
    },
    {
        "id": "3981272870951095485",
        "title": "博斯腾湖-公共厕所",
        "address": "新疆维吾尔自治区巴音郭楞蒙古自治州博湖县人民路与光华北路交叉口东南方向116米左右",
        "tel": "",
        "category": "基础设施:公共设施:公共厕所",
        "type": 0,
        "location": {
            "lat": 41.979093,
            "lng": 86.625867
        },
        "ad_info": {
            "adcode": 652829,
            "province": "新疆维吾尔自治区",
            "city": "巴音郭楞蒙古自治州",
            "district": "博湖县"
        }
    },
    {
        "id": "18253865261140621845",
        "title": "博斯腾湖-公共厕所",
        "address": "新疆维吾尔自治区巴音郭楞蒙古自治州博湖县团结东路52号",
        "tel": "",
        "category": "基础设施:公共设施:公共厕所",
        "type": 0,
        "location": {
            "lat": 41.982787,
            "lng": 86.625963
        },
        "ad_info": {
            "adcode": 652829,
            "province": "新疆维吾尔自治区",
            "city": "巴音郭楞蒙古自治州",
            "district": "博湖县"
        }
    },
    {
        "id": "10425791610947980809",
        "title": "旅游厕所",
        "address": "新疆维吾尔自治区巴音郭楞蒙古自治州博湖县博斯腾湖大河口景区游客中心北侧190米",
        "tel": "",
        "category": "基础设施:公共设施:公共厕所",
        "type": 0,
        "location": {
            "lat": 41.916342,
            "lng": 86.704402
        },
        "ad_info": {
            "adcode": 652829,
            "province": "新疆维吾尔自治区",
            "city": "巴音郭楞蒙古自治州",
            "district": "博湖县"
        }
    },
    {
        "id": "1556187111408420661",
        "title": "铁门关服务区第二公共厕所",
        "address": "新疆维吾尔自治区巴音郭楞蒙古自治州库尔勒市创业大街与迎宾西路交叉口西北方向1024米左右",
        "tel": "",
        "category": "基础设施:公共设施:公共厕所",
        "type": 0,
        "location": {
            "lat": 41.87867,
            "lng": 85.645617
        },
        "ad_info": {
            "adcode": 652801,
            "province": "新疆维吾尔自治区",
            "city": "巴音郭楞蒙古自治州",
            "district": "库尔勒市"
        }
    },
    {
        "id": "5201022806195657907",
        "title": "服务区公共厕所",
        "address": "新疆维吾尔自治区巴音郭楞蒙古自治州库尔勒市梨城路与湛江路交叉口正东方向547米左右",
        "tel": "",
        "category": "基础设施:公共设施:公共厕所",
        "type": 0,
        "location": {
            "lat": 41.781637,
            "lng": 86.167979
        },
        "ad_info": {
            "adcode": 652801,
            "province": "新疆维吾尔自治区",
            "city": "巴音郭楞蒙古自治州",
            "district": "库尔勒市"
        }
    },
    {
        "id": "13201768921182819384",
        "title": "服务区公共厕所",
        "address": "新疆维吾尔自治区巴音郭楞蒙古自治州和硕县G3012吐和高速与服务区交叉口西200米",
        "tel": "",
        "category": "基础设施:公共设施:公共厕所",
        "type": 0,
        "location": {
            "lat": 42.299521,
            "lng": 86.876514
        },
        "ad_info": {
            "adcode": 652828,
            "province": "新疆维吾尔自治区",
            "city": "巴音郭楞蒙古自治州",
            "district": "和硕县"
        }
    },
    {
        "id": "4423127139232121633",
        "title": "焉耆服务区公共厕所",
        "address": "新疆维吾尔自治区巴音郭楞蒙古自治州焉耆回族自治县G3012吐和高速与焉耆服务区交叉口东北260米",
        "tel": "",
        "category": "基础设施:公共设施:公共厕所",
        "type": 0,
        "location": {
            "lat": 42.035799,
            "lng": 86.523857
        },
        "ad_info": {
            "adcode": 652826,
            "province": "新疆维吾尔自治区",
            "city": "巴音郭楞蒙古自治州",
            "district": "焉耆回族自治县"
        }
    },
    {
        "id": "6016273367012405812",
        "title": "巴音布鲁克天鹅湖风景区公共厕所",
        "address": "新疆维吾尔自治区巴音郭楞蒙古自治州和静县X273与独库公路交叉口东北方向476米左右",
        "tel": "",
        "category": "基础设施:公共设施:公共厕所",
        "type": 0,
        "location": {
            "lat": 43.022757,
            "lng": 84.138464
        },
        "ad_info": {
            "adcode": 652827,
            "province": "新疆维吾尔自治区",
            "city": "巴音郭楞蒙古自治州",
            "district": "和静县"
        }
    },
    {
        "id": "13725838439522195707",
        "title": "乌什塔拉服务区公共厕所",
        "address": "新疆维吾尔自治区巴音郭楞蒙古自治州和硕县乌什塔拉西立交桥与吐和高速交叉口正东方向1211米左右",
        "tel": "",
        "category": "基础设施:公共设施:公共厕所",
        "type": 0,
        "location": {
            "lat": 42.244466,
            "lng": 87.236584
        },
        "ad_info": {
            "adcode": 652828,
            "province": "新疆维吾尔自治区",
            "city": "巴音郭楞蒙古自治州",
            "district": "和硕县"
        }
    },
    {
        "id": "6852372701792501653",
        "title": "乌什塔拉服务区公共厕所",
        "address": "新疆维吾尔自治区巴音郭楞蒙古自治州和硕县乌什塔拉西立交桥与吐和高速交叉口正东方向1772米左右",
        "tel": "",
        "category": "基础设施:公共设施:公共厕所",
        "type": 0,
        "location": {
            "lat": 42.244292,
            "lng": 87.243376
        },
        "ad_info": {
            "adcode": 652828,
            "province": "新疆维吾尔自治区",
            "city": "巴音郭楞蒙古自治州",
            "district": "和硕县"
        }
    },
    {
        "id": "11641329835766688608",
        "title": "公共厕所",
        "address": "新疆维吾尔自治区巴音郭楞蒙古自治州和静县双拥路与天鹅湖路交叉口西南方向52米左右",
        "tel": "",
        "category": "基础设施:公共设施:公共厕所",
        "type": 0,
        "location": {
            "lat": 42.322241,
            "lng": 86.386044
        },
        "ad_info": {
            "adcode": 652827,
            "province": "新疆维吾尔自治区",
            "city": "巴音郭楞蒙古自治州",
            "district": "和静县"
        }
    },
    {
        "id": "12305041190593873532",
        "title": "焉耆服务区第二公共厕所",
        "address": "新疆维吾尔自治区巴音郭楞蒙古自治州焉耆回族自治县焉耆服务区与G3012吐和高速交叉口北220米",
        "tel": "",
        "category": "基础设施:公共设施:公共厕所",
        "type": 0,
        "location": {
            "lat": 42.036257,
            "lng": 86.521858
        },
        "ad_info": {
            "adcode": 652826,
            "province": "新疆维吾尔自治区",
            "city": "巴音郭楞蒙古自治州",
            "district": "焉耆回族自治县"
        }
    },
    {
        "id": "14340514470550479079",
        "title": "服务区第二公共厕所",
        "address": "新疆维吾尔自治区巴音郭楞蒙古自治州和硕县吐和高速与和硕立交桥交叉口正东方向757米左右",
        "tel": "",
        "category": "基础设施:公共设施:公共厕所",
        "type": 0,
        "location": {
            "lat": 42.301122,
            "lng": 86.876765
        },
        "ad_info": {
            "adcode": 652828,
            "province": "新疆维吾尔自治区",
            "city": "巴音郭楞蒙古自治州",
            "district": "和硕县"
        }
    },
    {
        "id": "2408123874821646106",
        "title": "乌什塔拉服务区公共厕所",
        "address": "新疆维吾尔自治区巴音郭楞蒙古自治州和硕县乌什塔拉西立交桥与吐和高速交叉口正东方向1269米左右",
        "tel": "",
        "category": "基础设施:公共设施:公共厕所",
        "type": 0,
        "location": {
            "lat": 42.242776,
            "lng": 87.237019
        },
        "ad_info": {
            "adcode": 652828,
            "province": "新疆维吾尔自治区",
            "city": "巴音郭楞蒙古自治州",
            "district": "和硕县"
        }
    },
    {
        "id": "13610059503725217183",
        "title": "服务区第一公共厕所",
        "address": "新疆维吾尔自治区巴音郭楞蒙古自治州和硕县吐和高速与和硕立交桥交叉口正东方向791米左右",
        "tel": "",
        "category": "基础设施:公共设施:公共厕所",
        "type": 0,
        "location": {
            "lat": 42.300912,
            "lng": 86.877185
        },
        "ad_info": {
            "adcode": 652828,
            "province": "新疆维吾尔自治区",
            "city": "巴音郭楞蒙古自治州",
            "district": "和硕县"
        }
    },
    {
        "id": "18439890063258703378",
        "title": "公共厕所",
        "address": "新疆维吾尔自治区巴音郭楞蒙古自治州且末县S233与沙漠公路交叉口正北方向243米左右",
        "tel": "",
        "category": "基础设施:公共设施:公共厕所",
        "type": 0,
        "location": {
            "lat": 39.021612,
            "lng": 83.618642
        },
        "ad_info": {
            "adcode": 652825,
            "province": "新疆维吾尔自治区",
            "city": "巴音郭楞蒙古自治州",
            "district": "且末县"
        }
    },
    {
        "id": "58979580603505819",
        "title": "公共厕所",
        "address": "新疆维吾尔自治区巴音郭楞蒙古自治州库尔勒市索克巴格路与香梨大道辅路交叉口西南方向216米左右",
        "tel": "",
        "category": "基础设施:公共设施:公共厕所",
        "type": 0,
        "location": {
            "lat": 41.749369,
            "lng": 86.168025
        },
        "ad_info": {
            "adcode": 652801,
            "province": "新疆维吾尔自治区",
            "city": "巴音郭楞蒙古自治州",
            "district": "库尔勒市"
        }
    },
    {
        "id": "2296608594583894639",
        "title": "榆树沟停车区公共厕所",
        "address": "新疆维吾尔自治区巴音郭楞蒙古自治州和硕县和硕县停车区",
        "tel": "",
        "category": "基础设施:公共设施:公共厕所",
        "type": 0,
        "location": {
            "lat": 42.221639,
            "lng": 87.827763
        },
        "ad_info": {
            "adcode": 652828,
            "province": "新疆维吾尔自治区",
            "city": "巴音郭楞蒙古自治州",
            "district": "和硕县"
        }
    },
    {
        "id": "3736788262581997335",
        "title": "公共厕所",
        "address": "新疆维吾尔自治区巴音郭楞蒙古自治州和硕县文苑路与清水河北路交叉口正西方向134米左右",
        "tel": "",
        "category": "基础设施:公共设施:公共厕所",
        "type": 0,
        "location": {
            "lat": 42.267394,
            "lng": 86.862895
        },
        "ad_info": {
            "adcode": 652828,
            "province": "新疆维吾尔自治区",
            "city": "巴音郭楞蒙古自治州",
            "district": "和硕县"
        }
    },
    {
        "id": "14407804449910987719",
        "title": "公共厕所",
        "address": "新疆维吾尔自治区巴音郭楞蒙古自治州库尔勒市北山路驿站巷与建国北路交叉口正北方向235米左右",
        "tel": "",
        "category": "基础设施:公共设施:公共厕所",
        "type": 0,
        "location": {
            "lat": 41.778018,
            "lng": 86.138965
        },
        "ad_info": {
            "adcode": 652801,
            "province": "新疆维吾尔自治区",
            "city": "巴音郭楞蒙古自治州",
            "district": "库尔勒市"
        }
    },
    {
        "id": "3943937376410251325",
        "title": "公共厕所",
        "address": "新疆维吾尔自治区巴音郭楞蒙古自治州焉耆回族自治县政府路与解放路交叉口东南方向127米左右",
        "tel": "",
        "category": "基础设施:公共设施:公共厕所",
        "type": 0,
        "location": {
            "lat": 42.058117,
            "lng": 86.574458
        },
        "ad_info": {
            "adcode": 652826,
            "province": "新疆维吾尔自治区",
            "city": "巴音郭楞蒙古自治州",
            "district": "焉耆回族自治县"
        }
    },
    {
        "id": "15794145046422208201",
        "title": "公共厕所",
        "address": "新疆维吾尔自治区巴音郭楞蒙古自治州焉耆回族自治县和平路与迎宾路交叉口西南方向1118米左右",
        "tel": "",
        "category": "基础设施:公共设施:公共厕所",
        "type": 0,
        "location": {
            "lat": 42.066534,
            "lng": 86.542416
        },
        "ad_info": {
            "adcode": 652826,
            "province": "新疆维吾尔自治区",
            "city": "巴音郭楞蒙古自治州",
            "district": "焉耆回族自治县"
        }
    },
    {
        "id": "4482262399307111451",
        "title": "公共厕所",
        "address": "新疆维吾尔自治区巴音郭楞蒙古自治州尉犁县光明路与孔雀路交叉口正南方向144米左右",
        "tel": "",
        "category": "基础设施:公共设施:公共厕所",
        "type": 0,
        "location": {
            "lat": 41.354004,
            "lng": 86.259169
        },
        "ad_info": {
            "adcode": 652823,
            "province": "新疆维吾尔自治区",
            "city": "巴音郭楞蒙古自治州",
            "district": "尉犁县"
        }
    },
    {
        "id": "6055293570374195482",
        "title": "公共厕所",
        "address": "新疆维吾尔自治区巴音郭楞蒙古自治州若羌县218国道东50米",
        "tel": "",
        "category": "基础设施:公共设施:公共厕所",
        "type": 0,
        "location": {
            "lat": 39.608876,
            "lng": 88.426928
        },
        "ad_info": {
            "adcode": 652824,
            "province": "新疆维吾尔自治区",
            "city": "巴音郭楞蒙古自治州",
            "district": "若羌县"
        }
    },
    {
        "id": "17442239062126635610",
        "title": "公共厕所",
        "address": "新疆维吾尔自治区巴音郭楞蒙古自治州博湖县中华路与团结东路交叉口南160米",
        "tel": "",
        "category": "基础设施:公共设施:公共厕所",
        "type": 0,
        "location": {
            "lat": 41.981491,
            "lng": 86.633889
        },
        "ad_info": {
            "adcode": 652829,
            "province": "新疆维吾尔自治区",
            "city": "巴音郭楞蒙古自治州",
            "district": "博湖县"
        }
    },
    {
        "id": "14235030506990053423",
        "title": "公共厕所",
        "address": "新疆维吾尔自治区巴音郭楞蒙古自治州库尔勒市G218与Z598交叉口正南方向922米左右",
        "tel": "",
        "category": "基础设施:公共设施:公共厕所",
        "type": 0,
        "location": {
            "lat": 41.576913,
            "lng": 86.196202
        },
        "ad_info": {
            "adcode": 652801,
            "province": "新疆维吾尔自治区",
            "city": "巴音郭楞蒙古自治州",
            "district": "库尔勒市"
        }
    },
    {
        "id": "7593878182211995370",
        "title": "公共厕所",
        "address": "新疆维吾尔自治区巴音郭楞蒙古自治州库尔勒市天山东路与铁门关路东一巷交叉口正北方向110米左右",
        "tel": "",
        "category": "基础设施:公共设施:公共厕所",
        "type": 0,
        "location": {
            "lat": 41.775475,
            "lng": 86.16132
        },
        "ad_info": {
            "adcode": 652801,
            "province": "新疆维吾尔自治区",
            "city": "巴音郭楞蒙古自治州",
            "district": "库尔勒市"
        }
    },
    {
        "id": "2060080625938231326",
        "title": "公共厕所",
        "address": "新疆维吾尔自治区巴音郭楞蒙古自治州若羌县G315与米兰路交叉口正东方向139米左右",
        "tel": "",
        "category": "基础设施:公共设施:公共厕所",
        "type": 0,
        "location": {
            "lat": 39.199197,
            "lng": 88.905525
        },
        "ad_info": {
            "adcode": 652824,
            "province": "新疆维吾尔自治区",
            "city": "巴音郭楞蒙古自治州",
            "district": "若羌县"
        }
    },
    {
        "id": "6484353837797345350",
        "title": "公共厕所",
        "address": "新疆维吾尔自治区巴音郭楞蒙古自治州若羌县胜利路与若羌县商业街交叉口西北方向45米左右",
        "tel": "",
        "category": "基础设施:公共设施:公共厕所",
        "type": 0,
        "location": {
            "lat": 39.021887,
            "lng": 88.168743
        },
        "ad_info": {
            "adcode": 652824,
            "province": "新疆维吾尔自治区",
            "city": "巴音郭楞蒙古自治州",
            "district": "若羌县"
        }
    },
    {
        "id": "14513325436591251041",
        "title": "公共厕所",
        "address": "新疆维吾尔自治区巴音郭楞蒙古自治州和硕县文化一街与清水河北路交叉口西北方向60米左右",
        "tel": "",
        "category": "基础设施:公共设施:公共厕所",
        "type": 0,
        "location": {
            "lat": 42.266172,
            "lng": 86.864229
        },
        "ad_info": {
            "adcode": 652828,
            "province": "新疆维吾尔自治区",
            "city": "巴音郭楞蒙古自治州",
            "district": "和硕县"
        }
    },
    {
        "id": "16281027442389695403",
        "title": "公共厕所",
        "address": "新疆维吾尔自治区巴音郭楞蒙古自治州轮台县沙漠公路与轻烃产品路交叉口正北方向1453米左右",
        "tel": "",
        "category": "基础设施:公共设施:公共厕所",
        "type": 0,
        "location": {
            "lat": 41.470774,
            "lng": 84.215411
        },
        "ad_info": {
            "adcode": 652822,
            "province": "新疆维吾尔自治区",
            "city": "巴音郭楞蒙古自治州",
            "district": "轮台县"
        }
    },
    {
        "id": "7305551256052686455",
        "title": "焉耆服务区第二公共厕所",
        "address": "新疆维吾尔自治区巴音郭楞蒙古自治州焉耆回族自治县X269与Y235交叉口西南方向1700米左右",
        "tel": "",
        "category": "基础设施:公共设施:公共厕所",
        "type": 0,
        "location": {
            "lat": 42.036881,
            "lng": 86.524092
        },
        "ad_info": {
            "adcode": 652826,
            "province": "新疆维吾尔自治区",
            "city": "巴音郭楞蒙古自治州",
            "district": "焉耆回族自治县"
        }
    },
    {
        "id": "7423034404409641904",
        "title": "公共厕所",
        "address": "新疆维吾尔自治区巴音郭楞蒙古自治州和硕县团结路与清水河南路交叉口正南方向509米左右",
        "tel": "",
        "category": "基础设施:公共设施:公共厕所",
        "type": 0,
        "location": {
            "lat": 42.254245,
            "lng": 86.861128
        },
        "ad_info": {
            "adcode": 652828,
            "province": "新疆维吾尔自治区",
            "city": "巴音郭楞蒙古自治州",
            "district": "和硕县"
        }
    },
    {
        "id": "3547386448086531071",
        "title": "公共厕所",
        "address": "新疆维吾尔自治区巴音郭楞蒙古自治州库尔勒市青年路与青年路北一巷交叉口正南方向34米左右",
        "tel": "",
        "category": "基础设施:公共设施:公共厕所",
        "type": 0,
        "location": {
            "lat": 41.767549,
            "lng": 86.149704
        },
        "ad_info": {
            "adcode": 652801,
            "province": "新疆维吾尔自治区",
            "city": "巴音郭楞蒙古自治州",
            "district": "库尔勒市"
        }
    },
    {
        "id": "16043272515793247883",
        "title": "公共厕所",
        "address": "新疆维吾尔自治区巴音郭楞蒙古自治州且末县G315与X261交叉口正东方向127米左右",
        "tel": "",
        "category": "基础设施:公共设施:公共厕所",
        "type": 0,
        "location": {
            "lat": 38.331374,
            "lng": 85.565647
        },
        "ad_info": {
            "adcode": 652825,
            "province": "新疆维吾尔自治区",
            "city": "巴音郭楞蒙古自治州",
            "district": "且末县"
        }
    },
    {
        "id": "4359924314056840949",
        "title": "停车场公共厕所",
        "address": "新疆维吾尔自治区巴音郭楞蒙古自治州和硕县洪通燃气停车区加油站东侧100米",
        "tel": "",
        "category": "基础设施:公共设施:公共厕所",
        "type": 0,
        "location": {
            "lat": 42.229697,
            "lng": 87.43334
        },
        "ad_info": {
            "adcode": 652828,
            "province": "新疆维吾尔自治区",
            "city": "巴音郭楞蒙古自治州",
            "district": "和硕县"
        }
    },
    {
        "id": "11456347805657055474",
        "title": "若羌西服务区公共厕所",
        "address": "新疆维吾尔自治区巴音郭楞蒙古自治州若羌县若羌西服务区北30米",
        "tel": "",
        "category": "基础设施:公共设施:公共厕所",
        "type": 0,
        "location": {
            "lat": 38.93699,
            "lng": 88.005762
        },
        "ad_info": {
            "adcode": 652824,
            "province": "新疆维吾尔自治区",
            "city": "巴音郭楞蒙古自治州",
            "district": "若羌县"
        }
    },
    {
        "id": "13302014971491914618",
        "title": "塔什店服务区公共厕所",
        "address": "新疆维吾尔自治区巴音郭楞蒙古自治州库尔勒市塔什店服务区北侧",
        "tel": "",
        "category": "基础设施:公共设施:公共厕所",
        "type": 0,
        "location": {
            "lat": 41.818139,
            "lng": 86.28095
        },
        "ad_info": {
            "adcode": 652801,
            "province": "新疆维吾尔自治区",
            "city": "巴音郭楞蒙古自治州",
            "district": "库尔勒市"
        }
    },
    {
        "id": "14826685484863028170",
        "title": "瓦石峡服务区公共厕所",
        "address": "新疆维吾尔自治区巴音郭楞蒙古自治州若羌县G0612西和高速与瓦石峡服务区交叉口西440米",
        "tel": "",
        "category": "基础设施:公共设施:公共厕所",
        "type": 0,
        "location": {
            "lat": 38.707884,
            "lng": 87.134852
        },
        "ad_info": {
            "adcode": 652824,
            "province": "新疆维吾尔自治区",
            "city": "巴音郭楞蒙古自治州",
            "district": "若羌县"
        }
    },
    {
        "id": "1529586666157165125",
        "title": "瓦石峡服务区公共厕所",
        "address": "新疆维吾尔自治区巴音郭楞蒙古自治州若羌县G0612西和高速与瓦石峡服务区交叉口西480米",
        "tel": "",
        "category": "基础设施:公共设施:公共厕所",
        "type": 0,
        "location": {
            "lat": 38.70583,
            "lng": 87.134375
        },
        "ad_info": {
            "adcode": 652824,
            "province": "新疆维吾尔自治区",
            "city": "巴音郭楞蒙古自治州",
            "district": "若羌县"
        }
    },
    {
        "id": "6612989744348665827",
        "title": "公共厕所",
        "address": "新疆维吾尔自治区巴音郭楞蒙古自治州和静县巩乃斯镇集中点牧家乐",
        "tel": "",
        "category": "基础设施:公共设施:公共厕所",
        "type": 0,
        "location": {
            "lat": 43.232232,
            "lng": 84.735081
        },
        "ad_info": {
            "adcode": 652827,
            "province": "新疆维吾尔自治区",
            "city": "巴音郭楞蒙古自治州",
            "district": "和静县"
        }
    },
    {
        "id": "8961539817910154339",
        "title": "公共厕所(若羌县羌河)",
        "address": "新疆维吾尔自治区巴音郭楞蒙古自治州若羌县博斯坦路与友好路交叉口正北方向167米左右",
        "tel": "",
        "category": "基础设施:公共设施:公共厕所",
        "type": 0,
        "location": {
            "lat": 38.997245,
            "lng": 88.158428
        },
        "ad_info": {
            "adcode": 652824,
            "province": "新疆维吾尔自治区",
            "city": "巴音郭楞蒙古自治州",
            "district": "若羌县"
        }
    },
    {
        "id": "10792263676217031968",
        "title": "家里厕所",
        "address": "新疆维吾尔自治区巴音郭楞蒙古自治州和静县G216与商业街交叉口正北方向246米左右",
        "tel": "18999013367",
        "category": "基础设施:公共设施:公共厕所",
        "type": 0,
        "location": {
            "lat": 42.249747,
            "lng": 86.137153
        },
        "ad_info": {
            "adcode": 652827,
            "province": "新疆维吾尔自治区",
            "city": "巴音郭楞蒙古自治州",
            "district": "和静县"
        }
    },
    {
        "id": "4285285418191877803",
        "title": "公共厕所",
        "address": "新疆维吾尔自治区巴音郭楞蒙古自治州尉犁县塔里木南路8号",
        "tel": "",
        "category": "基础设施:公共设施:公共厕所",
        "type": 0,
        "location": {
            "lat": 40.829702,
            "lng": 87.19367
        },
        "ad_info": {
            "adcode": 652823,
            "province": "新疆维吾尔自治区",
            "city": "巴音郭楞蒙古自治州",
            "district": "尉犁县"
        }
    },
    {
        "id": "11569584042595112708",
        "title": "公共厕所",
        "address": "新疆维吾尔自治区巴音郭楞蒙古自治州和静县二十二团桥头堡红色旅游示范基地东南侧50米",
        "tel": "",
        "category": "基础设施:公共设施:公共厕所",
        "type": 0,
        "location": {
            "lat": 42.229936,
            "lng": 86.454332
        },
        "ad_info": {
            "adcode": 652827,
            "province": "新疆维吾尔自治区",
            "city": "巴音郭楞蒙古自治州",
            "district": "和静县"
        }
    },
    {
        "id": "14834872181180594164",
        "title": "若羌东服务区公共厕所",
        "address": "新疆维吾尔自治区巴音郭楞蒙古自治州若羌县G315与工业园路交叉口西北方向1100米左右",
        "tel": "",
        "category": "基础设施:公共设施:公共厕所",
        "type": 0,
        "location": {
            "lat": 39.014591,
            "lng": 88.329175
        },
        "ad_info": {
            "adcode": 652824,
            "province": "新疆维吾尔自治区",
            "city": "巴音郭楞蒙古自治州",
            "district": "若羌县"
        }
    },
    {
        "id": "9449554450714789602",
        "title": "公共厕所",
        "address": "新疆维吾尔自治区巴音郭楞蒙古自治州库尔勒市腾飞路47号",
        "tel": "",
        "category": "基础设施:公共设施:公共厕所",
        "type": 0,
        "location": {
            "lat": 41.71885,
            "lng": 86.153602
        },
        "ad_info": {
            "adcode": 652801,
            "province": "新疆维吾尔自治区",
            "city": "巴音郭楞蒙古自治州",
            "district": "库尔勒市"
        }
    },
    {
        "id": "9079000552852102639",
        "title": "公共厕所(胡杨林公园停车场)",
        "address": "新疆维吾尔自治区巴音郭楞蒙古自治州轮台县沙漠公路",
        "tel": "",
        "category": "基础设施:公共设施:公共厕所",
        "type": 0,
        "location": {
            "lat": 41.248467,
            "lng": 84.210934
        },
        "ad_info": {
            "adcode": 652822,
            "province": "新疆维吾尔自治区",
            "city": "巴音郭楞蒙古自治州",
            "district": "轮台县"
        }
    },
    {
        "id": "6468579928186759929",
        "title": "公共厕所",
        "address": "新疆维吾尔自治区巴音郭楞蒙古自治州库尔勒市花园街与香梨大道交叉口东北方向36米左右",
        "tel": "",
        "category": "基础设施:公共设施:公共厕所",
        "type": 0,
        "location": {
            "lat": 41.753998,
            "lng": 86.166457
        },
        "ad_info": {
            "adcode": 652801,
            "province": "新疆维吾尔自治区",
            "city": "巴音郭楞蒙古自治州",
            "district": "库尔勒市"
        }
    },
    {
        "id": "5627721717094689862",
        "title": "泡泡BOBO公共厕所",
        "address": "新疆维吾尔自治区巴音郭楞蒙古自治州和硕县金沙滩路",
        "tel": "",
        "category": "基础设施:公共设施:公共厕所",
        "type": 0,
        "location": {
            "lat": 42.052395,
            "lng": 87.15231
        },
        "ad_info": {
            "adcode": 652828,
            "province": "新疆维吾尔自治区",
            "city": "巴音郭楞蒙古自治州",
            "district": "和硕县"
        }
    },
    {
        "id": "11707309267571883149",
        "title": "塔什店服务区公共厕所",
        "address": "新疆维吾尔自治区巴音郭楞蒙古自治州库尔勒市塔什店服务区南侧",
        "tel": "",
        "category": "基础设施:公共设施:公共厕所",
        "type": 0,
        "location": {
            "lat": 41.816123,
            "lng": 86.28097
        },
        "ad_info": {
            "adcode": 652801,
            "province": "新疆维吾尔自治区",
            "city": "巴音郭楞蒙古自治州",
            "district": "库尔勒市"
        }
    },
    {
        "id": "17998877075990699561",
        "title": "加油站公共厕所",
        "address": "新疆维吾尔自治区巴音郭楞蒙古自治州库尔勒市东北侧",
        "tel": "",
        "category": "基础设施:公共设施:公共厕所",
        "type": 0,
        "location": {
            "lat": 41.964512,
            "lng": 85.383555
        },
        "ad_info": {
            "adcode": 652801,
            "province": "新疆维吾尔自治区",
            "city": "巴音郭楞蒙古自治州",
            "district": "库尔勒市"
        }
    },
    {
        "id": "8559403244735492570",
        "title": "中国石化焉耆1号加油站公共厕所",
        "address": "新疆维吾尔自治区巴音郭楞蒙古自治州焉耆回族自治县314国道客运站斜对面",
        "tel": "",
        "category": "基础设施:公共设施:公共厕所",
        "type": 0,
        "location": {
            "lat": 42.075228,
            "lng": 86.567406
        },
        "ad_info": {
            "adcode": 652826,
            "province": "新疆维吾尔自治区",
            "city": "巴音郭楞蒙古自治州",
            "district": "焉耆回族自治县"
        }
    },
    {
        "id": "3257031135590510727",
        "title": "南屯服务区公共厕所",
        "address": "新疆维吾尔自治区巴音郭楞蒙古自治州且末县G0612西和高速与南屯服务区交叉口西南480米",
        "tel": "",
        "category": "基础设施:公共设施:公共厕所",
        "type": 0,
        "location": {
            "lat": 37.829981,
            "lng": 84.182929
        },
        "ad_info": {
            "adcode": 652825,
            "province": "新疆维吾尔自治区",
            "city": "巴音郭楞蒙古自治州",
            "district": "且末县"
        }
    },
    {
        "id": "16977241267750357288",
        "title": "米兰服务区公共厕所",
        "address": "新疆维吾尔自治区巴音郭楞蒙古自治州若羌县G315与米兰路交叉口正东方向1018米左右",
        "tel": "",
        "category": "基础设施:公共设施:公共厕所",
        "type": 0,
        "location": {
            "lat": 39.198273,
            "lng": 88.915683
        },
        "ad_info": {
            "adcode": 652824,
            "province": "新疆维吾尔自治区",
            "city": "巴音郭楞蒙古自治州",
            "district": "若羌县"
        }
    },
    {
        "id": "9569551596765600775",
        "title": "公共厕所(若羌县西支河)",
        "address": "新疆维吾尔自治区巴音郭楞蒙古自治州若羌县楼兰路779号",
        "tel": "",
        "category": "基础设施:公共设施:公共厕所",
        "type": 0,
        "location": {
            "lat": 39.016824,
            "lng": 88.160735
        },
        "ad_info": {
            "adcode": 652824,
            "province": "新疆维吾尔自治区",
            "city": "巴音郭楞蒙古自治州",
            "district": "若羌县"
        }
    },
    {
        "id": "4549899940865216124",
        "title": "公共厕所(XJ-BY-0370)",
        "address": "新疆维吾尔自治区巴音郭楞蒙古自治州且末县前进东路与前进路交叉口正西方向160米左右",
        "tel": "",
        "category": "基础设施:公共设施:公共厕所",
        "type": 0,
        "location": {
            "lat": 38.138088,
            "lng": 85.530236
        },
        "ad_info": {
            "adcode": 652825,
            "province": "新疆维吾尔自治区",
            "city": "巴音郭楞蒙古自治州",
            "district": "且末县"
        }
    },
    {
        "id": "8445871972717457832",
        "title": "公共厕所",
        "address": "新疆维吾尔自治区巴音郭楞蒙古自治州和静县生钦桥",
        "tel": "",
        "category": "基础设施:公共设施:公共厕所",
        "type": 0,
        "location": {
            "lat": 42.669254,
            "lng": 86.329837
        },
        "ad_info": {
            "adcode": 652827,
            "province": "新疆维吾尔自治区",
            "city": "巴音郭楞蒙古自治州",
            "district": "和静县"
        }
    },
    {
        "id": "4139772716992628560",
        "title": "公共厕所",
        "address": "新疆维吾尔自治区巴音郭楞蒙古自治州库尔勒市X222与Y009交叉口正东方向149米左右",
        "tel": "",
        "category": "基础设施:公共设施:公共厕所",
        "type": 0,
        "location": {
            "lat": 41.761796,
            "lng": 86.047551
        },
        "ad_info": {
            "adcode": 652801,
            "province": "新疆维吾尔自治区",
            "city": "巴音郭楞蒙古自治州",
            "district": "库尔勒市"
        }
    },
    {
        "id": "9864095254299990836",
        "title": "公共厕所(若羌县西支河)",
        "address": "新疆维吾尔自治区巴音郭楞蒙古自治州若羌县楼兰路425号",
        "tel": "",
        "category": "基础设施:公共设施:公共厕所",
        "type": 0,
        "location": {
            "lat": 39.023374,
            "lng": 88.162177
        },
        "ad_info": {
            "adcode": 652824,
            "province": "新疆维吾尔自治区",
            "city": "巴音郭楞蒙古自治州",
            "district": "若羌县"
        }
    },
    {
        "id": "17490875091021371338",
        "title": "公厕",
        "address": "新疆维吾尔自治区巴音郭楞蒙古自治州和静县巴音布鲁克雪域酒店北100米(G217北)",
        "tel": "",
        "category": "基础设施:公共设施:公共厕所",
        "type": 0,
        "location": {
            "lat": 43.027854,
            "lng": 84.147045
        },
        "ad_info": {
            "adcode": 652827,
            "province": "新疆维吾尔自治区",
            "city": "巴音郭楞蒙古自治州",
            "district": "和静县"
        }
    },
    {
        "id": "8444629954955992825",
        "title": "博湖县赛马场旅游厕所",
        "address": "新疆维吾尔自治区巴音郭楞蒙古自治州博湖县光明北路与西虹路交叉口正北方向1088米左右",
        "tel": "",
        "category": "基础设施:公共设施:公共厕所",
        "type": 0,
        "location": {
            "lat": 41.996986,
            "lng": 86.614833
        },
        "ad_info": {
            "adcode": 652829,
            "province": "新疆维吾尔自治区",
            "city": "巴音郭楞蒙古自治州",
            "district": "博湖县"
        }
    },
    {
        "id": "35285715051434437",
        "title": "公共厕所(若羌县羌河)",
        "address": "新疆维吾尔自治区巴音郭楞蒙古自治州若羌县团结南路323号",
        "tel": "",
        "category": "基础设施:公共设施:公共厕所",
        "type": 0,
        "location": {
            "lat": 39.004546,
            "lng": 88.162516
        },
        "ad_info": {
            "adcode": 652824,
            "province": "新疆维吾尔自治区",
            "city": "巴音郭楞蒙古自治州",
            "district": "若羌县"
        }
    },
    {
        "id": "14291645489235613876",
        "title": "且末服务区公共厕所",
        "address": "新疆维吾尔自治区巴音郭楞蒙古自治州且末县G0612西和高速与且末服务区交叉口西420米",
        "tel": "",
        "category": "基础设施:公共设施:公共厕所",
        "type": 0,
        "location": {
            "lat": 38.216457,
            "lng": 85.582481
        },
        "ad_info": {
            "adcode": 652825,
            "province": "新疆维吾尔自治区",
            "city": "巴音郭楞蒙古自治州",
            "district": "且末县"
        }
    },
    {
        "id": "4284437454090076179",
        "title": "海浪剧场公共厕所",
        "address": "新疆维吾尔自治区巴音郭楞蒙古自治州和硕县",
        "tel": "",
        "category": "基础设施:公共设施:公共厕所",
        "type": 0,
        "location": {
            "lat": 42.05101,
            "lng": 87.15342
        },
        "ad_info": {
            "adcode": 652828,
            "province": "新疆维吾尔自治区",
            "city": "巴音郭楞蒙古自治州",
            "district": "和硕县"
        }
    },
    {
        "id": "16633439399914838491",
        "title": "公共厕所(若羌县羌何)",
        "address": "新疆维吾尔自治区巴音郭楞蒙古自治州若羌县315国道737号",
        "tel": "",
        "category": "基础设施:公共设施:公共厕所",
        "type": 0,
        "location": {
            "lat": 39.005621,
            "lng": 88.15595
        },
        "ad_info": {
            "adcode": 652824,
            "province": "新疆维吾尔自治区",
            "city": "巴音郭楞蒙古自治州",
            "district": "若羌县"
        }
    },
    {
        "id": "8868780096925923266",
        "title": "加油站公共厕所",
        "address": "新疆维吾尔自治区巴音郭楞蒙古自治州库尔勒市开元路与苏中大道交叉口正东方向837米左右",
        "tel": "",
        "category": "基础设施:公共设施:公共厕所",
        "type": 0,
        "location": {
            "lat": 41.834018,
            "lng": 85.975273
        },
        "ad_info": {
            "adcode": 652801,
            "province": "新疆维吾尔自治区",
            "city": "巴音郭楞蒙古自治州",
            "district": "库尔勒市"
        }
    },
    {
        "id": "3118236784406562730",
        "title": "公共厕所",
        "address": "新疆维吾尔自治区巴音郭楞蒙古自治州尉犁县和平东路与解放南路交叉口正东方向117米左右",
        "tel": "",
        "category": "基础设施:公共设施:公共厕所",
        "type": 0,
        "location": {
            "lat": 41.334226,
            "lng": 86.26391
        },
        "ad_info": {
            "adcode": 652823,
            "province": "新疆维吾尔自治区",
            "city": "巴音郭楞蒙古自治州",
            "district": "尉犁县"
        }
    },
    {
        "id": "12369265312714701134",
        "title": "公共厕所(若羌县祁曼花园西侧)",
        "address": "新疆维吾尔自治区巴音郭楞蒙古自治州若羌县315国道711号",
        "tel": "",
        "category": "基础设施:公共设施:公共厕所",
        "type": 0,
        "location": {
            "lat": 39.011326,
            "lng": 88.162675
        },
        "ad_info": {
            "adcode": 652824,
            "province": "新疆维吾尔自治区",
            "city": "巴音郭楞蒙古自治州",
            "district": "若羌县"
        }
    },
    {
        "id": "2103149606398606988",
        "title": "公共厕所(XJ-BY-0274)",
        "address": "新疆维吾尔自治区巴音郭楞蒙古自治州博湖县老船长鱼庄东侧",
        "tel": "",
        "category": "基础设施:公共设施:公共厕所",
        "type": 0,
        "location": {
            "lat": 41.917302,
            "lng": 86.698893
        },
        "ad_info": {
            "adcode": 652829,
            "province": "新疆维吾尔自治区",
            "city": "巴音郭楞蒙古自治州",
            "district": "博湖县"
        }
    },
    {
        "id": "15603341200935039291",
        "title": "公共厕所",
        "address": "新疆维吾尔自治区巴音郭楞蒙古自治州和静县和静哈达庆风情园北侧",
        "tel": "",
        "category": "基础设施:公共设施:公共厕所",
        "type": 0,
        "location": {
            "lat": 43.035881,
            "lng": 84.160102
        },
        "ad_info": {
            "adcode": 652827,
            "province": "新疆维吾尔自治区",
            "city": "巴音郭楞蒙古自治州",
            "district": "和静县"
        }
    },
    {
        "id": "161380812113143010",
        "title": "和硕服务区公共厕所",
        "address": "新疆维吾尔自治区巴音郭楞蒙古自治州和硕县G3012吐和高速与和硕服务区交叉口西北220米",
        "tel": "",
        "category": "基础设施:公共设施:公共厕所",
        "type": 0,
        "location": {
            "lat": 42.304512,
            "lng": 86.837602
        },
        "ad_info": {
            "adcode": 652828,
            "province": "新疆维吾尔自治区",
            "city": "巴音郭楞蒙古自治州",
            "district": "和硕县"
        }
    },
    {
        "id": "9553776376131453391",
        "title": "公共厕所",
        "address": "新疆维吾尔自治区巴音郭楞蒙古自治州和静县东归东路与东归大道交叉口正北方向532米左右",
        "tel": "",
        "category": "基础设施:公共设施:公共厕所",
        "type": 0,
        "location": {
            "lat": 42.336633,
            "lng": 86.382206
        },
        "ad_info": {
            "adcode": 652827,
            "province": "新疆维吾尔自治区",
            "city": "巴音郭楞蒙古自治州",
            "district": "和静县"
        }
    },
    {
        "id": "7155214119951797145",
        "title": "尉犁服务区公共厕所",
        "address": "新疆维吾尔自治区巴音郭楞蒙古自治州尉犁县乌若高速与尉若高速交叉口正北方向494米",
        "tel": "",
        "category": "基础设施:公共设施:公共厕所",
        "type": 0,
        "location": {
            "lat": 41.34069,
            "lng": 86.333506
        },
        "ad_info": {
            "adcode": 652823,
            "province": "新疆维吾尔自治区",
            "city": "巴音郭楞蒙古自治州",
            "district": "尉犁县"
        }
    },
    {
        "id": "3763598361272848288",
        "title": "公共厕所(若羌县博物馆西侧)",
        "address": "新疆维吾尔自治区巴音郭楞蒙古自治州若羌县团结路1062号",
        "tel": "",
        "category": "基础设施:公共设施:公共厕所",
        "type": 0,
        "location": {
            "lat": 39.015223,
            "lng": 88.165935
        },
        "ad_info": {
            "adcode": 652824,
            "province": "新疆维吾尔自治区",
            "city": "巴音郭楞蒙古自治州",
            "district": "若羌县"
        }
    },
    {
        "id": "12261615289538971949",
        "title": "洗手间",
        "address": "新疆维吾尔自治区巴音郭楞蒙古自治州库尔勒市交通东路与交通东路北三巷交叉口正南方向109米左右",
        "tel": "",
        "category": "基础设施:公共设施:公共厕所",
        "type": 0,
        "location": {
            "lat": 41.770398,
            "lng": 86.152032
        },
        "ad_info": {
            "adcode": 652801,
            "province": "新疆维吾尔自治区",
            "city": "巴音郭楞蒙古自治州",
            "district": "库尔勒市"
        }
    },
    {
        "id": "14090235491190708317",
        "title": "库尔勒自驾游服务区公共厕所",
        "address": "新疆维吾尔自治区巴音郭楞蒙古自治州库尔勒市X229与机场路交叉口正南方向465米左右",
        "tel": "18609960581",
        "category": "基础设施:公共设施:公共厕所",
        "type": 0,
        "location": {
            "lat": 41.644004,
            "lng": 86.158726
        },
        "ad_info": {
            "adcode": 652801,
            "province": "新疆维吾尔自治区",
            "city": "巴音郭楞蒙古自治州",
            "district": "库尔勒市"
        }
    },
    {
        "id": "17140244804833813763",
        "title": "南屯服务区公共厕所",
        "address": "新疆维吾尔自治区巴音郭楞蒙古自治州且末县G0612西和高速与南屯服务区交叉口西南420米",
        "tel": "",
        "category": "基础设施:公共设施:公共厕所",
        "type": 0,
        "location": {
            "lat": 37.831925,
            "lng": 84.181065
        },
        "ad_info": {
            "adcode": 652825,
            "province": "新疆维吾尔自治区",
            "city": "巴音郭楞蒙古自治州",
            "district": "且末县"
        }
    },
    {
        "id": "16277155798584096325",
        "title": "萨勒瓦墩服务区公共卫生间",
        "address": "新疆维吾尔自治区巴音郭楞蒙古自治州且末县G0612西和高速与萨勒瓦墩服务区交叉口西440米",
        "tel": "",
        "category": "基础设施:公共设施:公共厕所",
        "type": 0,
        "location": {
            "lat": 38.194281,
            "lng": 85.111082
        },
        "ad_info": {
            "adcode": 652825,
            "province": "新疆维吾尔自治区",
            "city": "巴音郭楞蒙古自治州",
            "district": "且末县"
        }
    },
    {
        "id": "15179023037966612187",
        "title": "梧桐湾服务区公共卫生间",
        "address": "新疆维吾尔自治区巴音郭楞蒙古自治州且末县G0612西和高速与梧桐湾服务区交叉口西500米",
        "tel": "",
        "category": "基础设施:公共设施:公共厕所",
        "type": 0,
        "location": {
            "lat": 38.605562,
            "lng": 86.430457
        },
        "ad_info": {
            "adcode": 652825,
            "province": "新疆维吾尔自治区",
            "city": "巴音郭楞蒙古自治州",
            "district": "且末县"
        }
    },
    {
        "id": "12739663205416600529",
        "title": "公共厕所",
        "address": "新疆维吾尔自治区巴音郭楞蒙古自治州和硕县星光夜市西北侧90米",
        "tel": "",
        "category": "基础设施:公共设施:公共厕所",
        "type": 0,
        "location": {
            "lat": 42.195855,
            "lng": 86.965419
        },
        "ad_info": {
            "adcode": 652828,
            "province": "新疆维吾尔自治区",
            "city": "巴音郭楞蒙古自治州",
            "district": "和硕县"
        }
    },
    {
        "id": "11151892063310993244",
        "title": "公共厕所(若羌县市民服务中心大楼南侧)",
        "address": "新疆维吾尔自治区巴音郭楞蒙古自治州若羌县胜利路265号",
        "tel": "",
        "category": "基础设施:公共设施:公共厕所",
        "type": 0,
        "location": {
            "lat": 39.017295,
            "lng": 88.170321
        },
        "ad_info": {
            "adcode": 652824,
            "province": "新疆维吾尔自治区",
            "city": "巴音郭楞蒙古自治州",
            "district": "若羌县"
        }
    },
    {
        "id": "14924753788029370043",
        "title": "公共厕所",
        "address": "新疆维吾尔自治区巴音郭楞蒙古自治州库尔勒市延安路与铁克其路交叉口东南方向270米左右",
        "tel": "",
        "category": "基础设施:公共设施:公共厕所",
        "type": 0,
        "location": {
            "lat": 41.731133,
            "lng": 86.162542
        },
        "ad_info": {
            "adcode": 652801,
            "province": "新疆维吾尔自治区",
            "city": "巴音郭楞蒙古自治州",
            "district": "库尔勒市"
        }
    },
    {
        "id": "2117732857693794157",
        "title": "加油站公共厕所",
        "address": "新疆维吾尔自治区巴音郭楞蒙古自治州库尔勒市314国道529公里处(库尔楚收费站旁)附近",
        "tel": "",
        "category": "基础设施:公共设施:公共厕所",
        "type": 0,
        "location": {
            "lat": 41.963271,
            "lng": 85.381879
        },
        "ad_info": {
            "adcode": 652801,
            "province": "新疆维吾尔自治区",
            "city": "巴音郭楞蒙古自治州",
            "district": "库尔勒市"
        }
    },
    {
        "id": "16966663553386046749",
        "title": "梧桐湾服务区公共卫生间",
        "address": "新疆维吾尔自治区巴音郭楞蒙古自治州且末县中国石油梧桐湾服务区加油站西南侧200米",
        "tel": "",
        "category": "基础设施:公共设施:公共厕所",
        "type": 0,
        "location": {
            "lat": 38.603563,
            "lng": 86.431307
        },
        "ad_info": {
            "adcode": 652825,
            "province": "新疆维吾尔自治区",
            "city": "巴音郭楞蒙古自治州",
            "district": "且末县"
        }
    },
    {
        "id": "2450569150833815165",
        "title": "公共厕所",
        "address": "新疆维吾尔自治区巴音郭楞蒙古自治州且末县丝绸路与埃塔路交叉口正北方向102米左右",
        "tel": "",
        "category": "基础设施:公共设施:公共厕所",
        "type": 0,
        "location": {
            "lat": 38.137228,
            "lng": 85.531968
        },
        "ad_info": {
            "adcode": 652825,
            "province": "新疆维吾尔自治区",
            "city": "巴音郭楞蒙古自治州",
            "district": "且末县"
        }
    },
    {
        "id": "8020175236601305612",
        "title": "公共厕所",
        "address": "新疆维吾尔自治区巴音郭楞蒙古自治州库尔勒市和硕路与和静路交叉口东北方向227米左右",
        "tel": "",
        "category": "基础设施:公共设施:公共厕所",
        "type": 0,
        "location": {
            "lat": 41.720207,
            "lng": 86.147718
        },
        "ad_info": {
            "adcode": 652801,
            "province": "新疆维吾尔自治区",
            "city": "巴音郭楞蒙古自治州",
            "district": "库尔勒市"
        }
    },
    {
        "id": "1917528974778237117",
        "title": "公共厕所",
        "address": "新疆维吾尔自治区巴音郭楞蒙古自治州博湖县公共体育场北侧",
        "tel": "",
        "category": "基础设施:公共设施:公共厕所",
        "type": 0,
        "location": {
            "lat": 41.982852,
            "lng": 86.610336
        },
        "ad_info": {
            "adcode": 652829,
            "province": "新疆维吾尔自治区",
            "city": "巴音郭楞蒙古自治州",
            "district": "博湖县"
        }
    },
    {
        "id": "9191206231775533917",
        "title": "公共厕所",
        "address": "新疆维吾尔自治区巴音郭楞蒙古自治州尉犁县孔雀路与纺居路交叉口东北方向128米左右",
        "tel": "",
        "category": "基础设施:公共设施:公共厕所",
        "type": 0,
        "location": {
            "lat": 41.362993,
            "lng": 86.261982
        },
        "ad_info": {
            "adcode": 652823,
            "province": "新疆维吾尔自治区",
            "city": "巴音郭楞蒙古自治州",
            "district": "尉犁县"
        }
    },
    {
        "id": "5165033071717988858",
        "title": "公共厕所(若羌县人民广场)",
        "address": "新疆维吾尔自治区巴音郭楞蒙古自治州若羌县团结路与若羌县商业街交叉口正北方向49米左右",
        "tel": "",
        "category": "基础设施:公共设施:公共厕所",
        "type": 0,
        "location": {
            "lat": 39.021918,
            "lng": 88.165476
        },
        "ad_info": {
            "adcode": 652824,
            "province": "新疆维吾尔自治区",
            "city": "巴音郭楞蒙古自治州",
            "district": "若羌县"
        }
    },
    {
        "id": "2701455570202211103",
        "title": "乌什塔拉服务区公共厕所",
        "address": "新疆维吾尔自治区巴音郭楞蒙古自治州和硕县乌什塔拉西立交桥与吐和高速交叉口正东方向1744米左右",
        "tel": "",
        "category": "基础设施:公共设施:公共厕所",
        "type": 0,
        "location": {
            "lat": 42.244765,
            "lng": 87.243054
        },
        "ad_info": {
            "adcode": 652828,
            "province": "新疆维吾尔自治区",
            "city": "巴音郭楞蒙古自治州",
            "district": "和硕县"
        }
    },
    {
        "id": "18068824811717137",
        "title": "米兰服务区公共厕所",
        "address": "新疆维吾尔自治区巴音郭楞蒙古自治州若羌县G0612西和高速与米兰服务区交叉口西440米",
        "tel": "",
        "category": "基础设施:公共设施:公共厕所",
        "type": 0,
        "location": {
            "lat": 39.196024,
            "lng": 88.91664
        },
        "ad_info": {
            "adcode": 652824,
            "province": "新疆维吾尔自治区",
            "city": "巴音郭楞蒙古自治州",
            "district": "若羌县"
        }
    },
    {
        "id": "12722188392004397332",
        "title": "公共厕所",
        "address": "新疆维吾尔自治区巴音郭楞蒙古自治州库尔勒市平安路铁路42区",
        "tel": "",
        "category": "基础设施:公共设施:公共厕所",
        "type": 0,
        "location": {
            "lat": 41.732214,
            "lng": 86.207427
        },
        "ad_info": {
            "adcode": 652801,
            "province": "新疆维吾尔自治区",
            "city": "巴音郭楞蒙古自治州",
            "district": "库尔勒市"
        }
    },
    {
        "id": "14991426136898242081",
        "title": "公共厕所",
        "address": "新疆维吾尔自治区巴音郭楞蒙古自治州库尔勒市北山路与北山路驿站巷交叉口正西方向342米左右",
        "tel": "",
        "category": "基础设施:公共设施:公共厕所",
        "type": 0,
        "location": {
            "lat": 41.77448,
            "lng": 86.143855
        },
        "ad_info": {
            "adcode": 652801,
            "province": "新疆维吾尔自治区",
            "city": "巴音郭楞蒙古自治州",
            "district": "库尔勒市"
        }
    },
    {
        "id": "14107812066140176310",
        "title": "公共厕所(XJ-BY-0303)",
        "address": "新疆维吾尔自治区巴音郭楞蒙古自治州尉犁县解放路7号",
        "tel": "",
        "category": "基础设施:公共设施:公共厕所",
        "type": 0,
        "location": {
            "lat": 41.341778,
            "lng": 86.264765
        },
        "ad_info": {
            "adcode": 652823,
            "province": "新疆维吾尔自治区",
            "city": "巴音郭楞蒙古自治州",
            "district": "尉犁县"
        }
    },
    {
        "id": "12261615289538971949",
        "title": "洗手间",
        "address": "新疆维吾尔自治区巴音郭楞蒙古自治州库尔勒市交通东路与交通东路北三巷交叉口正南方向109米左右",
        "tel": "",
        "category": "基础设施:公共设施:公共厕所",
        "type": 0,
        "location": {
            "lat": 41.770398,
            "lng": 86.152032
        },
        "ad_info": {
            "adcode": 652801,
            "province": "新疆维吾尔自治区",
            "city": "巴音郭楞蒙古自治州",
            "district": "库尔勒市"
        }
    },
    {
        "id": "14090235491190708317",
        "title": "库尔勒自驾游服务区公共厕所",
        "address": "新疆维吾尔自治区巴音郭楞蒙古自治州库尔勒市X229与机场路交叉口正南方向465米左右",
        "tel": "18609960581",
        "category": "基础设施:公共设施:公共厕所",
        "type": 0,
        "location": {
            "lat": 41.644004,
            "lng": 86.158726
        },
        "ad_info": {
            "adcode": 652801,
            "province": "新疆维吾尔自治区",
            "city": "巴音郭楞蒙古自治州",
            "district": "库尔勒市"
        }
    },
    {
        "id": "17140244804833813763",
        "title": "南屯服务区公共厕所",
        "address": "新疆维吾尔自治区巴音郭楞蒙古自治州且末县G0612西和高速与南屯服务区交叉口西南420米",
        "tel": "",
        "category": "基础设施:公共设施:公共厕所",
        "type": 0,
        "location": {
            "lat": 37.831925,
            "lng": 84.181065
        },
        "ad_info": {
            "adcode": 652825,
            "province": "新疆维吾尔自治区",
            "city": "巴音郭楞蒙古自治州",
            "district": "且末县"
        }
    },
    {
        "id": "16277155798584096325",
        "title": "萨勒瓦墩服务区公共卫生间",
        "address": "新疆维吾尔自治区巴音郭楞蒙古自治州且末县G0612西和高速与萨勒瓦墩服务区交叉口西440米",
        "tel": "",
        "category": "基础设施:公共设施:公共厕所",
        "type": 0,
        "location": {
            "lat": 38.194281,
            "lng": 85.111082
        },
        "ad_info": {
            "adcode": 652825,
            "province": "新疆维吾尔自治区",
            "city": "巴音郭楞蒙古自治州",
            "district": "且末县"
        }
    },
    {
        "id": "15179023037966612187",
        "title": "梧桐湾服务区公共卫生间",
        "address": "新疆维吾尔自治区巴音郭楞蒙古自治州且末县G0612西和高速与梧桐湾服务区交叉口西500米",
        "tel": "",
        "category": "基础设施:公共设施:公共厕所",
        "type": 0,
        "location": {
            "lat": 38.605562,
            "lng": 86.430457
        },
        "ad_info": {
            "adcode": 652825,
            "province": "新疆维吾尔自治区",
            "city": "巴音郭楞蒙古自治州",
            "district": "且末县"
        }
    },
    {
        "id": "12739663205416600529",
        "title": "公共厕所",
        "address": "新疆维吾尔自治区巴音郭楞蒙古自治州和硕县星光夜市西北侧90米",
        "tel": "",
        "category": "基础设施:公共设施:公共厕所",
        "type": 0,
        "location": {
            "lat": 42.195855,
            "lng": 86.965419
        },
        "ad_info": {
            "adcode": 652828,
            "province": "新疆维吾尔自治区",
            "city": "巴音郭楞蒙古自治州",
            "district": "和硕县"
        }
    },
    {
        "id": "11151892063310993244",
        "title": "公共厕所(若羌县市民服务中心大楼南侧)",
        "address": "新疆维吾尔自治区巴音郭楞蒙古自治州若羌县胜利路265号",
        "tel": "",
        "category": "基础设施:公共设施:公共厕所",
        "type": 0,
        "location": {
            "lat": 39.017295,
            "lng": 88.170321
        },
        "ad_info": {
            "adcode": 652824,
            "province": "新疆维吾尔自治区",
            "city": "巴音郭楞蒙古自治州",
            "district": "若羌县"
        }
    },
    {
        "id": "14924753788029370043",
        "title": "公共厕所",
        "address": "新疆维吾尔自治区巴音郭楞蒙古自治州库尔勒市延安路与铁克其路交叉口东南方向270米左右",
        "tel": "",
        "category": "基础设施:公共设施:公共厕所",
        "type": 0,
        "location": {
            "lat": 41.731133,
            "lng": 86.162542
        },
        "ad_info": {
            "adcode": 652801,
            "province": "新疆维吾尔自治区",
            "city": "巴音郭楞蒙古自治州",
            "district": "库尔勒市"
        }
    },
    {
        "id": "2117732857693794157",
        "title": "加油站公共厕所",
        "address": "新疆维吾尔自治区巴音郭楞蒙古自治州库尔勒市314国道529公里处(库尔楚收费站旁)附近",
        "tel": "",
        "category": "基础设施:公共设施:公共厕所",
        "type": 0,
        "location": {
            "lat": 41.963271,
            "lng": 85.381879
        },
        "ad_info": {
            "adcode": 652801,
            "province": "新疆维吾尔自治区",
            "city": "巴音郭楞蒙古自治州",
            "district": "库尔勒市"
        }
    },
    {
        "id": "16966663553386046749",
        "title": "梧桐湾服务区公共卫生间",
        "address": "新疆维吾尔自治区巴音郭楞蒙古自治州且末县中国石油梧桐湾服务区加油站西南侧200米",
        "tel": "",
        "category": "基础设施:公共设施:公共厕所",
        "type": 0,
        "location": {
            "lat": 38.603563,
            "lng": 86.431307
        },
        "ad_info": {
            "adcode": 652825,
            "province": "新疆维吾尔自治区",
            "city": "巴音郭楞蒙古自治州",
            "district": "且末县"
        }
    },
    {
        "id": "2450569150833815165",
        "title": "公共厕所",
        "address": "新疆维吾尔自治区巴音郭楞蒙古自治州且末县丝绸路与埃塔路交叉口正北方向102米左右",
        "tel": "",
        "category": "基础设施:公共设施:公共厕所",
        "type": 0,
        "location": {
            "lat": 38.137228,
            "lng": 85.531968
        },
        "ad_info": {
            "adcode": 652825,
            "province": "新疆维吾尔自治区",
            "city": "巴音郭楞蒙古自治州",
            "district": "且末县"
        }
    },
    {
        "id": "8020175236601305612",
        "title": "公共厕所",
        "address": "新疆维吾尔自治区巴音郭楞蒙古自治州库尔勒市和硕路与和静路交叉口东北方向227米左右",
        "tel": "",
        "category": "基础设施:公共设施:公共厕所",
        "type": 0,
        "location": {
            "lat": 41.720207,
            "lng": 86.147718
        },
        "ad_info": {
            "adcode": 652801,
            "province": "新疆维吾尔自治区",
            "city": "巴音郭楞蒙古自治州",
            "district": "库尔勒市"
        }
    },
    {
        "id": "1917528974778237117",
        "title": "公共厕所",
        "address": "新疆维吾尔自治区巴音郭楞蒙古自治州博湖县公共体育场北侧",
        "tel": "",
        "category": "基础设施:公共设施:公共厕所",
        "type": 0,
        "location": {
            "lat": 41.982852,
            "lng": 86.610336
        },
        "ad_info": {
            "adcode": 652829,
            "province": "新疆维吾尔自治区",
            "city": "巴音郭楞蒙古自治州",
            "district": "博湖县"
        }
    },
    {
        "id": "9191206231775533917",
        "title": "公共厕所",
        "address": "新疆维吾尔自治区巴音郭楞蒙古自治州尉犁县孔雀路与纺居路交叉口东北方向128米左右",
        "tel": "",
        "category": "基础设施:公共设施:公共厕所",
        "type": 0,
        "location": {
            "lat": 41.362993,
            "lng": 86.261982
        },
        "ad_info": {
            "adcode": 652823,
            "province": "新疆维吾尔自治区",
            "city": "巴音郭楞蒙古自治州",
            "district": "尉犁县"
        }
    },
    {
        "id": "5165033071717988858",
        "title": "公共厕所(若羌县人民广场)",
        "address": "新疆维吾尔自治区巴音郭楞蒙古自治州若羌县团结路与若羌县商业街交叉口正北方向49米左右",
        "tel": "",
        "category": "基础设施:公共设施:公共厕所",
        "type": 0,
        "location": {
            "lat": 39.021918,
            "lng": 88.165476
        },
        "ad_info": {
            "adcode": 652824,
            "province": "新疆维吾尔自治区",
            "city": "巴音郭楞蒙古自治州",
            "district": "若羌县"
        }
    },
    {
        "id": "2701455570202211103",
        "title": "乌什塔拉服务区公共厕所",
        "address": "新疆维吾尔自治区巴音郭楞蒙古自治州和硕县乌什塔拉西立交桥与吐和高速交叉口正东方向1744米左右",
        "tel": "",
        "category": "基础设施:公共设施:公共厕所",
        "type": 0,
        "location": {
            "lat": 42.244765,
            "lng": 87.243054
        },
        "ad_info": {
            "adcode": 652828,
            "province": "新疆维吾尔自治区",
            "city": "巴音郭楞蒙古自治州",
            "district": "和硕县"
        }
    },
    {
        "id": "18068824811717137",
        "title": "米兰服务区公共厕所",
        "address": "新疆维吾尔自治区巴音郭楞蒙古自治州若羌县G0612西和高速与米兰服务区交叉口西440米",
        "tel": "",
        "category": "基础设施:公共设施:公共厕所",
        "type": 0,
        "location": {
            "lat": 39.196024,
            "lng": 88.91664
        },
        "ad_info": {
            "adcode": 652824,
            "province": "新疆维吾尔自治区",
            "city": "巴音郭楞蒙古自治州",
            "district": "若羌县"
        }
    },
    {
        "id": "12722188392004397332",
        "title": "公共厕所",
        "address": "新疆维吾尔自治区巴音郭楞蒙古自治州库尔勒市平安路铁路42区",
        "tel": "",
        "category": "基础设施:公共设施:公共厕所",
        "type": 0,
        "location": {
            "lat": 41.732214,
            "lng": 86.207427
        },
        "ad_info": {
            "adcode": 652801,
            "province": "新疆维吾尔自治区",
            "city": "巴音郭楞蒙古自治州",
            "district": "库尔勒市"
        }
    },
    {
        "id": "14991426136898242081",
        "title": "公共厕所",
        "address": "新疆维吾尔自治区巴音郭楞蒙古自治州库尔勒市北山路与北山路驿站巷交叉口正西方向342米左右",
        "tel": "",
        "category": "基础设施:公共设施:公共厕所",
        "type": 0,
        "location": {
            "lat": 41.77448,
            "lng": 86.143855
        },
        "ad_info": {
            "adcode": 652801,
            "province": "新疆维吾尔自治区",
            "city": "巴音郭楞蒙古自治州",
            "district": "库尔勒市"
        }
    },
    {
        "id": "14107812066140176310",
        "title": "公共厕所(XJ-BY-0303)",
        "address": "新疆维吾尔自治区巴音郭楞蒙古自治州尉犁县解放路7号",
        "tel": "",
        "category": "基础设施:公共设施:公共厕所",
        "type": 0,
        "location": {
            "lat": 41.341778,
            "lng": 86.264765
        },
        "ad_info": {
            "adcode": 652823,
            "province": "新疆维吾尔自治区",
            "city": "巴音郭楞蒙古自治州",
            "district": "尉犁县"
        }
    },
    {
        "id": "12261615289538971949",
        "title": "洗手间",
        "address": "新疆维吾尔自治区巴音郭楞蒙古自治州库尔勒市交通东路与交通东路北三巷交叉口正南方向109米左右",
        "tel": "",
        "category": "基础设施:公共设施:公共厕所",
        "type": 0,
        "location": {
            "lat": 41.770398,
            "lng": 86.152032
        },
        "ad_info": {
            "adcode": 652801,
            "province": "新疆维吾尔自治区",
            "city": "巴音郭楞蒙古自治州",
            "district": "库尔勒市"
        }
    },
    {
        "id": "14090235491190708317",
        "title": "库尔勒自驾游服务区公共厕所",
        "address": "新疆维吾尔自治区巴音郭楞蒙古自治州库尔勒市X229与机场路交叉口正南方向465米左右",
        "tel": "18609960581",
        "category": "基础设施:公共设施:公共厕所",
        "type": 0,
        "location": {
            "lat": 41.644004,
            "lng": 86.158726
        },
        "ad_info": {
            "adcode": 652801,
            "province": "新疆维吾尔自治区",
            "city": "巴音郭楞蒙古自治州",
            "district": "库尔勒市"
        }
    },
    {
        "id": "17140244804833813763",
        "title": "南屯服务区公共厕所",
        "address": "新疆维吾尔自治区巴音郭楞蒙古自治州且末县G0612西和高速与南屯服务区交叉口西南420米",
        "tel": "",
        "category": "基础设施:公共设施:公共厕所",
        "type": 0,
        "location": {
            "lat": 37.831925,
            "lng": 84.181065
        },
        "ad_info": {
            "adcode": 652825,
            "province": "新疆维吾尔自治区",
            "city": "巴音郭楞蒙古自治州",
            "district": "且末县"
        }
    },
    {
        "id": "16277155798584096325",
        "title": "萨勒瓦墩服务区公共卫生间",
        "address": "新疆维吾尔自治区巴音郭楞蒙古自治州且末县G0612西和高速与萨勒瓦墩服务区交叉口西440米",
        "tel": "",
        "category": "基础设施:公共设施:公共厕所",
        "type": 0,
        "location": {
            "lat": 38.194281,
            "lng": 85.111082
        },
        "ad_info": {
            "adcode": 652825,
            "province": "新疆维吾尔自治区",
            "city": "巴音郭楞蒙古自治州",
            "district": "且末县"
        }
    },
    {
        "id": "15179023037966612187",
        "title": "梧桐湾服务区公共卫生间",
        "address": "新疆维吾尔自治区巴音郭楞蒙古自治州且末县G0612西和高速与梧桐湾服务区交叉口西500米",
        "tel": "",
        "category": "基础设施:公共设施:公共厕所",
        "type": 0,
        "location": {
            "lat": 38.605562,
            "lng": 86.430457
        },
        "ad_info": {
            "adcode": 652825,
            "province": "新疆维吾尔自治区",
            "city": "巴音郭楞蒙古自治州",
            "district": "且末县"
        }
    },
    {
        "id": "12739663205416600529",
        "title": "公共厕所",
        "address": "新疆维吾尔自治区巴音郭楞蒙古自治州和硕县星光夜市西北侧90米",
        "tel": "",
        "category": "基础设施:公共设施:公共厕所",
        "type": 0,
        "location": {
            "lat": 42.195855,
            "lng": 86.965419
        },
        "ad_info": {
            "adcode": 652828,
            "province": "新疆维吾尔自治区",
            "city": "巴音郭楞蒙古自治州",
            "district": "和硕县"
        }
    },
    {
        "id": "11151892063310993244",
        "title": "公共厕所(若羌县市民服务中心大楼南侧)",
        "address": "新疆维吾尔自治区巴音郭楞蒙古自治州若羌县胜利路265号",
        "tel": "",
        "category": "基础设施:公共设施:公共厕所",
        "type": 0,
        "location": {
            "lat": 39.017295,
            "lng": 88.170321
        },
        "ad_info": {
            "adcode": 652824,
            "province": "新疆维吾尔自治区",
            "city": "巴音郭楞蒙古自治州",
            "district": "若羌县"
        }
    },
    {
        "id": "14924753788029370043",
        "title": "公共厕所",
        "address": "新疆维吾尔自治区巴音郭楞蒙古自治州库尔勒市延安路与铁克其路交叉口东南方向270米左右",
        "tel": "",
        "category": "基础设施:公共设施:公共厕所",
        "type": 0,
        "location": {
            "lat": 41.731133,
            "lng": 86.162542
        },
        "ad_info": {
            "adcode": 652801,
            "province": "新疆维吾尔自治区",
            "city": "巴音郭楞蒙古自治州",
            "district": "库尔勒市"
        }
    },
    {
        "id": "2117732857693794157",
        "title": "加油站公共厕所",
        "address": "新疆维吾尔自治区巴音郭楞蒙古自治州库尔勒市314国道529公里处(库尔楚收费站旁)附近",
        "tel": "",
        "category": "基础设施:公共设施:公共厕所",
        "type": 0,
        "location": {
            "lat": 41.963271,
            "lng": 85.381879
        },
        "ad_info": {
            "adcode": 652801,
            "province": "新疆维吾尔自治区",
            "city": "巴音郭楞蒙古自治州",
            "district": "库尔勒市"
        }
    },
    {
        "id": "16966663553386046749",
        "title": "梧桐湾服务区公共卫生间",
        "address": "新疆维吾尔自治区巴音郭楞蒙古自治州且末县中国石油梧桐湾服务区加油站西南侧200米",
        "tel": "",
        "category": "基础设施:公共设施:公共厕所",
        "type": 0,
        "location": {
            "lat": 38.603563,
            "lng": 86.431307
        },
        "ad_info": {
            "adcode": 652825,
            "province": "新疆维吾尔自治区",
            "city": "巴音郭楞蒙古自治州",
            "district": "且末县"
        }
    },
    {
        "id": "2450569150833815165",
        "title": "公共厕所",
        "address": "新疆维吾尔自治区巴音郭楞蒙古自治州且末县丝绸路与埃塔路交叉口正北方向102米左右",
        "tel": "",
        "category": "基础设施:公共设施:公共厕所",
        "type": 0,
        "location": {
            "lat": 38.137228,
            "lng": 85.531968
        },
        "ad_info": {
            "adcode": 652825,
            "province": "新疆维吾尔自治区",
            "city": "巴音郭楞蒙古自治州",
            "district": "且末县"
        }
    },
    {
        "id": "8020175236601305612",
        "title": "公共厕所",
        "address": "新疆维吾尔自治区巴音郭楞蒙古自治州库尔勒市和硕路与和静路交叉口东北方向227米左右",
        "tel": "",
        "category": "基础设施:公共设施:公共厕所",
        "type": 0,
        "location": {
            "lat": 41.720207,
            "lng": 86.147718
        },
        "ad_info": {
            "adcode": 652801,
            "province": "新疆维吾尔自治区",
            "city": "巴音郭楞蒙古自治州",
            "district": "库尔勒市"
        }
    },
    {
        "id": "1917528974778237117",
        "title": "公共厕所",
        "address": "新疆维吾尔自治区巴音郭楞蒙古自治州博湖县公共体育场北侧",
        "tel": "",
        "category": "基础设施:公共设施:公共厕所",
        "type": 0,
        "location": {
            "lat": 41.982852,
            "lng": 86.610336
        },
        "ad_info": {
            "adcode": 652829,
            "province": "新疆维吾尔自治区",
            "city": "巴音郭楞蒙古自治州",
            "district": "博湖县"
        }
    },
    {
        "id": "9191206231775533917",
        "title": "公共厕所",
        "address": "新疆维吾尔自治区巴音郭楞蒙古自治州尉犁县孔雀路与纺居路交叉口东北方向128米左右",
        "tel": "",
        "category": "基础设施:公共设施:公共厕所",
        "type": 0,
        "location": {
            "lat": 41.362993,
            "lng": 86.261982
        },
        "ad_info": {
            "adcode": 652823,
            "province": "新疆维吾尔自治区",
            "city": "巴音郭楞蒙古自治州",
            "district": "尉犁县"
        }
    },
    {
        "id": "5165033071717988858",
        "title": "公共厕所(若羌县人民广场)",
        "address": "新疆维吾尔自治区巴音郭楞蒙古自治州若羌县团结路与若羌县商业街交叉口正北方向49米左右",
        "tel": "",
        "category": "基础设施:公共设施:公共厕所",
        "type": 0,
        "location": {
            "lat": 39.021918,
            "lng": 88.165476
        },
        "ad_info": {
            "adcode": 652824,
            "province": "新疆维吾尔自治区",
            "city": "巴音郭楞蒙古自治州",
            "district": "若羌县"
        }
    },
    {
        "id": "2701455570202211103",
        "title": "乌什塔拉服务区公共厕所",
        "address": "新疆维吾尔自治区巴音郭楞蒙古自治州和硕县乌什塔拉西立交桥与吐和高速交叉口正东方向1744米左右",
        "tel": "",
        "category": "基础设施:公共设施:公共厕所",
        "type": 0,
        "location": {
            "lat": 42.244765,
            "lng": 87.243054
        },
        "ad_info": {
            "adcode": 652828,
            "province": "新疆维吾尔自治区",
            "city": "巴音郭楞蒙古自治州",
            "district": "和硕县"
        }
    },
    {
        "id": "18068824811717137",
        "title": "米兰服务区公共厕所",
        "address": "新疆维吾尔自治区巴音郭楞蒙古自治州若羌县G0612西和高速与米兰服务区交叉口西440米",
        "tel": "",
        "category": "基础设施:公共设施:公共厕所",
        "type": 0,
        "location": {
            "lat": 39.196024,
            "lng": 88.91664
        },
        "ad_info": {
            "adcode": 652824,
            "province": "新疆维吾尔自治区",
            "city": "巴音郭楞蒙古自治州",
            "district": "若羌县"
        }
    },
    {
        "id": "12722188392004397332",
        "title": "公共厕所",
        "address": "新疆维吾尔自治区巴音郭楞蒙古自治州库尔勒市平安路铁路42区",
        "tel": "",
        "category": "基础设施:公共设施:公共厕所",
        "type": 0,
        "location": {
            "lat": 41.732214,
            "lng": 86.207427
        },
        "ad_info": {
            "adcode": 652801,
            "province": "新疆维吾尔自治区",
            "city": "巴音郭楞蒙古自治州",
            "district": "库尔勒市"
        }
    },
    {
        "id": "14991426136898242081",
        "title": "公共厕所",
        "address": "新疆维吾尔自治区巴音郭楞蒙古自治州库尔勒市北山路与北山路驿站巷交叉口正西方向342米左右",
        "tel": "",
        "category": "基础设施:公共设施:公共厕所",
        "type": 0,
        "location": {
            "lat": 41.77448,
            "lng": 86.143855
        },
        "ad_info": {
            "adcode": 652801,
            "province": "新疆维吾尔自治区",
            "city": "巴音郭楞蒙古自治州",
            "district": "库尔勒市"
        }
    },
    {
        "id": "14107812066140176310",
        "title": "公共厕所(XJ-BY-0303)",
        "address": "新疆维吾尔自治区巴音郭楞蒙古自治州尉犁县解放路7号",
        "tel": "",
        "category": "基础设施:公共设施:公共厕所",
        "type": 0,
        "location": {
            "lat": 41.341778,
            "lng": 86.264765
        },
        "ad_info": {
            "adcode": 652823,
            "province": "新疆维吾尔自治区",
            "city": "巴音郭楞蒙古自治州",
            "district": "尉犁县"
        }
    },
    {
        "id": "12261615289538971949",
        "title": "洗手间",
        "address": "新疆维吾尔自治区巴音郭楞蒙古自治州库尔勒市交通东路与交通东路北三巷交叉口正南方向109米左右",
        "tel": "",
        "category": "基础设施:公共设施:公共厕所",
        "type": 0,
        "location": {
            "lat": 41.770398,
            "lng": 86.152032
        },
        "ad_info": {
            "adcode": 652801,
            "province": "新疆维吾尔自治区",
            "city": "巴音郭楞蒙古自治州",
            "district": "库尔勒市"
        }
    },
    {
        "id": "14090235491190708317",
        "title": "库尔勒自驾游服务区公共厕所",
        "address": "新疆维吾尔自治区巴音郭楞蒙古自治州库尔勒市X229与机场路交叉口正南方向465米左右",
        "tel": "18609960581",
        "category": "基础设施:公共设施:公共厕所",
        "type": 0,
        "location": {
            "lat": 41.644004,
            "lng": 86.158726
        },
        "ad_info": {
            "adcode": 652801,
            "province": "新疆维吾尔自治区",
            "city": "巴音郭楞蒙古自治州",
            "district": "库尔勒市"
        }
    },
    {
        "id": "17140244804833813763",
        "title": "南屯服务区公共厕所",
        "address": "新疆维吾尔自治区巴音郭楞蒙古自治州且末县G0612西和高速与南屯服务区交叉口西南420米",
        "tel": "",
        "category": "基础设施:公共设施:公共厕所",
        "type": 0,
        "location": {
            "lat": 37.831925,
            "lng": 84.181065
        },
        "ad_info": {
            "adcode": 652825,
            "province": "新疆维吾尔自治区",
            "city": "巴音郭楞蒙古自治州",
            "district": "且末县"
        }
    },
    {
        "id": "16277155798584096325",
        "title": "萨勒瓦墩服务区公共卫生间",
        "address": "新疆维吾尔自治区巴音郭楞蒙古自治州且末县G0612西和高速与萨勒瓦墩服务区交叉口西440米",
        "tel": "",
        "category": "基础设施:公共设施:公共厕所",
        "type": 0,
        "location": {
            "lat": 38.194281,
            "lng": 85.111082
        },
        "ad_info": {
            "adcode": 652825,
            "province": "新疆维吾尔自治区",
            "city": "巴音郭楞蒙古自治州",
            "district": "且末县"
        }
    },
    {
        "id": "15179023037966612187",
        "title": "梧桐湾服务区公共卫生间",
        "address": "新疆维吾尔自治区巴音郭楞蒙古自治州且末县G0612西和高速与梧桐湾服务区交叉口西500米",
        "tel": "",
        "category": "基础设施:公共设施:公共厕所",
        "type": 0,
        "location": {
            "lat": 38.605562,
            "lng": 86.430457
        },
        "ad_info": {
            "adcode": 652825,
            "province": "新疆维吾尔自治区",
            "city": "巴音郭楞蒙古自治州",
            "district": "且末县"
        }
    },
    {
        "id": "12739663205416600529",
        "title": "公共厕所",
        "address": "新疆维吾尔自治区巴音郭楞蒙古自治州和硕县星光夜市西北侧90米",
        "tel": "",
        "category": "基础设施:公共设施:公共厕所",
        "type": 0,
        "location": {
            "lat": 42.195855,
            "lng": 86.965419
        },
        "ad_info": {
            "adcode": 652828,
            "province": "新疆维吾尔自治区",
            "city": "巴音郭楞蒙古自治州",
            "district": "和硕县"
        }
    },
    {
        "id": "11151892063310993244",
        "title": "公共厕所(若羌县市民服务中心大楼南侧)",
        "address": "新疆维吾尔自治区巴音郭楞蒙古自治州若羌县胜利路265号",
        "tel": "",
        "category": "基础设施:公共设施:公共厕所",
        "type": 0,
        "location": {
            "lat": 39.017295,
            "lng": 88.170321
        },
        "ad_info": {
            "adcode": 652824,
            "province": "新疆维吾尔自治区",
            "city": "巴音郭楞蒙古自治州",
            "district": "若羌县"
        }
    },
    {
        "id": "14924753788029370043",
        "title": "公共厕所",
        "address": "新疆维吾尔自治区巴音郭楞蒙古自治州库尔勒市延安路与铁克其路交叉口东南方向270米左右",
        "tel": "",
        "category": "基础设施:公共设施:公共厕所",
        "type": 0,
        "location": {
            "lat": 41.731133,
            "lng": 86.162542
        },
        "ad_info": {
            "adcode": 652801,
            "province": "新疆维吾尔自治区",
            "city": "巴音郭楞蒙古自治州",
            "district": "库尔勒市"
        }
    },
    {
        "id": "2117732857693794157",
        "title": "加油站公共厕所",
        "address": "新疆维吾尔自治区巴音郭楞蒙古自治州库尔勒市314国道529公里处(库尔楚收费站旁)附近",
        "tel": "",
        "category": "基础设施:公共设施:公共厕所",
        "type": 0,
        "location": {
            "lat": 41.963271,
            "lng": 85.381879
        },
        "ad_info": {
            "adcode": 652801,
            "province": "新疆维吾尔自治区",
            "city": "巴音郭楞蒙古自治州",
            "district": "库尔勒市"
        }
    },
    {
        "id": "16966663553386046749",
        "title": "梧桐湾服务区公共卫生间",
        "address": "新疆维吾尔自治区巴音郭楞蒙古自治州且末县中国石油梧桐湾服务区加油站西南侧200米",
        "tel": "",
        "category": "基础设施:公共设施:公共厕所",
        "type": 0,
        "location": {
            "lat": 38.603563,
            "lng": 86.431307
        },
        "ad_info": {
            "adcode": 652825,
            "province": "新疆维吾尔自治区",
            "city": "巴音郭楞蒙古自治州",
            "district": "且末县"
        }
    },
    {
        "id": "2450569150833815165",
        "title": "公共厕所",
        "address": "新疆维吾尔自治区巴音郭楞蒙古自治州且末县丝绸路与埃塔路交叉口正北方向102米左右",
        "tel": "",
        "category": "基础设施:公共设施:公共厕所",
        "type": 0,
        "location": {
            "lat": 38.137228,
            "lng": 85.531968
        },
        "ad_info": {
            "adcode": 652825,
            "province": "新疆维吾尔自治区",
            "city": "巴音郭楞蒙古自治州",
            "district": "且末县"
        }
    },
    {
        "id": "8020175236601305612",
        "title": "公共厕所",
        "address": "新疆维吾尔自治区巴音郭楞蒙古自治州库尔勒市和硕路与和静路交叉口东北方向227米左右",
        "tel": "",
        "category": "基础设施:公共设施:公共厕所",
        "type": 0,
        "location": {
            "lat": 41.720207,
            "lng": 86.147718
        },
        "ad_info": {
            "adcode": 652801,
            "province": "新疆维吾尔自治区",
            "city": "巴音郭楞蒙古自治州",
            "district": "库尔勒市"
        }
    },
    {
        "id": "1917528974778237117",
        "title": "公共厕所",
        "address": "新疆维吾尔自治区巴音郭楞蒙古自治州博湖县公共体育场北侧",
        "tel": "",
        "category": "基础设施:公共设施:公共厕所",
        "type": 0,
        "location": {
            "lat": 41.982852,
            "lng": 86.610336
        },
        "ad_info": {
            "adcode": 652829,
            "province": "新疆维吾尔自治区",
            "city": "巴音郭楞蒙古自治州",
            "district": "博湖县"
        }
    },
    {
        "id": "9191206231775533917",
        "title": "公共厕所",
        "address": "新疆维吾尔自治区巴音郭楞蒙古自治州尉犁县孔雀路与纺居路交叉口东北方向128米左右",
        "tel": "",
        "category": "基础设施:公共设施:公共厕所",
        "type": 0,
        "location": {
            "lat": 41.362993,
            "lng": 86.261982
        },
        "ad_info": {
            "adcode": 652823,
            "province": "新疆维吾尔自治区",
            "city": "巴音郭楞蒙古自治州",
            "district": "尉犁县"
        }
    },
    {
        "id": "5165033071717988858",
        "title": "公共厕所(若羌县人民广场)",
        "address": "新疆维吾尔自治区巴音郭楞蒙古自治州若羌县团结路与若羌县商业街交叉口正北方向49米左右",
        "tel": "",
        "category": "基础设施:公共设施:公共厕所",
        "type": 0,
        "location": {
            "lat": 39.021918,
            "lng": 88.165476
        },
        "ad_info": {
            "adcode": 652824,
            "province": "新疆维吾尔自治区",
            "city": "巴音郭楞蒙古自治州",
            "district": "若羌县"
        }
    },
    {
        "id": "2701455570202211103",
        "title": "乌什塔拉服务区公共厕所",
        "address": "新疆维吾尔自治区巴音郭楞蒙古自治州和硕县乌什塔拉西立交桥与吐和高速交叉口正东方向1744米左右",
        "tel": "",
        "category": "基础设施:公共设施:公共厕所",
        "type": 0,
        "location": {
            "lat": 42.244765,
            "lng": 87.243054
        },
        "ad_info": {
            "adcode": 652828,
            "province": "新疆维吾尔自治区",
            "city": "巴音郭楞蒙古自治州",
            "district": "和硕县"
        }
    },
    {
        "id": "18068824811717137",
        "title": "米兰服务区公共厕所",
        "address": "新疆维吾尔自治区巴音郭楞蒙古自治州若羌县G0612西和高速与米兰服务区交叉口西440米",
        "tel": "",
        "category": "基础设施:公共设施:公共厕所",
        "type": 0,
        "location": {
            "lat": 39.196024,
            "lng": 88.91664
        },
        "ad_info": {
            "adcode": 652824,
            "province": "新疆维吾尔自治区",
            "city": "巴音郭楞蒙古自治州",
            "district": "若羌县"
        }
    },
    {
        "id": "12722188392004397332",
        "title": "公共厕所",
        "address": "新疆维吾尔自治区巴音郭楞蒙古自治州库尔勒市平安路铁路42区",
        "tel": "",
        "category": "基础设施:公共设施:公共厕所",
        "type": 0,
        "location": {
            "lat": 41.732214,
            "lng": 86.207427
        },
        "ad_info": {
            "adcode": 652801,
            "province": "新疆维吾尔自治区",
            "city": "巴音郭楞蒙古自治州",
            "district": "库尔勒市"
        }
    },
    {
        "id": "14991426136898242081",
        "title": "公共厕所",
        "address": "新疆维吾尔自治区巴音郭楞蒙古自治州库尔勒市北山路与北山路驿站巷交叉口正西方向342米左右",
        "tel": "",
        "category": "基础设施:公共设施:公共厕所",
        "type": 0,
        "location": {
            "lat": 41.77448,
            "lng": 86.143855
        },
        "ad_info": {
            "adcode": 652801,
            "province": "新疆维吾尔自治区",
            "city": "巴音郭楞蒙古自治州",
            "district": "库尔勒市"
        }
    },
    {
        "id": "14107812066140176310",
        "title": "公共厕所(XJ-BY-0303)",
        "address": "新疆维吾尔自治区巴音郭楞蒙古自治州尉犁县解放路7号",
        "tel": "",
        "category": "基础设施:公共设施:公共厕所",
        "type": 0,
        "location": {
            "lat": 41.341778,
            "lng": 86.264765
        },
        "ad_info": {
            "adcode": 652823,
            "province": "新疆维吾尔自治区",
            "city": "巴音郭楞蒙古自治州",
            "district": "尉犁县"
        }
    },
    {
        "id": "12261615289538971949",
        "title": "洗手间",
        "address": "新疆维吾尔自治区巴音郭楞蒙古自治州库尔勒市交通东路与交通东路北三巷交叉口正南方向109米左右",
        "tel": "",
        "category": "基础设施:公共设施:公共厕所",
        "type": 0,
        "location": {
            "lat": 41.770398,
            "lng": 86.152032
        },
        "ad_info": {
            "adcode": 652801,
            "province": "新疆维吾尔自治区",
            "city": "巴音郭楞蒙古自治州",
            "district": "库尔勒市"
        }
    },
    {
        "id": "14090235491190708317",
        "title": "库尔勒自驾游服务区公共厕所",
        "address": "新疆维吾尔自治区巴音郭楞蒙古自治州库尔勒市X229与机场路交叉口正南方向465米左右",
        "tel": "18609960581",
        "category": "基础设施:公共设施:公共厕所",
        "type": 0,
        "location": {
            "lat": 41.644004,
            "lng": 86.158726
        },
        "ad_info": {
            "adcode": 652801,
            "province": "新疆维吾尔自治区",
            "city": "巴音郭楞蒙古自治州",
            "district": "库尔勒市"
        }
    },
    {
        "id": "17140244804833813763",
        "title": "南屯服务区公共厕所",
        "address": "新疆维吾尔自治区巴音郭楞蒙古自治州且末县G0612西和高速与南屯服务区交叉口西南420米",
        "tel": "",
        "category": "基础设施:公共设施:公共厕所",
        "type": 0,
        "location": {
            "lat": 37.831925,
            "lng": 84.181065
        },
        "ad_info": {
            "adcode": 652825,
            "province": "新疆维吾尔自治区",
            "city": "巴音郭楞蒙古自治州",
            "district": "且末县"
        }
    },
    {
        "id": "16277155798584096325",
        "title": "萨勒瓦墩服务区公共卫生间",
        "address": "新疆维吾尔自治区巴音郭楞蒙古自治州且末县G0612西和高速与萨勒瓦墩服务区交叉口西440米",
        "tel": "",
        "category": "基础设施:公共设施:公共厕所",
        "type": 0,
        "location": {
            "lat": 38.194281,
            "lng": 85.111082
        },
        "ad_info": {
            "adcode": 652825,
            "province": "新疆维吾尔自治区",
            "city": "巴音郭楞蒙古自治州",
            "district": "且末县"
        }
    },
    {
        "id": "15179023037966612187",
        "title": "梧桐湾服务区公共卫生间",
        "address": "新疆维吾尔自治区巴音郭楞蒙古自治州且末县G0612西和高速与梧桐湾服务区交叉口西500米",
        "tel": "",
        "category": "基础设施:公共设施:公共厕所",
        "type": 0,
        "location": {
            "lat": 38.605562,
            "lng": 86.430457
        },
        "ad_info": {
            "adcode": 652825,
            "province": "新疆维吾尔自治区",
            "city": "巴音郭楞蒙古自治州",
            "district": "且末县"
        }
    },
    {
        "id": "12739663205416600529",
        "title": "公共厕所",
        "address": "新疆维吾尔自治区巴音郭楞蒙古自治州和硕县星光夜市西北侧90米",
        "tel": "",
        "category": "基础设施:公共设施:公共厕所",
        "type": 0,
        "location": {
            "lat": 42.195855,
            "lng": 86.965419
        },
        "ad_info": {
            "adcode": 652828,
            "province": "新疆维吾尔自治区",
            "city": "巴音郭楞蒙古自治州",
            "district": "和硕县"
        }
    },
    {
        "id": "11151892063310993244",
        "title": "公共厕所(若羌县市民服务中心大楼南侧)",
        "address": "新疆维吾尔自治区巴音郭楞蒙古自治州若羌县胜利路265号",
        "tel": "",
        "category": "基础设施:公共设施:公共厕所",
        "type": 0,
        "location": {
            "lat": 39.017295,
            "lng": 88.170321
        },
        "ad_info": {
            "adcode": 652824,
            "province": "新疆维吾尔自治区",
            "city": "巴音郭楞蒙古自治州",
            "district": "若羌县"
        }
    },
    {
        "id": "14924753788029370043",
        "title": "公共厕所",
        "address": "新疆维吾尔自治区巴音郭楞蒙古自治州库尔勒市延安路与铁克其路交叉口东南方向270米左右",
        "tel": "",
        "category": "基础设施:公共设施:公共厕所",
        "type": 0,
        "location": {
            "lat": 41.731133,
            "lng": 86.162542
        },
        "ad_info": {
            "adcode": 652801,
            "province": "新疆维吾尔自治区",
            "city": "巴音郭楞蒙古自治州",
            "district": "库尔勒市"
        }
    },
    {
        "id": "2117732857693794157",
        "title": "加油站公共厕所",
        "address": "新疆维吾尔自治区巴音郭楞蒙古自治州库尔勒市314国道529公里处(库尔楚收费站旁)附近",
        "tel": "",
        "category": "基础设施:公共设施:公共厕所",
        "type": 0,
        "location": {
            "lat": 41.963271,
            "lng": 85.381879
        },
        "ad_info": {
            "adcode": 652801,
            "province": "新疆维吾尔自治区",
            "city": "巴音郭楞蒙古自治州",
            "district": "库尔勒市"
        }
    },
    {
        "id": "16966663553386046749",
        "title": "梧桐湾服务区公共卫生间",
        "address": "新疆维吾尔自治区巴音郭楞蒙古自治州且末县中国石油梧桐湾服务区加油站西南侧200米",
        "tel": "",
        "category": "基础设施:公共设施:公共厕所",
        "type": 0,
        "location": {
            "lat": 38.603563,
            "lng": 86.431307
        },
        "ad_info": {
            "adcode": 652825,
            "province": "新疆维吾尔自治区",
            "city": "巴音郭楞蒙古自治州",
            "district": "且末县"
        }
    },
    {
        "id": "2450569150833815165",
        "title": "公共厕所",
        "address": "新疆维吾尔自治区巴音郭楞蒙古自治州且末县丝绸路与埃塔路交叉口正北方向102米左右",
        "tel": "",
        "category": "基础设施:公共设施:公共厕所",
        "type": 0,
        "location": {
            "lat": 38.137228,
            "lng": 85.531968
        },
        "ad_info": {
            "adcode": 652825,
            "province": "新疆维吾尔自治区",
            "city": "巴音郭楞蒙古自治州",
            "district": "且末县"
        }
    },
    {
        "id": "8020175236601305612",
        "title": "公共厕所",
        "address": "新疆维吾尔自治区巴音郭楞蒙古自治州库尔勒市和硕路与和静路交叉口东北方向227米左右",
        "tel": "",
        "category": "基础设施:公共设施:公共厕所",
        "type": 0,
        "location": {
            "lat": 41.720207,
            "lng": 86.147718
        },
        "ad_info": {
            "adcode": 652801,
            "province": "新疆维吾尔自治区",
            "city": "巴音郭楞蒙古自治州",
            "district": "库尔勒市"
        }
    },
    {
        "id": "1917528974778237117",
        "title": "公共厕所",
        "address": "新疆维吾尔自治区巴音郭楞蒙古自治州博湖县公共体育场北侧",
        "tel": "",
        "category": "基础设施:公共设施:公共厕所",
        "type": 0,
        "location": {
            "lat": 41.982852,
            "lng": 86.610336
        },
        "ad_info": {
            "adcode": 652829,
            "province": "新疆维吾尔自治区",
            "city": "巴音郭楞蒙古自治州",
            "district": "博湖县"
        }
    },
    {
        "id": "9191206231775533917",
        "title": "公共厕所",
        "address": "新疆维吾尔自治区巴音郭楞蒙古自治州尉犁县孔雀路与纺居路交叉口东北方向128米左右",
        "tel": "",
        "category": "基础设施:公共设施:公共厕所",
        "type": 0,
        "location": {
            "lat": 41.362993,
            "lng": 86.261982
        },
        "ad_info": {
            "adcode": 652823,
            "province": "新疆维吾尔自治区",
            "city": "巴音郭楞蒙古自治州",
            "district": "尉犁县"
        }
    },
    {
        "id": "5165033071717988858",
        "title": "公共厕所(若羌县人民广场)",
        "address": "新疆维吾尔自治区巴音郭楞蒙古自治州若羌县团结路与若羌县商业街交叉口正北方向49米左右",
        "tel": "",
        "category": "基础设施:公共设施:公共厕所",
        "type": 0,
        "location": {
            "lat": 39.021918,
            "lng": 88.165476
        },
        "ad_info": {
            "adcode": 652824,
            "province": "新疆维吾尔自治区",
            "city": "巴音郭楞蒙古自治州",
            "district": "若羌县"
        }
    },
    {
        "id": "2701455570202211103",
        "title": "乌什塔拉服务区公共厕所",
        "address": "新疆维吾尔自治区巴音郭楞蒙古自治州和硕县乌什塔拉西立交桥与吐和高速交叉口正东方向1744米左右",
        "tel": "",
        "category": "基础设施:公共设施:公共厕所",
        "type": 0,
        "location": {
            "lat": 42.244765,
            "lng": 87.243054
        },
        "ad_info": {
            "adcode": 652828,
            "province": "新疆维吾尔自治区",
            "city": "巴音郭楞蒙古自治州",
            "district": "和硕县"
        }
    },
    {
        "id": "18068824811717137",
        "title": "米兰服务区公共厕所",
        "address": "新疆维吾尔自治区巴音郭楞蒙古自治州若羌县G0612西和高速与米兰服务区交叉口西440米",
        "tel": "",
        "category": "基础设施:公共设施:公共厕所",
        "type": 0,
        "location": {
            "lat": 39.196024,
            "lng": 88.91664
        },
        "ad_info": {
            "adcode": 652824,
            "province": "新疆维吾尔自治区",
            "city": "巴音郭楞蒙古自治州",
            "district": "若羌县"
        }
    },
    {
        "id": "12722188392004397332",
        "title": "公共厕所",
        "address": "新疆维吾尔自治区巴音郭楞蒙古自治州库尔勒市平安路铁路42区",
        "tel": "",
        "category": "基础设施:公共设施:公共厕所",
        "type": 0,
        "location": {
            "lat": 41.732214,
            "lng": 86.207427
        },
        "ad_info": {
            "adcode": 652801,
            "province": "新疆维吾尔自治区",
            "city": "巴音郭楞蒙古自治州",
            "district": "库尔勒市"
        }
    },
    {
        "id": "14991426136898242081",
        "title": "公共厕所",
        "address": "新疆维吾尔自治区巴音郭楞蒙古自治州库尔勒市北山路与北山路驿站巷交叉口正西方向342米左右",
        "tel": "",
        "category": "基础设施:公共设施:公共厕所",
        "type": 0,
        "location": {
            "lat": 41.77448,
            "lng": 86.143855
        },
        "ad_info": {
            "adcode": 652801,
            "province": "新疆维吾尔自治区",
            "city": "巴音郭楞蒙古自治州",
            "district": "库尔勒市"
        }
    },
    {
        "id": "14107812066140176310",
        "title": "公共厕所(XJ-BY-0303)",
        "address": "新疆维吾尔自治区巴音郭楞蒙古自治州尉犁县解放路7号",
        "tel": "",
        "category": "基础设施:公共设施:公共厕所",
        "type": 0,
        "location": {
            "lat": 41.341778,
            "lng": 86.264765
        },
        "ad_info": {
            "adcode": 652823,
            "province": "新疆维吾尔自治区",
            "city": "巴音郭楞蒙古自治州",
            "district": "尉犁县"
        }
    },
    {
        "id": "12261615289538971949",
        "title": "洗手间",
        "address": "新疆维吾尔自治区巴音郭楞蒙古自治州库尔勒市交通东路与交通东路北三巷交叉口正南方向109米左右",
        "tel": "",
        "category": "基础设施:公共设施:公共厕所",
        "type": 0,
        "location": {
            "lat": 41.770398,
            "lng": 86.152032
        },
        "ad_info": {
            "adcode": 652801,
            "province": "新疆维吾尔自治区",
            "city": "巴音郭楞蒙古自治州",
            "district": "库尔勒市"
        }
    },
    {
        "id": "14090235491190708317",
        "title": "库尔勒自驾游服务区公共厕所",
        "address": "新疆维吾尔自治区巴音郭楞蒙古自治州库尔勒市X229与机场路交叉口正南方向465米左右",
        "tel": "18609960581",
        "category": "基础设施:公共设施:公共厕所",
        "type": 0,
        "location": {
            "lat": 41.644004,
            "lng": 86.158726
        },
        "ad_info": {
            "adcode": 652801,
            "province": "新疆维吾尔自治区",
            "city": "巴音郭楞蒙古自治州",
            "district": "库尔勒市"
        }
    },
    {
        "id": "17140244804833813763",
        "title": "南屯服务区公共厕所",
        "address": "新疆维吾尔自治区巴音郭楞蒙古自治州且末县G0612西和高速与南屯服务区交叉口西南420米",
        "tel": "",
        "category": "基础设施:公共设施:公共厕所",
        "type": 0,
        "location": {
            "lat": 37.831925,
            "lng": 84.181065
        },
        "ad_info": {
            "adcode": 652825,
            "province": "新疆维吾尔自治区",
            "city": "巴音郭楞蒙古自治州",
            "district": "且末县"
        }
    },
    {
        "id": "16277155798584096325",
        "title": "萨勒瓦墩服务区公共卫生间",
        "address": "新疆维吾尔自治区巴音郭楞蒙古自治州且末县G0612西和高速与萨勒瓦墩服务区交叉口西440米",
        "tel": "",
        "category": "基础设施:公共设施:公共厕所",
        "type": 0,
        "location": {
            "lat": 38.194281,
            "lng": 85.111082
        },
        "ad_info": {
            "adcode": 652825,
            "province": "新疆维吾尔自治区",
            "city": "巴音郭楞蒙古自治州",
            "district": "且末县"
        }
    },
    {
        "id": "15179023037966612187",
        "title": "梧桐湾服务区公共卫生间",
        "address": "新疆维吾尔自治区巴音郭楞蒙古自治州且末县G0612西和高速与梧桐湾服务区交叉口西500米",
        "tel": "",
        "category": "基础设施:公共设施:公共厕所",
        "type": 0,
        "location": {
            "lat": 38.605562,
            "lng": 86.430457
        },
        "ad_info": {
            "adcode": 652825,
            "province": "新疆维吾尔自治区",
            "city": "巴音郭楞蒙古自治州",
            "district": "且末县"
        }
    },
    {
        "id": "12739663205416600529",
        "title": "公共厕所",
        "address": "新疆维吾尔自治区巴音郭楞蒙古自治州和硕县星光夜市西北侧90米",
        "tel": "",
        "category": "基础设施:公共设施:公共厕所",
        "type": 0,
        "location": {
            "lat": 42.195855,
            "lng": 86.965419
        },
        "ad_info": {
            "adcode": 652828,
            "province": "新疆维吾尔自治区",
            "city": "巴音郭楞蒙古自治州",
            "district": "和硕县"
        }
    },
    {
        "id": "11151892063310993244",
        "title": "公共厕所(若羌县市民服务中心大楼南侧)",
        "address": "新疆维吾尔自治区巴音郭楞蒙古自治州若羌县胜利路265号",
        "tel": "",
        "category": "基础设施:公共设施:公共厕所",
        "type": 0,
        "location": {
            "lat": 39.017295,
            "lng": 88.170321
        },
        "ad_info": {
            "adcode": 652824,
            "province": "新疆维吾尔自治区",
            "city": "巴音郭楞蒙古自治州",
            "district": "若羌县"
        }
    },
    {
        "id": "14924753788029370043",
        "title": "公共厕所",
        "address": "新疆维吾尔自治区巴音郭楞蒙古自治州库尔勒市延安路与铁克其路交叉口东南方向270米左右",
        "tel": "",
        "category": "基础设施:公共设施:公共厕所",
        "type": 0,
        "location": {
            "lat": 41.731133,
            "lng": 86.162542
        },
        "ad_info": {
            "adcode": 652801,
            "province": "新疆维吾尔自治区",
            "city": "巴音郭楞蒙古自治州",
            "district": "库尔勒市"
        }
    },
    {
        "id": "2117732857693794157",
        "title": "加油站公共厕所",
        "address": "新疆维吾尔自治区巴音郭楞蒙古自治州库尔勒市314国道529公里处(库尔楚收费站旁)附近",
        "tel": "",
        "category": "基础设施:公共设施:公共厕所",
        "type": 0,
        "location": {
            "lat": 41.963271,
            "lng": 85.381879
        },
        "ad_info": {
            "adcode": 652801,
            "province": "新疆维吾尔自治区",
            "city": "巴音郭楞蒙古自治州",
            "district": "库尔勒市"
        }
    },
    {
        "id": "16966663553386046749",
        "title": "梧桐湾服务区公共卫生间",
        "address": "新疆维吾尔自治区巴音郭楞蒙古自治州且末县中国石油梧桐湾服务区加油站西南侧200米",
        "tel": "",
        "category": "基础设施:公共设施:公共厕所",
        "type": 0,
        "location": {
            "lat": 38.603563,
            "lng": 86.431307
        },
        "ad_info": {
            "adcode": 652825,
            "province": "新疆维吾尔自治区",
            "city": "巴音郭楞蒙古自治州",
            "district": "且末县"
        }
    },
    {
        "id": "2450569150833815165",
        "title": "公共厕所",
        "address": "新疆维吾尔自治区巴音郭楞蒙古自治州且末县丝绸路与埃塔路交叉口正北方向102米左右",
        "tel": "",
        "category": "基础设施:公共设施:公共厕所",
        "type": 0,
        "location": {
            "lat": 38.137228,
            "lng": 85.531968
        },
        "ad_info": {
            "adcode": 652825,
            "province": "新疆维吾尔自治区",
            "city": "巴音郭楞蒙古自治州",
            "district": "且末县"
        }
    },
    {
        "id": "8020175236601305612",
        "title": "公共厕所",
        "address": "新疆维吾尔自治区巴音郭楞蒙古自治州库尔勒市和硕路与和静路交叉口东北方向227米左右",
        "tel": "",
        "category": "基础设施:公共设施:公共厕所",
        "type": 0,
        "location": {
            "lat": 41.720207,
            "lng": 86.147718
        },
        "ad_info": {
            "adcode": 652801,
            "province": "新疆维吾尔自治区",
            "city": "巴音郭楞蒙古自治州",
            "district": "库尔勒市"
        }
    },
    {
        "id": "1917528974778237117",
        "title": "公共厕所",
        "address": "新疆维吾尔自治区巴音郭楞蒙古自治州博湖县公共体育场北侧",
        "tel": "",
        "category": "基础设施:公共设施:公共厕所",
        "type": 0,
        "location": {
            "lat": 41.982852,
            "lng": 86.610336
        },
        "ad_info": {
            "adcode": 652829,
            "province": "新疆维吾尔自治区",
            "city": "巴音郭楞蒙古自治州",
            "district": "博湖县"
        }
    },
    {
        "id": "9191206231775533917",
        "title": "公共厕所",
        "address": "新疆维吾尔自治区巴音郭楞蒙古自治州尉犁县孔雀路与纺居路交叉口东北方向128米左右",
        "tel": "",
        "category": "基础设施:公共设施:公共厕所",
        "type": 0,
        "location": {
            "lat": 41.362993,
            "lng": 86.261982
        },
        "ad_info": {
            "adcode": 652823,
            "province": "新疆维吾尔自治区",
            "city": "巴音郭楞蒙古自治州",
            "district": "尉犁县"
        }
    },
    {
        "id": "5165033071717988858",
        "title": "公共厕所(若羌县人民广场)",
        "address": "新疆维吾尔自治区巴音郭楞蒙古自治州若羌县团结路与若羌县商业街交叉口正北方向49米左右",
        "tel": "",
        "category": "基础设施:公共设施:公共厕所",
        "type": 0,
        "location": {
            "lat": 39.021918,
            "lng": 88.165476
        },
        "ad_info": {
            "adcode": 652824,
            "province": "新疆维吾尔自治区",
            "city": "巴音郭楞蒙古自治州",
            "district": "若羌县"
        }
    },
    {
        "id": "2701455570202211103",
        "title": "乌什塔拉服务区公共厕所",
        "address": "新疆维吾尔自治区巴音郭楞蒙古自治州和硕县乌什塔拉西立交桥与吐和高速交叉口正东方向1744米左右",
        "tel": "",
        "category": "基础设施:公共设施:公共厕所",
        "type": 0,
        "location": {
            "lat": 42.244765,
            "lng": 87.243054
        },
        "ad_info": {
            "adcode": 652828,
            "province": "新疆维吾尔自治区",
            "city": "巴音郭楞蒙古自治州",
            "district": "和硕县"
        }
    },
    {
        "id": "18068824811717137",
        "title": "米兰服务区公共厕所",
        "address": "新疆维吾尔自治区巴音郭楞蒙古自治州若羌县G0612西和高速与米兰服务区交叉口西440米",
        "tel": "",
        "category": "基础设施:公共设施:公共厕所",
        "type": 0,
        "location": {
            "lat": 39.196024,
            "lng": 88.91664
        },
        "ad_info": {
            "adcode": 652824,
            "province": "新疆维吾尔自治区",
            "city": "巴音郭楞蒙古自治州",
            "district": "若羌县"
        }
    },
    {
        "id": "12722188392004397332",
        "title": "公共厕所",
        "address": "新疆维吾尔自治区巴音郭楞蒙古自治州库尔勒市平安路铁路42区",
        "tel": "",
        "category": "基础设施:公共设施:公共厕所",
        "type": 0,
        "location": {
            "lat": 41.732214,
            "lng": 86.207427
        },
        "ad_info": {
            "adcode": 652801,
            "province": "新疆维吾尔自治区",
            "city": "巴音郭楞蒙古自治州",
            "district": "库尔勒市"
        }
    },
    {
        "id": "14991426136898242081",
        "title": "公共厕所",
        "address": "新疆维吾尔自治区巴音郭楞蒙古自治州库尔勒市北山路与北山路驿站巷交叉口正西方向342米左右",
        "tel": "",
        "category": "基础设施:公共设施:公共厕所",
        "type": 0,
        "location": {
            "lat": 41.77448,
            "lng": 86.143855
        },
        "ad_info": {
            "adcode": 652801,
            "province": "新疆维吾尔自治区",
            "city": "巴音郭楞蒙古自治州",
            "district": "库尔勒市"
        }
    },
    {
        "id": "14107812066140176310",
        "title": "公共厕所(XJ-BY-0303)",
        "address": "新疆维吾尔自治区巴音郭楞蒙古自治州尉犁县解放路7号",
        "tel": "",
        "category": "基础设施:公共设施:公共厕所",
        "type": 0,
        "location": {
            "lat": 41.341778,
            "lng": 86.264765
        },
        "ad_info": {
            "adcode": 652823,
            "province": "新疆维吾尔自治区",
            "city": "巴音郭楞蒙古自治州",
            "district": "尉犁县"
        }
    }
]