[
    {
        "id": "11895514899449455149",
        "title": "公共厕所",
        "address": "湖南省常德市石门县G353与S308交叉口西南方向69米左右",
        "tel": "",
        "category": "基础设施:公共设施:公共厕所",
        "type": 0,
        "location": {
            "lat": 29.639453,
            "lng": 111.493827
        },
        "ad_info": {
            "adcode": 430726,
            "province": "湖南省",
            "city": "常德市",
            "district": "石门县"
        }
    },
    {
        "id": "10304261374536683078",
        "title": "公共厕所",
        "address": "湖南省常德市石门县楚江路与澧阳西路交叉口西南方向141米左右",
        "tel": "",
        "category": "基础设施:公共设施:公共厕所",
        "type": 0,
        "location": {
            "lat": 29.578519,
            "lng": 111.373488
        },
        "ad_info": {
            "adcode": 430726,
            "province": "湖南省",
            "city": "常德市",
            "district": "石门县"
        }
    },
    {
        "id": "11986082828157948577",
        "title": "公共厕所",
        "address": "湖南省常德市鼎城区劳动巷与阳明大道交叉口正东方向52米左右",
        "tel": "",
        "category": "基础设施:公共设施:公共厕所",
        "type": 0,
        "location": {
            "lat": 29.017008,
            "lng": 111.68172
        },
        "ad_info": {
            "adcode": 430703,
            "province": "湖南省",
            "city": "常德市",
            "district": "鼎城区"
        }
    },
    {
        "id": "854654418666489912",
        "title": "公共厕所",
        "address": "湖南省常德市鼎城区永安路与永新巷交叉口东北方向34米左右",
        "tel": "",
        "category": "基础设施:公共设施:公共厕所",
        "type": 0,
        "location": {
            "lat": 29.002934,
            "lng": 111.689187
        },
        "ad_info": {
            "adcode": 430703,
            "province": "湖南省",
            "city": "常德市",
            "district": "鼎城区"
        }
    },
    {
        "id": "7828319634040276758",
        "title": "公共厕所",
        "address": "湖南省常德市津市市人民路与大码头巷交叉口东北方向15米左右",
        "tel": "",
        "category": "基础设施:公共设施:公共厕所",
        "type": 0,
        "location": {
            "lat": 29.623845,
            "lng": 111.877715
        },
        "ad_info": {
            "adcode": 430781,
            "province": "湖南省",
            "city": "常德市",
            "district": "津市市"
        }
    },
    {
        "id": "13752601380963186391",
        "title": "公共厕所",
        "address": "湖南省常德市武陵区劳动街巷与红旗路交叉口东北方向30米左右",
        "tel": "",
        "category": "基础设施:公共设施:公共厕所",
        "type": 0,
        "location": {
            "lat": 29.016665,
            "lng": 111.710426
        },
        "ad_info": {
            "adcode": 430702,
            "province": "湖南省",
            "city": "常德市",
            "district": "武陵区"
        }
    },
    {
        "id": "776278106350537673",
        "title": "公共厕所",
        "address": "湖南省常德市石门县西门路与澧阳中路交叉口南约100米",
        "tel": "",
        "category": "基础设施:公共设施:公共厕所",
        "type": 0,
        "location": {
            "lat": 29.583706,
            "lng": 111.377575
        },
        "ad_info": {
            "adcode": 430726,
            "province": "湖南省",
            "city": "常德市",
            "district": "石门县"
        }
    },
    {
        "id": "17111048078516939642",
        "title": "公共厕所",
        "address": "湖南省常德市武陵区常德大道3100正南方向150米",
        "tel": "",
        "category": "基础设施:公共设施:公共厕所",
        "type": 0,
        "location": {
            "lat": 29.06996,
            "lng": 111.6941
        },
        "ad_info": {
            "adcode": 430702,
            "province": "湖南省",
            "city": "常德市",
            "district": "武陵区"
        }
    },
    {
        "id": "1333111297493855073",
        "title": "公共厕所",
        "address": "湖南省常德市武陵区丝弦巷常德·老西门-北区",
        "tel": "",
        "category": "基础设施:公共设施:公共厕所",
        "type": 0,
        "location": {
            "lat": 29.032359,
            "lng": 111.68569
        },
        "ad_info": {
            "adcode": 430702,
            "province": "湖南省",
            "city": "常德市",
            "district": "武陵区"
        }
    },
    {
        "id": "7193566711398111749",
        "title": "公共厕所",
        "address": "湖南省常德市鼎城区善卷路与油库巷交叉口东南方向54米左右",
        "tel": "",
        "category": "基础设施:公共设施:公共厕所",
        "type": 0,
        "location": {
            "lat": 28.995532,
            "lng": 111.692099
        },
        "ad_info": {
            "adcode": 430703,
            "province": "湖南省",
            "city": "常德市",
            "district": "鼎城区"
        }
    },
    {
        "id": "7873346901127314826",
        "title": "公共厕所",
        "address": "湖南省常德市津市市S224与相东路交叉口西北方向315米左右",
        "tel": "",
        "category": "基础设施:公共设施:公共厕所",
        "type": 0,
        "location": {
            "lat": 29.548997,
            "lng": 111.883915
        },
        "ad_info": {
            "adcode": 430781,
            "province": "湖南省",
            "city": "常德市",
            "district": "津市市"
        }
    },
    {
        "id": "12050712744866708359",
        "title": "公共厕所",
        "address": "湖南省常德市石门县民俗街与站前路交叉口东北方向175米左右",
        "tel": "",
        "category": "基础设施:公共设施:公共厕所",
        "type": 0,
        "location": {
            "lat": 29.59884,
            "lng": 111.432396
        },
        "ad_info": {
            "adcode": 430726,
            "province": "湖南省",
            "city": "常德市",
            "district": "石门县"
        }
    },
    {
        "id": "5670435368156665140",
        "title": "公共厕所",
        "address": "湖南省常德市津市市大同路与孟姜女大道交叉口正南方向95米左右",
        "tel": "",
        "category": "基础设施:公共设施:公共厕所",
        "type": 0,
        "location": {
            "lat": 29.604796,
            "lng": 111.875826
        },
        "ad_info": {
            "adcode": 430781,
            "province": "湖南省",
            "city": "常德市",
            "district": "津市市"
        }
    },
    {
        "id": "7246323773725263526",
        "title": "公共厕所",
        "address": "湖南省常德市鼎城区善池路与花溪路交叉口西北方向32米左右",
        "tel": "",
        "category": "基础设施:公共设施:公共厕所",
        "type": 0,
        "location": {
            "lat": 29.01047,
            "lng": 111.675696
        },
        "ad_info": {
            "adcode": 430703,
            "province": "湖南省",
            "city": "常德市",
            "district": "鼎城区"
        }
    },
    {
        "id": "9642508439401727157",
        "title": "公共厕所",
        "address": "湖南省常德市武陵区人民路与青年路交叉口正南方向81米左右",
        "tel": "",
        "category": "基础设施:公共设施:公共厕所",
        "type": 0,
        "location": {
            "lat": 29.02468,
            "lng": 111.70128
        },
        "ad_info": {
            "adcode": 430702,
            "province": "湖南省",
            "city": "常德市",
            "district": "武陵区"
        }
    },
    {
        "id": "6984779144726681845",
        "title": "公共厕所",
        "address": "湖南省常德市武陵区拱辰路与柳河路交叉口东南方向335米左右",
        "tel": "",
        "category": "基础设施:公共设施:公共厕所",
        "type": 0,
        "location": {
            "lat": 29.049529,
            "lng": 111.719666
        },
        "ad_info": {
            "adcode": 430702,
            "province": "湖南省",
            "city": "常德市",
            "district": "武陵区"
        }
    },
    {
        "id": "6415669520751319855",
        "title": "公共厕所",
        "address": "湖南省常德市石门县双红路与壶瓶山大道交叉口东北方向35米左右",
        "tel": "",
        "category": "基础设施:公共设施:公共厕所",
        "type": 0,
        "location": {
            "lat": 29.58319,
            "lng": 111.34816
        },
        "ad_info": {
            "adcode": 430726,
            "province": "湖南省",
            "city": "常德市",
            "district": "石门县"
        }
    },
    {
        "id": "8337408494533596627",
        "title": "公共厕所",
        "address": "湖南省常德市武陵区柳河路与阁老巷交叉口正西方向101米左右",
        "tel": "",
        "category": "基础设施:公共设施:公共厕所",
        "type": 0,
        "location": {
            "lat": 29.050919,
            "lng": 111.714221
        },
        "ad_info": {
            "adcode": 430702,
            "province": "湖南省",
            "city": "常德市",
            "district": "武陵区"
        }
    },
    {
        "id": "6235319740229252931",
        "title": "洗手间",
        "address": "湖南省常德市武陵区常德大道常龙石化加油站",
        "tel": "",
        "category": "基础设施:公共设施:公共厕所",
        "type": 0,
        "location": {
            "lat": 28.93545,
            "lng": 111.717284
        },
        "ad_info": {
            "adcode": 430702,
            "province": "湖南省",
            "city": "常德市",
            "district": "武陵区"
        }
    },
    {
        "id": "6406022899287498640",
        "title": "公共厕所",
        "address": "湖南省常德市武陵区拱辰路与柳河路交叉口东南方向102米左右",
        "tel": "",
        "category": "基础设施:公共设施:公共厕所",
        "type": 0,
        "location": {
            "lat": 29.050422,
            "lng": 111.717395
        },
        "ad_info": {
            "adcode": 430702,
            "province": "湖南省",
            "city": "常德市",
            "district": "武陵区"
        }
    },
    {
        "id": "10604646344794266978",
        "title": "公共厕所",
        "address": "湖南省常德市武陵区建设路华兴花园(泮池街)",
        "tel": "",
        "category": "基础设施:公共设施:公共厕所",
        "type": 0,
        "location": {
            "lat": 29.031936,
            "lng": 111.694525
        },
        "ad_info": {
            "adcode": 430702,
            "province": "湖南省",
            "city": "常德市",
            "district": "武陵区"
        }
    },
    {
        "id": "14141863634255585586",
        "title": "公共厕所",
        "address": "湖南省常德市鼎城区S307与濠口桥交叉口正西方向573米左右",
        "tel": "",
        "category": "基础设施:公共设施:公共厕所",
        "type": 0,
        "location": {
            "lat": 29.244257,
            "lng": 111.940327
        },
        "ad_info": {
            "adcode": 430703,
            "province": "湖南省",
            "city": "常德市",
            "district": "鼎城区"
        }
    },
    {
        "id": "18061152696480627744",
        "title": "公共厕所",
        "address": "湖南省常德市武陵区朝阳路与蓝湾街交叉口正西方向67米左右",
        "tel": "",
        "category": "基础设施:公共设施:公共厕所",
        "type": 0,
        "location": {
            "lat": 29.051197,
            "lng": 111.687722
        },
        "ad_info": {
            "adcode": 430702,
            "province": "湖南省",
            "city": "常德市",
            "district": "武陵区"
        }
    },
    {
        "id": "7190925980957751107",
        "title": "公共厕所",
        "address": "湖南省常德市武陵区常德大道中国石化加油站(常德大道辅路店)",
        "tel": "",
        "category": "基础设施:公共设施:公共厕所",
        "type": 0,
        "location": {
            "lat": 29.062129,
            "lng": 111.714297
        },
        "ad_info": {
            "adcode": 430702,
            "province": "湖南省",
            "city": "常德市",
            "district": "武陵区"
        }
    },
    {
        "id": "5673618731214068375",
        "title": "公共厕所",
        "address": "湖南省常德市武陵区崇德路与德山大道交叉口正南方向83米左右",
        "tel": "",
        "category": "基础设施:公共设施:公共厕所",
        "type": 0,
        "location": {
            "lat": 28.930203,
            "lng": 111.704556
        },
        "ad_info": {
            "adcode": 430702,
            "province": "湖南省",
            "city": "常德市",
            "district": "武陵区"
        }
    },
    {
        "id": "17034665430731301679",
        "title": "公共厕所",
        "address": "湖南省常德市武陵区漂亮女人街主街与梳子巷交叉口西北方向60米",
        "tel": "",
        "category": "基础设施:公共设施:公共厕所",
        "type": 0,
        "location": {
            "lat": 29.028653,
            "lng": 111.693762
        },
        "ad_info": {
            "adcode": 430702,
            "province": "湖南省",
            "city": "常德市",
            "district": "武陵区"
        }
    },
    {
        "id": "16348659454207680429",
        "title": "公共厕所",
        "address": "湖南省常德市武陵区柳叶大道278号附近德国风情街内",
        "tel": "",
        "category": "基础设施:公共设施:公共厕所",
        "type": 0,
        "location": {
            "lat": 29.053926,
            "lng": 111.707685
        },
        "ad_info": {
            "adcode": 430702,
            "province": "湖南省",
            "city": "常德市",
            "district": "武陵区"
        }
    },
    {
        "id": "2524106034342046857",
        "title": "公共厕所",
        "address": "湖南省常德市石门县G353与双红路交叉口东南方向99米左右",
        "tel": "",
        "category": "基础设施:公共设施:公共厕所",
        "type": 0,
        "location": {
            "lat": 29.582885,
            "lng": 111.360948
        },
        "ad_info": {
            "adcode": 430726,
            "province": "湖南省",
            "city": "常德市",
            "district": "石门县"
        }
    },
    {
        "id": "14959892161165462273",
        "title": "公共厕所",
        "address": "湖南省常德市津市市刘公桥路与城隍庙商业步行城交叉口西60米",
        "tel": "",
        "category": "基础设施:公共设施:公共厕所",
        "type": 0,
        "location": {
            "lat": 29.62436,
            "lng": 111.874619
        },
        "ad_info": {
            "adcode": 430781,
            "province": "湖南省",
            "city": "常德市",
            "district": "津市市"
        }
    },
    {
        "id": "718865884496822442",
        "title": "公共厕所",
        "address": "湖南省常德市武陵区大松超市东北侧160米",
        "tel": "",
        "category": "基础设施:公共设施:公共厕所",
        "type": 0,
        "location": {
            "lat": 29.040119,
            "lng": 111.613668
        },
        "ad_info": {
            "adcode": 430702,
            "province": "湖南省",
            "city": "常德市",
            "district": "武陵区"
        }
    },
    {
        "id": "13860770226512783154",
        "title": "公共厕所",
        "address": "湖南省常德市武陵区西苑路与高车路交叉口正北方向56米左右",
        "tel": "",
        "category": "基础设施:公共设施:公共厕所",
        "type": 0,
        "location": {
            "lat": 29.044726,
            "lng": 111.657962
        },
        "ad_info": {
            "adcode": 430702,
            "province": "湖南省",
            "city": "常德市",
            "district": "武陵区"
        }
    },
    {
        "id": "12258400023766805490",
        "title": "公共厕所",
        "address": "湖南省常德市石门县G353与白洋桥交叉口正北方向502米左右",
        "tel": "",
        "category": "基础设施:公共设施:公共厕所",
        "type": 0,
        "location": {
            "lat": 29.417942,
            "lng": 111.47769
        },
        "ad_info": {
            "adcode": 430726,
            "province": "湖南省",
            "city": "常德市",
            "district": "石门县"
        }
    },
    {
        "id": "14178013801590883682",
        "title": "公共厕所",
        "address": "湖南省常德市汉寿县辰阳南路香溪美地小区南面",
        "tel": "",
        "category": "基础设施:公共设施:公共厕所",
        "type": 0,
        "location": {
            "lat": 28.887945,
            "lng": 111.970547
        },
        "ad_info": {
            "adcode": 430722,
            "province": "湖南省",
            "city": "常德市",
            "district": "汉寿县"
        }
    },
    {
        "id": "15728141178538168774",
        "title": "公共卫生间",
        "address": "湖南省常德市武陵区大兴街与横梳子巷交叉口正北方向14米左右",
        "tel": "",
        "category": "基础设施:公共设施:公共厕所",
        "type": 0,
        "location": {
            "lat": 29.029424,
            "lng": 111.693496
        },
        "ad_info": {
            "adcode": 430702,
            "province": "湖南省",
            "city": "常德市",
            "district": "武陵区"
        }
    },
    {
        "id": "14290020483673869545",
        "title": "公共厕所",
        "address": "湖南省常德市武陵区泉水路198号",
        "tel": "",
        "category": "基础设施:公共设施:公共厕所",
        "type": 0,
        "location": {
            "lat": 29.086019,
            "lng": 111.730287
        },
        "ad_info": {
            "adcode": 430702,
            "province": "湖南省",
            "city": "常德市",
            "district": "武陵区"
        }
    },
    {
        "id": "3190719507252580218",
        "title": "公共厕所",
        "address": "湖南省常德市鼎城区厦成线中国石油(石门桥加油站)",
        "tel": "",
        "category": "基础设施:公共设施:公共厕所",
        "type": 0,
        "location": {
            "lat": 28.897901,
            "lng": 111.745278
        },
        "ad_info": {
            "adcode": 430703,
            "province": "湖南省",
            "city": "常德市",
            "district": "鼎城区"
        }
    },
    {
        "id": "11291104971325390004",
        "title": "公共厕所",
        "address": "湖南省常德市鼎城区向群巷与大湖路交叉口正西方向197米左右",
        "tel": "",
        "category": "基础设施:公共设施:公共厕所",
        "type": 0,
        "location": {
            "lat": 29.008045,
            "lng": 111.684246
        },
        "ad_info": {
            "adcode": 430703,
            "province": "湖南省",
            "city": "常德市",
            "district": "鼎城区"
        }
    },
    {
        "id": "4502728992050919196",
        "title": "公共厕所",
        "address": "湖南省常德市武陵区柳叶大道与紫缘路交叉口西北方向161米左右",
        "tel": "",
        "category": "基础设施:公共设施:公共厕所",
        "type": 0,
        "location": {
            "lat": 29.056286,
            "lng": 111.711404
        },
        "ad_info": {
            "adcode": 430702,
            "province": "湖南省",
            "city": "常德市",
            "district": "武陵区"
        }
    },
    {
        "id": "1450560997693418464",
        "title": "公共厕所",
        "address": "湖南省常德市武陵区常德大道与武陵大道交叉口正北方向220米左右",
        "tel": "",
        "category": "基础设施:公共设施:公共厕所",
        "type": 0,
        "location": {
            "lat": 29.07076,
            "lng": 111.694697
        },
        "ad_info": {
            "adcode": 430702,
            "province": "湖南省",
            "city": "常德市",
            "district": "武陵区"
        }
    },
    {
        "id": "12654495072350515794",
        "title": "公共厕所",
        "address": "湖南省常德市武陵区常德大道与柳河路交叉口西南方向209米左右",
        "tel": "",
        "category": "基础设施:公共设施:公共厕所",
        "type": 0,
        "location": {
            "lat": 29.04614,
            "lng": 111.723785
        },
        "ad_info": {
            "adcode": 430702,
            "province": "湖南省",
            "city": "常德市",
            "district": "武陵区"
        }
    },
    {
        "id": "44034987624008567",
        "title": "公共厕所",
        "address": "湖南省常德市津市市S224与新桥大道交叉口东南方向109米左右",
        "tel": "",
        "category": "基础设施:公共设施:公共厕所",
        "type": 0,
        "location": {
            "lat": 29.487144,
            "lng": 111.932498
        },
        "ad_info": {
            "adcode": 430781,
            "province": "湖南省",
            "city": "常德市",
            "district": "津市市"
        }
    },
    {
        "id": "5354311916736645984",
        "title": "公共厕所",
        "address": "湖南省常德市津市市S224与新桥大道交叉口东南方向610米左右",
        "tel": "",
        "category": "基础设施:公共设施:公共厕所",
        "type": 0,
        "location": {
            "lat": 29.502774,
            "lng": 111.923881
        },
        "ad_info": {
            "adcode": 430781,
            "province": "湖南省",
            "city": "常德市",
            "district": "津市市"
        }
    },
    {
        "id": "10897035776876097400",
        "title": "公共厕所",
        "address": "湖南省常德市武陵区滨湖路445号",
        "tel": "",
        "category": "基础设施:公共设施:公共厕所",
        "type": 0,
        "location": {
            "lat": 29.045676,
            "lng": 111.696085
        },
        "ad_info": {
            "adcode": 430702,
            "province": "湖南省",
            "city": "常德市",
            "district": "武陵区"
        }
    },
    {
        "id": "12863805629211186336",
        "title": "公共厕所",
        "address": "湖南省常德市武陵区劳动街巷与红旗路交叉口正西方向171米左右",
        "tel": "",
        "category": "基础设施:公共设施:公共厕所",
        "type": 0,
        "location": {
            "lat": 29.016444,
            "lng": 111.708442
        },
        "ad_info": {
            "adcode": 430702,
            "province": "湖南省",
            "city": "常德市",
            "district": "武陵区"
        }
    },
    {
        "id": "9941781482268067051",
        "title": "洗手间",
        "address": "湖南省常德市鼎城区临岗公路辅路",
        "tel": "",
        "category": "基础设施:公共设施:公共厕所",
        "type": 0,
        "location": {
            "lat": 29.243721,
            "lng": 111.645052
        },
        "ad_info": {
            "adcode": 430703,
            "province": "湖南省",
            "city": "常德市",
            "district": "鼎城区"
        }
    },
    {
        "id": "2575979202962577506",
        "title": "公共厕所",
        "address": "湖南省常德市安乡县和平路与香港路商业步行街交叉口正南方向60米左右",
        "tel": "",
        "category": "基础设施:公共设施:公共厕所",
        "type": 0,
        "location": {
            "lat": 29.412208,
            "lng": 112.162876
        },
        "ad_info": {
            "adcode": 430721,
            "province": "湖南省",
            "city": "常德市",
            "district": "安乡县"
        }
    },
    {
        "id": "6995135183302000033",
        "title": "公共厕所",
        "address": "湖南省常德市澧县人民路与永兴寺路交叉口正东方向67米左右",
        "tel": "",
        "category": "基础设施:公共设施:公共厕所",
        "type": 0,
        "location": {
            "lat": 29.636964,
            "lng": 111.764182
        },
        "ad_info": {
            "adcode": 430723,
            "province": "湖南省",
            "city": "常德市",
            "district": "澧县"
        }
    },
    {
        "id": "12015241090294315705",
        "title": "公共厕所",
        "address": "湖南省常德市安乡县五总五巷与和平路交叉口东北方向26米左右",
        "tel": "",
        "category": "基础设施:公共设施:公共厕所",
        "type": 0,
        "location": {
            "lat": 29.415097,
            "lng": 112.168347
        },
        "ad_info": {
            "adcode": 430721,
            "province": "湖南省",
            "city": "常德市",
            "district": "安乡县"
        }
    },
    {
        "id": "8075665186948338552",
        "title": "公共厕所",
        "address": "湖南省常德市武陵区东田碑路与仙桥路交叉口正南方向179米左右",
        "tel": "",
        "category": "基础设施:公共设施:公共厕所",
        "type": 0,
        "location": {
            "lat": 28.956638,
            "lng": 111.715476
        },
        "ad_info": {
            "adcode": 430702,
            "province": "湖南省",
            "city": "常德市",
            "district": "武陵区"
        }
    },
    {
        "id": "1483441978493961314",
        "title": "公共厕所",
        "address": "湖南省常德市津市市万寿路与沿河路交叉口正西方向61米左右",
        "tel": "",
        "category": "基础设施:公共设施:公共厕所",
        "type": 0,
        "location": {
            "lat": 29.624435,
            "lng": 111.883092
        },
        "ad_info": {
            "adcode": 430781,
            "province": "湖南省",
            "city": "常德市",
            "district": "津市市"
        }
    },
    {
        "id": "11483230612816838050",
        "title": "公共厕所",
        "address": "湖南省常德市鼎城区友谊巷与大湖路交叉口东南方向22米左右",
        "tel": "",
        "category": "基础设施:公共设施:公共厕所",
        "type": 0,
        "location": {
            "lat": 29.016763,
            "lng": 111.686721
        },
        "ad_info": {
            "adcode": 430703,
            "province": "湖南省",
            "city": "常德市",
            "district": "鼎城区"
        }
    },
    {
        "id": "9342120809130994132",
        "title": "公共厕所",
        "address": "湖南省常德市武陵区洞庭大道中国石化(常德市第九站加油站)",
        "tel": "",
        "category": "基础设施:公共设施:公共厕所",
        "type": 0,
        "location": {
            "lat": 29.03999,
            "lng": 111.708218
        },
        "ad_info": {
            "adcode": 430702,
            "province": "湖南省",
            "city": "常德市",
            "district": "武陵区"
        }
    },
    {
        "id": "8354503732537656235",
        "title": "公共厕所",
        "address": "湖南省常德市武陵区滨湖路与长源路交叉口正东方向179米左右",
        "tel": "",
        "category": "基础设施:公共设施:公共厕所",
        "type": 0,
        "location": {
            "lat": 29.045977,
            "lng": 111.671329
        },
        "ad_info": {
            "adcode": 430702,
            "province": "湖南省",
            "city": "常德市",
            "district": "武陵区"
        }
    },
    {
        "id": "18289291055370871352",
        "title": "公共厕所",
        "address": "湖南省常德市武陵区临江路与人民路交叉口东南方向158米左右",
        "tel": "",
        "category": "基础设施:公共设施:公共厕所",
        "type": 0,
        "location": {
            "lat": 29.035975,
            "lng": 111.671737
        },
        "ad_info": {
            "adcode": 430702,
            "province": "湖南省",
            "city": "常德市",
            "district": "武陵区"
        }
    },
    {
        "id": "10739563934262784273",
        "title": "公共厕所",
        "address": "湖南省常德市武陵区富昌路与桃林路交叉口正南方向78米左右",
        "tel": "",
        "category": "基础设施:公共设施:公共厕所",
        "type": 0,
        "location": {
            "lat": 28.942042,
            "lng": 111.710296
        },
        "ad_info": {
            "adcode": 430702,
            "province": "湖南省",
            "city": "常德市",
            "district": "武陵区"
        }
    },
    {
        "id": "8626003135017591180",
        "title": "公共厕所",
        "address": "湖南省常德市武陵区新四村巷与青年路交叉口正南方向90米左右",
        "tel": "",
        "category": "基础设施:公共设施:公共厕所",
        "type": 0,
        "location": {
            "lat": 29.029438,
            "lng": 111.713324
        },
        "ad_info": {
            "adcode": 430702,
            "province": "湖南省",
            "city": "常德市",
            "district": "武陵区"
        }
    },
    {
        "id": "1019559832571987905",
        "title": "公共厕所",
        "address": "湖南省常德市武陵区文峰路与玻制巷交叉口正西方向121米左右",
        "tel": "",
        "category": "基础设施:公共设施:公共厕所",
        "type": 0,
        "location": {
            "lat": 28.965083,
            "lng": 111.704516
        },
        "ad_info": {
            "adcode": 430702,
            "province": "湖南省",
            "city": "常德市",
            "district": "武陵区"
        }
    },
    {
        "id": "11230473802747432707",
        "title": "公共厕所",
        "address": "湖南省常德市武陵区大兴街13号",
        "tel": "",
        "category": "基础设施:公共设施:公共厕所",
        "type": 0,
        "location": {
            "lat": 29.029135,
            "lng": 111.692503
        },
        "ad_info": {
            "adcode": 430702,
            "province": "湖南省",
            "city": "常德市",
            "district": "武陵区"
        }
    },
    {
        "id": "18391790106256761100",
        "title": "公共厕所",
        "address": "湖南省常德市安乡县万寿巷与和平路交叉口正北方向22米左右",
        "tel": "",
        "category": "基础设施:公共设施:公共厕所",
        "type": 0,
        "location": {
            "lat": 29.415801,
            "lng": 112.177136
        },
        "ad_info": {
            "adcode": 430721,
            "province": "湖南省",
            "city": "常德市",
            "district": "安乡县"
        }
    },
    {
        "id": "9930300667661397387",
        "title": "公共厕所",
        "address": "湖南省常德市武陵区皂果路中国石化加油站",
        "tel": "",
        "category": "基础设施:公共设施:公共厕所",
        "type": 0,
        "location": {
            "lat": 29.061629,
            "lng": 111.683209
        },
        "ad_info": {
            "adcode": 430702,
            "province": "湖南省",
            "city": "常德市",
            "district": "武陵区"
        }
    },
    {
        "id": "7362772107270717847",
        "title": "公共厕所",
        "address": "湖南省常德市武陵区人民路与红庙街交叉口东北方向72米左右",
        "tel": "",
        "category": "基础设施:公共设施:公共厕所",
        "type": 0,
        "location": {
            "lat": 29.017812,
            "lng": 111.712894
        },
        "ad_info": {
            "adcode": 430702,
            "province": "湖南省",
            "city": "常德市",
            "district": "武陵区"
        }
    },
    {
        "id": "4392538441119256351",
        "title": "公共厕所",
        "address": "湖南省常德市澧县和平街与永兴寺路交叉口正西方向43米左右",
        "tel": "",
        "category": "基础设施:公共设施:公共厕所",
        "type": 0,
        "location": {
            "lat": 29.635289,
            "lng": 111.762681
        },
        "ad_info": {
            "adcode": 430723,
            "province": "湖南省",
            "city": "常德市",
            "district": "澧县"
        }
    },
    {
        "id": "15408098110055916380",
        "title": "公共厕所",
        "address": "湖南省常德市武陵区中心巷与和平街交叉口西南方向36米左右",
        "tel": "",
        "category": "基础设施:公共设施:公共厕所",
        "type": 0,
        "location": {
            "lat": 29.02963,
            "lng": 111.69444
        },
        "ad_info": {
            "adcode": 430702,
            "province": "湖南省",
            "city": "常德市",
            "district": "武陵区"
        }
    },
    {
        "id": "9204304975260432199",
        "title": "公共厕所",
        "address": "湖南省常德市澧县人民路与州后街交叉口东北方向52米左右",
        "tel": "",
        "category": "基础设施:公共设施:公共厕所",
        "type": 0,
        "location": {
            "lat": 29.636879,
            "lng": 111.765692
        },
        "ad_info": {
            "adcode": 430723,
            "province": "湖南省",
            "city": "常德市",
            "district": "澧县"
        }
    },
    {
        "id": "2165669391815370890",
        "title": "公共厕所",
        "address": "湖南省常德市武陵区沅安路忠信商贸城",
        "tel": "",
        "category": "基础设施:公共设施:公共厕所",
        "type": 0,
        "location": {
            "lat": 29.026644,
            "lng": 111.694978
        },
        "ad_info": {
            "adcode": 430702,
            "province": "湖南省",
            "city": "常德市",
            "district": "武陵区"
        }
    },
    {
        "id": "1224414596211616779",
        "title": "公共厕所",
        "address": "湖南省常德市汉寿县银水东路66号(中国电信南面)",
        "tel": "",
        "category": "基础设施:公共设施:公共厕所",
        "type": 0,
        "location": {
            "lat": 28.907434,
            "lng": 111.970948
        },
        "ad_info": {
            "adcode": 430722,
            "province": "湖南省",
            "city": "常德市",
            "district": "汉寿县"
        }
    },
    {
        "id": "3895172922684755013",
        "title": "公共厕所",
        "address": "湖南省常德市武陵区光明巷1号常德·老西门内",
        "tel": "",
        "category": "基础设施:公共设施:公共厕所",
        "type": 0,
        "location": {
            "lat": 29.032859,
            "lng": 111.689769
        },
        "ad_info": {
            "adcode": 430702,
            "province": "湖南省",
            "city": "常德市",
            "district": "武陵区"
        }
    },
    {
        "id": "15298839786791128179",
        "title": "公共厕所",
        "address": "湖南省常德市武陵区人民路与贺八巷交叉口东南方向48米左右",
        "tel": "",
        "category": "基础设施:公共设施:公共厕所",
        "type": 0,
        "location": {
            "lat": 29.019391,
            "lng": 111.705239
        },
        "ad_info": {
            "adcode": 430702,
            "province": "湖南省",
            "city": "常德市",
            "district": "武陵区"
        }
    },
    {
        "id": "7318646158742568916",
        "title": "公共厕所",
        "address": "湖南省常德市汉寿县汉龙阳镇水厂巷汉寿·西竺山医院",
        "tel": "",
        "category": "基础设施:公共设施:公共厕所",
        "type": 0,
        "location": {
            "lat": 28.901905,
            "lng": 111.965087
        },
        "ad_info": {
            "adcode": 430722,
            "province": "湖南省",
            "city": "常德市",
            "district": "汉寿县"
        }
    },
    {
        "id": "17158340706233188211",
        "title": "公共厕所",
        "address": "湖南省常德市汉寿县公园路与南岳路交叉口正北方向41米左右",
        "tel": "",
        "category": "基础设施:公共设施:公共厕所",
        "type": 0,
        "location": {
            "lat": 28.906551,
            "lng": 111.961234
        },
        "ad_info": {
            "adcode": 430722,
            "province": "湖南省",
            "city": "常德市",
            "district": "汉寿县"
        }
    },
    {
        "id": "8830732895796434874",
        "title": "公共厕所",
        "address": "湖南省常德市澧县解放路237号",
        "tel": "",
        "category": "基础设施:公共设施:公共厕所",
        "type": 0,
        "location": {
            "lat": 29.631893,
            "lng": 111.759612
        },
        "ad_info": {
            "adcode": 430723,
            "province": "湖南省",
            "city": "常德市",
            "district": "澧县"
        }
    },
    {
        "id": "12193654340395967776",
        "title": "公共厕所",
        "address": "湖南省常德市澧县津澧大道与龙潭寺路交叉口正东方向137米左右",
        "tel": "",
        "category": "基础设施:公共设施:公共厕所",
        "type": 0,
        "location": {
            "lat": 29.642473,
            "lng": 111.760234
        },
        "ad_info": {
            "adcode": 430723,
            "province": "湖南省",
            "city": "常德市",
            "district": "澧县"
        }
    },
    {
        "id": "4615618802053915212",
        "title": "公共厕所",
        "address": "湖南省常德市澧县珍珠路与香潭路交叉口正东方向92米左右",
        "tel": "",
        "category": "基础设施:公共设施:公共厕所",
        "type": 0,
        "location": {
            "lat": 29.644734,
            "lng": 111.768026
        },
        "ad_info": {
            "adcode": 430723,
            "province": "湖南省",
            "city": "常德市",
            "district": "澧县"
        }
    },
    {
        "id": "17728482855534985182",
        "title": "公共厕所",
        "address": "湖南省常德市汉寿县银水东路银鑫大市场东侧约50米",
        "tel": "",
        "category": "基础设施:公共设施:公共厕所",
        "type": 0,
        "location": {
            "lat": 28.90449,
            "lng": 111.96674
        },
        "ad_info": {
            "adcode": 430722,
            "province": "湖南省",
            "city": "常德市",
            "district": "汉寿县"
        }
    },
    {
        "id": "2164009624556355442",
        "title": "公共厕所",
        "address": "湖南省常德市临澧县G353与XJ16交叉口东南方向487米左右",
        "tel": "",
        "category": "基础设施:公共设施:公共厕所",
        "type": 0,
        "location": {
            "lat": 29.648965,
            "lng": 111.523566
        },
        "ad_info": {
            "adcode": 430724,
            "province": "湖南省",
            "city": "常德市",
            "district": "临澧县"
        }
    },
    {
        "id": "17698090159860631380",
        "title": "公共厕所",
        "address": "湖南省常德市汉寿县也园街与五通庙巷交叉口西南方向20米左右",
        "tel": "",
        "category": "基础设施:公共设施:公共厕所",
        "type": 0,
        "location": {
            "lat": 28.908338,
            "lng": 111.969058
        },
        "ad_info": {
            "adcode": 430722,
            "province": "湖南省",
            "city": "常德市",
            "district": "汉寿县"
        }
    },
    {
        "id": "5863717882576238045",
        "title": "公共厕所",
        "address": "湖南省常德市临澧县富民街与瑞祥巷交叉口东北方向72米左右",
        "tel": "",
        "category": "基础设施:公共设施:公共厕所",
        "type": 0,
        "location": {
            "lat": 29.439918,
            "lng": 111.653963
        },
        "ad_info": {
            "adcode": 430724,
            "province": "湖南省",
            "city": "常德市",
            "district": "临澧县"
        }
    },
    {
        "id": "3435796828467550186",
        "title": "公共厕所",
        "address": "湖南省常德市澧县G207与S303交叉口西南方向244米左右",
        "tel": "",
        "category": "基础设施:公共设施:公共厕所",
        "type": 0,
        "location": {
            "lat": 29.832176,
            "lng": 111.853387
        },
        "ad_info": {
            "adcode": 430723,
            "province": "湖南省",
            "city": "常德市",
            "district": "澧县"
        }
    },
    {
        "id": "12825129748071834989",
        "title": "公共厕所",
        "address": "湖南省常德市武陵区新源巷与新胜巷交叉口正北方向15米左右",
        "tel": "",
        "category": "基础设施:公共设施:公共厕所",
        "type": 0,
        "location": {
            "lat": 29.030153,
            "lng": 111.69202
        },
        "ad_info": {
            "adcode": 430702,
            "province": "湖南省",
            "city": "常德市",
            "district": "武陵区"
        }
    },
    {
        "id": "11376819958274499324",
        "title": "公共厕所",
        "address": "湖南省常德市武陵区交通一支巷与交通二支巷交叉口正南方向108米左右",
        "tel": "",
        "category": "基础设施:公共设施:公共厕所",
        "type": 0,
        "location": {
            "lat": 29.042703,
            "lng": 111.681577
        },
        "ad_info": {
            "adcode": 430702,
            "province": "湖南省",
            "city": "常德市",
            "district": "武陵区"
        }
    },
    {
        "id": "16025542629254209318",
        "title": "公共厕所",
        "address": "湖南省常德市武陵区竹山巷湖南文理学院芙蓉学院",
        "tel": "",
        "category": "基础设施:公共设施:公共厕所",
        "type": 0,
        "location": {
            "lat": 29.02527,
            "lng": 111.718809
        },
        "ad_info": {
            "adcode": 430702,
            "province": "湖南省",
            "city": "常德市",
            "district": "武陵区"
        }
    },
    {
        "id": "12155085462927989638",
        "title": "公共厕所",
        "address": "湖南省常德市武陵区新河路与朝阳路交叉口正南方向89米左右",
        "tel": "",
        "category": "基础设施:公共设施:公共厕所",
        "type": 0,
        "location": {
            "lat": 29.0643,
            "lng": 111.691836
        },
        "ad_info": {
            "adcode": 430702,
            "province": "湖南省",
            "city": "常德市",
            "district": "武陵区"
        }
    },
    {
        "id": "14889551220869646718",
        "title": "公共厕所",
        "address": "湖南省常德市澧县S233与东西大街交叉口西南方向50米左右",
        "tel": "",
        "category": "基础设施:公共设施:公共厕所",
        "type": 0,
        "location": {
            "lat": 29.75028,
            "lng": 111.637013
        },
        "ad_info": {
            "adcode": 430723,
            "province": "湖南省",
            "city": "常德市",
            "district": "澧县"
        }
    },
    {
        "id": "5204691966289109810",
        "title": "公共厕所",
        "address": "湖南省常德市澧县人民路与洞庭街交叉口西北方向15米左右",
        "tel": "",
        "category": "基础设施:公共设施:公共厕所",
        "type": 0,
        "location": {
            "lat": 29.637972,
            "lng": 111.752866
        },
        "ad_info": {
            "adcode": 430723,
            "province": "湖南省",
            "city": "常德市",
            "district": "澧县"
        }
    },
    {
        "id": "2097403346810934827",
        "title": "公共厕所",
        "address": "湖南省常德市武陵区东风路与庆丰巷交叉口正南方向107米左右",
        "tel": "",
        "category": "基础设施:公共设施:公共厕所",
        "type": 0,
        "location": {
            "lat": 29.032703,
            "lng": 111.716743
        },
        "ad_info": {
            "adcode": 430702,
            "province": "湖南省",
            "city": "常德市",
            "district": "武陵区"
        }
    },
    {
        "id": "16750775440980489540",
        "title": "公共厕所",
        "address": "湖南省常德市武陵区朗州路与沅安路交叉口正西方向19米左右",
        "tel": "",
        "category": "基础设施:公共设施:公共厕所",
        "type": 0,
        "location": {
            "lat": 29.026003,
            "lng": 111.695645
        },
        "ad_info": {
            "adcode": 430702,
            "province": "湖南省",
            "city": "常德市",
            "district": "武陵区"
        }
    },
    {
        "id": "519623059697247479",
        "title": "公共厕所",
        "address": "湖南省常德市石门县中渡口路与橘香路交叉口东北方向182米左右",
        "tel": "",
        "category": "基础设施:公共设施:公共厕所",
        "type": 0,
        "location": {
            "lat": 29.577985,
            "lng": 111.383128
        },
        "ad_info": {
            "adcode": 430726,
            "province": "湖南省",
            "city": "常德市",
            "district": "石门县"
        }
    },
    {
        "id": "4943534166946748591",
        "title": "公共厕所",
        "address": "湖南省常德市澧县S515与朗州路交叉口正北方向312米左右",
        "tel": "",
        "category": "基础设施:公共设施:公共厕所",
        "type": 0,
        "location": {
            "lat": 29.688981,
            "lng": 111.65492
        },
        "ad_info": {
            "adcode": 430723,
            "province": "湖南省",
            "city": "常德市",
            "district": "澧县"
        }
    },
    {
        "id": "14356206667863300338",
        "title": "公共厕所",
        "address": "湖南省常德市澧县G353与Y049交叉口正北方向413米左右",
        "tel": "",
        "category": "基础设施:公共设施:公共厕所",
        "type": 0,
        "location": {
            "lat": 29.560853,
            "lng": 112.014462
        },
        "ad_info": {
            "adcode": 430723,
            "province": "湖南省",
            "city": "常德市",
            "district": "澧县"
        }
    },
    {
        "id": "5653055580881672903",
        "title": "公共厕所",
        "address": "湖南省常德市澧县G207与荆东连接线交叉口正西方向983米左右",
        "tel": "",
        "category": "基础设施:公共设施:公共厕所",
        "type": 0,
        "location": {
            "lat": 29.851354,
            "lng": 111.864073
        },
        "ad_info": {
            "adcode": 430723,
            "province": "湖南省",
            "city": "常德市",
            "district": "澧县"
        }
    },
    {
        "id": "12028585553321191759",
        "title": "公共厕所",
        "address": "湖南省常德市津市市建设路与新码头交叉口正南方向54米左右",
        "tel": "",
        "category": "基础设施:公共设施:公共厕所",
        "type": 0,
        "location": {
            "lat": 29.625275,
            "lng": 111.880153
        },
        "ad_info": {
            "adcode": 430781,
            "province": "湖南省",
            "city": "常德市",
            "district": "津市市"
        }
    },
    {
        "id": "5186350496461847924",
        "title": "公共厕所",
        "address": "湖南省常德市武陵区北堤巷与朗州路交叉口西南方向61米左右",
        "tel": "",
        "category": "基础设施:公共设施:公共厕所",
        "type": 0,
        "location": {
            "lat": 29.034869,
            "lng": 111.698999
        },
        "ad_info": {
            "adcode": 430702,
            "province": "湖南省",
            "city": "常德市",
            "district": "武陵区"
        }
    },
    {
        "id": "7744154344521566707",
        "title": "公共厕所",
        "address": "湖南省常德市武陵区临江路与汽修巷交叉口东南方向166米左右",
        "tel": "",
        "category": "基础设施:公共设施:公共厕所",
        "type": 0,
        "location": {
            "lat": 29.032728,
            "lng": 111.669486
        },
        "ad_info": {
            "adcode": 430702,
            "province": "湖南省",
            "city": "常德市",
            "district": "武陵区"
        }
    },
    {
        "id": "17798713381858883477",
        "title": "公共厕所",
        "address": "湖南省常德市武陵区骅街口巷69号",
        "tel": "",
        "category": "基础设施:公共设施:公共厕所",
        "type": 0,
        "location": {
            "lat": 29.035464,
            "lng": 111.690121
        },
        "ad_info": {
            "adcode": 430702,
            "province": "湖南省",
            "city": "常德市",
            "district": "武陵区"
        }
    },
    {
        "id": "9626324471561438755",
        "title": "公共厕所",
        "address": "湖南省常德市武陵区洞庭大道662号",
        "tel": "",
        "category": "基础设施:公共设施:公共厕所",
        "type": 0,
        "location": {
            "lat": 29.040728,
            "lng": 111.705976
        },
        "ad_info": {
            "adcode": 430702,
            "province": "湖南省",
            "city": "常德市",
            "district": "武陵区"
        }
    },
    {
        "id": "307932264914978076",
        "title": "公共卫生间",
        "address": "湖南省常德市武陵区四眼井街与鸡鹅巷交叉口西南方向21米左右",
        "tel": "",
        "category": "基础设施:公共设施:公共厕所",
        "type": 0,
        "location": {
            "lat": 29.029677,
            "lng": 111.696455
        },
        "ad_info": {
            "adcode": 430702,
            "province": "湖南省",
            "city": "常德市",
            "district": "武陵区"
        }
    },
    {
        "id": "6961274900849085926",
        "title": "公共厕所",
        "address": "湖南省常德市武陵区人民路与碑吉边路交叉口正西方向91米左右",
        "tel": "",
        "category": "基础设施:公共设施:公共厕所",
        "type": 0,
        "location": {
            "lat": 29.014962,
            "lng": 111.71992
        },
        "ad_info": {
            "adcode": 430702,
            "province": "湖南省",
            "city": "常德市",
            "district": "武陵区"
        }
    },
    {
        "id": "8588071599467084545",
        "title": "公共厕所",
        "address": "湖南省常德市桃源县杉板桥一巷与莲花湖六巷交叉口正西方向236米左右",
        "tel": "",
        "category": "基础设施:公共设施:公共厕所",
        "type": 0,
        "location": {
            "lat": 28.89845,
            "lng": 111.480138
        },
        "ad_info": {
            "adcode": 430725,
            "province": "湖南省",
            "city": "常德市",
            "district": "桃源县"
        }
    },
    {
        "id": "1892866683385519234",
        "title": "公共厕所",
        "address": "湖南省常德市桃源县文昌路与桃花大道交叉口东南方向80米左右",
        "tel": "",
        "category": "基础设施:公共设施:公共厕所",
        "type": 0,
        "location": {
            "lat": 28.903224,
            "lng": 111.472405
        },
        "ad_info": {
            "adcode": 430725,
            "province": "湖南省",
            "city": "常德市",
            "district": "桃源县"
        }
    },
    {
        "id": "1629960388507447439",
        "title": "常德服务区公共厕所",
        "address": "湖南省常德市鼎城区G55二广高速与常德服务区交叉口西南360米",
        "tel": "",
        "category": "基础设施:公共设施:公共厕所",
        "type": 0,
        "location": {
            "lat": 29.203896,
            "lng": 111.777071
        },
        "ad_info": {
            "adcode": 430703,
            "province": "湖南省",
            "city": "常德市",
            "district": "鼎城区"
        }
    },
    {
        "id": "5926560790785936225",
        "title": "公共厕所",
        "address": "湖南省常德市鼎城区友谊路与政府街交叉口西南方向20米左右",
        "tel": "",
        "category": "基础设施:公共设施:公共厕所",
        "type": 0,
        "location": {
            "lat": 29.111017,
            "lng": 111.623633
        },
        "ad_info": {
            "adcode": 430703,
            "province": "湖南省",
            "city": "常德市",
            "district": "鼎城区"
        }
    },
    {
        "id": "10464791097601921776",
        "title": "公共厕所",
        "address": "湖南省常德市石门县柳龙巷与澧阳东路交叉口西南方向69米左右",
        "tel": "",
        "category": "基础设施:公共设施:公共厕所",
        "type": 0,
        "location": {
            "lat": 29.597991,
            "lng": 111.395625
        },
        "ad_info": {
            "adcode": 430726,
            "province": "湖南省",
            "city": "常德市",
            "district": "石门县"
        }
    },
    {
        "id": "15669491778722927934",
        "title": "公共厕所",
        "address": "湖南省常德市鼎城区友谊街与政府街交叉口西南方向12米左右",
        "tel": "",
        "category": "基础设施:公共设施:公共厕所",
        "type": 0,
        "location": {
            "lat": 29.109082,
            "lng": 111.623533
        },
        "ad_info": {
            "adcode": 430703,
            "province": "湖南省",
            "city": "常德市",
            "district": "鼎城区"
        }
    },
    {
        "id": "15081220564925601295",
        "title": "公共厕所",
        "address": "湖南省常德市澧县关心路与洗墨池路交叉口正北方向55米左右",
        "tel": "",
        "category": "基础设施:公共设施:公共厕所",
        "type": 0,
        "location": {
            "lat": 29.630537,
            "lng": 111.732973
        },
        "ad_info": {
            "adcode": 430723,
            "province": "湖南省",
            "city": "常德市",
            "district": "澧县"
        }
    },
    {
        "id": "10118133605441111559",
        "title": "公共厕所",
        "address": "湖南省常德市桃源县后东街延溪花园",
        "tel": "",
        "category": "基础设施:公共设施:公共厕所",
        "type": 0,
        "location": {
            "lat": 28.908373,
            "lng": 111.48878
        },
        "ad_info": {
            "adcode": 430725,
            "province": "湖南省",
            "city": "常德市",
            "district": "桃源县"
        }
    },
    {
        "id": "3864681138027297286",
        "title": "公共厕所",
        "address": "湖南省常德市澧县解放路106号",
        "tel": "",
        "category": "基础设施:公共设施:公共厕所",
        "type": 0,
        "location": {
            "lat": 29.626864,
            "lng": 111.758299
        },
        "ad_info": {
            "adcode": 430723,
            "province": "湖南省",
            "city": "常德市",
            "district": "澧县"
        }
    },
    {
        "id": "17702555985760304950",
        "title": "公共厕所",
        "address": "湖南省常德市澧县G207与朱家岗路交叉口正东方向167米左右",
        "tel": "",
        "category": "基础设施:公共设施:公共厕所",
        "type": 0,
        "location": {
            "lat": 29.640726,
            "lng": 111.723349
        },
        "ad_info": {
            "adcode": 430723,
            "province": "湖南省",
            "city": "常德市",
            "district": "澧县"
        }
    },
    {
        "id": "5976999746085282068",
        "title": "常德服务区公共厕所",
        "address": "湖南省常德市鼎城区常德服务区",
        "tel": "",
        "category": "基础设施:公共设施:公共厕所",
        "type": 0,
        "location": {
            "lat": 29.201983,
            "lng": 111.778978
        },
        "ad_info": {
            "adcode": 430703,
            "province": "湖南省",
            "city": "常德市",
            "district": "鼎城区"
        }
    },
    {
        "id": "10240439502196071872",
        "title": "太子庙服务区公共厕所",
        "address": "湖南省常德市汉寿县太子庙互通与长张高速交叉口东北方向106米左右",
        "tel": "",
        "category": "基础设施:公共设施:公共厕所",
        "type": 0,
        "location": {
            "lat": 28.79509,
            "lng": 111.954335
        },
        "ad_info": {
            "adcode": 430722,
            "province": "湖南省",
            "city": "常德市",
            "district": "汉寿县"
        }
    },
    {
        "id": "632025041790168557",
        "title": "公共厕所",
        "address": "湖南省常德市临澧县人民街与红军路交叉口西南方向31米左右",
        "tel": "",
        "category": "基础设施:公共设施:公共厕所",
        "type": 0,
        "location": {
            "lat": 29.442105,
            "lng": 111.652785
        },
        "ad_info": {
            "adcode": 430724,
            "province": "湖南省",
            "city": "常德市",
            "district": "临澧县"
        }
    },
    {
        "id": "7531798213359896883",
        "title": "公共厕所",
        "address": "湖南省常德市桃源县广南巷与文昌路交叉口东北方向11米左右",
        "tel": "",
        "category": "基础设施:公共设施:公共厕所",
        "type": 0,
        "location": {
            "lat": 28.901997,
            "lng": 111.484766
        },
        "ad_info": {
            "adcode": 430725,
            "province": "湖南省",
            "city": "常德市",
            "district": "桃源县"
        }
    },
    {
        "id": "4544816723901135848",
        "title": "太子庙服务区公共厕所",
        "address": "湖南省常德市汉寿县太子庙互通与长张高速交叉口正南方向84米左右",
        "tel": "",
        "category": "基础设施:公共设施:公共厕所",
        "type": 0,
        "location": {
            "lat": 28.793505,
            "lng": 111.953991
        },
        "ad_info": {
            "adcode": 430722,
            "province": "湖南省",
            "city": "常德市",
            "district": "汉寿县"
        }
    },
    {
        "id": "7667778449068247839",
        "title": "鼎城服务区公共厕所",
        "address": "湖南省常德市鼎城区S306与Y218交叉口西北方向1973米左右",
        "tel": "",
        "category": "基础设施:公共设施:公共厕所",
        "type": 0,
        "location": {
            "lat": 29.200608,
            "lng": 111.807131
        },
        "ad_info": {
            "adcode": 430703,
            "province": "湖南省",
            "city": "常德市",
            "district": "鼎城区"
        }
    },
    {
        "id": "18128208028799376023",
        "title": "男洗手间(常德万达广场)",
        "address": "湖南省常德市武陵区皂果路1099号常德万达广场3F",
        "tel": "",
        "category": "基础设施:公共设施:公共厕所",
        "type": 0,
        "location": {
            "lat": 29.057071,
            "lng": 111.680892
        },
        "ad_info": {
            "adcode": 430702,
            "province": "湖南省",
            "city": "常德市",
            "district": "武陵区"
        }
    },
    {
        "id": "915515990612980689",
        "title": "男洗手间(和瑞欢乐城)",
        "address": "湖南省常德市武陵区武陵大道998号和瑞欢乐城F2层",
        "tel": "",
        "category": "基础设施:公共设施:公共厕所",
        "type": 0,
        "location": {
            "lat": 29.065226,
            "lng": 111.695739
        },
        "ad_info": {
            "adcode": 430702,
            "province": "湖南省",
            "city": "常德市",
            "district": "武陵区"
        }
    },
    {
        "id": "10876018863542259938",
        "title": "临澧服务区公共厕所",
        "address": "湖南省常德市临澧县二广高速附近",
        "tel": "",
        "category": "基础设施:公共设施:公共厕所",
        "type": 0,
        "location": {
            "lat": 29.490422,
            "lng": 111.78161
        },
        "ad_info": {
            "adcode": 430724,
            "province": "湖南省",
            "city": "常德市",
            "district": "临澧县"
        }
    },
    {
        "id": "2492584755617739825",
        "title": "太子庙服务区第二公共厕所",
        "address": "湖南省常德市汉寿县太子庙互通与长张高速交叉口西南方向62米左右",
        "tel": "",
        "category": "基础设施:公共设施:公共厕所",
        "type": 0,
        "location": {
            "lat": 28.793546,
            "lng": 111.954922
        },
        "ad_info": {
            "adcode": 430722,
            "province": "湖南省",
            "city": "常德市",
            "district": "汉寿县"
        }
    },
    {
        "id": "17865614876166071553",
        "title": "热市服务区第二公共厕所",
        "address": "湖南省常德市桃源县热市互通与长张高速交叉口西北方向1362米左右",
        "tel": "",
        "category": "基础设施:公共设施:公共厕所",
        "type": 0,
        "location": {
            "lat": 29.320065,
            "lng": 111.328371
        },
        "ad_info": {
            "adcode": 430725,
            "province": "湖南省",
            "city": "常德市",
            "district": "桃源县"
        }
    },
    {
        "id": "14928516839153877998",
        "title": "男卫生间(和瑞欢乐城)",
        "address": "湖南省常德市武陵区武陵大道998号和瑞欢乐城F2",
        "tel": "",
        "category": "基础设施:公共设施:男洗手间",
        "type": 0,
        "location": {
            "lat": 29.066029,
            "lng": 111.695039
        },
        "ad_info": {
            "adcode": 430702,
            "province": "湖南省",
            "city": "常德市",
            "district": "武陵区"
        }
    },
    {
        "id": "597277545966118287",
        "title": "热市服务区第三公共厕所",
        "address": "湖南省常德市桃源县热市互通与长张高速交叉口西北方向1640米左右",
        "tel": "",
        "category": "基础设施:公共设施:公共厕所",
        "type": 0,
        "location": {
            "lat": 29.321963,
            "lng": 111.326466
        },
        "ad_info": {
            "adcode": 430725,
            "province": "湖南省",
            "city": "常德市",
            "district": "桃源县"
        }
    },
    {
        "id": "3590627625663886142",
        "title": "公共厕所",
        "address": "湖南省常德市武陵区丝瓜井巷与新兴巷交叉口西南方向24米左右",
        "tel": "",
        "category": "基础设施:公共设施:公共厕所",
        "type": 0,
        "location": {
            "lat": 29.032782,
            "lng": 111.693915
        },
        "ad_info": {
            "adcode": 430702,
            "province": "湖南省",
            "city": "常德市",
            "district": "武陵区"
        }
    },
    {
        "id": "11439496782243827159",
        "title": "公共厕所",
        "address": "湖南省常德市武陵区人民路与常德大道交叉口西南方向174米左右",
        "tel": "",
        "category": "基础设施:公共设施:公共厕所",
        "type": 0,
        "location": {
            "lat": 29.011517,
            "lng": 111.72512
        },
        "ad_info": {
            "adcode": 430702,
            "province": "湖南省",
            "city": "常德市",
            "district": "武陵区"
        }
    },
    {
        "id": "17258880500499819564",
        "title": "公共厕所",
        "address": "湖南省常德市武陵区柳叶大道1号",
        "tel": "",
        "category": "基础设施:公共设施:公共厕所",
        "type": 0,
        "location": {
            "lat": 29.06029,
            "lng": 111.767918
        },
        "ad_info": {
            "adcode": 430702,
            "province": "湖南省",
            "city": "常德市",
            "district": "武陵区"
        }
    },
    {
        "id": "13044836324417781344",
        "title": "公共厕所",
        "address": "湖南省常德市汉寿县辰阳北路与间堤路交叉口西北方向26米左右",
        "tel": "",
        "category": "基础设施:公共设施:公共厕所",
        "type": 0,
        "location": {
            "lat": 28.914844,
            "lng": 111.967804
        },
        "ad_info": {
            "adcode": 430722,
            "province": "湖南省",
            "city": "常德市",
            "district": "汉寿县"
        }
    },
    {
        "id": "9422920867642232366",
        "title": "公共厕所",
        "address": "湖南省常德市武陵区朗州路青阳阁农贸市场",
        "tel": "",
        "category": "基础设施:公共设施:公共厕所",
        "type": 0,
        "location": {
            "lat": 29.028836,
            "lng": 111.697401
        },
        "ad_info": {
            "adcode": 430702,
            "province": "湖南省",
            "city": "常德市",
            "district": "武陵区"
        }
    },
    {
        "id": "15965196350477650796",
        "title": "公共厕所",
        "address": "湖南省常德市安乡县平安巷与潺陵路交叉口东北方向19米左右",
        "tel": "",
        "category": "基础设施:公共设施:公共厕所",
        "type": 0,
        "location": {
            "lat": 29.411468,
            "lng": 112.173403
        },
        "ad_info": {
            "adcode": 430721,
            "province": "湖南省",
            "city": "常德市",
            "district": "安乡县"
        }
    },
    {
        "id": "12155271538577806708",
        "title": "公共厕所",
        "address": "湖南省常德市武陵区滨湖巷与锦福巷交叉口正南方向72米左右",
        "tel": "",
        "category": "基础设施:公共设施:公共厕所",
        "type": 0,
        "location": {
            "lat": 29.038171,
            "lng": 111.656087
        },
        "ad_info": {
            "adcode": 430702,
            "province": "湖南省",
            "city": "常德市",
            "district": "武陵区"
        }
    },
    {
        "id": "4536227215377200176",
        "title": "公共厕所",
        "address": "湖南省常德市澧县屈原路与经五路交叉口正北方向33米左右",
        "tel": "",
        "category": "基础设施:公共设施:公共厕所",
        "type": 0,
        "location": {
            "lat": 29.625629,
            "lng": 111.766182
        },
        "ad_info": {
            "adcode": 430723,
            "province": "湖南省",
            "city": "常德市",
            "district": "澧县"
        }
    },
    {
        "id": "10275672710770178571",
        "title": "男卫生间",
        "address": "湖南省常德市武陵区武陵大道998号和瑞欢乐城F3",
        "tel": "",
        "category": "基础设施:公共设施:男洗手间",
        "type": 0,
        "location": {
            "lat": 29.065228,
            "lng": 111.695695
        },
        "ad_info": {
            "adcode": 430702,
            "province": "湖南省",
            "city": "常德市",
            "district": "武陵区"
        }
    },
    {
        "id": "10719689457036014451",
        "title": "公共厕所",
        "address": "湖南省常德市武陵区",
        "tel": "",
        "category": "基础设施:公共设施:公共厕所",
        "type": 0,
        "location": {
            "lat": 29.146772,
            "lng": 111.691161
        },
        "ad_info": {
            "adcode": 430702,
            "province": "湖南省",
            "city": "常德市",
            "district": "武陵区"
        }
    },
    {
        "id": "13182846730219619653",
        "title": "公共厕所",
        "address": "湖南省常德市武陵区武陵大道与西园路交叉口正西方向133米左右",
        "tel": "",
        "category": "基础设施:公共设施:公共厕所",
        "type": 0,
        "location": {
            "lat": 29.0439,
            "lng": 111.69116
        },
        "ad_info": {
            "adcode": 430702,
            "province": "湖南省",
            "city": "常德市",
            "district": "武陵区"
        }
    },
    {
        "id": "3831877031515243423",
        "title": "男卫生间",
        "address": "湖南省常德市武陵区武陵大道998号和瑞欢乐城F3",
        "tel": "",
        "category": "基础设施:公共设施:男洗手间",
        "type": 0,
        "location": {
            "lat": 29.06634,
            "lng": 111.695841
        },
        "ad_info": {
            "adcode": 430702,
            "province": "湖南省",
            "city": "常德市",
            "district": "武陵区"
        }
    },
    {
        "id": "3272395287933802366",
        "title": "公共厕所",
        "address": "湖南省常德市武陵区朝阳路与皂果巷交叉口正西方向97米左右",
        "tel": "",
        "category": "基础设施:公共设施:公共厕所",
        "type": 0,
        "location": {
            "lat": 29.037881,
            "lng": 111.68472
        },
        "ad_info": {
            "adcode": 430702,
            "province": "湖南省",
            "city": "常德市",
            "district": "武陵区"
        }
    },
    {
        "id": "3028831891363934067",
        "title": "城头山服务区第二公共厕所",
        "address": "湖南省常德市澧县中国石油城头山服务区加油站北侧50米",
        "tel": "",
        "category": "基础设施:公共设施:公共厕所",
        "type": 0,
        "location": {
            "lat": 29.799614,
            "lng": 111.857919
        },
        "ad_info": {
            "adcode": 430723,
            "province": "湖南省",
            "city": "常德市",
            "district": "澧县"
        }
    },
    {
        "id": "14079908314258362586",
        "title": "公共厕所",
        "address": "湖南省常德市澧县万寿宫路与澧阳路交叉口东北方向97米左右",
        "tel": "",
        "category": "基础设施:公共设施:公共厕所",
        "type": 0,
        "location": {
            "lat": 29.640097,
            "lng": 111.757083
        },
        "ad_info": {
            "adcode": 430723,
            "province": "湖南省",
            "city": "常德市",
            "district": "澧县"
        }
    },
    {
        "id": "15892952942889705865",
        "title": "公共厕所",
        "address": "湖南省常德市桃源县广南巷与文昌路交叉口正北方向34米左右",
        "tel": "",
        "category": "基础设施:公共设施:公共厕所",
        "type": 0,
        "location": {
            "lat": 28.902221,
            "lng": 111.484586
        },
        "ad_info": {
            "adcode": 430725,
            "province": "湖南省",
            "city": "常德市",
            "district": "桃源县"
        }
    },
    {
        "id": "8619500842619742659",
        "title": "公共厕所",
        "address": "湖南省常德市临澧县翰林路与迎宾路交叉口正东方向65米左右",
        "tel": "",
        "category": "基础设施:公共设施:公共厕所",
        "type": 0,
        "location": {
            "lat": 29.448948,
            "lng": 111.642136
        },
        "ad_info": {
            "adcode": 430724,
            "province": "湖南省",
            "city": "常德市",
            "district": "临澧县"
        }
    },
    {
        "id": "11373343997532831447",
        "title": "女卫生间",
        "address": "湖南省常德市武陵区武陵大道998号和瑞欢乐城F3",
        "tel": "",
        "category": "基础设施:公共设施:女洗手间",
        "type": 0,
        "location": {
            "lat": 29.065191,
            "lng": 111.695691
        },
        "ad_info": {
            "adcode": 430702,
            "province": "湖南省",
            "city": "常德市",
            "district": "武陵区"
        }
    },
    {
        "id": "10671399882070660432",
        "title": "桃花源服务区公共厕所",
        "address": "湖南省常德市桃源县G319与砂港桥交叉口东南方向1374米左右",
        "tel": "",
        "category": "基础设施:公共设施:公共厕所",
        "type": 0,
        "location": {
            "lat": 28.730288,
            "lng": 111.383278
        },
        "ad_info": {
            "adcode": 430725,
            "province": "湖南省",
            "city": "常德市",
            "district": "桃源县"
        }
    },
    {
        "id": "7467150260636813206",
        "title": "公共厕所",
        "address": "湖南省常德市石门县夹山大道与武陵南街交叉口正西方向78米左右",
        "tel": "",
        "category": "基础设施:公共设施:公共厕所",
        "type": 0,
        "location": {
            "lat": 29.58004,
            "lng": 111.398189
        },
        "ad_info": {
            "adcode": 430726,
            "province": "湖南省",
            "city": "常德市",
            "district": "石门县"
        }
    },
    {
        "id": "16317944231397730778",
        "title": "公共厕所",
        "address": "湖南省常德市澧县津澧大道辅路与环卫巷交叉口正东方向62米左右",
        "tel": "",
        "category": "基础设施:公共设施:公共厕所",
        "type": 0,
        "location": {
            "lat": 29.641377,
            "lng": 111.752991
        },
        "ad_info": {
            "adcode": 430723,
            "province": "湖南省",
            "city": "常德市",
            "district": "澧县"
        }
    },
    {
        "id": "10091299310237025914",
        "title": "公共厕所",
        "address": "湖南省常德市武陵区乾明北路与武陵巷交叉口东北方向62米左右",
        "tel": "",
        "category": "基础设施:公共设施:公共厕所",
        "type": 0,
        "location": {
            "lat": 28.968165,
            "lng": 111.705021
        },
        "ad_info": {
            "adcode": 430702,
            "province": "湖南省",
            "city": "常德市",
            "district": "武陵区"
        }
    },
    {
        "id": "14131002430738519952",
        "title": "女卫生间",
        "address": "湖南省常德市武陵区武陵大道998号和瑞欢乐城F3",
        "tel": "",
        "category": "基础设施:公共设施:女洗手间",
        "type": 0,
        "location": {
            "lat": 29.066066,
            "lng": 111.695051
        },
        "ad_info": {
            "adcode": 430702,
            "province": "湖南省",
            "city": "常德市",
            "district": "武陵区"
        }
    },
    {
        "id": "4117061430335834896",
        "title": "公共厕所",
        "address": "湖南省常德市武陵区紫桥北路与紫桥西路交叉口东北方向148米左右",
        "tel": "",
        "category": "基础设施:公共设施:公共厕所",
        "type": 0,
        "location": {
            "lat": 29.050137,
            "lng": 111.702776
        },
        "ad_info": {
            "adcode": 430702,
            "province": "湖南省",
            "city": "常德市",
            "district": "武陵区"
        }
    },
    {
        "id": "17167492884132697489",
        "title": "公共卫生间",
        "address": "湖南省常德市武陵区劳动街巷与沅安路交叉口正东方向34米左右",
        "tel": "",
        "category": "基础设施:公共设施:公共厕所",
        "type": 0,
        "location": {
            "lat": 29.01556,
            "lng": 111.706859
        },
        "ad_info": {
            "adcode": 430702,
            "province": "湖南省",
            "city": "常德市",
            "district": "武陵区"
        }
    },
    {
        "id": "12148541587806732564",
        "title": "公共厕所",
        "address": "湖南省常德市澧县徐家嘴巷与朱家堰街交叉口正南方向51米左右",
        "tel": "",
        "category": "基础设施:公共设施:公共厕所",
        "type": 0,
        "location": {
            "lat": 29.642767,
            "lng": 111.752595
        },
        "ad_info": {
            "adcode": 430723,
            "province": "湖南省",
            "city": "常德市",
            "district": "澧县"
        }
    },
    {
        "id": "12768084412596346356",
        "title": "公共厕所",
        "address": "湖南省常德市桃源县S315与仙鹤大道交叉口西南方向21米左右",
        "tel": "",
        "category": "基础设施:公共设施:公共厕所",
        "type": 0,
        "location": {
            "lat": 29.123542,
            "lng": 111.401899
        },
        "ad_info": {
            "adcode": 430725,
            "province": "湖南省",
            "city": "常德市",
            "district": "桃源县"
        }
    },
    {
        "id": "11046266604274054934",
        "title": "公共厕所",
        "address": "湖南省常德市石门县G353与S308交叉口东南方向407米左右",
        "tel": "",
        "category": "基础设施:公共设施:公共厕所",
        "type": 0,
        "location": {
            "lat": 29.601351,
            "lng": 111.34496
        },
        "ad_info": {
            "adcode": 430726,
            "province": "湖南省",
            "city": "常德市",
            "district": "石门县"
        }
    },
    {
        "id": "4978855018946692885",
        "title": "安乡服务区公共厕所",
        "address": "湖南省常德市安乡县安乡枢纽与杭瑞高速交叉口东北方向1980米左右",
        "tel": "",
        "category": "基础设施:公共设施:公共厕所",
        "type": 0,
        "location": {
            "lat": 29.349365,
            "lng": 112.171261
        },
        "ad_info": {
            "adcode": 430721,
            "province": "湖南省",
            "city": "常德市",
            "district": "安乡县"
        }
    },
    {
        "id": "5461028683506029857",
        "title": "公共厕所",
        "address": "湖南省常德市武陵区皂果路1099号常德万达广场1F",
        "tel": "",
        "category": "基础设施:公共设施:公共厕所",
        "type": 0,
        "location": {
            "lat": 29.056979,
            "lng": 111.680776
        },
        "ad_info": {
            "adcode": 430702,
            "province": "湖南省",
            "city": "常德市",
            "district": "武陵区"
        }
    },
    {
        "id": "8968298536837644660",
        "title": "公共厕所",
        "address": "湖南省常德市武陵区樟木桥街道有德路常德市新型建筑材料总厂",
        "tel": "",
        "category": "基础设施:公共设施:公共厕所",
        "type": 0,
        "location": {
            "lat": 28.939569,
            "lng": 111.679623
        },
        "ad_info": {
            "adcode": 430702,
            "province": "湖南省",
            "city": "常德市",
            "district": "武陵区"
        }
    },
    {
        "id": "16360540330282359570",
        "title": "公共厕所",
        "address": "湖南省常德市武陵区万金路1号",
        "tel": "",
        "category": "基础设施:公共设施:公共厕所",
        "type": 0,
        "location": {
            "lat": 29.078507,
            "lng": 111.752942
        },
        "ad_info": {
            "adcode": 430702,
            "province": "湖南省",
            "city": "常德市",
            "district": "武陵区"
        }
    },
    {
        "id": "3763635342313707863",
        "title": "公共厕所",
        "address": "湖南省常德市津市市孟姜女大道与车胤大道交叉口正北方向169米左右",
        "tel": "",
        "category": "基础设施:公共设施:公共厕所",
        "type": 0,
        "location": {
            "lat": 29.630855,
            "lng": 111.87759
        },
        "ad_info": {
            "adcode": 430781,
            "province": "湖南省",
            "city": "常德市",
            "district": "津市市"
        }
    },
    {
        "id": "14263302076666532519",
        "title": "公共厕所",
        "address": "湖南省常德市石门县宜红大道与石门大道交叉口东北方向195米左右",
        "tel": "",
        "category": "基础设施:公共设施:公共厕所",
        "type": 0,
        "location": {
            "lat": 29.598854,
            "lng": 111.435396
        },
        "ad_info": {
            "adcode": 430726,
            "province": "湖南省",
            "city": "常德市",
            "district": "石门县"
        }
    },
    {
        "id": "15077413421972425949",
        "title": "公共厕所",
        "address": "湖南省常德市武陵区人民路与民族街交叉口东北方向67米左右",
        "tel": "",
        "category": "基础设施:公共设施:公共厕所",
        "type": 0,
        "location": {
            "lat": 29.023068,
            "lng": 111.703553
        },
        "ad_info": {
            "adcode": 430702,
            "province": "湖南省",
            "city": "常德市",
            "district": "武陵区"
        }
    },
    {
        "id": "15689519823803488295",
        "title": "公共厕所",
        "address": "湖南省常德市鼎城区G319与Y248交叉口东北方向316米左右",
        "tel": "",
        "category": "基础设施:公共设施:公共厕所",
        "type": 0,
        "location": {
            "lat": 28.882949,
            "lng": 111.558509
        },
        "ad_info": {
            "adcode": 430703,
            "province": "湖南省",
            "city": "常德市",
            "district": "鼎城区"
        }
    },
    {
        "id": "9001763830020753665",
        "title": "公共厕所",
        "address": "湖南省常德市武陵区沅安路鸿泰苑",
        "tel": "",
        "category": "基础设施:公共设施:公共厕所",
        "type": 0,
        "location": {
            "lat": 29.019996,
            "lng": 111.703802
        },
        "ad_info": {
            "adcode": 430702,
            "province": "湖南省",
            "city": "常德市",
            "district": "武陵区"
        }
    },
    {
        "id": "12387557135676418916",
        "title": "公共厕所",
        "address": "湖南省常德市武陵区茉莉路市妇幼保健院宿舍区东门",
        "tel": "",
        "category": "基础设施:公共设施:公共厕所",
        "type": 0,
        "location": {
            "lat": 29.043177,
            "lng": 111.696195
        },
        "ad_info": {
            "adcode": 430702,
            "province": "湖南省",
            "city": "常德市",
            "district": "武陵区"
        }
    },
    {
        "id": "2412390382024663082",
        "title": "临澧服务区公共厕所",
        "address": "湖南省常德市临澧县二广高速附近",
        "tel": "",
        "category": "基础设施:公共设施:公共厕所",
        "type": 0,
        "location": {
            "lat": 29.490405,
            "lng": 111.783474
        },
        "ad_info": {
            "adcode": 430724,
            "province": "湖南省",
            "city": "常德市",
            "district": "临澧县"
        }
    },
    {
        "id": "10761512966100045298",
        "title": "公共厕所",
        "address": "湖南省常德市津市市中联大道与团湖路交叉口正西方向410米左右",
        "tel": "",
        "category": "基础设施:公共设施:公共厕所",
        "type": 0,
        "location": {
            "lat": 29.56843,
            "lng": 111.842667
        },
        "ad_info": {
            "adcode": 430781,
            "province": "湖南省",
            "city": "常德市",
            "district": "津市市"
        }
    },
    {
        "id": "3882677140479863806",
        "title": "公共厕所",
        "address": "湖南省常德市武陵区东沿路与常德大道交叉口东北方向338米左右",
        "tel": "",
        "category": "基础设施:公共设施:公共厕所",
        "type": 0,
        "location": {
            "lat": 28.952891,
            "lng": 111.717429
        },
        "ad_info": {
            "adcode": 430702,
            "province": "湖南省",
            "city": "常德市",
            "district": "武陵区"
        }
    },
    {
        "id": "11916596683165127970",
        "title": "公共厕所",
        "address": "湖南省常德市武陵区富山路与常德大道交叉口西北方向93米左右",
        "tel": "",
        "category": "基础设施:公共设施:公共厕所",
        "type": 0,
        "location": {
            "lat": 28.95598,
            "lng": 111.709286
        },
        "ad_info": {
            "adcode": 430702,
            "province": "湖南省",
            "city": "常德市",
            "district": "武陵区"
        }
    },
    {
        "id": "680768024044557859",
        "title": "公共厕所",
        "address": "湖南省常德市武陵区柳叶大道岩桥安置小区",
        "tel": "",
        "category": "基础设施:公共设施:公共厕所",
        "type": 0,
        "location": {
            "lat": 29.05232,
            "lng": 111.645154
        },
        "ad_info": {
            "adcode": 430702,
            "province": "湖南省",
            "city": "常德市",
            "district": "武陵区"
        }
    },
    {
        "id": "15417239571034853976",
        "title": "公共厕所",
        "address": "湖南省常德市武陵区兴民街与朗州路交叉口西北方向163米左右",
        "tel": "",
        "category": "基础设施:公共设施:公共厕所",
        "type": 0,
        "location": {
            "lat": 29.050275,
            "lng": 111.698282
        },
        "ad_info": {
            "adcode": 430702,
            "province": "湖南省",
            "city": "常德市",
            "district": "武陵区"
        }
    },
    {
        "id": "2484094483474898226",
        "title": "公共厕所",
        "address": "湖南省常德市津市市三洲驿路与品元宫路交叉口正南方向85米左右",
        "tel": "",
        "category": "基础设施:公共设施:公共厕所",
        "type": 0,
        "location": {
            "lat": 29.627572,
            "lng": 111.877198
        },
        "ad_info": {
            "adcode": 430781,
            "province": "湖南省",
            "city": "常德市",
            "district": "津市市"
        }
    },
    {
        "id": "11698797542869340509",
        "title": "公共厕所",
        "address": "湖南省常德市武陵区刘海巷与四眼井街交叉口正北方向24米左右",
        "tel": "",
        "category": "基础设施:公共设施:公共厕所",
        "type": 0,
        "location": {
            "lat": 29.03084,
            "lng": 111.694803
        },
        "ad_info": {
            "adcode": 430702,
            "province": "湖南省",
            "city": "常德市",
            "district": "武陵区"
        }
    },
    {
        "id": "13879749848184604992",
        "title": "公共厕所",
        "address": "湖南省常德市石门县明阳路与永兴大道交叉口正西方向145米左右",
        "tel": "",
        "category": "基础设施:公共设施:公共厕所",
        "type": 0,
        "location": {
            "lat": 29.593718,
            "lng": 111.437785
        },
        "ad_info": {
            "adcode": 430726,
            "province": "湖南省",
            "city": "常德市",
            "district": "石门县"
        }
    },
    {
        "id": "1730675325128071724",
        "title": "公共厕所",
        "address": "湖南省常德市安乡县健康路与南外街交叉口正南方向161米左右",
        "tel": "",
        "category": "基础设施:公共设施:公共厕所",
        "type": 0,
        "location": {
            "lat": 29.403876,
            "lng": 112.167088
        },
        "ad_info": {
            "adcode": 430721,
            "province": "湖南省",
            "city": "常德市",
            "district": "安乡县"
        }
    },
    {
        "id": "11235738704715294563",
        "title": "公共厕所",
        "address": "湖南省常德市津市市孟姜女大道与湖桥路交叉口正西方向285米左右",
        "tel": "",
        "category": "基础设施:公共设施:公共厕所",
        "type": 0,
        "location": {
            "lat": 29.58981,
            "lng": 111.87115
        },
        "ad_info": {
            "adcode": 430781,
            "province": "湖南省",
            "city": "常德市",
            "district": "津市市"
        }
    },
    {
        "id": "12905007613219935008",
        "title": "公共厕所",
        "address": "湖南省常德市津市市华都巷与津澧大道交叉口正南方向122米左右",
        "tel": "",
        "category": "基础设施:公共设施:公共厕所",
        "type": 0,
        "location": {
            "lat": 29.633726,
            "lng": 111.885844
        },
        "ad_info": {
            "adcode": 430781,
            "province": "湖南省",
            "city": "常德市",
            "district": "津市市"
        }
    },
    {
        "id": "9800380449824449986",
        "title": "鼎城服务区公共厕所",
        "address": "湖南省常德市鼎城区G56杭瑞高速与鼎城服务区交叉口西220米",
        "tel": "",
        "category": "基础设施:公共设施:公共厕所",
        "type": 0,
        "location": {
            "lat": 29.203591,
            "lng": 111.806934
        },
        "ad_info": {
            "adcode": 430703,
            "province": "湖南省",
            "city": "常德市",
            "district": "鼎城区"
        }
    },
    {
        "id": "3496268577665504023",
        "title": "公共厕所",
        "address": "湖南省常德市鼎城区善卷路与杨家港路交叉口正北方向216米左右",
        "tel": "",
        "category": "基础设施:公共设施:公共厕所",
        "type": 0,
        "location": {
            "lat": 28.9713,
            "lng": 111.691
        },
        "ad_info": {
            "adcode": 430703,
            "province": "湖南省",
            "city": "常德市",
            "district": "鼎城区"
        }
    },
    {
        "id": "12405143509346351074",
        "title": "公共厕所",
        "address": "湖南省常德市武陵区紫桥中路62号农贸市场垃圾站旁",
        "tel": "",
        "category": "基础设施:公共设施:公共厕所",
        "type": 0,
        "location": {
            "lat": 29.047226,
            "lng": 111.704124
        },
        "ad_info": {
            "adcode": 430702,
            "province": "湖南省",
            "city": "常德市",
            "district": "武陵区"
        }
    },
    {
        "id": "16730526085684298521",
        "title": "公共厕所",
        "address": "湖南省常德市武陵区公园路与北堤巷交叉口正西方向45米左右",
        "tel": "",
        "category": "基础设施:公共设施:公共厕所",
        "type": 0,
        "location": {
            "lat": 29.033545,
            "lng": 111.700324
        },
        "ad_info": {
            "adcode": 430702,
            "province": "湖南省",
            "city": "常德市",
            "district": "武陵区"
        }
    },
    {
        "id": "10889063768444717770",
        "title": "公共厕所",
        "address": "湖南省常德市武陵区沙港路与鸿运巷交叉口正东方向112米左右",
        "tel": "",
        "category": "基础设施:公共设施:公共厕所",
        "type": 0,
        "location": {
            "lat": 29.057425,
            "lng": 111.692164
        },
        "ad_info": {
            "adcode": 430702,
            "province": "湖南省",
            "city": "常德市",
            "district": "武陵区"
        }
    },
    {
        "id": "3166677847748613005",
        "title": "老西门公共厕所",
        "address": "湖南省常德市石门县澧滨路与西门路交叉口西北方向24米左右",
        "tel": "",
        "category": "基础设施:公共设施:公共厕所",
        "type": 0,
        "location": {
            "lat": 29.582509,
            "lng": 111.379024
        },
        "ad_info": {
            "adcode": 430726,
            "province": "湖南省",
            "city": "常德市",
            "district": "石门县"
        }
    },
    {
        "id": "5863468925557121583",
        "title": "公共厕所",
        "address": "湖南省常德市鼎城区南县巷与湘阴巷交叉口正北方向165米左右",
        "tel": "",
        "category": "基础设施:公共设施:公共厕所",
        "type": 0,
        "location": {
            "lat": 29.214818,
            "lng": 111.978428
        },
        "ad_info": {
            "adcode": 430703,
            "province": "湖南省",
            "city": "常德市",
            "district": "鼎城区"
        }
    },
    {
        "id": "4367841648240643507",
        "title": "公共厕所",
        "address": "湖南省常德市武陵区太阳大道戴家岗安置小区",
        "tel": "",
        "category": "基础设施:公共设施:公共厕所",
        "type": 0,
        "location": {
            "lat": 29.051918,
            "lng": 111.725853
        },
        "ad_info": {
            "adcode": 430702,
            "province": "湖南省",
            "city": "常德市",
            "district": "武陵区"
        }
    },
    {
        "id": "9323844241773110504",
        "title": "公共厕所",
        "address": "湖南省常德市津市市人民路与凤凰路交叉口正北方向79米左右",
        "tel": "",
        "category": "基础设施:公共设施:公共厕所",
        "type": 0,
        "location": {
            "lat": 29.627172,
            "lng": 111.886811
        },
        "ad_info": {
            "adcode": 430781,
            "province": "湖南省",
            "city": "常德市",
            "district": "津市市"
        }
    },
    {
        "id": "13122005813705114273",
        "title": "公共厕所",
        "address": "湖南省常德市鼎城区桃花源路与永丰路交叉口西北方向151米左右",
        "tel": "",
        "category": "基础设施:公共设施:公共厕所",
        "type": 0,
        "location": {
            "lat": 28.996226,
            "lng": 111.664261
        },
        "ad_info": {
            "adcode": 430703,
            "province": "湖南省",
            "city": "常德市",
            "district": "鼎城区"
        }
    },
    {
        "id": "3563367255239268214",
        "title": "男卫生间(和瑞欢乐城)",
        "address": "湖南省常德市武陵区武陵大道998号和瑞欢乐城F3",
        "tel": "",
        "category": "基础设施:公共设施:男洗手间",
        "type": 0,
        "location": {
            "lat": 29.065398,
            "lng": 111.694979
        },
        "ad_info": {
            "adcode": 430702,
            "province": "湖南省",
            "city": "常德市",
            "district": "武陵区"
        }
    },
    {
        "id": "13957195271192636164",
        "title": "公共厕所",
        "address": "湖南省常德市石门县三江路与育才路交叉口东南方向105米左右",
        "tel": "",
        "category": "基础设施:公共设施:公共厕所",
        "type": 0,
        "location": {
            "lat": 29.575333,
            "lng": 111.36137
        },
        "ad_info": {
            "adcode": 430726,
            "province": "湖南省",
            "city": "常德市",
            "district": "石门县"
        }
    },
    {
        "id": "14614285592766341155",
        "title": "无障碍洗手间(和瑞欢乐城)",
        "address": "湖南省常德市武陵区武陵大道998号和瑞欢乐城F1层",
        "tel": "",
        "category": "基础设施:公共设施:公共厕所",
        "type": 0,
        "location": {
            "lat": 29.065236,
            "lng": 111.695721
        },
        "ad_info": {
            "adcode": 430702,
            "province": "湖南省",
            "city": "常德市",
            "district": "武陵区"
        }
    },
    {
        "id": "17486313566252293266",
        "title": "女洗手间(常德万达广场)",
        "address": "湖南省常德市武陵区皂果路1099号常德万达广场4F",
        "tel": "",
        "category": "基础设施:公共设施:女洗手间",
        "type": 0,
        "location": {
            "lat": 29.055296,
            "lng": 111.680646
        },
        "ad_info": {
            "adcode": 430702,
            "province": "湖南省",
            "city": "常德市",
            "district": "武陵区"
        }
    },
    {
        "id": "13379581307770869579",
        "title": "城头山服务区第二公共厕所",
        "address": "湖南省常德市澧县二广高速城头山服务区",
        "tel": "",
        "category": "基础设施:公共设施:公共厕所",
        "type": 0,
        "location": {
            "lat": 29.798687,
            "lng": 111.859609
        },
        "ad_info": {
            "adcode": 430723,
            "province": "湖南省",
            "city": "常德市",
            "district": "澧县"
        }
    },
    {
        "id": "17244484982622138924",
        "title": "公共厕所",
        "address": "湖南省常德市武陵区体育路与建设路交叉口正北方向92米左右",
        "tel": "",
        "category": "基础设施:公共设施:公共厕所",
        "type": 0,
        "location": {
            "lat": 29.02512,
            "lng": 111.706268
        },
        "ad_info": {
            "adcode": 430702,
            "province": "湖南省",
            "city": "常德市",
            "district": "武陵区"
        }
    },
    {
        "id": "13925397898261314845",
        "title": "公共厕所",
        "address": "湖南省常德市武陵区城门口路与民族街交叉口东北方向48米左右",
        "tel": "",
        "category": "基础设施:公共设施:公共厕所",
        "type": 0,
        "location": {
            "lat": 29.022486,
            "lng": 111.705115
        },
        "ad_info": {
            "adcode": 430702,
            "province": "湖南省",
            "city": "常德市",
            "district": "武陵区"
        }
    },
    {
        "id": "6145034436488398317",
        "title": "公共厕所",
        "address": "湖南省常德市汉寿县G319与X037交叉口西北方向1178米左右",
        "tel": "",
        "category": "基础设施:公共设施:公共厕所",
        "type": 0,
        "location": {
            "lat": 28.707594,
            "lng": 112.086874
        },
        "ad_info": {
            "adcode": 430722,
            "province": "湖南省",
            "city": "常德市",
            "district": "汉寿县"
        }
    },
    {
        "id": "11865558660626401942",
        "title": "公共厕所",
        "address": "湖南省常德市武陵区武陵阁步行城金钻商业广场",
        "tel": "",
        "category": "基础设施:公共设施:公共厕所",
        "type": 0,
        "location": {
            "lat": 29.030165,
            "lng": 111.693338
        },
        "ad_info": {
            "adcode": 430702,
            "province": "湖南省",
            "city": "常德市",
            "district": "武陵区"
        }
    },
    {
        "id": "519333935783803918",
        "title": "公共厕所",
        "address": "湖南省常德市武陵区环湖路与银牛路交叉口西南方向430米左右",
        "tel": "",
        "category": "基础设施:公共设施:公共厕所",
        "type": 0,
        "location": {
            "lat": 29.108404,
            "lng": 111.704957
        },
        "ad_info": {
            "adcode": 430702,
            "province": "湖南省",
            "city": "常德市",
            "district": "武陵区"
        }
    },
    {
        "id": "8514585735172325257",
        "title": "公共厕所",
        "address": "湖南省常德市澧县文化街与棚厂街交叉口东北方向20米左右",
        "tel": "",
        "category": "基础设施:公共设施:公共厕所",
        "type": 0,
        "location": {
            "lat": 29.634447,
            "lng": 111.759397
        },
        "ad_info": {
            "adcode": 430723,
            "province": "湖南省",
            "city": "常德市",
            "district": "澧县"
        }
    },
    {
        "id": "15689948615144787343",
        "title": "公共厕所",
        "address": "湖南省常德市武陵区新乐巷与新利巷交叉口正南方向48米左右",
        "tel": "",
        "category": "基础设施:公共设施:公共厕所",
        "type": 0,
        "location": {
            "lat": 29.030987,
            "lng": 111.707968
        },
        "ad_info": {
            "adcode": 430702,
            "province": "湖南省",
            "city": "常德市",
            "district": "武陵区"
        }
    },
    {
        "id": "5536865045552822275",
        "title": "白马湖文化公园公共厕所",
        "address": "湖南省常德市武陵区龙港路白马湖文化公园内",
        "tel": "",
        "category": "基础设施:公共设施:公共厕所",
        "type": 0,
        "location": {
            "lat": 29.048541,
            "lng": 111.676244
        },
        "ad_info": {
            "adcode": 430702,
            "province": "湖南省",
            "city": "常德市",
            "district": "武陵区"
        }
    },
    {
        "id": "7506627809899789991",
        "title": "公共厕所",
        "address": "湖南省常德市武陵区朗州路万业城",
        "tel": "",
        "category": "基础设施:公共设施:公共厕所",
        "type": 0,
        "location": {
            "lat": 29.047624,
            "lng": 111.699282
        },
        "ad_info": {
            "adcode": 430702,
            "province": "湖南省",
            "city": "常德市",
            "district": "武陵区"
        }
    },
    {
        "id": "793032580743266559",
        "title": "女洗手间(和瑞欢乐城)",
        "address": "湖南省常德市武陵区武陵大道998号和瑞欢乐城F3",
        "tel": "",
        "category": "基础设施:公共设施:女洗手间",
        "type": 0,
        "location": {
            "lat": 29.065435,
            "lng": 111.694991
        },
        "ad_info": {
            "adcode": 430702,
            "province": "湖南省",
            "city": "常德市",
            "district": "武陵区"
        }
    },
    {
        "id": "8220180442890497373",
        "title": "女洗手间(和瑞欢乐城)",
        "address": "湖南省常德市武陵区武陵大道998号和瑞欢乐城F1",
        "tel": "",
        "category": "基础设施:公共设施:女洗手间",
        "type": 0,
        "location": {
            "lat": 29.065198,
            "lng": 111.695687
        },
        "ad_info": {
            "adcode": 430702,
            "province": "湖南省",
            "city": "常德市",
            "district": "武陵区"
        }
    },
    {
        "id": "15131059773600954214",
        "title": "公共厕所",
        "address": "湖南省常德市鼎城区永兴路与永富路交叉口正西方向106米左右",
        "tel": "",
        "category": "基础设施:公共设施:公共厕所",
        "type": 0,
        "location": {
            "lat": 28.983749,
            "lng": 111.687745
        },
        "ad_info": {
            "adcode": 430703,
            "province": "湖南省",
            "city": "常德市",
            "district": "鼎城区"
        }
    },
    {
        "id": "151206512909548021",
        "title": "公共厕所",
        "address": "湖南省常德市临澧县Y139与安福路交叉口西北方向918米左右",
        "tel": "",
        "category": "基础设施:公共设施:公共厕所",
        "type": 0,
        "location": {
            "lat": 29.439456,
            "lng": 111.603809
        },
        "ad_info": {
            "adcode": 430724,
            "province": "湖南省",
            "city": "常德市",
            "district": "临澧县"
        }
    },
    {
        "id": "1079540728231421611",
        "title": "公共厕所",
        "address": "湖南省常德市武陵区S306与复基路交叉口正北方向58米左右",
        "tel": "",
        "category": "基础设施:公共设施:公共厕所",
        "type": 0,
        "location": {
            "lat": 29.073939,
            "lng": 111.73515
        },
        "ad_info": {
            "adcode": 430702,
            "province": "湖南省",
            "city": "常德市",
            "district": "武陵区"
        }
    },
    {
        "id": "13656454008231328974",
        "title": "公共厕所",
        "address": "湖南省常德市汉寿县沧浪西路与鸿运街交叉口东南方向29米左右",
        "tel": "0736-2893079",
        "category": "基础设施:公共设施:公共厕所",
        "type": 0,
        "location": {
            "lat": 28.909566,
            "lng": 111.960313
        },
        "ad_info": {
            "adcode": 430722,
            "province": "湖南省",
            "city": "常德市",
            "district": "汉寿县"
        }
    },
    {
        "id": "3563367255239268214",
        "title": "男卫生间(和瑞欢乐城)",
        "address": "湖南省常德市武陵区武陵大道998号和瑞欢乐城F3",
        "tel": "",
        "category": "基础设施:公共设施:男洗手间",
        "type": 0,
        "location": {
            "lat": 29.065398,
            "lng": 111.694979
        },
        "ad_info": {
            "adcode": 430702,
            "province": "湖南省",
            "city": "常德市",
            "district": "武陵区"
        }
    },
    {
        "id": "13957195271192636164",
        "title": "公共厕所",
        "address": "湖南省常德市石门县三江路与育才路交叉口东南方向105米左右",
        "tel": "",
        "category": "基础设施:公共设施:公共厕所",
        "type": 0,
        "location": {
            "lat": 29.575333,
            "lng": 111.36137
        },
        "ad_info": {
            "adcode": 430726,
            "province": "湖南省",
            "city": "常德市",
            "district": "石门县"
        }
    },
    {
        "id": "14614285592766341155",
        "title": "无障碍洗手间(和瑞欢乐城)",
        "address": "湖南省常德市武陵区武陵大道998号和瑞欢乐城F1层",
        "tel": "",
        "category": "基础设施:公共设施:公共厕所",
        "type": 0,
        "location": {
            "lat": 29.065236,
            "lng": 111.695721
        },
        "ad_info": {
            "adcode": 430702,
            "province": "湖南省",
            "city": "常德市",
            "district": "武陵区"
        }
    },
    {
        "id": "17486313566252293266",
        "title": "女洗手间(常德万达广场)",
        "address": "湖南省常德市武陵区皂果路1099号常德万达广场4F",
        "tel": "",
        "category": "基础设施:公共设施:女洗手间",
        "type": 0,
        "location": {
            "lat": 29.055296,
            "lng": 111.680646
        },
        "ad_info": {
            "adcode": 430702,
            "province": "湖南省",
            "city": "常德市",
            "district": "武陵区"
        }
    },
    {
        "id": "13379581307770869579",
        "title": "城头山服务区第二公共厕所",
        "address": "湖南省常德市澧县二广高速城头山服务区",
        "tel": "",
        "category": "基础设施:公共设施:公共厕所",
        "type": 0,
        "location": {
            "lat": 29.798687,
            "lng": 111.859609
        },
        "ad_info": {
            "adcode": 430723,
            "province": "湖南省",
            "city": "常德市",
            "district": "澧县"
        }
    },
    {
        "id": "17244484982622138924",
        "title": "公共厕所",
        "address": "湖南省常德市武陵区体育路与建设路交叉口正北方向92米左右",
        "tel": "",
        "category": "基础设施:公共设施:公共厕所",
        "type": 0,
        "location": {
            "lat": 29.02512,
            "lng": 111.706268
        },
        "ad_info": {
            "adcode": 430702,
            "province": "湖南省",
            "city": "常德市",
            "district": "武陵区"
        }
    },
    {
        "id": "13925397898261314845",
        "title": "公共厕所",
        "address": "湖南省常德市武陵区城门口路与民族街交叉口东北方向48米左右",
        "tel": "",
        "category": "基础设施:公共设施:公共厕所",
        "type": 0,
        "location": {
            "lat": 29.022486,
            "lng": 111.705115
        },
        "ad_info": {
            "adcode": 430702,
            "province": "湖南省",
            "city": "常德市",
            "district": "武陵区"
        }
    },
    {
        "id": "6145034436488398317",
        "title": "公共厕所",
        "address": "湖南省常德市汉寿县G319与X037交叉口西北方向1178米左右",
        "tel": "",
        "category": "基础设施:公共设施:公共厕所",
        "type": 0,
        "location": {
            "lat": 28.707594,
            "lng": 112.086874
        },
        "ad_info": {
            "adcode": 430722,
            "province": "湖南省",
            "city": "常德市",
            "district": "汉寿县"
        }
    },
    {
        "id": "11865558660626401942",
        "title": "公共厕所",
        "address": "湖南省常德市武陵区武陵阁步行城金钻商业广场",
        "tel": "",
        "category": "基础设施:公共设施:公共厕所",
        "type": 0,
        "location": {
            "lat": 29.030165,
            "lng": 111.693338
        },
        "ad_info": {
            "adcode": 430702,
            "province": "湖南省",
            "city": "常德市",
            "district": "武陵区"
        }
    },
    {
        "id": "519333935783803918",
        "title": "公共厕所",
        "address": "湖南省常德市武陵区环湖路与银牛路交叉口西南方向430米左右",
        "tel": "",
        "category": "基础设施:公共设施:公共厕所",
        "type": 0,
        "location": {
            "lat": 29.108404,
            "lng": 111.704957
        },
        "ad_info": {
            "adcode": 430702,
            "province": "湖南省",
            "city": "常德市",
            "district": "武陵区"
        }
    },
    {
        "id": "8514585735172325257",
        "title": "公共厕所",
        "address": "湖南省常德市澧县文化街与棚厂街交叉口东北方向20米左右",
        "tel": "",
        "category": "基础设施:公共设施:公共厕所",
        "type": 0,
        "location": {
            "lat": 29.634447,
            "lng": 111.759397
        },
        "ad_info": {
            "adcode": 430723,
            "province": "湖南省",
            "city": "常德市",
            "district": "澧县"
        }
    },
    {
        "id": "15689948615144787343",
        "title": "公共厕所",
        "address": "湖南省常德市武陵区新乐巷与新利巷交叉口正南方向48米左右",
        "tel": "",
        "category": "基础设施:公共设施:公共厕所",
        "type": 0,
        "location": {
            "lat": 29.030987,
            "lng": 111.707968
        },
        "ad_info": {
            "adcode": 430702,
            "province": "湖南省",
            "city": "常德市",
            "district": "武陵区"
        }
    },
    {
        "id": "5536865045552822275",
        "title": "白马湖文化公园公共厕所",
        "address": "湖南省常德市武陵区龙港路白马湖文化公园内",
        "tel": "",
        "category": "基础设施:公共设施:公共厕所",
        "type": 0,
        "location": {
            "lat": 29.048541,
            "lng": 111.676244
        },
        "ad_info": {
            "adcode": 430702,
            "province": "湖南省",
            "city": "常德市",
            "district": "武陵区"
        }
    },
    {
        "id": "7506627809899789991",
        "title": "公共厕所",
        "address": "湖南省常德市武陵区朗州路万业城",
        "tel": "",
        "category": "基础设施:公共设施:公共厕所",
        "type": 0,
        "location": {
            "lat": 29.047624,
            "lng": 111.699282
        },
        "ad_info": {
            "adcode": 430702,
            "province": "湖南省",
            "city": "常德市",
            "district": "武陵区"
        }
    },
    {
        "id": "793032580743266559",
        "title": "女洗手间(和瑞欢乐城)",
        "address": "湖南省常德市武陵区武陵大道998号和瑞欢乐城F3",
        "tel": "",
        "category": "基础设施:公共设施:女洗手间",
        "type": 0,
        "location": {
            "lat": 29.065435,
            "lng": 111.694991
        },
        "ad_info": {
            "adcode": 430702,
            "province": "湖南省",
            "city": "常德市",
            "district": "武陵区"
        }
    },
    {
        "id": "8220180442890497373",
        "title": "女洗手间(和瑞欢乐城)",
        "address": "湖南省常德市武陵区武陵大道998号和瑞欢乐城F1",
        "tel": "",
        "category": "基础设施:公共设施:女洗手间",
        "type": 0,
        "location": {
            "lat": 29.065198,
            "lng": 111.695687
        },
        "ad_info": {
            "adcode": 430702,
            "province": "湖南省",
            "city": "常德市",
            "district": "武陵区"
        }
    },
    {
        "id": "15131059773600954214",
        "title": "公共厕所",
        "address": "湖南省常德市鼎城区永兴路与永富路交叉口正西方向106米左右",
        "tel": "",
        "category": "基础设施:公共设施:公共厕所",
        "type": 0,
        "location": {
            "lat": 28.983749,
            "lng": 111.687745
        },
        "ad_info": {
            "adcode": 430703,
            "province": "湖南省",
            "city": "常德市",
            "district": "鼎城区"
        }
    },
    {
        "id": "151206512909548021",
        "title": "公共厕所",
        "address": "湖南省常德市临澧县Y139与安福路交叉口西北方向918米左右",
        "tel": "",
        "category": "基础设施:公共设施:公共厕所",
        "type": 0,
        "location": {
            "lat": 29.439456,
            "lng": 111.603809
        },
        "ad_info": {
            "adcode": 430724,
            "province": "湖南省",
            "city": "常德市",
            "district": "临澧县"
        }
    },
    {
        "id": "1079540728231421611",
        "title": "公共厕所",
        "address": "湖南省常德市武陵区S306与复基路交叉口正北方向58米左右",
        "tel": "",
        "category": "基础设施:公共设施:公共厕所",
        "type": 0,
        "location": {
            "lat": 29.073939,
            "lng": 111.73515
        },
        "ad_info": {
            "adcode": 430702,
            "province": "湖南省",
            "city": "常德市",
            "district": "武陵区"
        }
    },
    {
        "id": "13656454008231328974",
        "title": "公共厕所",
        "address": "湖南省常德市汉寿县沧浪西路与鸿运街交叉口东南方向29米左右",
        "tel": "0736-2893079",
        "category": "基础设施:公共设施:公共厕所",
        "type": 0,
        "location": {
            "lat": 28.909566,
            "lng": 111.960313
        },
        "ad_info": {
            "adcode": 430722,
            "province": "湖南省",
            "city": "常德市",
            "district": "汉寿县"
        }
    },
    {
        "id": "3563367255239268214",
        "title": "男卫生间(和瑞欢乐城)",
        "address": "湖南省常德市武陵区武陵大道998号和瑞欢乐城F3",
        "tel": "",
        "category": "基础设施:公共设施:男洗手间",
        "type": 0,
        "location": {
            "lat": 29.065398,
            "lng": 111.694979
        },
        "ad_info": {
            "adcode": 430702,
            "province": "湖南省",
            "city": "常德市",
            "district": "武陵区"
        }
    },
    {
        "id": "13957195271192636164",
        "title": "公共厕所",
        "address": "湖南省常德市石门县三江路与育才路交叉口东南方向105米左右",
        "tel": "",
        "category": "基础设施:公共设施:公共厕所",
        "type": 0,
        "location": {
            "lat": 29.575333,
            "lng": 111.36137
        },
        "ad_info": {
            "adcode": 430726,
            "province": "湖南省",
            "city": "常德市",
            "district": "石门县"
        }
    },
    {
        "id": "14614285592766341155",
        "title": "无障碍洗手间(和瑞欢乐城)",
        "address": "湖南省常德市武陵区武陵大道998号和瑞欢乐城F1层",
        "tel": "",
        "category": "基础设施:公共设施:公共厕所",
        "type": 0,
        "location": {
            "lat": 29.065236,
            "lng": 111.695721
        },
        "ad_info": {
            "adcode": 430702,
            "province": "湖南省",
            "city": "常德市",
            "district": "武陵区"
        }
    },
    {
        "id": "17486313566252293266",
        "title": "女洗手间(常德万达广场)",
        "address": "湖南省常德市武陵区皂果路1099号常德万达广场4F",
        "tel": "",
        "category": "基础设施:公共设施:女洗手间",
        "type": 0,
        "location": {
            "lat": 29.055296,
            "lng": 111.680646
        },
        "ad_info": {
            "adcode": 430702,
            "province": "湖南省",
            "city": "常德市",
            "district": "武陵区"
        }
    },
    {
        "id": "13379581307770869579",
        "title": "城头山服务区第二公共厕所",
        "address": "湖南省常德市澧县二广高速城头山服务区",
        "tel": "",
        "category": "基础设施:公共设施:公共厕所",
        "type": 0,
        "location": {
            "lat": 29.798687,
            "lng": 111.859609
        },
        "ad_info": {
            "adcode": 430723,
            "province": "湖南省",
            "city": "常德市",
            "district": "澧县"
        }
    },
    {
        "id": "17244484982622138924",
        "title": "公共厕所",
        "address": "湖南省常德市武陵区体育路与建设路交叉口正北方向92米左右",
        "tel": "",
        "category": "基础设施:公共设施:公共厕所",
        "type": 0,
        "location": {
            "lat": 29.02512,
            "lng": 111.706268
        },
        "ad_info": {
            "adcode": 430702,
            "province": "湖南省",
            "city": "常德市",
            "district": "武陵区"
        }
    },
    {
        "id": "13925397898261314845",
        "title": "公共厕所",
        "address": "湖南省常德市武陵区城门口路与民族街交叉口东北方向48米左右",
        "tel": "",
        "category": "基础设施:公共设施:公共厕所",
        "type": 0,
        "location": {
            "lat": 29.022486,
            "lng": 111.705115
        },
        "ad_info": {
            "adcode": 430702,
            "province": "湖南省",
            "city": "常德市",
            "district": "武陵区"
        }
    },
    {
        "id": "6145034436488398317",
        "title": "公共厕所",
        "address": "湖南省常德市汉寿县G319与X037交叉口西北方向1178米左右",
        "tel": "",
        "category": "基础设施:公共设施:公共厕所",
        "type": 0,
        "location": {
            "lat": 28.707594,
            "lng": 112.086874
        },
        "ad_info": {
            "adcode": 430722,
            "province": "湖南省",
            "city": "常德市",
            "district": "汉寿县"
        }
    },
    {
        "id": "11865558660626401942",
        "title": "公共厕所",
        "address": "湖南省常德市武陵区武陵阁步行城金钻商业广场",
        "tel": "",
        "category": "基础设施:公共设施:公共厕所",
        "type": 0,
        "location": {
            "lat": 29.030165,
            "lng": 111.693338
        },
        "ad_info": {
            "adcode": 430702,
            "province": "湖南省",
            "city": "常德市",
            "district": "武陵区"
        }
    },
    {
        "id": "519333935783803918",
        "title": "公共厕所",
        "address": "湖南省常德市武陵区环湖路与银牛路交叉口西南方向430米左右",
        "tel": "",
        "category": "基础设施:公共设施:公共厕所",
        "type": 0,
        "location": {
            "lat": 29.108404,
            "lng": 111.704957
        },
        "ad_info": {
            "adcode": 430702,
            "province": "湖南省",
            "city": "常德市",
            "district": "武陵区"
        }
    },
    {
        "id": "8514585735172325257",
        "title": "公共厕所",
        "address": "湖南省常德市澧县文化街与棚厂街交叉口东北方向20米左右",
        "tel": "",
        "category": "基础设施:公共设施:公共厕所",
        "type": 0,
        "location": {
            "lat": 29.634447,
            "lng": 111.759397
        },
        "ad_info": {
            "adcode": 430723,
            "province": "湖南省",
            "city": "常德市",
            "district": "澧县"
        }
    },
    {
        "id": "15689948615144787343",
        "title": "公共厕所",
        "address": "湖南省常德市武陵区新乐巷与新利巷交叉口正南方向48米左右",
        "tel": "",
        "category": "基础设施:公共设施:公共厕所",
        "type": 0,
        "location": {
            "lat": 29.030987,
            "lng": 111.707968
        },
        "ad_info": {
            "adcode": 430702,
            "province": "湖南省",
            "city": "常德市",
            "district": "武陵区"
        }
    },
    {
        "id": "5536865045552822275",
        "title": "白马湖文化公园公共厕所",
        "address": "湖南省常德市武陵区龙港路白马湖文化公园内",
        "tel": "",
        "category": "基础设施:公共设施:公共厕所",
        "type": 0,
        "location": {
            "lat": 29.048541,
            "lng": 111.676244
        },
        "ad_info": {
            "adcode": 430702,
            "province": "湖南省",
            "city": "常德市",
            "district": "武陵区"
        }
    },
    {
        "id": "7506627809899789991",
        "title": "公共厕所",
        "address": "湖南省常德市武陵区朗州路万业城",
        "tel": "",
        "category": "基础设施:公共设施:公共厕所",
        "type": 0,
        "location": {
            "lat": 29.047624,
            "lng": 111.699282
        },
        "ad_info": {
            "adcode": 430702,
            "province": "湖南省",
            "city": "常德市",
            "district": "武陵区"
        }
    },
    {
        "id": "793032580743266559",
        "title": "女洗手间(和瑞欢乐城)",
        "address": "湖南省常德市武陵区武陵大道998号和瑞欢乐城F3",
        "tel": "",
        "category": "基础设施:公共设施:女洗手间",
        "type": 0,
        "location": {
            "lat": 29.065435,
            "lng": 111.694991
        },
        "ad_info": {
            "adcode": 430702,
            "province": "湖南省",
            "city": "常德市",
            "district": "武陵区"
        }
    },
    {
        "id": "8220180442890497373",
        "title": "女洗手间(和瑞欢乐城)",
        "address": "湖南省常德市武陵区武陵大道998号和瑞欢乐城F1",
        "tel": "",
        "category": "基础设施:公共设施:女洗手间",
        "type": 0,
        "location": {
            "lat": 29.065198,
            "lng": 111.695687
        },
        "ad_info": {
            "adcode": 430702,
            "province": "湖南省",
            "city": "常德市",
            "district": "武陵区"
        }
    },
    {
        "id": "15131059773600954214",
        "title": "公共厕所",
        "address": "湖南省常德市鼎城区永兴路与永富路交叉口正西方向106米左右",
        "tel": "",
        "category": "基础设施:公共设施:公共厕所",
        "type": 0,
        "location": {
            "lat": 28.983749,
            "lng": 111.687745
        },
        "ad_info": {
            "adcode": 430703,
            "province": "湖南省",
            "city": "常德市",
            "district": "鼎城区"
        }
    },
    {
        "id": "151206512909548021",
        "title": "公共厕所",
        "address": "湖南省常德市临澧县Y139与安福路交叉口西北方向918米左右",
        "tel": "",
        "category": "基础设施:公共设施:公共厕所",
        "type": 0,
        "location": {
            "lat": 29.439456,
            "lng": 111.603809
        },
        "ad_info": {
            "adcode": 430724,
            "province": "湖南省",
            "city": "常德市",
            "district": "临澧县"
        }
    },
    {
        "id": "1079540728231421611",
        "title": "公共厕所",
        "address": "湖南省常德市武陵区S306与复基路交叉口正北方向58米左右",
        "tel": "",
        "category": "基础设施:公共设施:公共厕所",
        "type": 0,
        "location": {
            "lat": 29.073939,
            "lng": 111.73515
        },
        "ad_info": {
            "adcode": 430702,
            "province": "湖南省",
            "city": "常德市",
            "district": "武陵区"
        }
    },
    {
        "id": "13656454008231328974",
        "title": "公共厕所",
        "address": "湖南省常德市汉寿县沧浪西路与鸿运街交叉口东南方向29米左右",
        "tel": "0736-2893079",
        "category": "基础设施:公共设施:公共厕所",
        "type": 0,
        "location": {
            "lat": 28.909566,
            "lng": 111.960313
        },
        "ad_info": {
            "adcode": 430722,
            "province": "湖南省",
            "city": "常德市",
            "district": "汉寿县"
        }
    },
    {
        "id": "3563367255239268214",
        "title": "男卫生间(和瑞欢乐城)",
        "address": "湖南省常德市武陵区武陵大道998号和瑞欢乐城F3",
        "tel": "",
        "category": "基础设施:公共设施:男洗手间",
        "type": 0,
        "location": {
            "lat": 29.065398,
            "lng": 111.694979
        },
        "ad_info": {
            "adcode": 430702,
            "province": "湖南省",
            "city": "常德市",
            "district": "武陵区"
        }
    },
    {
        "id": "13957195271192636164",
        "title": "公共厕所",
        "address": "湖南省常德市石门县三江路与育才路交叉口东南方向105米左右",
        "tel": "",
        "category": "基础设施:公共设施:公共厕所",
        "type": 0,
        "location": {
            "lat": 29.575333,
            "lng": 111.36137
        },
        "ad_info": {
            "adcode": 430726,
            "province": "湖南省",
            "city": "常德市",
            "district": "石门县"
        }
    },
    {
        "id": "14614285592766341155",
        "title": "无障碍洗手间(和瑞欢乐城)",
        "address": "湖南省常德市武陵区武陵大道998号和瑞欢乐城F1层",
        "tel": "",
        "category": "基础设施:公共设施:公共厕所",
        "type": 0,
        "location": {
            "lat": 29.065236,
            "lng": 111.695721
        },
        "ad_info": {
            "adcode": 430702,
            "province": "湖南省",
            "city": "常德市",
            "district": "武陵区"
        }
    },
    {
        "id": "17486313566252293266",
        "title": "女洗手间(常德万达广场)",
        "address": "湖南省常德市武陵区皂果路1099号常德万达广场4F",
        "tel": "",
        "category": "基础设施:公共设施:女洗手间",
        "type": 0,
        "location": {
            "lat": 29.055296,
            "lng": 111.680646
        },
        "ad_info": {
            "adcode": 430702,
            "province": "湖南省",
            "city": "常德市",
            "district": "武陵区"
        }
    },
    {
        "id": "13379581307770869579",
        "title": "城头山服务区第二公共厕所",
        "address": "湖南省常德市澧县二广高速城头山服务区",
        "tel": "",
        "category": "基础设施:公共设施:公共厕所",
        "type": 0,
        "location": {
            "lat": 29.798687,
            "lng": 111.859609
        },
        "ad_info": {
            "adcode": 430723,
            "province": "湖南省",
            "city": "常德市",
            "district": "澧县"
        }
    },
    {
        "id": "17244484982622138924",
        "title": "公共厕所",
        "address": "湖南省常德市武陵区体育路与建设路交叉口正北方向92米左右",
        "tel": "",
        "category": "基础设施:公共设施:公共厕所",
        "type": 0,
        "location": {
            "lat": 29.02512,
            "lng": 111.706268
        },
        "ad_info": {
            "adcode": 430702,
            "province": "湖南省",
            "city": "常德市",
            "district": "武陵区"
        }
    },
    {
        "id": "13925397898261314845",
        "title": "公共厕所",
        "address": "湖南省常德市武陵区城门口路与民族街交叉口东北方向48米左右",
        "tel": "",
        "category": "基础设施:公共设施:公共厕所",
        "type": 0,
        "location": {
            "lat": 29.022486,
            "lng": 111.705115
        },
        "ad_info": {
            "adcode": 430702,
            "province": "湖南省",
            "city": "常德市",
            "district": "武陵区"
        }
    },
    {
        "id": "6145034436488398317",
        "title": "公共厕所",
        "address": "湖南省常德市汉寿县G319与X037交叉口西北方向1178米左右",
        "tel": "",
        "category": "基础设施:公共设施:公共厕所",
        "type": 0,
        "location": {
            "lat": 28.707594,
            "lng": 112.086874
        },
        "ad_info": {
            "adcode": 430722,
            "province": "湖南省",
            "city": "常德市",
            "district": "汉寿县"
        }
    },
    {
        "id": "11865558660626401942",
        "title": "公共厕所",
        "address": "湖南省常德市武陵区武陵阁步行城金钻商业广场",
        "tel": "",
        "category": "基础设施:公共设施:公共厕所",
        "type": 0,
        "location": {
            "lat": 29.030165,
            "lng": 111.693338
        },
        "ad_info": {
            "adcode": 430702,
            "province": "湖南省",
            "city": "常德市",
            "district": "武陵区"
        }
    },
    {
        "id": "519333935783803918",
        "title": "公共厕所",
        "address": "湖南省常德市武陵区环湖路与银牛路交叉口西南方向430米左右",
        "tel": "",
        "category": "基础设施:公共设施:公共厕所",
        "type": 0,
        "location": {
            "lat": 29.108404,
            "lng": 111.704957
        },
        "ad_info": {
            "adcode": 430702,
            "province": "湖南省",
            "city": "常德市",
            "district": "武陵区"
        }
    },
    {
        "id": "8514585735172325257",
        "title": "公共厕所",
        "address": "湖南省常德市澧县文化街与棚厂街交叉口东北方向20米左右",
        "tel": "",
        "category": "基础设施:公共设施:公共厕所",
        "type": 0,
        "location": {
            "lat": 29.634447,
            "lng": 111.759397
        },
        "ad_info": {
            "adcode": 430723,
            "province": "湖南省",
            "city": "常德市",
            "district": "澧县"
        }
    },
    {
        "id": "15689948615144787343",
        "title": "公共厕所",
        "address": "湖南省常德市武陵区新乐巷与新利巷交叉口正南方向48米左右",
        "tel": "",
        "category": "基础设施:公共设施:公共厕所",
        "type": 0,
        "location": {
            "lat": 29.030987,
            "lng": 111.707968
        },
        "ad_info": {
            "adcode": 430702,
            "province": "湖南省",
            "city": "常德市",
            "district": "武陵区"
        }
    },
    {
        "id": "5536865045552822275",
        "title": "白马湖文化公园公共厕所",
        "address": "湖南省常德市武陵区龙港路白马湖文化公园内",
        "tel": "",
        "category": "基础设施:公共设施:公共厕所",
        "type": 0,
        "location": {
            "lat": 29.048541,
            "lng": 111.676244
        },
        "ad_info": {
            "adcode": 430702,
            "province": "湖南省",
            "city": "常德市",
            "district": "武陵区"
        }
    },
    {
        "id": "7506627809899789991",
        "title": "公共厕所",
        "address": "湖南省常德市武陵区朗州路万业城",
        "tel": "",
        "category": "基础设施:公共设施:公共厕所",
        "type": 0,
        "location": {
            "lat": 29.047624,
            "lng": 111.699282
        },
        "ad_info": {
            "adcode": 430702,
            "province": "湖南省",
            "city": "常德市",
            "district": "武陵区"
        }
    },
    {
        "id": "793032580743266559",
        "title": "女洗手间(和瑞欢乐城)",
        "address": "湖南省常德市武陵区武陵大道998号和瑞欢乐城F3",
        "tel": "",
        "category": "基础设施:公共设施:女洗手间",
        "type": 0,
        "location": {
            "lat": 29.065435,
            "lng": 111.694991
        },
        "ad_info": {
            "adcode": 430702,
            "province": "湖南省",
            "city": "常德市",
            "district": "武陵区"
        }
    },
    {
        "id": "8220180442890497373",
        "title": "女洗手间(和瑞欢乐城)",
        "address": "湖南省常德市武陵区武陵大道998号和瑞欢乐城F1",
        "tel": "",
        "category": "基础设施:公共设施:女洗手间",
        "type": 0,
        "location": {
            "lat": 29.065198,
            "lng": 111.695687
        },
        "ad_info": {
            "adcode": 430702,
            "province": "湖南省",
            "city": "常德市",
            "district": "武陵区"
        }
    },
    {
        "id": "15131059773600954214",
        "title": "公共厕所",
        "address": "湖南省常德市鼎城区永兴路与永富路交叉口正西方向106米左右",
        "tel": "",
        "category": "基础设施:公共设施:公共厕所",
        "type": 0,
        "location": {
            "lat": 28.983749,
            "lng": 111.687745
        },
        "ad_info": {
            "adcode": 430703,
            "province": "湖南省",
            "city": "常德市",
            "district": "鼎城区"
        }
    },
    {
        "id": "151206512909548021",
        "title": "公共厕所",
        "address": "湖南省常德市临澧县Y139与安福路交叉口西北方向918米左右",
        "tel": "",
        "category": "基础设施:公共设施:公共厕所",
        "type": 0,
        "location": {
            "lat": 29.439456,
            "lng": 111.603809
        },
        "ad_info": {
            "adcode": 430724,
            "province": "湖南省",
            "city": "常德市",
            "district": "临澧县"
        }
    },
    {
        "id": "1079540728231421611",
        "title": "公共厕所",
        "address": "湖南省常德市武陵区S306与复基路交叉口正北方向58米左右",
        "tel": "",
        "category": "基础设施:公共设施:公共厕所",
        "type": 0,
        "location": {
            "lat": 29.073939,
            "lng": 111.73515
        },
        "ad_info": {
            "adcode": 430702,
            "province": "湖南省",
            "city": "常德市",
            "district": "武陵区"
        }
    },
    {
        "id": "13656454008231328974",
        "title": "公共厕所",
        "address": "湖南省常德市汉寿县沧浪西路与鸿运街交叉口东南方向29米左右",
        "tel": "0736-2893079",
        "category": "基础设施:公共设施:公共厕所",
        "type": 0,
        "location": {
            "lat": 28.909566,
            "lng": 111.960313
        },
        "ad_info": {
            "adcode": 430722,
            "province": "湖南省",
            "city": "常德市",
            "district": "汉寿县"
        }
    },
    {
        "id": "3563367255239268214",
        "title": "男卫生间(和瑞欢乐城)",
        "address": "湖南省常德市武陵区武陵大道998号和瑞欢乐城F3",
        "tel": "",
        "category": "基础设施:公共设施:男洗手间",
        "type": 0,
        "location": {
            "lat": 29.065398,
            "lng": 111.694979
        },
        "ad_info": {
            "adcode": 430702,
            "province": "湖南省",
            "city": "常德市",
            "district": "武陵区"
        }
    },
    {
        "id": "13957195271192636164",
        "title": "公共厕所",
        "address": "湖南省常德市石门县三江路与育才路交叉口东南方向105米左右",
        "tel": "",
        "category": "基础设施:公共设施:公共厕所",
        "type": 0,
        "location": {
            "lat": 29.575333,
            "lng": 111.36137
        },
        "ad_info": {
            "adcode": 430726,
            "province": "湖南省",
            "city": "常德市",
            "district": "石门县"
        }
    },
    {
        "id": "14614285592766341155",
        "title": "无障碍洗手间(和瑞欢乐城)",
        "address": "湖南省常德市武陵区武陵大道998号和瑞欢乐城F1层",
        "tel": "",
        "category": "基础设施:公共设施:公共厕所",
        "type": 0,
        "location": {
            "lat": 29.065236,
            "lng": 111.695721
        },
        "ad_info": {
            "adcode": 430702,
            "province": "湖南省",
            "city": "常德市",
            "district": "武陵区"
        }
    },
    {
        "id": "17486313566252293266",
        "title": "女洗手间(常德万达广场)",
        "address": "湖南省常德市武陵区皂果路1099号常德万达广场4F",
        "tel": "",
        "category": "基础设施:公共设施:女洗手间",
        "type": 0,
        "location": {
            "lat": 29.055296,
            "lng": 111.680646
        },
        "ad_info": {
            "adcode": 430702,
            "province": "湖南省",
            "city": "常德市",
            "district": "武陵区"
        }
    },
    {
        "id": "13379581307770869579",
        "title": "城头山服务区第二公共厕所",
        "address": "湖南省常德市澧县二广高速城头山服务区",
        "tel": "",
        "category": "基础设施:公共设施:公共厕所",
        "type": 0,
        "location": {
            "lat": 29.798687,
            "lng": 111.859609
        },
        "ad_info": {
            "adcode": 430723,
            "province": "湖南省",
            "city": "常德市",
            "district": "澧县"
        }
    },
    {
        "id": "17244484982622138924",
        "title": "公共厕所",
        "address": "湖南省常德市武陵区体育路与建设路交叉口正北方向92米左右",
        "tel": "",
        "category": "基础设施:公共设施:公共厕所",
        "type": 0,
        "location": {
            "lat": 29.02512,
            "lng": 111.706268
        },
        "ad_info": {
            "adcode": 430702,
            "province": "湖南省",
            "city": "常德市",
            "district": "武陵区"
        }
    },
    {
        "id": "13925397898261314845",
        "title": "公共厕所",
        "address": "湖南省常德市武陵区城门口路与民族街交叉口东北方向48米左右",
        "tel": "",
        "category": "基础设施:公共设施:公共厕所",
        "type": 0,
        "location": {
            "lat": 29.022486,
            "lng": 111.705115
        },
        "ad_info": {
            "adcode": 430702,
            "province": "湖南省",
            "city": "常德市",
            "district": "武陵区"
        }
    },
    {
        "id": "6145034436488398317",
        "title": "公共厕所",
        "address": "湖南省常德市汉寿县G319与X037交叉口西北方向1178米左右",
        "tel": "",
        "category": "基础设施:公共设施:公共厕所",
        "type": 0,
        "location": {
            "lat": 28.707594,
            "lng": 112.086874
        },
        "ad_info": {
            "adcode": 430722,
            "province": "湖南省",
            "city": "常德市",
            "district": "汉寿县"
        }
    },
    {
        "id": "11865558660626401942",
        "title": "公共厕所",
        "address": "湖南省常德市武陵区武陵阁步行城金钻商业广场",
        "tel": "",
        "category": "基础设施:公共设施:公共厕所",
        "type": 0,
        "location": {
            "lat": 29.030165,
            "lng": 111.693338
        },
        "ad_info": {
            "adcode": 430702,
            "province": "湖南省",
            "city": "常德市",
            "district": "武陵区"
        }
    },
    {
        "id": "519333935783803918",
        "title": "公共厕所",
        "address": "湖南省常德市武陵区环湖路与银牛路交叉口西南方向430米左右",
        "tel": "",
        "category": "基础设施:公共设施:公共厕所",
        "type": 0,
        "location": {
            "lat": 29.108404,
            "lng": 111.704957
        },
        "ad_info": {
            "adcode": 430702,
            "province": "湖南省",
            "city": "常德市",
            "district": "武陵区"
        }
    },
    {
        "id": "8514585735172325257",
        "title": "公共厕所",
        "address": "湖南省常德市澧县文化街与棚厂街交叉口东北方向20米左右",
        "tel": "",
        "category": "基础设施:公共设施:公共厕所",
        "type": 0,
        "location": {
            "lat": 29.634447,
            "lng": 111.759397
        },
        "ad_info": {
            "adcode": 430723,
            "province": "湖南省",
            "city": "常德市",
            "district": "澧县"
        }
    },
    {
        "id": "15689948615144787343",
        "title": "公共厕所",
        "address": "湖南省常德市武陵区新乐巷与新利巷交叉口正南方向48米左右",
        "tel": "",
        "category": "基础设施:公共设施:公共厕所",
        "type": 0,
        "location": {
            "lat": 29.030987,
            "lng": 111.707968
        },
        "ad_info": {
            "adcode": 430702,
            "province": "湖南省",
            "city": "常德市",
            "district": "武陵区"
        }
    },
    {
        "id": "5536865045552822275",
        "title": "白马湖文化公园公共厕所",
        "address": "湖南省常德市武陵区龙港路白马湖文化公园内",
        "tel": "",
        "category": "基础设施:公共设施:公共厕所",
        "type": 0,
        "location": {
            "lat": 29.048541,
            "lng": 111.676244
        },
        "ad_info": {
            "adcode": 430702,
            "province": "湖南省",
            "city": "常德市",
            "district": "武陵区"
        }
    },
    {
        "id": "7506627809899789991",
        "title": "公共厕所",
        "address": "湖南省常德市武陵区朗州路万业城",
        "tel": "",
        "category": "基础设施:公共设施:公共厕所",
        "type": 0,
        "location": {
            "lat": 29.047624,
            "lng": 111.699282
        },
        "ad_info": {
            "adcode": 430702,
            "province": "湖南省",
            "city": "常德市",
            "district": "武陵区"
        }
    },
    {
        "id": "793032580743266559",
        "title": "女洗手间(和瑞欢乐城)",
        "address": "湖南省常德市武陵区武陵大道998号和瑞欢乐城F3",
        "tel": "",
        "category": "基础设施:公共设施:女洗手间",
        "type": 0,
        "location": {
            "lat": 29.065435,
            "lng": 111.694991
        },
        "ad_info": {
            "adcode": 430702,
            "province": "湖南省",
            "city": "常德市",
            "district": "武陵区"
        }
    },
    {
        "id": "8220180442890497373",
        "title": "女洗手间(和瑞欢乐城)",
        "address": "湖南省常德市武陵区武陵大道998号和瑞欢乐城F1",
        "tel": "",
        "category": "基础设施:公共设施:女洗手间",
        "type": 0,
        "location": {
            "lat": 29.065198,
            "lng": 111.695687
        },
        "ad_info": {
            "adcode": 430702,
            "province": "湖南省",
            "city": "常德市",
            "district": "武陵区"
        }
    },
    {
        "id": "15131059773600954214",
        "title": "公共厕所",
        "address": "湖南省常德市鼎城区永兴路与永富路交叉口正西方向106米左右",
        "tel": "",
        "category": "基础设施:公共设施:公共厕所",
        "type": 0,
        "location": {
            "lat": 28.983749,
            "lng": 111.687745
        },
        "ad_info": {
            "adcode": 430703,
            "province": "湖南省",
            "city": "常德市",
            "district": "鼎城区"
        }
    },
    {
        "id": "151206512909548021",
        "title": "公共厕所",
        "address": "湖南省常德市临澧县Y139与安福路交叉口西北方向918米左右",
        "tel": "",
        "category": "基础设施:公共设施:公共厕所",
        "type": 0,
        "location": {
            "lat": 29.439456,
            "lng": 111.603809
        },
        "ad_info": {
            "adcode": 430724,
            "province": "湖南省",
            "city": "常德市",
            "district": "临澧县"
        }
    },
    {
        "id": "1079540728231421611",
        "title": "公共厕所",
        "address": "湖南省常德市武陵区S306与复基路交叉口正北方向58米左右",
        "tel": "",
        "category": "基础设施:公共设施:公共厕所",
        "type": 0,
        "location": {
            "lat": 29.073939,
            "lng": 111.73515
        },
        "ad_info": {
            "adcode": 430702,
            "province": "湖南省",
            "city": "常德市",
            "district": "武陵区"
        }
    },
    {
        "id": "13656454008231328974",
        "title": "公共厕所",
        "address": "湖南省常德市汉寿县沧浪西路与鸿运街交叉口东南方向29米左右",
        "tel": "0736-2893079",
        "category": "基础设施:公共设施:公共厕所",
        "type": 0,
        "location": {
            "lat": 28.909566,
            "lng": 111.960313
        },
        "ad_info": {
            "adcode": 430722,
            "province": "湖南省",
            "city": "常德市",
            "district": "汉寿县"
        }
    },
    {
        "id": "3563367255239268214",
        "title": "男卫生间(和瑞欢乐城)",
        "address": "湖南省常德市武陵区武陵大道998号和瑞欢乐城F3",
        "tel": "",
        "category": "基础设施:公共设施:男洗手间",
        "type": 0,
        "location": {
            "lat": 29.065398,
            "lng": 111.694979
        },
        "ad_info": {
            "adcode": 430702,
            "province": "湖南省",
            "city": "常德市",
            "district": "武陵区"
        }
    },
    {
        "id": "13957195271192636164",
        "title": "公共厕所",
        "address": "湖南省常德市石门县三江路与育才路交叉口东南方向105米左右",
        "tel": "",
        "category": "基础设施:公共设施:公共厕所",
        "type": 0,
        "location": {
            "lat": 29.575333,
            "lng": 111.36137
        },
        "ad_info": {
            "adcode": 430726,
            "province": "湖南省",
            "city": "常德市",
            "district": "石门县"
        }
    },
    {
        "id": "14614285592766341155",
        "title": "无障碍洗手间(和瑞欢乐城)",
        "address": "湖南省常德市武陵区武陵大道998号和瑞欢乐城F1层",
        "tel": "",
        "category": "基础设施:公共设施:公共厕所",
        "type": 0,
        "location": {
            "lat": 29.065236,
            "lng": 111.695721
        },
        "ad_info": {
            "adcode": 430702,
            "province": "湖南省",
            "city": "常德市",
            "district": "武陵区"
        }
    },
    {
        "id": "17486313566252293266",
        "title": "女洗手间(常德万达广场)",
        "address": "湖南省常德市武陵区皂果路1099号常德万达广场4F",
        "tel": "",
        "category": "基础设施:公共设施:女洗手间",
        "type": 0,
        "location": {
            "lat": 29.055296,
            "lng": 111.680646
        },
        "ad_info": {
            "adcode": 430702,
            "province": "湖南省",
            "city": "常德市",
            "district": "武陵区"
        }
    },
    {
        "id": "13379581307770869579",
        "title": "城头山服务区第二公共厕所",
        "address": "湖南省常德市澧县二广高速城头山服务区",
        "tel": "",
        "category": "基础设施:公共设施:公共厕所",
        "type": 0,
        "location": {
            "lat": 29.798687,
            "lng": 111.859609
        },
        "ad_info": {
            "adcode": 430723,
            "province": "湖南省",
            "city": "常德市",
            "district": "澧县"
        }
    },
    {
        "id": "17244484982622138924",
        "title": "公共厕所",
        "address": "湖南省常德市武陵区体育路与建设路交叉口正北方向92米左右",
        "tel": "",
        "category": "基础设施:公共设施:公共厕所",
        "type": 0,
        "location": {
            "lat": 29.02512,
            "lng": 111.706268
        },
        "ad_info": {
            "adcode": 430702,
            "province": "湖南省",
            "city": "常德市",
            "district": "武陵区"
        }
    },
    {
        "id": "13925397898261314845",
        "title": "公共厕所",
        "address": "湖南省常德市武陵区城门口路与民族街交叉口东北方向48米左右",
        "tel": "",
        "category": "基础设施:公共设施:公共厕所",
        "type": 0,
        "location": {
            "lat": 29.022486,
            "lng": 111.705115
        },
        "ad_info": {
            "adcode": 430702,
            "province": "湖南省",
            "city": "常德市",
            "district": "武陵区"
        }
    },
    {
        "id": "6145034436488398317",
        "title": "公共厕所",
        "address": "湖南省常德市汉寿县G319与X037交叉口西北方向1178米左右",
        "tel": "",
        "category": "基础设施:公共设施:公共厕所",
        "type": 0,
        "location": {
            "lat": 28.707594,
            "lng": 112.086874
        },
        "ad_info": {
            "adcode": 430722,
            "province": "湖南省",
            "city": "常德市",
            "district": "汉寿县"
        }
    },
    {
        "id": "11865558660626401942",
        "title": "公共厕所",
        "address": "湖南省常德市武陵区武陵阁步行城金钻商业广场",
        "tel": "",
        "category": "基础设施:公共设施:公共厕所",
        "type": 0,
        "location": {
            "lat": 29.030165,
            "lng": 111.693338
        },
        "ad_info": {
            "adcode": 430702,
            "province": "湖南省",
            "city": "常德市",
            "district": "武陵区"
        }
    },
    {
        "id": "519333935783803918",
        "title": "公共厕所",
        "address": "湖南省常德市武陵区环湖路与银牛路交叉口西南方向430米左右",
        "tel": "",
        "category": "基础设施:公共设施:公共厕所",
        "type": 0,
        "location": {
            "lat": 29.108404,
            "lng": 111.704957
        },
        "ad_info": {
            "adcode": 430702,
            "province": "湖南省",
            "city": "常德市",
            "district": "武陵区"
        }
    },
    {
        "id": "8514585735172325257",
        "title": "公共厕所",
        "address": "湖南省常德市澧县文化街与棚厂街交叉口东北方向20米左右",
        "tel": "",
        "category": "基础设施:公共设施:公共厕所",
        "type": 0,
        "location": {
            "lat": 29.634447,
            "lng": 111.759397
        },
        "ad_info": {
            "adcode": 430723,
            "province": "湖南省",
            "city": "常德市",
            "district": "澧县"
        }
    },
    {
        "id": "15689948615144787343",
        "title": "公共厕所",
        "address": "湖南省常德市武陵区新乐巷与新利巷交叉口正南方向48米左右",
        "tel": "",
        "category": "基础设施:公共设施:公共厕所",
        "type": 0,
        "location": {
            "lat": 29.030987,
            "lng": 111.707968
        },
        "ad_info": {
            "adcode": 430702,
            "province": "湖南省",
            "city": "常德市",
            "district": "武陵区"
        }
    },
    {
        "id": "5536865045552822275",
        "title": "白马湖文化公园公共厕所",
        "address": "湖南省常德市武陵区龙港路白马湖文化公园内",
        "tel": "",
        "category": "基础设施:公共设施:公共厕所",
        "type": 0,
        "location": {
            "lat": 29.048541,
            "lng": 111.676244
        },
        "ad_info": {
            "adcode": 430702,
            "province": "湖南省",
            "city": "常德市",
            "district": "武陵区"
        }
    },
    {
        "id": "7506627809899789991",
        "title": "公共厕所",
        "address": "湖南省常德市武陵区朗州路万业城",
        "tel": "",
        "category": "基础设施:公共设施:公共厕所",
        "type": 0,
        "location": {
            "lat": 29.047624,
            "lng": 111.699282
        },
        "ad_info": {
            "adcode": 430702,
            "province": "湖南省",
            "city": "常德市",
            "district": "武陵区"
        }
    },
    {
        "id": "793032580743266559",
        "title": "女洗手间(和瑞欢乐城)",
        "address": "湖南省常德市武陵区武陵大道998号和瑞欢乐城F3",
        "tel": "",
        "category": "基础设施:公共设施:女洗手间",
        "type": 0,
        "location": {
            "lat": 29.065435,
            "lng": 111.694991
        },
        "ad_info": {
            "adcode": 430702,
            "province": "湖南省",
            "city": "常德市",
            "district": "武陵区"
        }
    },
    {
        "id": "8220180442890497373",
        "title": "女洗手间(和瑞欢乐城)",
        "address": "湖南省常德市武陵区武陵大道998号和瑞欢乐城F1",
        "tel": "",
        "category": "基础设施:公共设施:女洗手间",
        "type": 0,
        "location": {
            "lat": 29.065198,
            "lng": 111.695687
        },
        "ad_info": {
            "adcode": 430702,
            "province": "湖南省",
            "city": "常德市",
            "district": "武陵区"
        }
    },
    {
        "id": "15131059773600954214",
        "title": "公共厕所",
        "address": "湖南省常德市鼎城区永兴路与永富路交叉口正西方向106米左右",
        "tel": "",
        "category": "基础设施:公共设施:公共厕所",
        "type": 0,
        "location": {
            "lat": 28.983749,
            "lng": 111.687745
        },
        "ad_info": {
            "adcode": 430703,
            "province": "湖南省",
            "city": "常德市",
            "district": "鼎城区"
        }
    },
    {
        "id": "151206512909548021",
        "title": "公共厕所",
        "address": "湖南省常德市临澧县Y139与安福路交叉口西北方向918米左右",
        "tel": "",
        "category": "基础设施:公共设施:公共厕所",
        "type": 0,
        "location": {
            "lat": 29.439456,
            "lng": 111.603809
        },
        "ad_info": {
            "adcode": 430724,
            "province": "湖南省",
            "city": "常德市",
            "district": "临澧县"
        }
    },
    {
        "id": "1079540728231421611",
        "title": "公共厕所",
        "address": "湖南省常德市武陵区S306与复基路交叉口正北方向58米左右",
        "tel": "",
        "category": "基础设施:公共设施:公共厕所",
        "type": 0,
        "location": {
            "lat": 29.073939,
            "lng": 111.73515
        },
        "ad_info": {
            "adcode": 430702,
            "province": "湖南省",
            "city": "常德市",
            "district": "武陵区"
        }
    },
    {
        "id": "13656454008231328974",
        "title": "公共厕所",
        "address": "湖南省常德市汉寿县沧浪西路与鸿运街交叉口东南方向29米左右",
        "tel": "0736-2893079",
        "category": "基础设施:公共设施:公共厕所",
        "type": 0,
        "location": {
            "lat": 28.909566,
            "lng": 111.960313
        },
        "ad_info": {
            "adcode": 430722,
            "province": "湖南省",
            "city": "常德市",
            "district": "汉寿县"
        }
    },
    {
        "id": "3563367255239268214",
        "title": "男卫生间(和瑞欢乐城)",
        "address": "湖南省常德市武陵区武陵大道998号和瑞欢乐城F3",
        "tel": "",
        "category": "基础设施:公共设施:男洗手间",
        "type": 0,
        "location": {
            "lat": 29.065398,
            "lng": 111.694979
        },
        "ad_info": {
            "adcode": 430702,
            "province": "湖南省",
            "city": "常德市",
            "district": "武陵区"
        }
    },
    {
        "id": "13957195271192636164",
        "title": "公共厕所",
        "address": "湖南省常德市石门县三江路与育才路交叉口东南方向105米左右",
        "tel": "",
        "category": "基础设施:公共设施:公共厕所",
        "type": 0,
        "location": {
            "lat": 29.575333,
            "lng": 111.36137
        },
        "ad_info": {
            "adcode": 430726,
            "province": "湖南省",
            "city": "常德市",
            "district": "石门县"
        }
    },
    {
        "id": "14614285592766341155",
        "title": "无障碍洗手间(和瑞欢乐城)",
        "address": "湖南省常德市武陵区武陵大道998号和瑞欢乐城F1层",
        "tel": "",
        "category": "基础设施:公共设施:公共厕所",
        "type": 0,
        "location": {
            "lat": 29.065236,
            "lng": 111.695721
        },
        "ad_info": {
            "adcode": 430702,
            "province": "湖南省",
            "city": "常德市",
            "district": "武陵区"
        }
    },
    {
        "id": "17486313566252293266",
        "title": "女洗手间(常德万达广场)",
        "address": "湖南省常德市武陵区皂果路1099号常德万达广场4F",
        "tel": "",
        "category": "基础设施:公共设施:女洗手间",
        "type": 0,
        "location": {
            "lat": 29.055296,
            "lng": 111.680646
        },
        "ad_info": {
            "adcode": 430702,
            "province": "湖南省",
            "city": "常德市",
            "district": "武陵区"
        }
    },
    {
        "id": "13379581307770869579",
        "title": "城头山服务区第二公共厕所",
        "address": "湖南省常德市澧县二广高速城头山服务区",
        "tel": "",
        "category": "基础设施:公共设施:公共厕所",
        "type": 0,
        "location": {
            "lat": 29.798687,
            "lng": 111.859609
        },
        "ad_info": {
            "adcode": 430723,
            "province": "湖南省",
            "city": "常德市",
            "district": "澧县"
        }
    },
    {
        "id": "17244484982622138924",
        "title": "公共厕所",
        "address": "湖南省常德市武陵区体育路与建设路交叉口正北方向92米左右",
        "tel": "",
        "category": "基础设施:公共设施:公共厕所",
        "type": 0,
        "location": {
            "lat": 29.02512,
            "lng": 111.706268
        },
        "ad_info": {
            "adcode": 430702,
            "province": "湖南省",
            "city": "常德市",
            "district": "武陵区"
        }
    },
    {
        "id": "13925397898261314845",
        "title": "公共厕所",
        "address": "湖南省常德市武陵区城门口路与民族街交叉口东北方向48米左右",
        "tel": "",
        "category": "基础设施:公共设施:公共厕所",
        "type": 0,
        "location": {
            "lat": 29.022486,
            "lng": 111.705115
        },
        "ad_info": {
            "adcode": 430702,
            "province": "湖南省",
            "city": "常德市",
            "district": "武陵区"
        }
    },
    {
        "id": "6145034436488398317",
        "title": "公共厕所",
        "address": "湖南省常德市汉寿县G319与X037交叉口西北方向1178米左右",
        "tel": "",
        "category": "基础设施:公共设施:公共厕所",
        "type": 0,
        "location": {
            "lat": 28.707594,
            "lng": 112.086874
        },
        "ad_info": {
            "adcode": 430722,
            "province": "湖南省",
            "city": "常德市",
            "district": "汉寿县"
        }
    },
    {
        "id": "11865558660626401942",
        "title": "公共厕所",
        "address": "湖南省常德市武陵区武陵阁步行城金钻商业广场",
        "tel": "",
        "category": "基础设施:公共设施:公共厕所",
        "type": 0,
        "location": {
            "lat": 29.030165,
            "lng": 111.693338
        },
        "ad_info": {
            "adcode": 430702,
            "province": "湖南省",
            "city": "常德市",
            "district": "武陵区"
        }
    },
    {
        "id": "519333935783803918",
        "title": "公共厕所",
        "address": "湖南省常德市武陵区环湖路与银牛路交叉口西南方向430米左右",
        "tel": "",
        "category": "基础设施:公共设施:公共厕所",
        "type": 0,
        "location": {
            "lat": 29.108404,
            "lng": 111.704957
        },
        "ad_info": {
            "adcode": 430702,
            "province": "湖南省",
            "city": "常德市",
            "district": "武陵区"
        }
    },
    {
        "id": "8514585735172325257",
        "title": "公共厕所",
        "address": "湖南省常德市澧县文化街与棚厂街交叉口东北方向20米左右",
        "tel": "",
        "category": "基础设施:公共设施:公共厕所",
        "type": 0,
        "location": {
            "lat": 29.634447,
            "lng": 111.759397
        },
        "ad_info": {
            "adcode": 430723,
            "province": "湖南省",
            "city": "常德市",
            "district": "澧县"
        }
    },
    {
        "id": "15689948615144787343",
        "title": "公共厕所",
        "address": "湖南省常德市武陵区新乐巷与新利巷交叉口正南方向48米左右",
        "tel": "",
        "category": "基础设施:公共设施:公共厕所",
        "type": 0,
        "location": {
            "lat": 29.030987,
            "lng": 111.707968
        },
        "ad_info": {
            "adcode": 430702,
            "province": "湖南省",
            "city": "常德市",
            "district": "武陵区"
        }
    },
    {
        "id": "5536865045552822275",
        "title": "白马湖文化公园公共厕所",
        "address": "湖南省常德市武陵区龙港路白马湖文化公园内",
        "tel": "",
        "category": "基础设施:公共设施:公共厕所",
        "type": 0,
        "location": {
            "lat": 29.048541,
            "lng": 111.676244
        },
        "ad_info": {
            "adcode": 430702,
            "province": "湖南省",
            "city": "常德市",
            "district": "武陵区"
        }
    },
    {
        "id": "7506627809899789991",
        "title": "公共厕所",
        "address": "湖南省常德市武陵区朗州路万业城",
        "tel": "",
        "category": "基础设施:公共设施:公共厕所",
        "type": 0,
        "location": {
            "lat": 29.047624,
            "lng": 111.699282
        },
        "ad_info": {
            "adcode": 430702,
            "province": "湖南省",
            "city": "常德市",
            "district": "武陵区"
        }
    },
    {
        "id": "793032580743266559",
        "title": "女洗手间(和瑞欢乐城)",
        "address": "湖南省常德市武陵区武陵大道998号和瑞欢乐城F3",
        "tel": "",
        "category": "基础设施:公共设施:女洗手间",
        "type": 0,
        "location": {
            "lat": 29.065435,
            "lng": 111.694991
        },
        "ad_info": {
            "adcode": 430702,
            "province": "湖南省",
            "city": "常德市",
            "district": "武陵区"
        }
    },
    {
        "id": "8220180442890497373",
        "title": "女洗手间(和瑞欢乐城)",
        "address": "湖南省常德市武陵区武陵大道998号和瑞欢乐城F1",
        "tel": "",
        "category": "基础设施:公共设施:女洗手间",
        "type": 0,
        "location": {
            "lat": 29.065198,
            "lng": 111.695687
        },
        "ad_info": {
            "adcode": 430702,
            "province": "湖南省",
            "city": "常德市",
            "district": "武陵区"
        }
    },
    {
        "id": "15131059773600954214",
        "title": "公共厕所",
        "address": "湖南省常德市鼎城区永兴路与永富路交叉口正西方向106米左右",
        "tel": "",
        "category": "基础设施:公共设施:公共厕所",
        "type": 0,
        "location": {
            "lat": 28.983749,
            "lng": 111.687745
        },
        "ad_info": {
            "adcode": 430703,
            "province": "湖南省",
            "city": "常德市",
            "district": "鼎城区"
        }
    },
    {
        "id": "151206512909548021",
        "title": "公共厕所",
        "address": "湖南省常德市临澧县Y139与安福路交叉口西北方向918米左右",
        "tel": "",
        "category": "基础设施:公共设施:公共厕所",
        "type": 0,
        "location": {
            "lat": 29.439456,
            "lng": 111.603809
        },
        "ad_info": {
            "adcode": 430724,
            "province": "湖南省",
            "city": "常德市",
            "district": "临澧县"
        }
    },
    {
        "id": "1079540728231421611",
        "title": "公共厕所",
        "address": "湖南省常德市武陵区S306与复基路交叉口正北方向58米左右",
        "tel": "",
        "category": "基础设施:公共设施:公共厕所",
        "type": 0,
        "location": {
            "lat": 29.073939,
            "lng": 111.73515
        },
        "ad_info": {
            "adcode": 430702,
            "province": "湖南省",
            "city": "常德市",
            "district": "武陵区"
        }
    },
    {
        "id": "13656454008231328974",
        "title": "公共厕所",
        "address": "湖南省常德市汉寿县沧浪西路与鸿运街交叉口东南方向29米左右",
        "tel": "0736-2893079",
        "category": "基础设施:公共设施:公共厕所",
        "type": 0,
        "location": {
            "lat": 28.909566,
            "lng": 111.960313
        },
        "ad_info": {
            "adcode": 430722,
            "province": "湖南省",
            "city": "常德市",
            "district": "汉寿县"
        }
    },
    {
        "id": "3563367255239268214",
        "title": "男卫生间(和瑞欢乐城)",
        "address": "湖南省常德市武陵区武陵大道998号和瑞欢乐城F3",
        "tel": "",
        "category": "基础设施:公共设施:男洗手间",
        "type": 0,
        "location": {
            "lat": 29.065398,
            "lng": 111.694979
        },
        "ad_info": {
            "adcode": 430702,
            "province": "湖南省",
            "city": "常德市",
            "district": "武陵区"
        }
    },
    {
        "id": "13957195271192636164",
        "title": "公共厕所",
        "address": "湖南省常德市石门县三江路与育才路交叉口东南方向105米左右",
        "tel": "",
        "category": "基础设施:公共设施:公共厕所",
        "type": 0,
        "location": {
            "lat": 29.575333,
            "lng": 111.36137
        },
        "ad_info": {
            "adcode": 430726,
            "province": "湖南省",
            "city": "常德市",
            "district": "石门县"
        }
    },
    {
        "id": "14614285592766341155",
        "title": "无障碍洗手间(和瑞欢乐城)",
        "address": "湖南省常德市武陵区武陵大道998号和瑞欢乐城F1层",
        "tel": "",
        "category": "基础设施:公共设施:公共厕所",
        "type": 0,
        "location": {
            "lat": 29.065236,
            "lng": 111.695721
        },
        "ad_info": {
            "adcode": 430702,
            "province": "湖南省",
            "city": "常德市",
            "district": "武陵区"
        }
    },
    {
        "id": "17486313566252293266",
        "title": "女洗手间(常德万达广场)",
        "address": "湖南省常德市武陵区皂果路1099号常德万达广场4F",
        "tel": "",
        "category": "基础设施:公共设施:女洗手间",
        "type": 0,
        "location": {
            "lat": 29.055296,
            "lng": 111.680646
        },
        "ad_info": {
            "adcode": 430702,
            "province": "湖南省",
            "city": "常德市",
            "district": "武陵区"
        }
    },
    {
        "id": "13379581307770869579",
        "title": "城头山服务区第二公共厕所",
        "address": "湖南省常德市澧县二广高速城头山服务区",
        "tel": "",
        "category": "基础设施:公共设施:公共厕所",
        "type": 0,
        "location": {
            "lat": 29.798687,
            "lng": 111.859609
        },
        "ad_info": {
            "adcode": 430723,
            "province": "湖南省",
            "city": "常德市",
            "district": "澧县"
        }
    },
    {
        "id": "17244484982622138924",
        "title": "公共厕所",
        "address": "湖南省常德市武陵区体育路与建设路交叉口正北方向92米左右",
        "tel": "",
        "category": "基础设施:公共设施:公共厕所",
        "type": 0,
        "location": {
            "lat": 29.02512,
            "lng": 111.706268
        },
        "ad_info": {
            "adcode": 430702,
            "province": "湖南省",
            "city": "常德市",
            "district": "武陵区"
        }
    },
    {
        "id": "13925397898261314845",
        "title": "公共厕所",
        "address": "湖南省常德市武陵区城门口路与民族街交叉口东北方向48米左右",
        "tel": "",
        "category": "基础设施:公共设施:公共厕所",
        "type": 0,
        "location": {
            "lat": 29.022486,
            "lng": 111.705115
        },
        "ad_info": {
            "adcode": 430702,
            "province": "湖南省",
            "city": "常德市",
            "district": "武陵区"
        }
    },
    {
        "id": "6145034436488398317",
        "title": "公共厕所",
        "address": "湖南省常德市汉寿县G319与X037交叉口西北方向1178米左右",
        "tel": "",
        "category": "基础设施:公共设施:公共厕所",
        "type": 0,
        "location": {
            "lat": 28.707594,
            "lng": 112.086874
        },
        "ad_info": {
            "adcode": 430722,
            "province": "湖南省",
            "city": "常德市",
            "district": "汉寿县"
        }
    },
    {
        "id": "11865558660626401942",
        "title": "公共厕所",
        "address": "湖南省常德市武陵区武陵阁步行城金钻商业广场",
        "tel": "",
        "category": "基础设施:公共设施:公共厕所",
        "type": 0,
        "location": {
            "lat": 29.030165,
            "lng": 111.693338
        },
        "ad_info": {
            "adcode": 430702,
            "province": "湖南省",
            "city": "常德市",
            "district": "武陵区"
        }
    },
    {
        "id": "519333935783803918",
        "title": "公共厕所",
        "address": "湖南省常德市武陵区环湖路与银牛路交叉口西南方向430米左右",
        "tel": "",
        "category": "基础设施:公共设施:公共厕所",
        "type": 0,
        "location": {
            "lat": 29.108404,
            "lng": 111.704957
        },
        "ad_info": {
            "adcode": 430702,
            "province": "湖南省",
            "city": "常德市",
            "district": "武陵区"
        }
    },
    {
        "id": "8514585735172325257",
        "title": "公共厕所",
        "address": "湖南省常德市澧县文化街与棚厂街交叉口东北方向20米左右",
        "tel": "",
        "category": "基础设施:公共设施:公共厕所",
        "type": 0,
        "location": {
            "lat": 29.634447,
            "lng": 111.759397
        },
        "ad_info": {
            "adcode": 430723,
            "province": "湖南省",
            "city": "常德市",
            "district": "澧县"
        }
    },
    {
        "id": "15689948615144787343",
        "title": "公共厕所",
        "address": "湖南省常德市武陵区新乐巷与新利巷交叉口正南方向48米左右",
        "tel": "",
        "category": "基础设施:公共设施:公共厕所",
        "type": 0,
        "location": {
            "lat": 29.030987,
            "lng": 111.707968
        },
        "ad_info": {
            "adcode": 430702,
            "province": "湖南省",
            "city": "常德市",
            "district": "武陵区"
        }
    },
    {
        "id": "5536865045552822275",
        "title": "白马湖文化公园公共厕所",
        "address": "湖南省常德市武陵区龙港路白马湖文化公园内",
        "tel": "",
        "category": "基础设施:公共设施:公共厕所",
        "type": 0,
        "location": {
            "lat": 29.048541,
            "lng": 111.676244
        },
        "ad_info": {
            "adcode": 430702,
            "province": "湖南省",
            "city": "常德市",
            "district": "武陵区"
        }
    },
    {
        "id": "7506627809899789991",
        "title": "公共厕所",
        "address": "湖南省常德市武陵区朗州路万业城",
        "tel": "",
        "category": "基础设施:公共设施:公共厕所",
        "type": 0,
        "location": {
            "lat": 29.047624,
            "lng": 111.699282
        },
        "ad_info": {
            "adcode": 430702,
            "province": "湖南省",
            "city": "常德市",
            "district": "武陵区"
        }
    },
    {
        "id": "793032580743266559",
        "title": "女洗手间(和瑞欢乐城)",
        "address": "湖南省常德市武陵区武陵大道998号和瑞欢乐城F3",
        "tel": "",
        "category": "基础设施:公共设施:女洗手间",
        "type": 0,
        "location": {
            "lat": 29.065435,
            "lng": 111.694991
        },
        "ad_info": {
            "adcode": 430702,
            "province": "湖南省",
            "city": "常德市",
            "district": "武陵区"
        }
    },
    {
        "id": "8220180442890497373",
        "title": "女洗手间(和瑞欢乐城)",
        "address": "湖南省常德市武陵区武陵大道998号和瑞欢乐城F1",
        "tel": "",
        "category": "基础设施:公共设施:女洗手间",
        "type": 0,
        "location": {
            "lat": 29.065198,
            "lng": 111.695687
        },
        "ad_info": {
            "adcode": 430702,
            "province": "湖南省",
            "city": "常德市",
            "district": "武陵区"
        }
    },
    {
        "id": "15131059773600954214",
        "title": "公共厕所",
        "address": "湖南省常德市鼎城区永兴路与永富路交叉口正西方向106米左右",
        "tel": "",
        "category": "基础设施:公共设施:公共厕所",
        "type": 0,
        "location": {
            "lat": 28.983749,
            "lng": 111.687745
        },
        "ad_info": {
            "adcode": 430703,
            "province": "湖南省",
            "city": "常德市",
            "district": "鼎城区"
        }
    },
    {
        "id": "151206512909548021",
        "title": "公共厕所",
        "address": "湖南省常德市临澧县Y139与安福路交叉口西北方向918米左右",
        "tel": "",
        "category": "基础设施:公共设施:公共厕所",
        "type": 0,
        "location": {
            "lat": 29.439456,
            "lng": 111.603809
        },
        "ad_info": {
            "adcode": 430724,
            "province": "湖南省",
            "city": "常德市",
            "district": "临澧县"
        }
    },
    {
        "id": "1079540728231421611",
        "title": "公共厕所",
        "address": "湖南省常德市武陵区S306与复基路交叉口正北方向58米左右",
        "tel": "",
        "category": "基础设施:公共设施:公共厕所",
        "type": 0,
        "location": {
            "lat": 29.073939,
            "lng": 111.73515
        },
        "ad_info": {
            "adcode": 430702,
            "province": "湖南省",
            "city": "常德市",
            "district": "武陵区"
        }
    },
    {
        "id": "13656454008231328974",
        "title": "公共厕所",
        "address": "湖南省常德市汉寿县沧浪西路与鸿运街交叉口东南方向29米左右",
        "tel": "0736-2893079",
        "category": "基础设施:公共设施:公共厕所",
        "type": 0,
        "location": {
            "lat": 28.909566,
            "lng": 111.960313
        },
        "ad_info": {
            "adcode": 430722,
            "province": "湖南省",
            "city": "常德市",
            "district": "汉寿县"
        }
    },
    {
        "id": "3563367255239268214",
        "title": "男卫生间(和瑞欢乐城)",
        "address": "湖南省常德市武陵区武陵大道998号和瑞欢乐城F3",
        "tel": "",
        "category": "基础设施:公共设施:男洗手间",
        "type": 0,
        "location": {
            "lat": 29.065398,
            "lng": 111.694979
        },
        "ad_info": {
            "adcode": 430702,
            "province": "湖南省",
            "city": "常德市",
            "district": "武陵区"
        }
    },
    {
        "id": "13957195271192636164",
        "title": "公共厕所",
        "address": "湖南省常德市石门县三江路与育才路交叉口东南方向105米左右",
        "tel": "",
        "category": "基础设施:公共设施:公共厕所",
        "type": 0,
        "location": {
            "lat": 29.575333,
            "lng": 111.36137
        },
        "ad_info": {
            "adcode": 430726,
            "province": "湖南省",
            "city": "常德市",
            "district": "石门县"
        }
    },
    {
        "id": "14614285592766341155",
        "title": "无障碍洗手间(和瑞欢乐城)",
        "address": "湖南省常德市武陵区武陵大道998号和瑞欢乐城F1层",
        "tel": "",
        "category": "基础设施:公共设施:公共厕所",
        "type": 0,
        "location": {
            "lat": 29.065236,
            "lng": 111.695721
        },
        "ad_info": {
            "adcode": 430702,
            "province": "湖南省",
            "city": "常德市",
            "district": "武陵区"
        }
    },
    {
        "id": "17486313566252293266",
        "title": "女洗手间(常德万达广场)",
        "address": "湖南省常德市武陵区皂果路1099号常德万达广场4F",
        "tel": "",
        "category": "基础设施:公共设施:女洗手间",
        "type": 0,
        "location": {
            "lat": 29.055296,
            "lng": 111.680646
        },
        "ad_info": {
            "adcode": 430702,
            "province": "湖南省",
            "city": "常德市",
            "district": "武陵区"
        }
    },
    {
        "id": "13379581307770869579",
        "title": "城头山服务区第二公共厕所",
        "address": "湖南省常德市澧县二广高速城头山服务区",
        "tel": "",
        "category": "基础设施:公共设施:公共厕所",
        "type": 0,
        "location": {
            "lat": 29.798687,
            "lng": 111.859609
        },
        "ad_info": {
            "adcode": 430723,
            "province": "湖南省",
            "city": "常德市",
            "district": "澧县"
        }
    },
    {
        "id": "17244484982622138924",
        "title": "公共厕所",
        "address": "湖南省常德市武陵区体育路与建设路交叉口正北方向92米左右",
        "tel": "",
        "category": "基础设施:公共设施:公共厕所",
        "type": 0,
        "location": {
            "lat": 29.02512,
            "lng": 111.706268
        },
        "ad_info": {
            "adcode": 430702,
            "province": "湖南省",
            "city": "常德市",
            "district": "武陵区"
        }
    },
    {
        "id": "13925397898261314845",
        "title": "公共厕所",
        "address": "湖南省常德市武陵区城门口路与民族街交叉口东北方向48米左右",
        "tel": "",
        "category": "基础设施:公共设施:公共厕所",
        "type": 0,
        "location": {
            "lat": 29.022486,
            "lng": 111.705115
        },
        "ad_info": {
            "adcode": 430702,
            "province": "湖南省",
            "city": "常德市",
            "district": "武陵区"
        }
    },
    {
        "id": "6145034436488398317",
        "title": "公共厕所",
        "address": "湖南省常德市汉寿县G319与X037交叉口西北方向1178米左右",
        "tel": "",
        "category": "基础设施:公共设施:公共厕所",
        "type": 0,
        "location": {
            "lat": 28.707594,
            "lng": 112.086874
        },
        "ad_info": {
            "adcode": 430722,
            "province": "湖南省",
            "city": "常德市",
            "district": "汉寿县"
        }
    },
    {
        "id": "11865558660626401942",
        "title": "公共厕所",
        "address": "湖南省常德市武陵区武陵阁步行城金钻商业广场",
        "tel": "",
        "category": "基础设施:公共设施:公共厕所",
        "type": 0,
        "location": {
            "lat": 29.030165,
            "lng": 111.693338
        },
        "ad_info": {
            "adcode": 430702,
            "province": "湖南省",
            "city": "常德市",
            "district": "武陵区"
        }
    },
    {
        "id": "519333935783803918",
        "title": "公共厕所",
        "address": "湖南省常德市武陵区环湖路与银牛路交叉口西南方向430米左右",
        "tel": "",
        "category": "基础设施:公共设施:公共厕所",
        "type": 0,
        "location": {
            "lat": 29.108404,
            "lng": 111.704957
        },
        "ad_info": {
            "adcode": 430702,
            "province": "湖南省",
            "city": "常德市",
            "district": "武陵区"
        }
    },
    {
        "id": "8514585735172325257",
        "title": "公共厕所",
        "address": "湖南省常德市澧县文化街与棚厂街交叉口东北方向20米左右",
        "tel": "",
        "category": "基础设施:公共设施:公共厕所",
        "type": 0,
        "location": {
            "lat": 29.634447,
            "lng": 111.759397
        },
        "ad_info": {
            "adcode": 430723,
            "province": "湖南省",
            "city": "常德市",
            "district": "澧县"
        }
    },
    {
        "id": "15689948615144787343",
        "title": "公共厕所",
        "address": "湖南省常德市武陵区新乐巷与新利巷交叉口正南方向48米左右",
        "tel": "",
        "category": "基础设施:公共设施:公共厕所",
        "type": 0,
        "location": {
            "lat": 29.030987,
            "lng": 111.707968
        },
        "ad_info": {
            "adcode": 430702,
            "province": "湖南省",
            "city": "常德市",
            "district": "武陵区"
        }
    },
    {
        "id": "5536865045552822275",
        "title": "白马湖文化公园公共厕所",
        "address": "湖南省常德市武陵区龙港路白马湖文化公园内",
        "tel": "",
        "category": "基础设施:公共设施:公共厕所",
        "type": 0,
        "location": {
            "lat": 29.048541,
            "lng": 111.676244
        },
        "ad_info": {
            "adcode": 430702,
            "province": "湖南省",
            "city": "常德市",
            "district": "武陵区"
        }
    },
    {
        "id": "7506627809899789991",
        "title": "公共厕所",
        "address": "湖南省常德市武陵区朗州路万业城",
        "tel": "",
        "category": "基础设施:公共设施:公共厕所",
        "type": 0,
        "location": {
            "lat": 29.047624,
            "lng": 111.699282
        },
        "ad_info": {
            "adcode": 430702,
            "province": "湖南省",
            "city": "常德市",
            "district": "武陵区"
        }
    },
    {
        "id": "793032580743266559",
        "title": "女洗手间(和瑞欢乐城)",
        "address": "湖南省常德市武陵区武陵大道998号和瑞欢乐城F3",
        "tel": "",
        "category": "基础设施:公共设施:女洗手间",
        "type": 0,
        "location": {
            "lat": 29.065435,
            "lng": 111.694991
        },
        "ad_info": {
            "adcode": 430702,
            "province": "湖南省",
            "city": "常德市",
            "district": "武陵区"
        }
    },
    {
        "id": "8220180442890497373",
        "title": "女洗手间(和瑞欢乐城)",
        "address": "湖南省常德市武陵区武陵大道998号和瑞欢乐城F1",
        "tel": "",
        "category": "基础设施:公共设施:女洗手间",
        "type": 0,
        "location": {
            "lat": 29.065198,
            "lng": 111.695687
        },
        "ad_info": {
            "adcode": 430702,
            "province": "湖南省",
            "city": "常德市",
            "district": "武陵区"
        }
    },
    {
        "id": "15131059773600954214",
        "title": "公共厕所",
        "address": "湖南省常德市鼎城区永兴路与永富路交叉口正西方向106米左右",
        "tel": "",
        "category": "基础设施:公共设施:公共厕所",
        "type": 0,
        "location": {
            "lat": 28.983749,
            "lng": 111.687745
        },
        "ad_info": {
            "adcode": 430703,
            "province": "湖南省",
            "city": "常德市",
            "district": "鼎城区"
        }
    },
    {
        "id": "151206512909548021",
        "title": "公共厕所",
        "address": "湖南省常德市临澧县Y139与安福路交叉口西北方向918米左右",
        "tel": "",
        "category": "基础设施:公共设施:公共厕所",
        "type": 0,
        "location": {
            "lat": 29.439456,
            "lng": 111.603809
        },
        "ad_info": {
            "adcode": 430724,
            "province": "湖南省",
            "city": "常德市",
            "district": "临澧县"
        }
    },
    {
        "id": "1079540728231421611",
        "title": "公共厕所",
        "address": "湖南省常德市武陵区S306与复基路交叉口正北方向58米左右",
        "tel": "",
        "category": "基础设施:公共设施:公共厕所",
        "type": 0,
        "location": {
            "lat": 29.073939,
            "lng": 111.73515
        },
        "ad_info": {
            "adcode": 430702,
            "province": "湖南省",
            "city": "常德市",
            "district": "武陵区"
        }
    },
    {
        "id": "13656454008231328974",
        "title": "公共厕所",
        "address": "湖南省常德市汉寿县沧浪西路与鸿运街交叉口东南方向29米左右",
        "tel": "0736-2893079",
        "category": "基础设施:公共设施:公共厕所",
        "type": 0,
        "location": {
            "lat": 28.909566,
            "lng": 111.960313
        },
        "ad_info": {
            "adcode": 430722,
            "province": "湖南省",
            "city": "常德市",
            "district": "汉寿县"
        }
    },
    {
        "id": "3563367255239268214",
        "title": "男卫生间(和瑞欢乐城)",
        "address": "湖南省常德市武陵区武陵大道998号和瑞欢乐城F3",
        "tel": "",
        "category": "基础设施:公共设施:男洗手间",
        "type": 0,
        "location": {
            "lat": 29.065398,
            "lng": 111.694979
        },
        "ad_info": {
            "adcode": 430702,
            "province": "湖南省",
            "city": "常德市",
            "district": "武陵区"
        }
    },
    {
        "id": "13957195271192636164",
        "title": "公共厕所",
        "address": "湖南省常德市石门县三江路与育才路交叉口东南方向105米左右",
        "tel": "",
        "category": "基础设施:公共设施:公共厕所",
        "type": 0,
        "location": {
            "lat": 29.575333,
            "lng": 111.36137
        },
        "ad_info": {
            "adcode": 430726,
            "province": "湖南省",
            "city": "常德市",
            "district": "石门县"
        }
    },
    {
        "id": "14614285592766341155",
        "title": "无障碍洗手间(和瑞欢乐城)",
        "address": "湖南省常德市武陵区武陵大道998号和瑞欢乐城F1层",
        "tel": "",
        "category": "基础设施:公共设施:公共厕所",
        "type": 0,
        "location": {
            "lat": 29.065236,
            "lng": 111.695721
        },
        "ad_info": {
            "adcode": 430702,
            "province": "湖南省",
            "city": "常德市",
            "district": "武陵区"
        }
    },
    {
        "id": "17486313566252293266",
        "title": "女洗手间(常德万达广场)",
        "address": "湖南省常德市武陵区皂果路1099号常德万达广场4F",
        "tel": "",
        "category": "基础设施:公共设施:女洗手间",
        "type": 0,
        "location": {
            "lat": 29.055296,
            "lng": 111.680646
        },
        "ad_info": {
            "adcode": 430702,
            "province": "湖南省",
            "city": "常德市",
            "district": "武陵区"
        }
    },
    {
        "id": "13379581307770869579",
        "title": "城头山服务区第二公共厕所",
        "address": "湖南省常德市澧县二广高速城头山服务区",
        "tel": "",
        "category": "基础设施:公共设施:公共厕所",
        "type": 0,
        "location": {
            "lat": 29.798687,
            "lng": 111.859609
        },
        "ad_info": {
            "adcode": 430723,
            "province": "湖南省",
            "city": "常德市",
            "district": "澧县"
        }
    },
    {
        "id": "17244484982622138924",
        "title": "公共厕所",
        "address": "湖南省常德市武陵区体育路与建设路交叉口正北方向92米左右",
        "tel": "",
        "category": "基础设施:公共设施:公共厕所",
        "type": 0,
        "location": {
            "lat": 29.02512,
            "lng": 111.706268
        },
        "ad_info": {
            "adcode": 430702,
            "province": "湖南省",
            "city": "常德市",
            "district": "武陵区"
        }
    },
    {
        "id": "13925397898261314845",
        "title": "公共厕所",
        "address": "湖南省常德市武陵区城门口路与民族街交叉口东北方向48米左右",
        "tel": "",
        "category": "基础设施:公共设施:公共厕所",
        "type": 0,
        "location": {
            "lat": 29.022486,
            "lng": 111.705115
        },
        "ad_info": {
            "adcode": 430702,
            "province": "湖南省",
            "city": "常德市",
            "district": "武陵区"
        }
    },
    {
        "id": "6145034436488398317",
        "title": "公共厕所",
        "address": "湖南省常德市汉寿县G319与X037交叉口西北方向1178米左右",
        "tel": "",
        "category": "基础设施:公共设施:公共厕所",
        "type": 0,
        "location": {
            "lat": 28.707594,
            "lng": 112.086874
        },
        "ad_info": {
            "adcode": 430722,
            "province": "湖南省",
            "city": "常德市",
            "district": "汉寿县"
        }
    },
    {
        "id": "11865558660626401942",
        "title": "公共厕所",
        "address": "湖南省常德市武陵区武陵阁步行城金钻商业广场",
        "tel": "",
        "category": "基础设施:公共设施:公共厕所",
        "type": 0,
        "location": {
            "lat": 29.030165,
            "lng": 111.693338
        },
        "ad_info": {
            "adcode": 430702,
            "province": "湖南省",
            "city": "常德市",
            "district": "武陵区"
        }
    },
    {
        "id": "519333935783803918",
        "title": "公共厕所",
        "address": "湖南省常德市武陵区环湖路与银牛路交叉口西南方向430米左右",
        "tel": "",
        "category": "基础设施:公共设施:公共厕所",
        "type": 0,
        "location": {
            "lat": 29.108404,
            "lng": 111.704957
        },
        "ad_info": {
            "adcode": 430702,
            "province": "湖南省",
            "city": "常德市",
            "district": "武陵区"
        }
    },
    {
        "id": "8514585735172325257",
        "title": "公共厕所",
        "address": "湖南省常德市澧县文化街与棚厂街交叉口东北方向20米左右",
        "tel": "",
        "category": "基础设施:公共设施:公共厕所",
        "type": 0,
        "location": {
            "lat": 29.634447,
            "lng": 111.759397
        },
        "ad_info": {
            "adcode": 430723,
            "province": "湖南省",
            "city": "常德市",
            "district": "澧县"
        }
    },
    {
        "id": "15689948615144787343",
        "title": "公共厕所",
        "address": "湖南省常德市武陵区新乐巷与新利巷交叉口正南方向48米左右",
        "tel": "",
        "category": "基础设施:公共设施:公共厕所",
        "type": 0,
        "location": {
            "lat": 29.030987,
            "lng": 111.707968
        },
        "ad_info": {
            "adcode": 430702,
            "province": "湖南省",
            "city": "常德市",
            "district": "武陵区"
        }
    },
    {
        "id": "5536865045552822275",
        "title": "白马湖文化公园公共厕所",
        "address": "湖南省常德市武陵区龙港路白马湖文化公园内",
        "tel": "",
        "category": "基础设施:公共设施:公共厕所",
        "type": 0,
        "location": {
            "lat": 29.048541,
            "lng": 111.676244
        },
        "ad_info": {
            "adcode": 430702,
            "province": "湖南省",
            "city": "常德市",
            "district": "武陵区"
        }
    },
    {
        "id": "7506627809899789991",
        "title": "公共厕所",
        "address": "湖南省常德市武陵区朗州路万业城",
        "tel": "",
        "category": "基础设施:公共设施:公共厕所",
        "type": 0,
        "location": {
            "lat": 29.047624,
            "lng": 111.699282
        },
        "ad_info": {
            "adcode": 430702,
            "province": "湖南省",
            "city": "常德市",
            "district": "武陵区"
        }
    },
    {
        "id": "793032580743266559",
        "title": "女洗手间(和瑞欢乐城)",
        "address": "湖南省常德市武陵区武陵大道998号和瑞欢乐城F3",
        "tel": "",
        "category": "基础设施:公共设施:女洗手间",
        "type": 0,
        "location": {
            "lat": 29.065435,
            "lng": 111.694991
        },
        "ad_info": {
            "adcode": 430702,
            "province": "湖南省",
            "city": "常德市",
            "district": "武陵区"
        }
    },
    {
        "id": "8220180442890497373",
        "title": "女洗手间(和瑞欢乐城)",
        "address": "湖南省常德市武陵区武陵大道998号和瑞欢乐城F1",
        "tel": "",
        "category": "基础设施:公共设施:女洗手间",
        "type": 0,
        "location": {
            "lat": 29.065198,
            "lng": 111.695687
        },
        "ad_info": {
            "adcode": 430702,
            "province": "湖南省",
            "city": "常德市",
            "district": "武陵区"
        }
    },
    {
        "id": "15131059773600954214",
        "title": "公共厕所",
        "address": "湖南省常德市鼎城区永兴路与永富路交叉口正西方向106米左右",
        "tel": "",
        "category": "基础设施:公共设施:公共厕所",
        "type": 0,
        "location": {
            "lat": 28.983749,
            "lng": 111.687745
        },
        "ad_info": {
            "adcode": 430703,
            "province": "湖南省",
            "city": "常德市",
            "district": "鼎城区"
        }
    },
    {
        "id": "151206512909548021",
        "title": "公共厕所",
        "address": "湖南省常德市临澧县Y139与安福路交叉口西北方向918米左右",
        "tel": "",
        "category": "基础设施:公共设施:公共厕所",
        "type": 0,
        "location": {
            "lat": 29.439456,
            "lng": 111.603809
        },
        "ad_info": {
            "adcode": 430724,
            "province": "湖南省",
            "city": "常德市",
            "district": "临澧县"
        }
    },
    {
        "id": "1079540728231421611",
        "title": "公共厕所",
        "address": "湖南省常德市武陵区S306与复基路交叉口正北方向58米左右",
        "tel": "",
        "category": "基础设施:公共设施:公共厕所",
        "type": 0,
        "location": {
            "lat": 29.073939,
            "lng": 111.73515
        },
        "ad_info": {
            "adcode": 430702,
            "province": "湖南省",
            "city": "常德市",
            "district": "武陵区"
        }
    },
    {
        "id": "13656454008231328974",
        "title": "公共厕所",
        "address": "湖南省常德市汉寿县沧浪西路与鸿运街交叉口东南方向29米左右",
        "tel": "0736-2893079",
        "category": "基础设施:公共设施:公共厕所",
        "type": 0,
        "location": {
            "lat": 28.909566,
            "lng": 111.960313
        },
        "ad_info": {
            "adcode": 430722,
            "province": "湖南省",
            "city": "常德市",
            "district": "汉寿县"
        }
    },
    {
        "id": "3563367255239268214",
        "title": "男卫生间(和瑞欢乐城)",
        "address": "湖南省常德市武陵区武陵大道998号和瑞欢乐城F3",
        "tel": "",
        "category": "基础设施:公共设施:男洗手间",
        "type": 0,
        "location": {
            "lat": 29.065398,
            "lng": 111.694979
        },
        "ad_info": {
            "adcode": 430702,
            "province": "湖南省",
            "city": "常德市",
            "district": "武陵区"
        }
    },
    {
        "id": "13957195271192636164",
        "title": "公共厕所",
        "address": "湖南省常德市石门县三江路与育才路交叉口东南方向105米左右",
        "tel": "",
        "category": "基础设施:公共设施:公共厕所",
        "type": 0,
        "location": {
            "lat": 29.575333,
            "lng": 111.36137
        },
        "ad_info": {
            "adcode": 430726,
            "province": "湖南省",
            "city": "常德市",
            "district": "石门县"
        }
    },
    {
        "id": "14614285592766341155",
        "title": "无障碍洗手间(和瑞欢乐城)",
        "address": "湖南省常德市武陵区武陵大道998号和瑞欢乐城F1层",
        "tel": "",
        "category": "基础设施:公共设施:公共厕所",
        "type": 0,
        "location": {
            "lat": 29.065236,
            "lng": 111.695721
        },
        "ad_info": {
            "adcode": 430702,
            "province": "湖南省",
            "city": "常德市",
            "district": "武陵区"
        }
    },
    {
        "id": "17486313566252293266",
        "title": "女洗手间(常德万达广场)",
        "address": "湖南省常德市武陵区皂果路1099号常德万达广场4F",
        "tel": "",
        "category": "基础设施:公共设施:女洗手间",
        "type": 0,
        "location": {
            "lat": 29.055296,
            "lng": 111.680646
        },
        "ad_info": {
            "adcode": 430702,
            "province": "湖南省",
            "city": "常德市",
            "district": "武陵区"
        }
    },
    {
        "id": "13379581307770869579",
        "title": "城头山服务区第二公共厕所",
        "address": "湖南省常德市澧县二广高速城头山服务区",
        "tel": "",
        "category": "基础设施:公共设施:公共厕所",
        "type": 0,
        "location": {
            "lat": 29.798687,
            "lng": 111.859609
        },
        "ad_info": {
            "adcode": 430723,
            "province": "湖南省",
            "city": "常德市",
            "district": "澧县"
        }
    },
    {
        "id": "17244484982622138924",
        "title": "公共厕所",
        "address": "湖南省常德市武陵区体育路与建设路交叉口正北方向92米左右",
        "tel": "",
        "category": "基础设施:公共设施:公共厕所",
        "type": 0,
        "location": {
            "lat": 29.02512,
            "lng": 111.706268
        },
        "ad_info": {
            "adcode": 430702,
            "province": "湖南省",
            "city": "常德市",
            "district": "武陵区"
        }
    },
    {
        "id": "13925397898261314845",
        "title": "公共厕所",
        "address": "湖南省常德市武陵区城门口路与民族街交叉口东北方向48米左右",
        "tel": "",
        "category": "基础设施:公共设施:公共厕所",
        "type": 0,
        "location": {
            "lat": 29.022486,
            "lng": 111.705115
        },
        "ad_info": {
            "adcode": 430702,
            "province": "湖南省",
            "city": "常德市",
            "district": "武陵区"
        }
    },
    {
        "id": "6145034436488398317",
        "title": "公共厕所",
        "address": "湖南省常德市汉寿县G319与X037交叉口西北方向1178米左右",
        "tel": "",
        "category": "基础设施:公共设施:公共厕所",
        "type": 0,
        "location": {
            "lat": 28.707594,
            "lng": 112.086874
        },
        "ad_info": {
            "adcode": 430722,
            "province": "湖南省",
            "city": "常德市",
            "district": "汉寿县"
        }
    },
    {
        "id": "11865558660626401942",
        "title": "公共厕所",
        "address": "湖南省常德市武陵区武陵阁步行城金钻商业广场",
        "tel": "",
        "category": "基础设施:公共设施:公共厕所",
        "type": 0,
        "location": {
            "lat": 29.030165,
            "lng": 111.693338
        },
        "ad_info": {
            "adcode": 430702,
            "province": "湖南省",
            "city": "常德市",
            "district": "武陵区"
        }
    },
    {
        "id": "519333935783803918",
        "title": "公共厕所",
        "address": "湖南省常德市武陵区环湖路与银牛路交叉口西南方向430米左右",
        "tel": "",
        "category": "基础设施:公共设施:公共厕所",
        "type": 0,
        "location": {
            "lat": 29.108404,
            "lng": 111.704957
        },
        "ad_info": {
            "adcode": 430702,
            "province": "湖南省",
            "city": "常德市",
            "district": "武陵区"
        }
    },
    {
        "id": "8514585735172325257",
        "title": "公共厕所",
        "address": "湖南省常德市澧县文化街与棚厂街交叉口东北方向20米左右",
        "tel": "",
        "category": "基础设施:公共设施:公共厕所",
        "type": 0,
        "location": {
            "lat": 29.634447,
            "lng": 111.759397
        },
        "ad_info": {
            "adcode": 430723,
            "province": "湖南省",
            "city": "常德市",
            "district": "澧县"
        }
    },
    {
        "id": "15689948615144787343",
        "title": "公共厕所",
        "address": "湖南省常德市武陵区新乐巷与新利巷交叉口正南方向48米左右",
        "tel": "",
        "category": "基础设施:公共设施:公共厕所",
        "type": 0,
        "location": {
            "lat": 29.030987,
            "lng": 111.707968
        },
        "ad_info": {
            "adcode": 430702,
            "province": "湖南省",
            "city": "常德市",
            "district": "武陵区"
        }
    },
    {
        "id": "5536865045552822275",
        "title": "白马湖文化公园公共厕所",
        "address": "湖南省常德市武陵区龙港路白马湖文化公园内",
        "tel": "",
        "category": "基础设施:公共设施:公共厕所",
        "type": 0,
        "location": {
            "lat": 29.048541,
            "lng": 111.676244
        },
        "ad_info": {
            "adcode": 430702,
            "province": "湖南省",
            "city": "常德市",
            "district": "武陵区"
        }
    },
    {
        "id": "7506627809899789991",
        "title": "公共厕所",
        "address": "湖南省常德市武陵区朗州路万业城",
        "tel": "",
        "category": "基础设施:公共设施:公共厕所",
        "type": 0,
        "location": {
            "lat": 29.047624,
            "lng": 111.699282
        },
        "ad_info": {
            "adcode": 430702,
            "province": "湖南省",
            "city": "常德市",
            "district": "武陵区"
        }
    },
    {
        "id": "793032580743266559",
        "title": "女洗手间(和瑞欢乐城)",
        "address": "湖南省常德市武陵区武陵大道998号和瑞欢乐城F3",
        "tel": "",
        "category": "基础设施:公共设施:女洗手间",
        "type": 0,
        "location": {
            "lat": 29.065435,
            "lng": 111.694991
        },
        "ad_info": {
            "adcode": 430702,
            "province": "湖南省",
            "city": "常德市",
            "district": "武陵区"
        }
    },
    {
        "id": "8220180442890497373",
        "title": "女洗手间(和瑞欢乐城)",
        "address": "湖南省常德市武陵区武陵大道998号和瑞欢乐城F1",
        "tel": "",
        "category": "基础设施:公共设施:女洗手间",
        "type": 0,
        "location": {
            "lat": 29.065198,
            "lng": 111.695687
        },
        "ad_info": {
            "adcode": 430702,
            "province": "湖南省",
            "city": "常德市",
            "district": "武陵区"
        }
    },
    {
        "id": "15131059773600954214",
        "title": "公共厕所",
        "address": "湖南省常德市鼎城区永兴路与永富路交叉口正西方向106米左右",
        "tel": "",
        "category": "基础设施:公共设施:公共厕所",
        "type": 0,
        "location": {
            "lat": 28.983749,
            "lng": 111.687745
        },
        "ad_info": {
            "adcode": 430703,
            "province": "湖南省",
            "city": "常德市",
            "district": "鼎城区"
        }
    },
    {
        "id": "151206512909548021",
        "title": "公共厕所",
        "address": "湖南省常德市临澧县Y139与安福路交叉口西北方向918米左右",
        "tel": "",
        "category": "基础设施:公共设施:公共厕所",
        "type": 0,
        "location": {
            "lat": 29.439456,
            "lng": 111.603809
        },
        "ad_info": {
            "adcode": 430724,
            "province": "湖南省",
            "city": "常德市",
            "district": "临澧县"
        }
    },
    {
        "id": "1079540728231421611",
        "title": "公共厕所",
        "address": "湖南省常德市武陵区S306与复基路交叉口正北方向58米左右",
        "tel": "",
        "category": "基础设施:公共设施:公共厕所",
        "type": 0,
        "location": {
            "lat": 29.073939,
            "lng": 111.73515
        },
        "ad_info": {
            "adcode": 430702,
            "province": "湖南省",
            "city": "常德市",
            "district": "武陵区"
        }
    },
    {
        "id": "13656454008231328974",
        "title": "公共厕所",
        "address": "湖南省常德市汉寿县沧浪西路与鸿运街交叉口东南方向29米左右",
        "tel": "0736-2893079",
        "category": "基础设施:公共设施:公共厕所",
        "type": 0,
        "location": {
            "lat": 28.909566,
            "lng": 111.960313
        },
        "ad_info": {
            "adcode": 430722,
            "province": "湖南省",
            "city": "常德市",
            "district": "汉寿县"
        }
    },
    {
        "id": "3563367255239268214",
        "title": "男卫生间(和瑞欢乐城)",
        "address": "湖南省常德市武陵区武陵大道998号和瑞欢乐城F3",
        "tel": "",
        "category": "基础设施:公共设施:男洗手间",
        "type": 0,
        "location": {
            "lat": 29.065398,
            "lng": 111.694979
        },
        "ad_info": {
            "adcode": 430702,
            "province": "湖南省",
            "city": "常德市",
            "district": "武陵区"
        }
    },
    {
        "id": "13957195271192636164",
        "title": "公共厕所",
        "address": "湖南省常德市石门县三江路与育才路交叉口东南方向105米左右",
        "tel": "",
        "category": "基础设施:公共设施:公共厕所",
        "type": 0,
        "location": {
            "lat": 29.575333,
            "lng": 111.36137
        },
        "ad_info": {
            "adcode": 430726,
            "province": "湖南省",
            "city": "常德市",
            "district": "石门县"
        }
    },
    {
        "id": "14614285592766341155",
        "title": "无障碍洗手间(和瑞欢乐城)",
        "address": "湖南省常德市武陵区武陵大道998号和瑞欢乐城F1层",
        "tel": "",
        "category": "基础设施:公共设施:公共厕所",
        "type": 0,
        "location": {
            "lat": 29.065236,
            "lng": 111.695721
        },
        "ad_info": {
            "adcode": 430702,
            "province": "湖南省",
            "city": "常德市",
            "district": "武陵区"
        }
    },
    {
        "id": "17486313566252293266",
        "title": "女洗手间(常德万达广场)",
        "address": "湖南省常德市武陵区皂果路1099号常德万达广场4F",
        "tel": "",
        "category": "基础设施:公共设施:女洗手间",
        "type": 0,
        "location": {
            "lat": 29.055296,
            "lng": 111.680646
        },
        "ad_info": {
            "adcode": 430702,
            "province": "湖南省",
            "city": "常德市",
            "district": "武陵区"
        }
    },
    {
        "id": "13379581307770869579",
        "title": "城头山服务区第二公共厕所",
        "address": "湖南省常德市澧县二广高速城头山服务区",
        "tel": "",
        "category": "基础设施:公共设施:公共厕所",
        "type": 0,
        "location": {
            "lat": 29.798687,
            "lng": 111.859609
        },
        "ad_info": {
            "adcode": 430723,
            "province": "湖南省",
            "city": "常德市",
            "district": "澧县"
        }
    },
    {
        "id": "17244484982622138924",
        "title": "公共厕所",
        "address": "湖南省常德市武陵区体育路与建设路交叉口正北方向92米左右",
        "tel": "",
        "category": "基础设施:公共设施:公共厕所",
        "type": 0,
        "location": {
            "lat": 29.02512,
            "lng": 111.706268
        },
        "ad_info": {
            "adcode": 430702,
            "province": "湖南省",
            "city": "常德市",
            "district": "武陵区"
        }
    },
    {
        "id": "13925397898261314845",
        "title": "公共厕所",
        "address": "湖南省常德市武陵区城门口路与民族街交叉口东北方向48米左右",
        "tel": "",
        "category": "基础设施:公共设施:公共厕所",
        "type": 0,
        "location": {
            "lat": 29.022486,
            "lng": 111.705115
        },
        "ad_info": {
            "adcode": 430702,
            "province": "湖南省",
            "city": "常德市",
            "district": "武陵区"
        }
    },
    {
        "id": "6145034436488398317",
        "title": "公共厕所",
        "address": "湖南省常德市汉寿县G319与X037交叉口西北方向1178米左右",
        "tel": "",
        "category": "基础设施:公共设施:公共厕所",
        "type": 0,
        "location": {
            "lat": 28.707594,
            "lng": 112.086874
        },
        "ad_info": {
            "adcode": 430722,
            "province": "湖南省",
            "city": "常德市",
            "district": "汉寿县"
        }
    },
    {
        "id": "11865558660626401942",
        "title": "公共厕所",
        "address": "湖南省常德市武陵区武陵阁步行城金钻商业广场",
        "tel": "",
        "category": "基础设施:公共设施:公共厕所",
        "type": 0,
        "location": {
            "lat": 29.030165,
            "lng": 111.693338
        },
        "ad_info": {
            "adcode": 430702,
            "province": "湖南省",
            "city": "常德市",
            "district": "武陵区"
        }
    },
    {
        "id": "519333935783803918",
        "title": "公共厕所",
        "address": "湖南省常德市武陵区环湖路与银牛路交叉口西南方向430米左右",
        "tel": "",
        "category": "基础设施:公共设施:公共厕所",
        "type": 0,
        "location": {
            "lat": 29.108404,
            "lng": 111.704957
        },
        "ad_info": {
            "adcode": 430702,
            "province": "湖南省",
            "city": "常德市",
            "district": "武陵区"
        }
    },
    {
        "id": "8514585735172325257",
        "title": "公共厕所",
        "address": "湖南省常德市澧县文化街与棚厂街交叉口东北方向20米左右",
        "tel": "",
        "category": "基础设施:公共设施:公共厕所",
        "type": 0,
        "location": {
            "lat": 29.634447,
            "lng": 111.759397
        },
        "ad_info": {
            "adcode": 430723,
            "province": "湖南省",
            "city": "常德市",
            "district": "澧县"
        }
    },
    {
        "id": "15689948615144787343",
        "title": "公共厕所",
        "address": "湖南省常德市武陵区新乐巷与新利巷交叉口正南方向48米左右",
        "tel": "",
        "category": "基础设施:公共设施:公共厕所",
        "type": 0,
        "location": {
            "lat": 29.030987,
            "lng": 111.707968
        },
        "ad_info": {
            "adcode": 430702,
            "province": "湖南省",
            "city": "常德市",
            "district": "武陵区"
        }
    },
    {
        "id": "5536865045552822275",
        "title": "白马湖文化公园公共厕所",
        "address": "湖南省常德市武陵区龙港路白马湖文化公园内",
        "tel": "",
        "category": "基础设施:公共设施:公共厕所",
        "type": 0,
        "location": {
            "lat": 29.048541,
            "lng": 111.676244
        },
        "ad_info": {
            "adcode": 430702,
            "province": "湖南省",
            "city": "常德市",
            "district": "武陵区"
        }
    },
    {
        "id": "7506627809899789991",
        "title": "公共厕所",
        "address": "湖南省常德市武陵区朗州路万业城",
        "tel": "",
        "category": "基础设施:公共设施:公共厕所",
        "type": 0,
        "location": {
            "lat": 29.047624,
            "lng": 111.699282
        },
        "ad_info": {
            "adcode": 430702,
            "province": "湖南省",
            "city": "常德市",
            "district": "武陵区"
        }
    },
    {
        "id": "793032580743266559",
        "title": "女洗手间(和瑞欢乐城)",
        "address": "湖南省常德市武陵区武陵大道998号和瑞欢乐城F3",
        "tel": "",
        "category": "基础设施:公共设施:女洗手间",
        "type": 0,
        "location": {
            "lat": 29.065435,
            "lng": 111.694991
        },
        "ad_info": {
            "adcode": 430702,
            "province": "湖南省",
            "city": "常德市",
            "district": "武陵区"
        }
    },
    {
        "id": "8220180442890497373",
        "title": "女洗手间(和瑞欢乐城)",
        "address": "湖南省常德市武陵区武陵大道998号和瑞欢乐城F1",
        "tel": "",
        "category": "基础设施:公共设施:女洗手间",
        "type": 0,
        "location": {
            "lat": 29.065198,
            "lng": 111.695687
        },
        "ad_info": {
            "adcode": 430702,
            "province": "湖南省",
            "city": "常德市",
            "district": "武陵区"
        }
    },
    {
        "id": "15131059773600954214",
        "title": "公共厕所",
        "address": "湖南省常德市鼎城区永兴路与永富路交叉口正西方向106米左右",
        "tel": "",
        "category": "基础设施:公共设施:公共厕所",
        "type": 0,
        "location": {
            "lat": 28.983749,
            "lng": 111.687745
        },
        "ad_info": {
            "adcode": 430703,
            "province": "湖南省",
            "city": "常德市",
            "district": "鼎城区"
        }
    },
    {
        "id": "151206512909548021",
        "title": "公共厕所",
        "address": "湖南省常德市临澧县Y139与安福路交叉口西北方向918米左右",
        "tel": "",
        "category": "基础设施:公共设施:公共厕所",
        "type": 0,
        "location": {
            "lat": 29.439456,
            "lng": 111.603809
        },
        "ad_info": {
            "adcode": 430724,
            "province": "湖南省",
            "city": "常德市",
            "district": "临澧县"
        }
    },
    {
        "id": "1079540728231421611",
        "title": "公共厕所",
        "address": "湖南省常德市武陵区S306与复基路交叉口正北方向58米左右",
        "tel": "",
        "category": "基础设施:公共设施:公共厕所",
        "type": 0,
        "location": {
            "lat": 29.073939,
            "lng": 111.73515
        },
        "ad_info": {
            "adcode": 430702,
            "province": "湖南省",
            "city": "常德市",
            "district": "武陵区"
        }
    },
    {
        "id": "13656454008231328974",
        "title": "公共厕所",
        "address": "湖南省常德市汉寿县沧浪西路与鸿运街交叉口东南方向29米左右",
        "tel": "0736-2893079",
        "category": "基础设施:公共设施:公共厕所",
        "type": 0,
        "location": {
            "lat": 28.909566,
            "lng": 111.960313
        },
        "ad_info": {
            "adcode": 430722,
            "province": "湖南省",
            "city": "常德市",
            "district": "汉寿县"
        }
    },
    {
        "id": "3563367255239268214",
        "title": "男卫生间(和瑞欢乐城)",
        "address": "湖南省常德市武陵区武陵大道998号和瑞欢乐城F3",
        "tel": "",
        "category": "基础设施:公共设施:男洗手间",
        "type": 0,
        "location": {
            "lat": 29.065398,
            "lng": 111.694979
        },
        "ad_info": {
            "adcode": 430702,
            "province": "湖南省",
            "city": "常德市",
            "district": "武陵区"
        }
    },
    {
        "id": "13957195271192636164",
        "title": "公共厕所",
        "address": "湖南省常德市石门县三江路与育才路交叉口东南方向105米左右",
        "tel": "",
        "category": "基础设施:公共设施:公共厕所",
        "type": 0,
        "location": {
            "lat": 29.575333,
            "lng": 111.36137
        },
        "ad_info": {
            "adcode": 430726,
            "province": "湖南省",
            "city": "常德市",
            "district": "石门县"
        }
    },
    {
        "id": "14614285592766341155",
        "title": "无障碍洗手间(和瑞欢乐城)",
        "address": "湖南省常德市武陵区武陵大道998号和瑞欢乐城F1层",
        "tel": "",
        "category": "基础设施:公共设施:公共厕所",
        "type": 0,
        "location": {
            "lat": 29.065236,
            "lng": 111.695721
        },
        "ad_info": {
            "adcode": 430702,
            "province": "湖南省",
            "city": "常德市",
            "district": "武陵区"
        }
    },
    {
        "id": "17486313566252293266",
        "title": "女洗手间(常德万达广场)",
        "address": "湖南省常德市武陵区皂果路1099号常德万达广场4F",
        "tel": "",
        "category": "基础设施:公共设施:女洗手间",
        "type": 0,
        "location": {
            "lat": 29.055296,
            "lng": 111.680646
        },
        "ad_info": {
            "adcode": 430702,
            "province": "湖南省",
            "city": "常德市",
            "district": "武陵区"
        }
    },
    {
        "id": "13379581307770869579",
        "title": "城头山服务区第二公共厕所",
        "address": "湖南省常德市澧县二广高速城头山服务区",
        "tel": "",
        "category": "基础设施:公共设施:公共厕所",
        "type": 0,
        "location": {
            "lat": 29.798687,
            "lng": 111.859609
        },
        "ad_info": {
            "adcode": 430723,
            "province": "湖南省",
            "city": "常德市",
            "district": "澧县"
        }
    },
    {
        "id": "17244484982622138924",
        "title": "公共厕所",
        "address": "湖南省常德市武陵区体育路与建设路交叉口正北方向92米左右",
        "tel": "",
        "category": "基础设施:公共设施:公共厕所",
        "type": 0,
        "location": {
            "lat": 29.02512,
            "lng": 111.706268
        },
        "ad_info": {
            "adcode": 430702,
            "province": "湖南省",
            "city": "常德市",
            "district": "武陵区"
        }
    },
    {
        "id": "13925397898261314845",
        "title": "公共厕所",
        "address": "湖南省常德市武陵区城门口路与民族街交叉口东北方向48米左右",
        "tel": "",
        "category": "基础设施:公共设施:公共厕所",
        "type": 0,
        "location": {
            "lat": 29.022486,
            "lng": 111.705115
        },
        "ad_info": {
            "adcode": 430702,
            "province": "湖南省",
            "city": "常德市",
            "district": "武陵区"
        }
    },
    {
        "id": "6145034436488398317",
        "title": "公共厕所",
        "address": "湖南省常德市汉寿县G319与X037交叉口西北方向1178米左右",
        "tel": "",
        "category": "基础设施:公共设施:公共厕所",
        "type": 0,
        "location": {
            "lat": 28.707594,
            "lng": 112.086874
        },
        "ad_info": {
            "adcode": 430722,
            "province": "湖南省",
            "city": "常德市",
            "district": "汉寿县"
        }
    },
    {
        "id": "11865558660626401942",
        "title": "公共厕所",
        "address": "湖南省常德市武陵区武陵阁步行城金钻商业广场",
        "tel": "",
        "category": "基础设施:公共设施:公共厕所",
        "type": 0,
        "location": {
            "lat": 29.030165,
            "lng": 111.693338
        },
        "ad_info": {
            "adcode": 430702,
            "province": "湖南省",
            "city": "常德市",
            "district": "武陵区"
        }
    },
    {
        "id": "519333935783803918",
        "title": "公共厕所",
        "address": "湖南省常德市武陵区环湖路与银牛路交叉口西南方向430米左右",
        "tel": "",
        "category": "基础设施:公共设施:公共厕所",
        "type": 0,
        "location": {
            "lat": 29.108404,
            "lng": 111.704957
        },
        "ad_info": {
            "adcode": 430702,
            "province": "湖南省",
            "city": "常德市",
            "district": "武陵区"
        }
    },
    {
        "id": "8514585735172325257",
        "title": "公共厕所",
        "address": "湖南省常德市澧县文化街与棚厂街交叉口东北方向20米左右",
        "tel": "",
        "category": "基础设施:公共设施:公共厕所",
        "type": 0,
        "location": {
            "lat": 29.634447,
            "lng": 111.759397
        },
        "ad_info": {
            "adcode": 430723,
            "province": "湖南省",
            "city": "常德市",
            "district": "澧县"
        }
    },
    {
        "id": "15689948615144787343",
        "title": "公共厕所",
        "address": "湖南省常德市武陵区新乐巷与新利巷交叉口正南方向48米左右",
        "tel": "",
        "category": "基础设施:公共设施:公共厕所",
        "type": 0,
        "location": {
            "lat": 29.030987,
            "lng": 111.707968
        },
        "ad_info": {
            "adcode": 430702,
            "province": "湖南省",
            "city": "常德市",
            "district": "武陵区"
        }
    },
    {
        "id": "5536865045552822275",
        "title": "白马湖文化公园公共厕所",
        "address": "湖南省常德市武陵区龙港路白马湖文化公园内",
        "tel": "",
        "category": "基础设施:公共设施:公共厕所",
        "type": 0,
        "location": {
            "lat": 29.048541,
            "lng": 111.676244
        },
        "ad_info": {
            "adcode": 430702,
            "province": "湖南省",
            "city": "常德市",
            "district": "武陵区"
        }
    },
    {
        "id": "7506627809899789991",
        "title": "公共厕所",
        "address": "湖南省常德市武陵区朗州路万业城",
        "tel": "",
        "category": "基础设施:公共设施:公共厕所",
        "type": 0,
        "location": {
            "lat": 29.047624,
            "lng": 111.699282
        },
        "ad_info": {
            "adcode": 430702,
            "province": "湖南省",
            "city": "常德市",
            "district": "武陵区"
        }
    },
    {
        "id": "793032580743266559",
        "title": "女洗手间(和瑞欢乐城)",
        "address": "湖南省常德市武陵区武陵大道998号和瑞欢乐城F3",
        "tel": "",
        "category": "基础设施:公共设施:女洗手间",
        "type": 0,
        "location": {
            "lat": 29.065435,
            "lng": 111.694991
        },
        "ad_info": {
            "adcode": 430702,
            "province": "湖南省",
            "city": "常德市",
            "district": "武陵区"
        }
    },
    {
        "id": "8220180442890497373",
        "title": "女洗手间(和瑞欢乐城)",
        "address": "湖南省常德市武陵区武陵大道998号和瑞欢乐城F1",
        "tel": "",
        "category": "基础设施:公共设施:女洗手间",
        "type": 0,
        "location": {
            "lat": 29.065198,
            "lng": 111.695687
        },
        "ad_info": {
            "adcode": 430702,
            "province": "湖南省",
            "city": "常德市",
            "district": "武陵区"
        }
    },
    {
        "id": "15131059773600954214",
        "title": "公共厕所",
        "address": "湖南省常德市鼎城区永兴路与永富路交叉口正西方向106米左右",
        "tel": "",
        "category": "基础设施:公共设施:公共厕所",
        "type": 0,
        "location": {
            "lat": 28.983749,
            "lng": 111.687745
        },
        "ad_info": {
            "adcode": 430703,
            "province": "湖南省",
            "city": "常德市",
            "district": "鼎城区"
        }
    },
    {
        "id": "151206512909548021",
        "title": "公共厕所",
        "address": "湖南省常德市临澧县Y139与安福路交叉口西北方向918米左右",
        "tel": "",
        "category": "基础设施:公共设施:公共厕所",
        "type": 0,
        "location": {
            "lat": 29.439456,
            "lng": 111.603809
        },
        "ad_info": {
            "adcode": 430724,
            "province": "湖南省",
            "city": "常德市",
            "district": "临澧县"
        }
    },
    {
        "id": "1079540728231421611",
        "title": "公共厕所",
        "address": "湖南省常德市武陵区S306与复基路交叉口正北方向58米左右",
        "tel": "",
        "category": "基础设施:公共设施:公共厕所",
        "type": 0,
        "location": {
            "lat": 29.073939,
            "lng": 111.73515
        },
        "ad_info": {
            "adcode": 430702,
            "province": "湖南省",
            "city": "常德市",
            "district": "武陵区"
        }
    },
    {
        "id": "13656454008231328974",
        "title": "公共厕所",
        "address": "湖南省常德市汉寿县沧浪西路与鸿运街交叉口东南方向29米左右",
        "tel": "0736-2893079",
        "category": "基础设施:公共设施:公共厕所",
        "type": 0,
        "location": {
            "lat": 28.909566,
            "lng": 111.960313
        },
        "ad_info": {
            "adcode": 430722,
            "province": "湖南省",
            "city": "常德市",
            "district": "汉寿县"
        }
    }
]