[
    {
        "id": "11932725376030688599",
        "title": "公共厕所",
        "address": "甘肃省平凉市崆峒区北后街71号",
        "tel": "",
        "category": "基础设施:公共设施:公共厕所",
        "type": 0,
        "location": {
            "lat": 35.540907,
            "lng": 106.679948
        },
        "ad_info": {
            "adcode": 620802,
            "province": "甘肃省",
            "city": "平凉市",
            "district": "崆峒区"
        }
    },
    {
        "id": "588166155936504590",
        "title": "公共卫生间",
        "address": "甘肃省平凉市崆峒区G312与崆峒大道中路交叉口正南方向191米左右",
        "tel": "",
        "category": "基础设施:公共设施:公共厕所",
        "type": 0,
        "location": {
            "lat": 35.535341,
            "lng": 106.697441
        },
        "ad_info": {
            "adcode": 620802,
            "province": "甘肃省",
            "city": "平凉市",
            "district": "崆峒区"
        }
    },
    {
        "id": "7882809633550213943",
        "title": "公共厕所",
        "address": "甘肃省平凉市崆峒区崆峒大道西路与来丰路交叉口西北方向219米左右",
        "tel": "",
        "category": "基础设施:公共设施:公共厕所",
        "type": 0,
        "location": {
            "lat": 35.552674,
            "lng": 106.645573
        },
        "ad_info": {
            "adcode": 620802,
            "province": "甘肃省",
            "city": "平凉市",
            "district": "崆峒区"
        }
    },
    {
        "id": "10616003522938195745",
        "title": "公共厕所",
        "address": "甘肃省平凉市崆峒区浙江街宏达国际花园",
        "tel": "",
        "category": "基础设施:公共设施:公共厕所",
        "type": 0,
        "location": {
            "lat": 35.551766,
            "lng": 106.686656
        },
        "ad_info": {
            "adcode": 620802,
            "province": "甘肃省",
            "city": "平凉市",
            "district": "崆峒区"
        }
    },
    {
        "id": "14795897650094080843",
        "title": "公共厕所",
        "address": "甘肃省平凉市静宁县新街与新街西路交叉口正东方向75米左右",
        "tel": "",
        "category": "基础设施:公共设施:公共厕所",
        "type": 0,
        "location": {
            "lat": 35.519255,
            "lng": 105.727667
        },
        "ad_info": {
            "adcode": 620826,
            "province": "甘肃省",
            "city": "平凉市",
            "district": "静宁县"
        }
    },
    {
        "id": "16496167186813765076",
        "title": "公共卫生间",
        "address": "甘肃省平凉市崆峒区临泾路与桃园路交叉口西南方向48米左右",
        "tel": "",
        "category": "基础设施:公共设施:公共厕所",
        "type": 0,
        "location": {
            "lat": 35.554684,
            "lng": 106.67165
        },
        "ad_info": {
            "adcode": 620802,
            "province": "甘肃省",
            "city": "平凉市",
            "district": "崆峒区"
        }
    },
    {
        "id": "15725093055583437353",
        "title": "公共厕所",
        "address": "甘肃省平凉市崆峒区保丰北路与北大路交叉口正南方向76米左右",
        "tel": "",
        "category": "基础设施:公共设施:公共厕所",
        "type": 0,
        "location": {
            "lat": 35.545136,
            "lng": 106.719155
        },
        "ad_info": {
            "adcode": 620802,
            "province": "甘肃省",
            "city": "平凉市",
            "district": "崆峒区"
        }
    },
    {
        "id": "17026832684735879386",
        "title": "公共厕所",
        "address": "甘肃省平凉市崆峒区崆峒大道西路与玄鹤路交叉口西北方向75米左右",
        "tel": "",
        "category": "基础设施:公共设施:公共厕所",
        "type": 0,
        "location": {
            "lat": 35.54993,
            "lng": 106.65672
        },
        "ad_info": {
            "adcode": 620802,
            "province": "甘肃省",
            "city": "平凉市",
            "district": "崆峒区"
        }
    },
    {
        "id": "15842072707802686563",
        "title": "公共厕所",
        "address": "甘肃省平凉市崆峒区崆峒大道与崆峒大道中路交叉口西南方向152米左右",
        "tel": "",
        "category": "基础设施:公共设施:公共厕所",
        "type": 0,
        "location": {
            "lat": 35.547569,
            "lng": 106.664285
        },
        "ad_info": {
            "adcode": 620802,
            "province": "甘肃省",
            "city": "平凉市",
            "district": "崆峒区"
        }
    },
    {
        "id": "5895496510304735060",
        "title": "公共厕所",
        "address": "甘肃省平凉市崆峒区果园路与泾河南路交叉口正南方向98米左右",
        "tel": "",
        "category": "基础设施:公共设施:公共厕所",
        "type": 0,
        "location": {
            "lat": 35.556204,
            "lng": 106.670219
        },
        "ad_info": {
            "adcode": 620802,
            "province": "甘肃省",
            "city": "平凉市",
            "district": "崆峒区"
        }
    },
    {
        "id": "4667736640005120410",
        "title": "公共厕所",
        "address": "甘肃省平凉市崆峒区保丰北路与北大路交叉口东北方向108米左右",
        "tel": "",
        "category": "基础设施:公共设施:公共厕所",
        "type": 0,
        "location": {
            "lat": 35.546568,
            "lng": 106.720122
        },
        "ad_info": {
            "adcode": 620802,
            "province": "甘肃省",
            "city": "平凉市",
            "district": "崆峒区"
        }
    },
    {
        "id": "15396092739689296602",
        "title": "公共厕所",
        "address": "甘肃省平凉市崆峒区北后街与广成路交叉口正南方向58米左右",
        "tel": "",
        "category": "基础设施:公共设施:公共厕所",
        "type": 0,
        "location": {
            "lat": 35.538142,
            "lng": 106.685543
        },
        "ad_info": {
            "adcode": 620802,
            "province": "甘肃省",
            "city": "平凉市",
            "district": "崆峒区"
        }
    },
    {
        "id": "2635539702292795758",
        "title": "公共厕所",
        "address": "甘肃省平凉市崆峒区解放北路81号",
        "tel": "",
        "category": "基础设施:公共设施:公共厕所",
        "type": 0,
        "location": {
            "lat": 35.541244,
            "lng": 106.700515
        },
        "ad_info": {
            "adcode": 620802,
            "province": "甘肃省",
            "city": "平凉市",
            "district": "崆峒区"
        }
    },
    {
        "id": "17662871158778555075",
        "title": "公共卫生间",
        "address": "甘肃省平凉市崆峒区九天庙巷与隍庙巷交叉口正东方向48米左右",
        "tel": "",
        "category": "基础设施:公共设施:公共厕所",
        "type": 0,
        "location": {
            "lat": 35.536639,
            "lng": 106.683439
        },
        "ad_info": {
            "adcode": 620802,
            "province": "甘肃省",
            "city": "平凉市",
            "district": "崆峒区"
        }
    },
    {
        "id": "14344159729176783178",
        "title": "公共厕所",
        "address": "甘肃省平凉市泾川县新建街与泾州街交叉口西北方向59米左右",
        "tel": "",
        "category": "基础设施:公共设施:公共厕所",
        "type": 0,
        "location": {
            "lat": 35.334827,
            "lng": 107.364329
        },
        "ad_info": {
            "adcode": 620821,
            "province": "甘肃省",
            "city": "平凉市",
            "district": "泾川县"
        }
    },
    {
        "id": "5029465264711740495",
        "title": "公共厕所",
        "address": "甘肃省平凉市崆峒区南环路与甘沟路交叉口东北方向86米左右",
        "tel": "",
        "category": "基础设施:公共设施:公共厕所",
        "type": 0,
        "location": {
            "lat": 35.536729,
            "lng": 106.654252
        },
        "ad_info": {
            "adcode": 620802,
            "province": "甘肃省",
            "city": "平凉市",
            "district": "崆峒区"
        }
    },
    {
        "id": "13910869080928805604",
        "title": "公共厕所",
        "address": "甘肃省平凉市崆峒区文化街与西门坡交叉口东南方向42米左右",
        "tel": "",
        "category": "基础设施:公共设施:公共厕所",
        "type": 0,
        "location": {
            "lat": 35.544997,
            "lng": 106.664576
        },
        "ad_info": {
            "adcode": 620802,
            "province": "甘肃省",
            "city": "平凉市",
            "district": "崆峒区"
        }
    },
    {
        "id": "4664429993235061016",
        "title": "公共厕所",
        "address": "甘肃省平凉市泾川县泾州街与泾灵路交叉口正东方向147米左右",
        "tel": "",
        "category": "基础设施:公共设施:公共厕所",
        "type": 0,
        "location": {
            "lat": 35.336959,
            "lng": 107.371833
        },
        "ad_info": {
            "adcode": 620821,
            "province": "甘肃省",
            "city": "平凉市",
            "district": "泾川县"
        }
    },
    {
        "id": "7677811482859453257",
        "title": "公共厕所",
        "address": "甘肃省平凉市静宁县G312与鼎元路交叉口西北方向121米左右",
        "tel": "",
        "category": "基础设施:公共设施:公共厕所",
        "type": 0,
        "location": {
            "lat": 35.543799,
            "lng": 105.715029
        },
        "ad_info": {
            "adcode": 620826,
            "province": "甘肃省",
            "city": "平凉市",
            "district": "静宁县"
        }
    },
    {
        "id": "8581190144806995327",
        "title": "公共厕所",
        "address": "甘肃省平凉市静宁县北二环东路与北二环中路交叉口正北方向118米左右",
        "tel": "",
        "category": "基础设施:公共设施:公共厕所",
        "type": 0,
        "location": {
            "lat": 35.529977,
            "lng": 105.738146
        },
        "ad_info": {
            "adcode": 620826,
            "province": "甘肃省",
            "city": "平凉市",
            "district": "静宁县"
        }
    },
    {
        "id": "16516921039391261804",
        "title": "公共厕所",
        "address": "甘肃省平凉市泾川县安定街与泾崇路交叉口正北方向125米左右",
        "tel": "",
        "category": "基础设施:公共设施:公共厕所",
        "type": 0,
        "location": {
            "lat": 35.331584,
            "lng": 107.359558
        },
        "ad_info": {
            "adcode": 620821,
            "province": "甘肃省",
            "city": "平凉市",
            "district": "泾川县"
        }
    },
    {
        "id": "11663905456958754776",
        "title": "公共厕所",
        "address": "甘肃省平凉市崆峒区城南路与解放路交叉口正西方向33米左右",
        "tel": "",
        "category": "基础设施:公共设施:公共厕所",
        "type": 0,
        "location": {
            "lat": 35.532465,
            "lng": 106.694042
        },
        "ad_info": {
            "adcode": 620802,
            "province": "甘肃省",
            "city": "平凉市",
            "district": "崆峒区"
        }
    },
    {
        "id": "15374381481997595788",
        "title": "公共厕所",
        "address": "甘肃省平凉市崆峒区定北路与泾滩路交叉口正西方向223米左右",
        "tel": "",
        "category": "基础设施:公共设施:公共厕所",
        "type": 0,
        "location": {
            "lat": 35.547719,
            "lng": 106.67824
        },
        "ad_info": {
            "adcode": 620802,
            "province": "甘肃省",
            "city": "平凉市",
            "district": "崆峒区"
        }
    },
    {
        "id": "11374162749201743780",
        "title": "公共厕所",
        "address": "甘肃省平凉市静宁县北二环东路静宁华源中学",
        "tel": "",
        "category": "基础设施:公共设施:公共厕所",
        "type": 0,
        "location": {
            "lat": 35.529414,
            "lng": 105.74345
        },
        "ad_info": {
            "adcode": 620826,
            "province": "甘肃省",
            "city": "平凉市",
            "district": "静宁县"
        }
    },
    {
        "id": "3491732901067562922",
        "title": "公共厕所",
        "address": "甘肃省平凉市崆峒区新民路与虹光路交叉口东南方向131米左右",
        "tel": "",
        "category": "基础设施:公共设施:公共厕所",
        "type": 0,
        "location": {
            "lat": 35.538065,
            "lng": 106.69206
        },
        "ad_info": {
            "adcode": 620802,
            "province": "甘肃省",
            "city": "平凉市",
            "district": "崆峒区"
        }
    },
    {
        "id": "4297849537576943925",
        "title": "公共厕所",
        "address": "甘肃省平凉市静宁县人民巷与新街交叉口正北方向30米左右",
        "tel": "",
        "category": "基础设施:公共设施:公共厕所",
        "type": 0,
        "location": {
            "lat": 35.519245,
            "lng": 105.73179
        },
        "ad_info": {
            "adcode": 620826,
            "province": "甘肃省",
            "city": "平凉市",
            "district": "静宁县"
        }
    },
    {
        "id": "1512675031318437192",
        "title": "公共厕所",
        "address": "甘肃省平凉市静宁县东街与富康路交叉口西南方向247米左右",
        "tel": "",
        "category": "基础设施:公共设施:公共厕所",
        "type": 0,
        "location": {
            "lat": 35.522502,
            "lng": 105.74145
        },
        "ad_info": {
            "adcode": 620826,
            "province": "甘肃省",
            "city": "平凉市",
            "district": "静宁县"
        }
    },
    {
        "id": "2081075921883422037",
        "title": "公共厕所",
        "address": "甘肃省平凉市崆峒区崆峒大道西路与玄鹤路交叉口东北方向162米左右",
        "tel": "",
        "category": "基础设施:公共设施:公共厕所",
        "type": 0,
        "location": {
            "lat": 35.5504,
            "lng": 106.658613
        },
        "ad_info": {
            "adcode": 620802,
            "province": "甘肃省",
            "city": "平凉市",
            "district": "崆峒区"
        }
    },
    {
        "id": "5599999478402948895",
        "title": "公共厕所",
        "address": "甘肃省平凉市崆峒区双桥路与拥军路交叉口西北方向170米左右",
        "tel": "",
        "category": "基础设施:公共设施:公共厕所",
        "type": 0,
        "location": {
            "lat": 35.528343,
            "lng": 106.714302
        },
        "ad_info": {
            "adcode": 620802,
            "province": "甘肃省",
            "city": "平凉市",
            "district": "崆峒区"
        }
    },
    {
        "id": "14835239895225163745",
        "title": "公共厕所",
        "address": "甘肃省平凉市崆峒区崆峒大道中路与虹光路交叉口正西方向26米左右",
        "tel": "",
        "category": "基础设施:公共设施:公共厕所",
        "type": 0,
        "location": {
            "lat": 35.537793,
            "lng": 106.696363
        },
        "ad_info": {
            "adcode": 620802,
            "province": "甘肃省",
            "city": "平凉市",
            "district": "崆峒区"
        }
    },
    {
        "id": "10988908285165894904",
        "title": "公共厕所",
        "address": "甘肃省平凉市泾川县安定街与泾灵路交叉口西南方向193米左右",
        "tel": "",
        "category": "基础设施:公共设施:公共厕所",
        "type": 0,
        "location": {
            "lat": 35.332285,
            "lng": 107.369866
        },
        "ad_info": {
            "adcode": 620821,
            "province": "甘肃省",
            "city": "平凉市",
            "district": "泾川县"
        }
    },
    {
        "id": "4245291689422755942",
        "title": "公共厕所",
        "address": "甘肃省平凉市崆峒区中山街与工贸巷交叉口东南方向155米左右",
        "tel": "",
        "category": "基础设施:公共设施:公共厕所",
        "type": 0,
        "location": {
            "lat": 35.535049,
            "lng": 106.693611
        },
        "ad_info": {
            "adcode": 620802,
            "province": "甘肃省",
            "city": "平凉市",
            "district": "崆峒区"
        }
    },
    {
        "id": "1116229185719369528",
        "title": "公共厕所",
        "address": "甘肃省平凉市泾川县泾州街与泾灵路交叉口正东方向174米左右",
        "tel": "",
        "category": "基础设施:公共设施:公共厕所",
        "type": 0,
        "location": {
            "lat": 35.337007,
            "lng": 107.372127
        },
        "ad_info": {
            "adcode": 620821,
            "province": "甘肃省",
            "city": "平凉市",
            "district": "泾川县"
        }
    },
    {
        "id": "16871972287159506465",
        "title": "公共厕所",
        "address": "甘肃省平凉市崆峒区果园路与柳湖西路交叉口正西方向181米左右",
        "tel": "",
        "category": "基础设施:公共设施:公共厕所",
        "type": 0,
        "location": {
            "lat": 35.553487,
            "lng": 106.665795
        },
        "ad_info": {
            "adcode": 620802,
            "province": "甘肃省",
            "city": "平凉市",
            "district": "崆峒区"
        }
    },
    {
        "id": "11617176763722162605",
        "title": "公共卫生间",
        "address": "甘肃省平凉市崆峒区广成路与西寺街交叉口东南方向159米左右",
        "tel": "",
        "category": "基础设施:公共设施:公共厕所",
        "type": 0,
        "location": {
            "lat": 35.540948,
            "lng": 106.684973
        },
        "ad_info": {
            "adcode": 620802,
            "province": "甘肃省",
            "city": "平凉市",
            "district": "崆峒区"
        }
    },
    {
        "id": "2518682434420752168",
        "title": "公共厕所",
        "address": "甘肃省平凉市静宁县G566与静西路交叉口正西方向196米左右",
        "tel": "",
        "category": "基础设施:公共设施:公共厕所",
        "type": 0,
        "location": {
            "lat": 35.53899,
            "lng": 105.726585
        },
        "ad_info": {
            "adcode": 620826,
            "province": "甘肃省",
            "city": "平凉市",
            "district": "静宁县"
        }
    },
    {
        "id": "3135518016776967713",
        "title": "公共厕所",
        "address": "甘肃省平凉市崇信县团结路与祥和街交叉口正东方向43米左右",
        "tel": "",
        "category": "基础设施:公共设施:公共厕所",
        "type": 0,
        "location": {
            "lat": 35.304347,
            "lng": 107.033958
        },
        "ad_info": {
            "adcode": 620823,
            "province": "甘肃省",
            "city": "平凉市",
            "district": "崇信县"
        }
    },
    {
        "id": "5182253140318547437",
        "title": "公共厕所",
        "address": "甘肃省平凉市崆峒区崆峒大道中路柳湖公园(西北角)",
        "tel": "",
        "category": "基础设施:公共设施:公共厕所",
        "type": 0,
        "location": {
            "lat": 35.546518,
            "lng": 106.674109
        },
        "ad_info": {
            "adcode": 620802,
            "province": "甘肃省",
            "city": "平凉市",
            "district": "崆峒区"
        }
    },
    {
        "id": "7029208602158434631",
        "title": "公共厕所",
        "address": "甘肃省平凉市崆峒区仓坊巷与分区巷交叉口正北方向54米左右",
        "tel": "",
        "category": "基础设施:公共设施:公共厕所",
        "type": 0,
        "location": {
            "lat": 35.541202,
            "lng": 106.673306
        },
        "ad_info": {
            "adcode": 620802,
            "province": "甘肃省",
            "city": "平凉市",
            "district": "崆峒区"
        }
    },
    {
        "id": "11249370940716950016",
        "title": "公共厕所",
        "address": "甘肃省平凉市华亭市华煤大道与峪华路交叉口正南方向162米左右",
        "tel": "",
        "category": "基础设施:公共设施:公共厕所",
        "type": 0,
        "location": {
            "lat": 35.203401,
            "lng": 106.629022
        },
        "ad_info": {
            "adcode": 620881,
            "province": "甘肃省",
            "city": "平凉市",
            "district": "华亭市"
        }
    },
    {
        "id": "3970783697631299143",
        "title": "公共厕所",
        "address": "甘肃省平凉市崆峒区崆峒大道与崆峒大道中路交叉口正东方向293米左右",
        "tel": "",
        "category": "基础设施:公共设施:公共厕所",
        "type": 0,
        "location": {
            "lat": 35.547719,
            "lng": 106.668732
        },
        "ad_info": {
            "adcode": 620802,
            "province": "甘肃省",
            "city": "平凉市",
            "district": "崆峒区"
        }
    },
    {
        "id": "10270873183731041558",
        "title": "公共厕所",
        "address": "甘肃省平凉市静宁县东综市场37",
        "tel": "",
        "category": "基础设施:公共设施:公共厕所",
        "type": 0,
        "location": {
            "lat": 35.527244,
            "lng": 105.737182
        },
        "ad_info": {
            "adcode": 620826,
            "province": "甘肃省",
            "city": "平凉市",
            "district": "静宁县"
        }
    },
    {
        "id": "6658104534384152628",
        "title": "公共卫生间",
        "address": "甘肃省平凉市崆峒区东大街与北极巷交叉口正南方向80米左右",
        "tel": "",
        "category": "基础设施:公共设施:公共厕所",
        "type": 0,
        "location": {
            "lat": 35.537398,
            "lng": 106.684372
        },
        "ad_info": {
            "adcode": 620802,
            "province": "甘肃省",
            "city": "平凉市",
            "district": "崆峒区"
        }
    },
    {
        "id": "3159746859938495846",
        "title": "公共厕所",
        "address": "甘肃省平凉市崆峒区四中巷市场与四中巷交叉口东南60米",
        "tel": "",
        "category": "基础设施:公共设施:公共厕所",
        "type": 0,
        "location": {
            "lat": 35.543117,
            "lng": 106.668159
        },
        "ad_info": {
            "adcode": 620802,
            "province": "甘肃省",
            "city": "平凉市",
            "district": "崆峒区"
        }
    },
    {
        "id": "7463559142690325626",
        "title": "公共卫生间",
        "address": "甘肃省平凉市崆峒区双桥路与拥军路交叉口东南方向188米左右",
        "tel": "",
        "category": "基础设施:公共设施:公共厕所",
        "type": 0,
        "location": {
            "lat": 35.526461,
            "lng": 106.717518
        },
        "ad_info": {
            "adcode": 620802,
            "province": "甘肃省",
            "city": "平凉市",
            "district": "崆峒区"
        }
    },
    {
        "id": "11023369926780620224",
        "title": "公共厕所",
        "address": "甘肃省平凉市崆峒区下县巷与红旗街交叉口西南方向115米左右",
        "tel": "",
        "category": "基础设施:公共设施:公共厕所",
        "type": 0,
        "location": {
            "lat": 35.537985,
            "lng": 106.676192
        },
        "ad_info": {
            "adcode": 620802,
            "province": "甘肃省",
            "city": "平凉市",
            "district": "崆峒区"
        }
    },
    {
        "id": "11322891029807066283",
        "title": "公共厕所",
        "address": "甘肃省平凉市泾川县G244与泾州街交叉口西北方向40米左右",
        "tel": "",
        "category": "基础设施:公共设施:公共厕所",
        "type": 0,
        "location": {
            "lat": 35.344612,
            "lng": 107.389126
        },
        "ad_info": {
            "adcode": 620821,
            "province": "甘肃省",
            "city": "平凉市",
            "district": "泾川县"
        }
    },
    {
        "id": "9868046751301599512",
        "title": "公共厕所",
        "address": "甘肃省平凉市静宁县北街与泰安路交叉口正北方向490米左右",
        "tel": "",
        "category": "基础设施:公共设施:公共厕所",
        "type": 0,
        "location": {
            "lat": 35.380323,
            "lng": 105.761036
        },
        "ad_info": {
            "adcode": 620826,
            "province": "甘肃省",
            "city": "平凉市",
            "district": "静宁县"
        }
    },
    {
        "id": "15038265532768131528",
        "title": "公共厕所",
        "address": "甘肃省平凉市崆峒区双桥路与拥军路交叉口西北方向202米左右",
        "tel": "",
        "category": "基础设施:公共设施:公共厕所",
        "type": 0,
        "location": {
            "lat": 35.528332,
            "lng": 106.713869
        },
        "ad_info": {
            "adcode": 620802,
            "province": "甘肃省",
            "city": "平凉市",
            "district": "崆峒区"
        }
    },
    {
        "id": "76951067245076931",
        "title": "公共厕所",
        "address": "甘肃省平凉市静宁县三中巷与东环路交叉口东南方向58米左右",
        "tel": "",
        "category": "基础设施:公共设施:公共厕所",
        "type": 0,
        "location": {
            "lat": 35.529211,
            "lng": 105.747639
        },
        "ad_info": {
            "adcode": 620826,
            "province": "甘肃省",
            "city": "平凉市",
            "district": "静宁县"
        }
    },
    {
        "id": "10789347594351249520",
        "title": "公共厕所",
        "address": "甘肃省平凉市静宁县北环路171号",
        "tel": "",
        "category": "基础设施:公共设施:公共厕所",
        "type": 0,
        "location": {
            "lat": 35.526275,
            "lng": 105.738315
        },
        "ad_info": {
            "adcode": 620826,
            "province": "甘肃省",
            "city": "平凉市",
            "district": "静宁县"
        }
    },
    {
        "id": "6640692042322343430",
        "title": "公共厕所",
        "address": "甘肃省平凉市灵台县溪河大道与财政街交叉口东南方向73米左右",
        "tel": "",
        "category": "基础设施:公共设施:公共厕所",
        "type": 0,
        "location": {
            "lat": 35.063886,
            "lng": 107.615212
        },
        "ad_info": {
            "adcode": 620822,
            "province": "甘肃省",
            "city": "平凉市",
            "district": "灵台县"
        }
    },
    {
        "id": "1196057599301478642",
        "title": "公共厕所",
        "address": "甘肃省平凉市华亭市G344与X080交叉口正南方向586米左右",
        "tel": "",
        "category": "基础设施:公共设施:公共厕所",
        "type": 0,
        "location": {
            "lat": 35.168383,
            "lng": 106.698735
        },
        "ad_info": {
            "adcode": 620881,
            "province": "甘肃省",
            "city": "平凉市",
            "district": "华亭市"
        }
    },
    {
        "id": "2100932383854708697",
        "title": "公共厕所",
        "address": "甘肃省平凉市静宁县城关镇师范巷法检院家属楼",
        "tel": "",
        "category": "基础设施:公共设施:公共厕所",
        "type": 0,
        "location": {
            "lat": 35.527243,
            "lng": 105.731817
        },
        "ad_info": {
            "adcode": 620826,
            "province": "甘肃省",
            "city": "平凉市",
            "district": "静宁县"
        }
    },
    {
        "id": "13771040535240175500",
        "title": "公共厕所",
        "address": "甘肃省平凉市崇信县团结路与文化路交叉口正南方向186米左右",
        "tel": "",
        "category": "基础设施:公共设施:公共厕所",
        "type": 0,
        "location": {
            "lat": 35.301157,
            "lng": 107.024427
        },
        "ad_info": {
            "adcode": 620823,
            "province": "甘肃省",
            "city": "平凉市",
            "district": "崇信县"
        }
    },
    {
        "id": "18216331480940790119",
        "title": "公共厕所",
        "address": "甘肃省平凉市崆峒区四中巷与四中巷市场交叉口西40米",
        "tel": "",
        "category": "基础设施:公共设施:公共厕所",
        "type": 0,
        "location": {
            "lat": 35.543676,
            "lng": 106.667334
        },
        "ad_info": {
            "adcode": 620802,
            "province": "甘肃省",
            "city": "平凉市",
            "district": "崆峒区"
        }
    },
    {
        "id": "1871918742236350017",
        "title": "公共厕所",
        "address": "甘肃省平凉市泾川县G244与何家坪大桥交叉口正南方向220米左右",
        "tel": "",
        "category": "基础设施:公共设施:公共厕所",
        "type": 0,
        "location": {
            "lat": 35.356435,
            "lng": 107.448847
        },
        "ad_info": {
            "adcode": 620821,
            "province": "甘肃省",
            "city": "平凉市",
            "district": "泾川县"
        }
    },
    {
        "id": "16749549733800319777",
        "title": "公共厕所",
        "address": "甘肃省平凉市泾川县中山街与安定街交叉口正东方向107米左右",
        "tel": "",
        "category": "基础设施:公共设施:公共厕所",
        "type": 0,
        "location": {
            "lat": 35.331249,
            "lng": 107.364305
        },
        "ad_info": {
            "adcode": 620821,
            "province": "甘肃省",
            "city": "平凉市",
            "district": "泾川县"
        }
    },
    {
        "id": "7910371630815450794",
        "title": "公共厕所",
        "address": "甘肃省平凉市静宁县G312与鼎元路交叉口正南方向198米左右",
        "tel": "",
        "category": "基础设施:公共设施:公共厕所",
        "type": 0,
        "location": {
            "lat": 35.54116,
            "lng": 105.716405
        },
        "ad_info": {
            "adcode": 620826,
            "province": "甘肃省",
            "city": "平凉市",
            "district": "静宁县"
        }
    },
    {
        "id": "18255019585685496450",
        "title": "公共厕所",
        "address": "甘肃省平凉市崆峒区广成路与崆峒大道(中段)交叉口北60米",
        "tel": "",
        "category": "基础设施:公共设施:公共厕所",
        "type": 0,
        "location": {
            "lat": 35.544159,
            "lng": 106.684703
        },
        "ad_info": {
            "adcode": 620802,
            "province": "甘肃省",
            "city": "平凉市",
            "district": "崆峒区"
        }
    },
    {
        "id": "5245575684345103124",
        "title": "公共厕所",
        "address": "甘肃省平凉市崆峒区G312与来远路交叉口东南方向289米左右",
        "tel": "",
        "category": "基础设施:公共设施:公共厕所",
        "type": 0,
        "location": {
            "lat": 35.578598,
            "lng": 106.618
        },
        "ad_info": {
            "adcode": 620802,
            "province": "甘肃省",
            "city": "平凉市",
            "district": "崆峒区"
        }
    },
    {
        "id": "7622348489835740887",
        "title": "公共厕所",
        "address": "甘肃省平凉市崆峒区东三里塬路与嘉苑路交叉口正南方向193米左右",
        "tel": "",
        "category": "基础设施:公共设施:公共厕所",
        "type": 0,
        "location": {
            "lat": 35.535661,
            "lng": 106.66533
        },
        "ad_info": {
            "adcode": 620802,
            "province": "甘肃省",
            "city": "平凉市",
            "district": "崆峒区"
        }
    },
    {
        "id": "17685171931457778293",
        "title": "公共厕所",
        "address": "甘肃省平凉市静宁县北环东路与富康路交叉口西南方向254米左右",
        "tel": "",
        "category": "基础设施:公共设施:公共厕所",
        "type": 0,
        "location": {
            "lat": 35.524967,
            "lng": 105.741139
        },
        "ad_info": {
            "adcode": 620826,
            "province": "甘肃省",
            "city": "平凉市",
            "district": "静宁县"
        }
    },
    {
        "id": "6051186078213712559",
        "title": "公共厕所",
        "address": "甘肃省平凉市静宁县二天门巷与北环中路交叉口正北方向62米左右",
        "tel": "",
        "category": "基础设施:公共设施:公共厕所",
        "type": 0,
        "location": {
            "lat": 35.526212,
            "lng": 105.730733
        },
        "ad_info": {
            "adcode": 620826,
            "province": "甘肃省",
            "city": "平凉市",
            "district": "静宁县"
        }
    },
    {
        "id": "10197441895701391010",
        "title": "公共厕所",
        "address": "甘肃省平凉市崆峒区文化街平凉宾馆",
        "tel": "",
        "category": "基础设施:公共设施:公共厕所",
        "type": 0,
        "location": {
            "lat": 35.542967,
            "lng": 106.671393
        },
        "ad_info": {
            "adcode": 620802,
            "province": "甘肃省",
            "city": "平凉市",
            "district": "崆峒区"
        }
    },
    {
        "id": "15901668857147246551",
        "title": "公共厕所",
        "address": "甘肃省平凉市华亭市南新街与西巷街交叉口西南方向47米左右",
        "tel": "",
        "category": "基础设施:公共设施:公共厕所",
        "type": 0,
        "location": {
            "lat": 35.215093,
            "lng": 106.651312
        },
        "ad_info": {
            "adcode": 620881,
            "province": "甘肃省",
            "city": "平凉市",
            "district": "华亭市"
        }
    },
    {
        "id": "12924275836510208557",
        "title": "公共厕所",
        "address": "甘肃省平凉市泾川县G244与安定大桥交叉口东南方向61米左右",
        "tel": "",
        "category": "基础设施:公共设施:公共厕所",
        "type": 0,
        "location": {
            "lat": 35.339861,
            "lng": 107.369662
        },
        "ad_info": {
            "adcode": 620821,
            "province": "甘肃省",
            "city": "平凉市",
            "district": "泾川县"
        }
    },
    {
        "id": "266046412508800766",
        "title": "公共厕所",
        "address": "甘肃省平凉市崇信县304省道东50米",
        "tel": "",
        "category": "基础设施:公共设施:公共厕所",
        "type": 0,
        "location": {
            "lat": 35.281297,
            "lng": 106.875006
        },
        "ad_info": {
            "adcode": 620823,
            "province": "甘肃省",
            "city": "平凉市",
            "district": "崇信县"
        }
    },
    {
        "id": "2201457477694054874",
        "title": "公共厕所",
        "address": "甘肃省平凉市崆峒区S519与Y071交叉口正西方向113米",
        "tel": "",
        "category": "基础设施:公共设施:公共厕所",
        "type": 0,
        "location": {
            "lat": 35.449297,
            "lng": 106.564068
        },
        "ad_info": {
            "adcode": 620802,
            "province": "甘肃省",
            "city": "平凉市",
            "district": "崆峒区"
        }
    },
    {
        "id": "6573474422870702600",
        "title": "公共厕所",
        "address": "甘肃省平凉市灵台县东大街与东沟西路交叉口正南方向69米左右",
        "tel": "",
        "category": "基础设施:公共设施:公共厕所",
        "type": 0,
        "location": {
            "lat": 35.065218,
            "lng": 107.623732
        },
        "ad_info": {
            "adcode": 620822,
            "province": "甘肃省",
            "city": "平凉市",
            "district": "灵台县"
        }
    },
    {
        "id": "13367416220703118638",
        "title": "公共厕所",
        "address": "甘肃省平凉市泾川县农林南路与农林路交叉口西北方向83米左右",
        "tel": "",
        "category": "基础设施:公共设施:公共厕所",
        "type": 0,
        "location": {
            "lat": 35.332991,
            "lng": 107.366891
        },
        "ad_info": {
            "adcode": 620821,
            "province": "甘肃省",
            "city": "平凉市",
            "district": "泾川县"
        }
    },
    {
        "id": "5749712318526133911",
        "title": "公共厕所",
        "address": "甘肃省平凉市华亭市100乡道与神峪路交叉口西北40米",
        "tel": "",
        "category": "基础设施:公共设施:公共厕所",
        "type": 0,
        "location": {
            "lat": 35.200973,
            "lng": 106.612109
        },
        "ad_info": {
            "adcode": 620881,
            "province": "甘肃省",
            "city": "平凉市",
            "district": "华亭市"
        }
    },
    {
        "id": "9725538668235996438",
        "title": "公共厕所",
        "address": "甘肃省平凉市崆峒区平泾路中国石油加油站",
        "tel": "",
        "category": "基础设施:公共设施:公共厕所",
        "type": 0,
        "location": {
            "lat": 35.547041,
            "lng": 106.592886
        },
        "ad_info": {
            "adcode": 620802,
            "province": "甘肃省",
            "city": "平凉市",
            "district": "崆峒区"
        }
    },
    {
        "id": "6058774723172661549",
        "title": "公共厕所",
        "address": "甘肃省平凉市灵台县中学路与利民巷交叉口东北方向82米左右",
        "tel": "",
        "category": "基础设施:公共设施:公共厕所",
        "type": 0,
        "location": {
            "lat": 35.06776,
            "lng": 107.614795
        },
        "ad_info": {
            "adcode": 620822,
            "province": "甘肃省",
            "city": "平凉市",
            "district": "灵台县"
        }
    },
    {
        "id": "8923613629189097099",
        "title": "公共厕所",
        "address": "甘肃省平凉市静宁县S220与S304交叉口正西方向233米左右",
        "tel": "",
        "category": "基础设施:公共设施:公共厕所",
        "type": 0,
        "location": {
            "lat": 35.07299,
            "lng": 105.788374
        },
        "ad_info": {
            "adcode": 620826,
            "province": "甘肃省",
            "city": "平凉市",
            "district": "静宁县"
        }
    },
    {
        "id": "13804469198953437094",
        "title": "公共厕所",
        "address": "甘肃省平凉市崇信县新西街与青年路交叉口正东方向167米左右",
        "tel": "",
        "category": "基础设施:公共设施:公共厕所",
        "type": 0,
        "location": {
            "lat": 35.30268,
            "lng": 107.032943
        },
        "ad_info": {
            "adcode": 620823,
            "province": "甘肃省",
            "city": "平凉市",
            "district": "崇信县"
        }
    },
    {
        "id": "17207940318199457320",
        "title": "公共厕所",
        "address": "甘肃省平凉市华亭市广场北路与文化街交叉口正东方向71米左右",
        "tel": "",
        "category": "基础设施:公共设施:公共厕所",
        "type": 0,
        "location": {
            "lat": 35.212961,
            "lng": 106.644749
        },
        "ad_info": {
            "adcode": 620881,
            "province": "甘肃省",
            "city": "平凉市",
            "district": "华亭市"
        }
    },
    {
        "id": "10701294527470598376",
        "title": "公共厕所",
        "address": "甘肃省平凉市华亭市南巷街与南新街交叉口正东方向179米左右",
        "tel": "",
        "category": "基础设施:公共设施:公共厕所",
        "type": 0,
        "location": {
            "lat": 35.215827,
            "lng": 106.655434
        },
        "ad_info": {
            "adcode": 620881,
            "province": "甘肃省",
            "city": "平凉市",
            "district": "华亭市"
        }
    },
    {
        "id": "15156629944087486527",
        "title": "公共厕所",
        "address": "甘肃省平凉市华亭市G344与Y096交叉口正西方向692米左右",
        "tel": "",
        "category": "基础设施:公共设施:公共厕所",
        "type": 0,
        "location": {
            "lat": 35.20054,
            "lng": 106.568356
        },
        "ad_info": {
            "adcode": 620881,
            "province": "甘肃省",
            "city": "平凉市",
            "district": "华亭市"
        }
    },
    {
        "id": "4388865922993635241",
        "title": "公共厕所",
        "address": "甘肃省平凉市华亭市文化街与西大街交叉口正东方向50米左右",
        "tel": "",
        "category": "基础设施:公共设施:公共厕所",
        "type": 0,
        "location": {
            "lat": 35.213816,
            "lng": 106.64365
        },
        "ad_info": {
            "adcode": 620881,
            "province": "甘肃省",
            "city": "平凉市",
            "district": "华亭市"
        }
    },
    {
        "id": "8196531148497870680",
        "title": "公共厕所",
        "address": "甘肃省平凉市泾川县沪霍线王村镇政府北侧约255米",
        "tel": "",
        "category": "基础设施:公共设施:公共厕所",
        "type": 0,
        "location": {
            "lat": 35.372901,
            "lng": 107.20447
        },
        "ad_info": {
            "adcode": 620821,
            "province": "甘肃省",
            "city": "平凉市",
            "district": "泾川县"
        }
    },
    {
        "id": "14801497799143018088",
        "title": "公共厕所",
        "address": "甘肃省平凉市泾川县中山街与安定街交叉口正南方向87米左右",
        "tel": "",
        "category": "基础设施:公共设施:公共厕所",
        "type": 0,
        "location": {
            "lat": 35.330497,
            "lng": 107.363487
        },
        "ad_info": {
            "adcode": 620821,
            "province": "甘肃省",
            "city": "平凉市",
            "district": "泾川县"
        }
    },
    {
        "id": "12733823656137131892",
        "title": "公共厕所",
        "address": "甘肃省平凉市崆峒区八仙阁",
        "tel": "",
        "category": "基础设施:公共设施:公共厕所",
        "type": 0,
        "location": {
            "lat": 35.546738,
            "lng": 106.54044
        },
        "ad_info": {
            "adcode": 620802,
            "province": "甘肃省",
            "city": "平凉市",
            "district": "崆峒区"
        }
    },
    {
        "id": "11136577957315484110",
        "title": "公共厕所",
        "address": "甘肃省平凉市静宁县青兰高速静宁埠服务区",
        "tel": "",
        "category": "基础设施:公共设施:公共厕所",
        "type": 0,
        "location": {
            "lat": 35.540456,
            "lng": 105.739647
        },
        "ad_info": {
            "adcode": 620826,
            "province": "甘肃省",
            "city": "平凉市",
            "district": "静宁县"
        }
    },
    {
        "id": "8427384518922419960",
        "title": "公共厕所",
        "address": "甘肃省平凉市华亭市G344与S304交叉口东北方向74米左右",
        "tel": "",
        "category": "基础设施:公共设施:公共厕所",
        "type": 0,
        "location": {
            "lat": 35.210169,
            "lng": 106.788036
        },
        "ad_info": {
            "adcode": 620881,
            "province": "甘肃省",
            "city": "平凉市",
            "district": "华亭市"
        }
    },
    {
        "id": "15298300932568240265",
        "title": "公共厕所",
        "address": "甘肃省平凉市崇信县双拥路与滨河西路交叉口东南方向41米左右",
        "tel": "",
        "category": "基础设施:公共设施:公共厕所",
        "type": 0,
        "location": {
            "lat": 35.305346,
            "lng": 107.020841
        },
        "ad_info": {
            "adcode": 620823,
            "province": "甘肃省",
            "city": "平凉市",
            "district": "崇信县"
        }
    },
    {
        "id": "7547060441938854783",
        "title": "公共厕所",
        "address": "甘肃省平凉市崆峒区S203与崆峒大道交叉口西南方向1605米左右",
        "tel": "",
        "category": "基础设施:公共设施:公共厕所",
        "type": 0,
        "location": {
            "lat": 35.456629,
            "lng": 106.862989
        },
        "ad_info": {
            "adcode": 620802,
            "province": "甘肃省",
            "city": "平凉市",
            "district": "崆峒区"
        }
    },
    {
        "id": "13795011365451963798",
        "title": "公共厕所",
        "address": "甘肃省平凉市灵台县S320与新兴路交叉口正北方向55米左右",
        "tel": "",
        "category": "基础设施:公共设施:公共厕所",
        "type": 0,
        "location": {
            "lat": 35.069131,
            "lng": 107.610371
        },
        "ad_info": {
            "adcode": 620822,
            "province": "甘肃省",
            "city": "平凉市",
            "district": "灵台县"
        }
    },
    {
        "id": "9615955950254969774",
        "title": "公共厕所",
        "address": "甘肃省平凉市泾川县G244与Y127交叉口正南方向83米左右",
        "tel": "",
        "category": "基础设施:公共设施:公共厕所",
        "type": 0,
        "location": {
            "lat": 35.335648,
            "lng": 107.739531
        },
        "ad_info": {
            "adcode": 620821,
            "province": "甘肃省",
            "city": "平凉市",
            "district": "泾川县"
        }
    },
    {
        "id": "14567307276560516196",
        "title": "公共厕所",
        "address": "甘肃省平凉市华亭市S203与东一路中段交叉口正北方向180米左右",
        "tel": "",
        "category": "基础设施:公共设施:公共厕所",
        "type": 0,
        "location": {
            "lat": 35.265349,
            "lng": 106.80887
        },
        "ad_info": {
            "adcode": 620881,
            "province": "甘肃省",
            "city": "平凉市",
            "district": "华亭市"
        }
    },
    {
        "id": "3224693960030600073",
        "title": "公共厕所",
        "address": "甘肃省平凉市崇信县S203与滨河西路交叉口正北方向543米左右",
        "tel": "",
        "category": "基础设施:公共设施:公共厕所",
        "type": 0,
        "location": {
            "lat": 35.303443,
            "lng": 106.98195
        },
        "ad_info": {
            "adcode": 620823,
            "province": "甘肃省",
            "city": "平凉市",
            "district": "崇信县"
        }
    },
    {
        "id": "4644455700547175323",
        "title": "公共厕所",
        "address": "甘肃省平凉市华亭市G344与河南街交叉口东南方向66米左右",
        "tel": "",
        "category": "基础设施:公共设施:公共厕所",
        "type": 0,
        "location": {
            "lat": 35.21236,
            "lng": 106.659848
        },
        "ad_info": {
            "adcode": 620881,
            "province": "甘肃省",
            "city": "平凉市",
            "district": "华亭市"
        }
    },
    {
        "id": "11197607418365292515",
        "title": "公共厕所",
        "address": "甘肃省平凉市灵台县广场街与溪河大道交叉口正西方向170米左右",
        "tel": "",
        "category": "基础设施:公共设施:公共厕所",
        "type": 0,
        "location": {
            "lat": 35.063542,
            "lng": 107.617274
        },
        "ad_info": {
            "adcode": 620822,
            "province": "甘肃省",
            "city": "平凉市",
            "district": "灵台县"
        }
    },
    {
        "id": "16304721697222667224",
        "title": "卫生间",
        "address": "甘肃省平凉市泾川县G312与Y078交叉口正东方向1286米左右",
        "tel": "",
        "category": "基础设施:公共设施:公共厕所",
        "type": 0,
        "location": {
            "lat": 35.304737,
            "lng": 107.288808
        },
        "ad_info": {
            "adcode": 620821,
            "province": "甘肃省",
            "city": "平凉市",
            "district": "泾川县"
        }
    },
    {
        "id": "7227423116255381928",
        "title": "男洗手间",
        "address": "甘肃省平凉市崆峒区中山街辅路与船舱街辅路交叉口正北方向57米左右",
        "tel": "",
        "category": "基础设施:公共设施:公共厕所",
        "type": 0,
        "location": {
            "lat": 35.537254,
            "lng": 106.691056
        },
        "ad_info": {
            "adcode": 620802,
            "province": "甘肃省",
            "city": "平凉市",
            "district": "崆峒区"
        }
    },
    {
        "id": "7495924503644926232",
        "title": "公共厕所",
        "address": "甘肃省平凉市庄浪县北滨河路与文昌街交叉口正南方向75米左右",
        "tel": "",
        "category": "基础设施:公共设施:公共厕所",
        "type": 0,
        "location": {
            "lat": 35.215801,
            "lng": 106.051165
        },
        "ad_info": {
            "adcode": 620825,
            "province": "甘肃省",
            "city": "平凉市",
            "district": "庄浪县"
        }
    },
    {
        "id": "6567854454219300393",
        "title": "公共厕所",
        "address": "甘肃省平凉市庄浪县阳川中心小学东侧70米",
        "tel": "",
        "category": "基础设施:公共设施:公共厕所",
        "type": 0,
        "location": {
            "lat": 35.154562,
            "lng": 105.815569
        },
        "ad_info": {
            "adcode": 620825,
            "province": "甘肃省",
            "city": "平凉市",
            "district": "庄浪县"
        }
    },
    {
        "id": "7401693384774945232",
        "title": "公共厕所",
        "address": "甘肃省平凉市庄浪县文化巷与新昌街交叉口东北方向25米左右",
        "tel": "",
        "category": "基础设施:公共设施:公共厕所",
        "type": 0,
        "location": {
            "lat": 35.201851,
            "lng": 106.045066
        },
        "ad_info": {
            "adcode": 620825,
            "province": "甘肃省",
            "city": "平凉市",
            "district": "庄浪县"
        }
    },
    {
        "id": "3006113039324692420",
        "title": "公共厕所",
        "address": "甘肃省平凉市庄浪县北滨河路与博爱巷交叉口西南方向86米左右",
        "tel": "",
        "category": "基础设施:公共设施:公共厕所",
        "type": 0,
        "location": {
            "lat": 35.206537,
            "lng": 106.043647
        },
        "ad_info": {
            "adcode": 620825,
            "province": "甘肃省",
            "city": "平凉市",
            "district": "庄浪县"
        }
    },
    {
        "id": "5182714189098806094",
        "title": "共公共厕所",
        "address": "甘肃省平凉市崆峒区泾河大道1号正东方向140米",
        "tel": "",
        "category": "基础设施:公共设施:公共厕所",
        "type": 0,
        "location": {
            "lat": 35.558764,
            "lng": 106.650652
        },
        "ad_info": {
            "adcode": 620802,
            "province": "甘肃省",
            "city": "平凉市",
            "district": "崆峒区"
        }
    },
    {
        "id": "15022855102630573913",
        "title": "宝塔公园公共厕所",
        "address": "甘肃省平凉市崆峒区双拥路宝塔公园(西侧)",
        "tel": "",
        "category": "基础设施:公共设施:公共厕所",
        "type": 0,
        "location": {
            "lat": 35.52994,
            "lng": 106.704703
        },
        "ad_info": {
            "adcode": 620802,
            "province": "甘肃省",
            "city": "平凉市",
            "district": "崆峒区"
        }
    },
    {
        "id": "4835878706987783573",
        "title": "公共厕所",
        "address": "甘肃省平凉市庄浪县陇鑫大酒店东南侧60米",
        "tel": "",
        "category": "基础设施:公共设施:公共厕所",
        "type": 0,
        "location": {
            "lat": 35.18676,
            "lng": 106.032361
        },
        "ad_info": {
            "adcode": 620825,
            "province": "甘肃省",
            "city": "平凉市",
            "district": "庄浪县"
        }
    },
    {
        "id": "8063923763004910566",
        "title": "公共厕所",
        "address": "甘肃省平凉市华亭市G344与安口隧道交叉口西北方向1291米左右",
        "tel": "",
        "category": "基础设施:公共设施:公共厕所",
        "type": 0,
        "location": {
            "lat": 35.203686,
            "lng": 106.774398
        },
        "ad_info": {
            "adcode": 620881,
            "province": "甘肃省",
            "city": "平凉市",
            "district": "华亭市"
        }
    },
    {
        "id": "1449030271025779670",
        "title": "泾川温泉宾馆洗手间",
        "address": "甘肃省平凉市泾川县Y079与蒋家大桥交叉口正东方向734米左右",
        "tel": "",
        "category": "基础设施:公共设施:公共厕所",
        "type": 0,
        "location": {
            "lat": 35.352346,
            "lng": 107.436023
        },
        "ad_info": {
            "adcode": 620821,
            "province": "甘肃省",
            "city": "平凉市",
            "district": "泾川县"
        }
    },
    {
        "id": "18013588243726211585",
        "title": "公共厕所",
        "address": "甘肃省平凉市庄浪县304省道北50米",
        "tel": "",
        "category": "基础设施:公共设施:公共厕所",
        "type": 0,
        "location": {
            "lat": 35.089667,
            "lng": 105.880164
        },
        "ad_info": {
            "adcode": 620825,
            "province": "甘肃省",
            "city": "平凉市",
            "district": "庄浪县"
        }
    },
    {
        "id": "17117260961639401173",
        "title": "公共厕所",
        "address": "甘肃省平凉市华亭市皇甫路与西大街交叉口正南方向57米左右",
        "tel": "",
        "category": "基础设施:公共设施:公共厕所",
        "type": 0,
        "location": {
            "lat": 35.210855,
            "lng": 106.635703
        },
        "ad_info": {
            "adcode": 620881,
            "province": "甘肃省",
            "city": "平凉市",
            "district": "华亭市"
        }
    },
    {
        "id": "11022629299403456471",
        "title": "公共厕所",
        "address": "甘肃省平凉市崆峒区G312与泾河北路交叉口正东方向130米左右",
        "tel": "",
        "category": "基础设施:公共设施:公共厕所",
        "type": 0,
        "location": {
            "lat": 35.485271,
            "lng": 106.881901
        },
        "ad_info": {
            "adcode": 620802,
            "province": "甘肃省",
            "city": "平凉市",
            "district": "崆峒区"
        }
    },
    {
        "id": "8273899738770895008",
        "title": "威戎服务区公共厕所",
        "address": "甘肃省平凉市静宁县S221与Y129交叉口正东方向1625米左右",
        "tel": "",
        "category": "基础设施:公共设施:公共厕所",
        "type": 0,
        "location": {
            "lat": 35.346985,
            "lng": 105.796269
        },
        "ad_info": {
            "adcode": 620826,
            "province": "甘肃省",
            "city": "平凉市",
            "district": "静宁县"
        }
    },
    {
        "id": "12063730609827682071",
        "title": "泾川服务区公共厕所",
        "address": "甘肃省平凉市泾川县G244与何家坪大桥交叉口正南方向212米左右",
        "tel": "",
        "category": "基础设施:公共设施:公共厕所",
        "type": 0,
        "location": {
            "lat": 35.35643,
            "lng": 107.449169
        },
        "ad_info": {
            "adcode": 620821,
            "province": "甘肃省",
            "city": "平凉市",
            "district": "泾川县"
        }
    },
    {
        "id": "2841516327905713156",
        "title": "海寨沟服务区公共厕所",
        "address": "甘肃省平凉市崆峒区G85银昆高速与海寨沟服务区交叉口东北320米",
        "tel": "",
        "category": "基础设施:公共设施:公共厕所",
        "type": 0,
        "location": {
            "lat": 35.408412,
            "lng": 106.802428
        },
        "ad_info": {
            "adcode": 620802,
            "province": "甘肃省",
            "city": "平凉市",
            "district": "崆峒区"
        }
    },
    {
        "id": "9296590117253204616",
        "title": "安口服务区公共厕所",
        "address": "甘肃省平凉市华亭市天平高速与平绵高速交叉口正东方向245米左右",
        "tel": "",
        "category": "基础设施:公共设施:公共厕所",
        "type": 0,
        "location": {
            "lat": 35.159235,
            "lng": 106.651449
        },
        "ad_info": {
            "adcode": 620881,
            "province": "甘肃省",
            "city": "平凉市",
            "district": "华亭市"
        }
    },
    {
        "id": "12895801086322843519",
        "title": "梁原服务区公共厕所",
        "address": "甘肃省平凉市灵台县S28灵华高速与梁原服务区交叉口西北400米",
        "tel": "",
        "category": "基础设施:公共设施:公共厕所",
        "type": 0,
        "location": {
            "lat": 35.197529,
            "lng": 107.105167
        },
        "ad_info": {
            "adcode": 620822,
            "province": "甘肃省",
            "city": "平凉市",
            "district": "灵台县"
        }
    },
    {
        "id": "7771385500102272882",
        "title": "公共厕所",
        "address": "甘肃省平凉市灵台县东环路",
        "tel": "",
        "category": "基础设施:公共设施:公共厕所",
        "type": 0,
        "location": {
            "lat": 35.066124,
            "lng": 107.6328
        },
        "ad_info": {
            "adcode": 620822,
            "province": "甘肃省",
            "city": "平凉市",
            "district": "灵台县"
        }
    },
    {
        "id": "2336923064853946821",
        "title": "水上公园公共厕所",
        "address": "甘肃省平凉市庄浪县公园街与南滨河路交叉口西南方向33米左右",
        "tel": "",
        "category": "基础设施:公共设施:公共厕所",
        "type": 0,
        "location": {
            "lat": 35.194572,
            "lng": 106.031547
        },
        "ad_info": {
            "adcode": 620825,
            "province": "甘肃省",
            "city": "平凉市",
            "district": "庄浪县"
        }
    },
    {
        "id": "8802502902494764304",
        "title": "平凉服务区公共厕所",
        "address": "甘肃省平凉市崆峒区Y066与华山路交叉口正南方向837米左右",
        "tel": "",
        "category": "基础设施:公共设施:公共厕所",
        "type": 0,
        "location": {
            "lat": 35.497605,
            "lng": 106.833358
        },
        "ad_info": {
            "adcode": 620802,
            "province": "甘肃省",
            "city": "平凉市",
            "district": "崆峒区"
        }
    },
    {
        "id": "12364716049021774257",
        "title": "康家沟旅游景点公共卫生间",
        "address": "甘肃省平凉市灵台县G244",
        "tel": "",
        "category": "基础设施:公共设施:公共厕所",
        "type": 0,
        "location": {
            "lat": 35.031007,
            "lng": 107.610004
        },
        "ad_info": {
            "adcode": 620822,
            "province": "甘肃省",
            "city": "平凉市",
            "district": "灵台县"
        }
    },
    {
        "id": "13276247402858088404",
        "title": "静宁埠服务区公共厕所",
        "address": "甘肃省平凉市静宁县青兰高速静宁埠服务区",
        "tel": "",
        "category": "基础设施:公共设施:公共厕所",
        "type": 0,
        "location": {
            "lat": 35.538627,
            "lng": 105.738292
        },
        "ad_info": {
            "adcode": 620826,
            "province": "甘肃省",
            "city": "平凉市",
            "district": "静宁县"
        }
    },
    {
        "id": "4282705747424982513",
        "title": "无障碍公共厕所",
        "address": "甘肃省平凉市崆峒区新民路与柳树街交叉口西北方向89米左右",
        "tel": "",
        "category": "基础设施:公共设施:公共厕所",
        "type": 0,
        "location": {
            "lat": 35.539156,
            "lng": 106.689918
        },
        "ad_info": {
            "adcode": 620802,
            "province": "甘肃省",
            "city": "平凉市",
            "district": "崆峒区"
        }
    },
    {
        "id": "11826782632747086649",
        "title": "万泉服务区公共厕所",
        "address": "甘肃省平凉市庄浪县中国石油公航旅集团万泉服务区加油站西南侧220米",
        "tel": "",
        "category": "基础设施:公共设施:公共厕所",
        "type": 0,
        "location": {
            "lat": 35.08948,
            "lng": 105.847052
        },
        "ad_info": {
            "adcode": 620825,
            "province": "甘肃省",
            "city": "平凉市",
            "district": "庄浪县"
        }
    },
    {
        "id": "12851168691487911938",
        "title": "旅游厕所",
        "address": "甘肃省平凉市庄浪县文化巷与新昌街交叉口东南方向31米左右",
        "tel": "",
        "category": "基础设施:公共设施:公共厕所",
        "type": 0,
        "location": {
            "lat": 35.201496,
            "lng": 106.045201
        },
        "ad_info": {
            "adcode": 620825,
            "province": "甘肃省",
            "city": "平凉市",
            "district": "庄浪县"
        }
    },
    {
        "id": "10463605158924942485",
        "title": "公共厕所",
        "address": "甘肃省平凉市崆峒区桃园路与泾河南路交叉口正南方向113米左右",
        "tel": "",
        "category": "基础设施:公共设施:公共厕所",
        "type": 0,
        "location": {
            "lat": 35.5559,
            "lng": 106.672633
        },
        "ad_info": {
            "adcode": 620802,
            "province": "甘肃省",
            "city": "平凉市",
            "district": "崆峒区"
        }
    },
    {
        "id": "11981782381693619456",
        "title": "韩店服务区公共厕所",
        "address": "甘肃省平凉市庄浪县中国石油公航旅集团韩店服务区加油站东南侧160米",
        "tel": "",
        "category": "基础设施:公共设施:公共厕所",
        "type": 0,
        "location": {
            "lat": 35.216541,
            "lng": 106.169825
        },
        "ad_info": {
            "adcode": 620825,
            "province": "甘肃省",
            "city": "平凉市",
            "district": "庄浪县"
        }
    },
    {
        "id": "691336631732030904",
        "title": "公共厕所",
        "address": "甘肃省平凉市崆峒区农科路与泾滩路交叉口正东方向76米左右",
        "tel": "",
        "category": "基础设施:公共设施:公共厕所",
        "type": 0,
        "location": {
            "lat": 35.546202,
            "lng": 106.683711
        },
        "ad_info": {
            "adcode": 620802,
            "province": "甘肃省",
            "city": "平凉市",
            "district": "崆峒区"
        }
    },
    {
        "id": "14471137757342152587",
        "title": "公共厕所",
        "address": "甘肃省平凉市崆峒区广成路辅路与泾河南路交叉口正西方向91米左右",
        "tel": "",
        "category": "基础设施:公共设施:公共厕所",
        "type": 0,
        "location": {
            "lat": 35.553232,
            "lng": 106.689847
        },
        "ad_info": {
            "adcode": 620802,
            "province": "甘肃省",
            "city": "平凉市",
            "district": "崆峒区"
        }
    },
    {
        "id": "915263534135542440",
        "title": "公共厕所",
        "address": "甘肃省平凉市灵台县S320与Y083交叉口西北方向1655米左右",
        "tel": "",
        "category": "基础设施:公共设施:公共厕所",
        "type": 0,
        "location": {
            "lat": 35.112384,
            "lng": 107.107497
        },
        "ad_info": {
            "adcode": 620822,
            "province": "甘肃省",
            "city": "平凉市",
            "district": "灵台县"
        }
    },
    {
        "id": "272500684686525925",
        "title": "公共厕所",
        "address": "甘肃省平凉市灵台县Y081与城南路交叉口西北方向156米左右",
        "tel": "",
        "category": "基础设施:公共设施:公共厕所",
        "type": 0,
        "location": {
            "lat": 35.065725,
            "lng": 107.597575
        },
        "ad_info": {
            "adcode": 620822,
            "province": "甘肃省",
            "city": "平凉市",
            "district": "灵台县"
        }
    },
    {
        "id": "6820330442729253608",
        "title": "崆峒镇蒋家沟村人居环境改厕项目",
        "address": "甘肃省平凉市崆峒区平泾路与纵三路交叉口正西方向350米左右",
        "tel": "",
        "category": "基础设施:公共设施:公共厕所",
        "type": 0,
        "location": {
            "lat": 35.54703,
            "lng": 106.587625
        },
        "ad_info": {
            "adcode": 620802,
            "province": "甘肃省",
            "city": "平凉市",
            "district": "崆峒区"
        }
    },
    {
        "id": "9675631619609820218",
        "title": "公共厕所",
        "address": "甘肃省平凉市灵台县202省道与043县道交叉口东北420米",
        "tel": "",
        "category": "基础设施:公共设施:公共厕所",
        "type": 0,
        "location": {
            "lat": 35.144149,
            "lng": 107.41423
        },
        "ad_info": {
            "adcode": 620822,
            "province": "甘肃省",
            "city": "平凉市",
            "district": "灵台县"
        }
    },
    {
        "id": "9585122882031065392",
        "title": "公共厕所",
        "address": "甘肃省平凉市灵台县甘肃灵台农村商业银行对面",
        "tel": "",
        "category": "基础设施:公共设施:公共厕所",
        "type": 0,
        "location": {
            "lat": 35.089437,
            "lng": 107.221872
        },
        "ad_info": {
            "adcode": 620822,
            "province": "甘肃省",
            "city": "平凉市",
            "district": "灵台县"
        }
    },
    {
        "id": "1827735062885636745",
        "title": "公共厕所",
        "address": "甘肃省平凉市崆峒区农科路与柳湖路(西段)交叉口西南120米",
        "tel": "",
        "category": "基础设施:公共设施:公共厕所",
        "type": 0,
        "location": {
            "lat": 35.54767,
            "lng": 106.684037
        },
        "ad_info": {
            "adcode": 620802,
            "province": "甘肃省",
            "city": "平凉市",
            "district": "崆峒区"
        }
    },
    {
        "id": "16917634932029148701",
        "title": "公共厕所",
        "address": "甘肃省平凉市崆峒区新民北路与泾河南路交叉口西南方向101米左右",
        "tel": "",
        "category": "基础设施:公共设施:公共厕所",
        "type": 0,
        "location": {
            "lat": 35.549729,
            "lng": 106.696581
        },
        "ad_info": {
            "adcode": 620802,
            "province": "甘肃省",
            "city": "平凉市",
            "district": "崆峒区"
        }
    },
    {
        "id": "16119908780050907692",
        "title": "海寨沟服务区公共厕所",
        "address": "甘肃省平凉市崆峒区海寨沟服务区西北侧",
        "tel": "",
        "category": "基础设施:公共设施:公共厕所",
        "type": 0,
        "location": {
            "lat": 35.408759,
            "lng": 106.807047
        },
        "ad_info": {
            "adcode": 620802,
            "province": "甘肃省",
            "city": "平凉市",
            "district": "崆峒区"
        }
    },
    {
        "id": "2908191312733983826",
        "title": "公共厕所",
        "address": "甘肃省平凉市静宁县G312与工兴路交叉口正南方向86米左右",
        "tel": "",
        "category": "基础设施:公共设施:公共厕所",
        "type": 0,
        "location": {
            "lat": 35.545575,
            "lng": 105.713691
        },
        "ad_info": {
            "adcode": 620826,
            "province": "甘肃省",
            "city": "平凉市",
            "district": "静宁县"
        }
    },
    {
        "id": "11198214869685418347",
        "title": "公共卫生间",
        "address": "甘肃省平凉市崆峒区保丰路与崆峒大道中路交叉口正东方向244米左右",
        "tel": "",
        "category": "基础设施:公共设施:公共厕所",
        "type": 0,
        "location": {
            "lat": 35.531077,
            "lng": 106.71143
        },
        "ad_info": {
            "adcode": 620802,
            "province": "甘肃省",
            "city": "平凉市",
            "district": "崆峒区"
        }
    },
    {
        "id": "9049589580917241062",
        "title": "安口服务区公共厕所",
        "address": "甘肃省平凉市华亭市天平高速与平绵高速交叉口东北方向440米左右",
        "tel": "",
        "category": "基础设施:公共设施:公共厕所",
        "type": 0,
        "location": {
            "lat": 35.1614,
            "lng": 106.652639
        },
        "ad_info": {
            "adcode": 620881,
            "province": "甘肃省",
            "city": "平凉市",
            "district": "华亭市"
        }
    },
    {
        "id": "17223725440255216532",
        "title": "公共厕所",
        "address": "甘肃省平凉市崆峒区嘉苑路阳光花园",
        "tel": "",
        "category": "基础设施:公共设施:公共厕所",
        "type": 0,
        "location": {
            "lat": 35.536904,
            "lng": 106.66788
        },
        "ad_info": {
            "adcode": 620802,
            "province": "甘肃省",
            "city": "平凉市",
            "district": "崆峒区"
        }
    },
    {
        "id": "9042490334764733",
        "title": "安口服务区-公共厕所",
        "address": "甘肃省平凉市华亭市天平高速与平绵高速交叉口正东方向232米左右",
        "tel": "",
        "category": "基础设施:公共设施:公共厕所",
        "type": 0,
        "location": {
            "lat": 35.158973,
            "lng": 106.651324
        },
        "ad_info": {
            "adcode": 620881,
            "province": "甘肃省",
            "city": "平凉市",
            "district": "华亭市"
        }
    },
    {
        "id": "7084477398085910429",
        "title": "公共厕所",
        "address": "甘肃省平凉市崆峒区双桥路与柳湖路(中段)交叉口正北方向90米左右",
        "tel": "",
        "category": "基础设施:公共设施:公共厕所",
        "type": 0,
        "location": {
            "lat": 35.533663,
            "lng": 106.718273
        },
        "ad_info": {
            "adcode": 620802,
            "province": "甘肃省",
            "city": "平凉市",
            "district": "崆峒区"
        }
    },
    {
        "id": "660550782480369189",
        "title": "公共厕所",
        "address": "甘肃省平凉市庄浪县",
        "tel": "",
        "category": "基础设施:公共设施:公共厕所",
        "type": 0,
        "location": {
            "lat": 35.24442,
            "lng": 106.275428
        },
        "ad_info": {
            "adcode": 620825,
            "province": "甘肃省",
            "city": "平凉市",
            "district": "庄浪县"
        }
    },
    {
        "id": "6391092732672675367",
        "title": "公共厕所",
        "address": "甘肃省平凉市崆峒区雨林村卫生所北侧140米",
        "tel": "",
        "category": "基础设施:公共设施:公共厕所",
        "type": 0,
        "location": {
            "lat": 35.432477,
            "lng": 106.857032
        },
        "ad_info": {
            "adcode": 620802,
            "province": "甘肃省",
            "city": "平凉市",
            "district": "崆峒区"
        }
    },
    {
        "id": "7168551910848905173",
        "title": "神峪停车区公共厕所",
        "address": "甘肃省平凉市华亭市神峪停车区西北侧",
        "tel": "",
        "category": "基础设施:公共设施:公共厕所",
        "type": 0,
        "location": {
            "lat": 35.11797,
            "lng": 106.751387
        },
        "ad_info": {
            "adcode": 620881,
            "province": "甘肃省",
            "city": "平凉市",
            "district": "华亭市"
        }
    },
    {
        "id": "17595072074849254151",
        "title": "韩店服务区公共厕所",
        "address": "甘肃省平凉市庄浪县",
        "tel": "",
        "category": "基础设施:公共设施:公共厕所",
        "type": 0,
        "location": {
            "lat": 35.218474,
            "lng": 106.170672
        },
        "ad_info": {
            "adcode": 620825,
            "province": "甘肃省",
            "city": "平凉市",
            "district": "庄浪县"
        }
    },
    {
        "id": "14855906913512583127",
        "title": "凤口停车区公共厕所",
        "address": "甘肃省平凉市泾川县凤口互通与福银高速交叉口东北方向1751米左右",
        "tel": "",
        "category": "基础设施:公共设施:公共厕所",
        "type": 0,
        "location": {
            "lat": 35.27859,
            "lng": 107.707998
        },
        "ad_info": {
            "adcode": 620821,
            "province": "甘肃省",
            "city": "平凉市",
            "district": "泾川县"
        }
    },
    {
        "id": "17309933390566238057",
        "title": "公共厕所",
        "address": "甘肃省平凉市华亭市九龙南路与汭南大道交叉口正北方向92米左右",
        "tel": "",
        "category": "基础设施:公共设施:公共厕所",
        "type": 0,
        "location": {
            "lat": 35.200542,
            "lng": 106.606987
        },
        "ad_info": {
            "adcode": 620881,
            "province": "甘肃省",
            "city": "平凉市",
            "district": "华亭市"
        }
    },
    {
        "id": "15427858774553356050",
        "title": "公共厕所",
        "address": "甘肃省平凉市庄浪县南河北路与梯田广场西路交叉口东南方向203米左右",
        "tel": "",
        "category": "基础设施:公共设施:公共厕所",
        "type": 0,
        "location": {
            "lat": 35.193587,
            "lng": 106.054611
        },
        "ad_info": {
            "adcode": 620825,
            "province": "甘肃省",
            "city": "平凉市",
            "district": "庄浪县"
        }
    },
    {
        "id": "496327022868132757",
        "title": "公共厕所",
        "address": "甘肃省平凉市静宁县东环路与北二环中路交叉口正南方向56米左右",
        "tel": "",
        "category": "基础设施:公共设施:公共厕所",
        "type": 0,
        "location": {
            "lat": 35.528375,
            "lng": 105.735871
        },
        "ad_info": {
            "adcode": 620826,
            "province": "甘肃省",
            "city": "平凉市",
            "district": "静宁县"
        }
    },
    {
        "id": "3183522633832885440",
        "title": "平凉服务区公共厕所",
        "address": "甘肃省平凉市崆峒区Y066与华山路交叉口正南方向1059米左右",
        "tel": "",
        "category": "基础设施:公共设施:公共厕所",
        "type": 0,
        "location": {
            "lat": 35.495554,
            "lng": 106.833166
        },
        "ad_info": {
            "adcode": 620802,
            "province": "甘肃省",
            "city": "平凉市",
            "district": "崆峒区"
        }
    },
    {
        "id": "8865874759598441767",
        "title": "公共厕所",
        "address": "甘肃省平凉市崆峒区北大路与解放路交叉口西北方向84米左右",
        "tel": "",
        "category": "基础设施:公共设施:公共厕所",
        "type": 0,
        "location": {
            "lat": 35.550067,
            "lng": 106.706425
        },
        "ad_info": {
            "adcode": 620802,
            "province": "甘肃省",
            "city": "平凉市",
            "district": "崆峒区"
        }
    },
    {
        "id": "15031231154808546071",
        "title": "公共厕所",
        "address": "甘肃省平凉市华亭市文昌路步行街与西大街交叉口正南方向57米左右",
        "tel": "",
        "category": "基础设施:公共设施:公共厕所",
        "type": 0,
        "location": {
            "lat": 35.211991,
            "lng": 106.639269
        },
        "ad_info": {
            "adcode": 620881,
            "province": "甘肃省",
            "city": "平凉市",
            "district": "华亭市"
        }
    },
    {
        "id": "5063801287912166345",
        "title": "凤口停车区公共厕所",
        "address": "甘肃省平凉市泾川县凤口停车区宁夏七营清真餐厅西南侧",
        "tel": "",
        "category": "基础设施:公共设施:公共厕所",
        "type": 0,
        "location": {
            "lat": 35.279055,
            "lng": 107.706979
        },
        "ad_info": {
            "adcode": 620821,
            "province": "甘肃省",
            "city": "平凉市",
            "district": "泾川县"
        }
    },
    {
        "id": "4247862550562493505",
        "title": "公共厕所",
        "address": "甘肃省平凉市灵台县S320与新兴路交叉口东南方向117米左右",
        "tel": "",
        "category": "基础设施:公共设施:公共厕所",
        "type": 0,
        "location": {
            "lat": 35.067943,
            "lng": 107.611351
        },
        "ad_info": {
            "adcode": 620822,
            "province": "甘肃省",
            "city": "平凉市",
            "district": "灵台县"
        }
    },
    {
        "id": "11509197612894851501",
        "title": "紫荆山-公共厕所",
        "address": "甘肃省平凉市庄浪县中宁南街与文化巷交叉口正东方向73米左右",
        "tel": "",
        "category": "基础设施:公共设施:公共厕所",
        "type": 0,
        "location": {
            "lat": 35.20603,
            "lng": 106.050527
        },
        "ad_info": {
            "adcode": 620825,
            "province": "甘肃省",
            "city": "平凉市",
            "district": "庄浪县"
        }
    },
    {
        "id": "5546366163759982941",
        "title": "公共厕所",
        "address": "甘肃省平凉市崆峒区平泾路与轩辕路交叉口正北方向333米左右",
        "tel": "",
        "category": "基础设施:公共设施:公共厕所",
        "type": 0,
        "location": {
            "lat": 35.549324,
            "lng": 106.597709
        },
        "ad_info": {
            "adcode": 620802,
            "province": "甘肃省",
            "city": "平凉市",
            "district": "崆峒区"
        }
    },
    {
        "id": "16379036970349220272",
        "title": "公共厕所",
        "address": "甘肃省平凉市庄浪县G566与S220交叉口正南方向951米左右",
        "tel": "",
        "category": "基础设施:公共设施:公共厕所",
        "type": 0,
        "location": {
            "lat": 35.320814,
            "lng": 105.958465
        },
        "ad_info": {
            "adcode": 620825,
            "province": "甘肃省",
            "city": "平凉市",
            "district": "庄浪县"
        }
    },
    {
        "id": "10370744461448632424",
        "title": "公共厕所",
        "address": "甘肃省平凉市庄浪县南滨河路与迎宾街交叉口东北方向147米左右",
        "tel": "",
        "category": "基础设施:公共设施:公共厕所",
        "type": 0,
        "location": {
            "lat": 35.199999,
            "lng": 106.036286
        },
        "ad_info": {
            "adcode": 620825,
            "province": "甘肃省",
            "city": "平凉市",
            "district": "庄浪县"
        }
    },
    {
        "id": "9120911645954459236",
        "title": "公共厕所",
        "address": "甘肃省平凉市庄浪县东大街与新昌街交叉口正东方向69米左右",
        "tel": "",
        "category": "基础设施:公共设施:公共厕所",
        "type": 0,
        "location": {
            "lat": 35.203419,
            "lng": 106.044046
        },
        "ad_info": {
            "adcode": 620825,
            "province": "甘肃省",
            "city": "平凉市",
            "district": "庄浪县"
        }
    },
    {
        "id": "7665623326138877472",
        "title": "公共厕所",
        "address": "甘肃省平凉市灵台县X067与泾灵路交叉口西北方向35米左右",
        "tel": "",
        "category": "基础设施:公共设施:公共厕所",
        "type": 0,
        "location": {
            "lat": 35.141231,
            "lng": 107.412368
        },
        "ad_info": {
            "adcode": 620822,
            "province": "甘肃省",
            "city": "平凉市",
            "district": "灵台县"
        }
    },
    {
        "id": "12056394994921837307",
        "title": "公共厕所",
        "address": "甘肃省平凉市庄浪县一中巷与车站路交叉口正西方向38米左右",
        "tel": "",
        "category": "基础设施:公共设施:公共厕所",
        "type": 0,
        "location": {
            "lat": 35.195359,
            "lng": 106.038428
        },
        "ad_info": {
            "adcode": 620825,
            "province": "甘肃省",
            "city": "平凉市",
            "district": "庄浪县"
        }
    },
    {
        "id": "8828219215006318437",
        "title": "公共厕所",
        "address": "甘肃省平凉市灵台县东大街与皇甫街交叉口东南方向60米左右",
        "tel": "",
        "category": "基础设施:公共设施:公共厕所",
        "type": 0,
        "location": {
            "lat": 35.064827,
            "lng": 107.618992
        },
        "ad_info": {
            "adcode": 620822,
            "province": "甘肃省",
            "city": "平凉市",
            "district": "灵台县"
        }
    },
    {
        "id": "18163921362199848579",
        "title": "威戎服务区公共厕所",
        "address": "甘肃省平凉市静宁县S25静天高速与威戎服务区交叉口西360米",
        "tel": "",
        "category": "基础设施:公共设施:公共厕所",
        "type": 0,
        "location": {
            "lat": 35.348001,
            "lng": 105.798837
        },
        "ad_info": {
            "adcode": 620826,
            "province": "甘肃省",
            "city": "平凉市",
            "district": "静宁县"
        }
    },
    {
        "id": "13527304421264955324",
        "title": "公共厕所",
        "address": "甘肃省平凉市静宁县永福巷1号西北方向60米",
        "tel": "",
        "category": "基础设施:公共设施:公共厕所",
        "type": 0,
        "location": {
            "lat": 35.521631,
            "lng": 105.736886
        },
        "ad_info": {
            "adcode": 620826,
            "province": "甘肃省",
            "city": "平凉市",
            "district": "静宁县"
        }
    },
    {
        "id": "9086082683819044265",
        "title": "免费公共厕所",
        "address": "甘肃省平凉市灵台县溪河大道与财政街交叉口东南方向117米左右",
        "tel": "",
        "category": "基础设施:公共设施:公共厕所",
        "type": 0,
        "location": {
            "lat": 35.063524,
            "lng": 107.615471
        },
        "ad_info": {
            "adcode": 620822,
            "province": "甘肃省",
            "city": "平凉市",
            "district": "灵台县"
        }
    },
    {
        "id": "549749540179716519",
        "title": "公共厕所",
        "address": "甘肃省平凉市华亭市东大街与北巷街交叉口东北方向359米左右",
        "tel": "",
        "category": "基础设施:公共设施:公共厕所",
        "type": 0,
        "location": {
            "lat": 35.218476,
            "lng": 106.656486
        },
        "ad_info": {
            "adcode": 620881,
            "province": "甘肃省",
            "city": "平凉市",
            "district": "华亭市"
        }
    },
    {
        "id": "8012477790229978153",
        "title": "公共厕所",
        "address": "甘肃省平凉市崇信县永丰街与青年路交叉口西北方向63米左右",
        "tel": "",
        "category": "基础设施:公共设施:公共厕所",
        "type": 0,
        "location": {
            "lat": 35.305778,
            "lng": 107.029998
        },
        "ad_info": {
            "adcode": 620823,
            "province": "甘肃省",
            "city": "平凉市",
            "district": "崇信县"
        }
    },
    {
        "id": "18321598762440043594",
        "title": "公共厕所",
        "address": "甘肃省平凉市崆峒区城南路与新民路交叉口西北方向165米左右",
        "tel": "",
        "category": "基础设施:公共设施:公共厕所",
        "type": 0,
        "location": {
            "lat": 35.53609,
            "lng": 106.687803
        },
        "ad_info": {
            "adcode": 620802,
            "province": "甘肃省",
            "city": "平凉市",
            "district": "崆峒区"
        }
    },
    {
        "id": "3683011385444443386",
        "title": "公共厕所",
        "address": "甘肃省平凉市崇信县东街与滨河东路交叉口西南方向287米左右",
        "tel": "",
        "category": "基础设施:公共设施:公共厕所",
        "type": 0,
        "location": {
            "lat": 35.307298,
            "lng": 107.04347
        },
        "ad_info": {
            "adcode": 620823,
            "province": "甘肃省",
            "city": "平凉市",
            "district": "崇信县"
        }
    },
    {
        "id": "3034035321037600319",
        "title": "公共厕所",
        "address": "甘肃省平凉市灵台县溪河北路与滨河北路交叉口正南方向236米左右",
        "tel": "",
        "category": "基础设施:公共设施:公共厕所",
        "type": 0,
        "location": {
            "lat": 35.066349,
            "lng": 107.58825
        },
        "ad_info": {
            "adcode": 620822,
            "province": "甘肃省",
            "city": "平凉市",
            "district": "灵台县"
        }
    },
    {
        "id": "6653728842191473102",
        "title": "公共厕所",
        "address": "甘肃省平凉市华亭市G344与Y098交叉口西南方向134米左右",
        "tel": "",
        "category": "基础设施:公共设施:公共厕所",
        "type": 0,
        "location": {
            "lat": 35.288099,
            "lng": 106.47842
        },
        "ad_info": {
            "adcode": 620881,
            "province": "甘肃省",
            "city": "平凉市",
            "district": "华亭市"
        }
    },
    {
        "id": "3155158179254084475",
        "title": "公共厕所",
        "address": "甘肃省平凉市崆峒区崆峒镇崆峒山客运中心崆峒山国家地质公园",
        "tel": "",
        "category": "基础设施:公共设施:公共厕所",
        "type": 0,
        "location": {
            "lat": 35.56246,
            "lng": 106.527557
        },
        "ad_info": {
            "adcode": 620802,
            "province": "甘肃省",
            "city": "平凉市",
            "district": "崆峒区"
        }
    },
    {
        "id": "16141866913834667795",
        "title": "公共厕所",
        "address": "甘肃省平凉市灵台县政府巷与溪河大道交叉口西北方向56米左右",
        "tel": "",
        "category": "基础设施:公共设施:公共厕所",
        "type": 0,
        "location": {
            "lat": 35.062983,
            "lng": 107.621651
        },
        "ad_info": {
            "adcode": 620822,
            "province": "甘肃省",
            "city": "平凉市",
            "district": "灵台县"
        }
    },
    {
        "id": "8466275864908145015",
        "title": "公共厕所",
        "address": "甘肃省平凉市灵台县灵台县人民政府西南侧约130米",
        "tel": "",
        "category": "基础设施:公共设施:公共厕所",
        "type": 0,
        "location": {
            "lat": 35.069359,
            "lng": 107.594359
        },
        "ad_info": {
            "adcode": 620822,
            "province": "甘肃省",
            "city": "平凉市",
            "district": "灵台县"
        }
    },
    {
        "id": "15088674177825578256",
        "title": "公共厕所",
        "address": "甘肃省平凉市崇信县祥和街与芮鞫大道交叉口西北方向54米左右",
        "tel": "",
        "category": "基础设施:公共设施:公共厕所",
        "type": 0,
        "location": {
            "lat": 35.307911,
            "lng": 107.03145
        },
        "ad_info": {
            "adcode": 620823,
            "province": "甘肃省",
            "city": "平凉市",
            "district": "崇信县"
        }
    },
    {
        "id": "8545823779414470104",
        "title": "公共厕所",
        "address": "甘肃省平凉市崆峒区分区巷与集贤巷交叉口正南方向85米左右",
        "tel": "",
        "category": "基础设施:公共设施:公共厕所",
        "type": 0,
        "location": {
            "lat": 35.54172,
            "lng": 106.673687
        },
        "ad_info": {
            "adcode": 620802,
            "province": "甘肃省",
            "city": "平凉市",
            "district": "崆峒区"
        }
    },
    {
        "id": "5906646060824856945",
        "title": "万泉服务区公共厕所",
        "address": "甘肃省平凉市庄浪县中国石油公航旅集团万泉服务区加油站西侧240米",
        "tel": "",
        "category": "基础设施:公共设施:公共厕所",
        "type": 0,
        "location": {
            "lat": 35.090259,
            "lng": 105.845955
        },
        "ad_info": {
            "adcode": 620825,
            "province": "甘肃省",
            "city": "平凉市",
            "district": "庄浪县"
        }
    },
    {
        "id": "4310694180851057782",
        "title": "公共厕所",
        "address": "甘肃省平凉市崆峒区",
        "tel": "",
        "category": "基础设施:公共设施:公共厕所",
        "type": 0,
        "location": {
            "lat": 35.638964,
            "lng": 106.524278
        },
        "ad_info": {
            "adcode": 620802,
            "province": "甘肃省",
            "city": "平凉市",
            "district": "崆峒区"
        }
    },
    {
        "id": "9977990514365301059",
        "title": "公共厕所",
        "address": "甘肃省平凉市静宁县中街与二天门巷交叉口正北方向77米左右",
        "tel": "",
        "category": "基础设施:公共设施:公共厕所",
        "type": 0,
        "location": {
            "lat": 35.522647,
            "lng": 105.730097
        },
        "ad_info": {
            "adcode": 620826,
            "province": "甘肃省",
            "city": "平凉市",
            "district": "静宁县"
        }
    },
    {
        "id": "13274713668583702493",
        "title": "公共厕所",
        "address": "甘肃省平凉市灵台县华仁医院东南侧60米",
        "tel": "",
        "category": "基础设施:公共设施:公共厕所",
        "type": 0,
        "location": {
            "lat": 35.067719,
            "lng": 107.597487
        },
        "ad_info": {
            "adcode": 620822,
            "province": "甘肃省",
            "city": "平凉市",
            "district": "灵台县"
        }
    },
    {
        "id": "5020440428063388938",
        "title": "公共厕所",
        "address": "甘肃省平凉市静宁县南河南路与广场西路交叉口正东方向90米左右",
        "tel": "",
        "category": "基础设施:公共设施:公共厕所",
        "type": 0,
        "location": {
            "lat": 35.514342,
            "lng": 105.733941
        },
        "ad_info": {
            "adcode": 620826,
            "province": "甘肃省",
            "city": "平凉市",
            "district": "静宁县"
        }
    },
    {
        "id": "16347073051238599462",
        "title": "公共厕所",
        "address": "甘肃省平凉市崆峒区文化巷与文化街交叉口西北方向58米左右",
        "tel": "",
        "category": "基础设施:公共设施:公共厕所",
        "type": 0,
        "location": {
            "lat": 35.543813,
            "lng": 106.669759
        },
        "ad_info": {
            "adcode": 620802,
            "province": "甘肃省",
            "city": "平凉市",
            "district": "崆峒区"
        }
    },
    {
        "id": "4206077494214986402",
        "title": "公共厕所",
        "address": "甘肃省平凉市华亭市东大街与北大街交叉口西北方向201米左右",
        "tel": "",
        "category": "基础设施:公共设施:公共厕所",
        "type": 0,
        "location": {
            "lat": 35.217624,
            "lng": 106.648063
        },
        "ad_info": {
            "adcode": 620881,
            "province": "甘肃省",
            "city": "平凉市",
            "district": "华亭市"
        }
    },
    {
        "id": "14586281860547503792",
        "title": "公共厕所",
        "address": "甘肃省平凉市崆峒区太统路与崆峒大道西路交叉口正南方向104米左右",
        "tel": "",
        "category": "基础设施:公共设施:公共厕所",
        "type": 0,
        "location": {
            "lat": 35.551869,
            "lng": 106.63289
        },
        "ad_info": {
            "adcode": 620802,
            "province": "甘肃省",
            "city": "平凉市",
            "district": "崆峒区"
        }
    }
]