[
    {
        "id": "10704105402838133518",
        "title": "公共厕所",
        "address": "四川省广安市广安区凌云东路广安实验学校",
        "tel": "",
        "category": "基础设施:公共设施:公共厕所",
        "type": 0,
        "location": {
            "lat": 30.456106,
            "lng": 106.658248
        },
        "ad_info": {
            "adcode": 511602,
            "province": "四川省",
            "city": "广安市",
            "district": "广安区"
        }
    },
    {
        "id": "14074041321345270801",
        "title": "公共厕所",
        "address": "四川省广安市广安区中天国际步行街与银纺巷交叉口东南方向55米左右",
        "tel": "",
        "category": "基础设施:公共设施:公共厕所",
        "type": 0,
        "location": {
            "lat": 30.458563,
            "lng": 106.633957
        },
        "ad_info": {
            "adcode": 511602,
            "province": "四川省",
            "city": "广安市",
            "district": "广安区"
        }
    },
    {
        "id": "10608438376215302922",
        "title": "公共厕所",
        "address": "四川省广安市广安区希望街与辰湖路交叉口东北方向44米左右",
        "tel": "",
        "category": "基础设施:公共设施:公共厕所",
        "type": 0,
        "location": {
            "lat": 30.485115,
            "lng": 106.6455
        },
        "ad_info": {
            "adcode": 511602,
            "province": "四川省",
            "city": "广安市",
            "district": "广安区"
        }
    },
    {
        "id": "5433592890646092990",
        "title": "公共厕所",
        "address": "四川省广安市岳池县响双路与翠湖路交叉口东南方向1322米左右",
        "tel": "",
        "category": "基础设施:公共设施:公共厕所",
        "type": 0,
        "location": {
            "lat": 30.573169,
            "lng": 106.455391
        },
        "ad_info": {
            "adcode": 511621,
            "province": "四川省",
            "city": "广安市",
            "district": "岳池县"
        }
    },
    {
        "id": "10904770078289972125",
        "title": "公共厕所",
        "address": "四川省广安市广安区昆仑街与洪洲大道交叉口正北方向45米左右",
        "tel": "",
        "category": "基础设施:公共设施:公共厕所",
        "type": 0,
        "location": {
            "lat": 30.485332,
            "lng": 106.649841
        },
        "ad_info": {
            "adcode": 511602,
            "province": "四川省",
            "city": "广安市",
            "district": "广安区"
        }
    },
    {
        "id": "1070318730293927659",
        "title": "公共厕所",
        "address": "四川省广安市广安区公园街与旺角街交叉口正东方向62米左右",
        "tel": "",
        "category": "基础设施:公共设施:公共厕所",
        "type": 0,
        "location": {
            "lat": 30.446649,
            "lng": 106.646005
        },
        "ad_info": {
            "adcode": 511602,
            "province": "四川省",
            "city": "广安市",
            "district": "广安区"
        }
    },
    {
        "id": "6112811218038714245",
        "title": "公共厕所",
        "address": "四川省广安市华蓥市滨河东路13号",
        "tel": "",
        "category": "基础设施:公共设施:公共厕所",
        "type": 0,
        "location": {
            "lat": 30.37842,
            "lng": 106.77771
        },
        "ad_info": {
            "adcode": 511681,
            "province": "四川省",
            "city": "广安市",
            "district": "华蓥市"
        }
    },
    {
        "id": "3008311276652728995",
        "title": "公共厕所",
        "address": "四川省广安市广安区河堰路与金安大道三段交叉口正南方向103米左右",
        "tel": "",
        "category": "基础设施:公共设施:公共厕所",
        "type": 0,
        "location": {
            "lat": 30.447453,
            "lng": 106.651164
        },
        "ad_info": {
            "adcode": 511602,
            "province": "四川省",
            "city": "广安市",
            "district": "广安区"
        }
    },
    {
        "id": "2688084374927023027",
        "title": "公共厕所",
        "address": "四川省广安市岳池县九龙大街与建设路交叉口正东方向126米左右",
        "tel": "",
        "category": "基础设施:公共设施:公共厕所",
        "type": 0,
        "location": {
            "lat": 30.536302,
            "lng": 106.447992
        },
        "ad_info": {
            "adcode": 511621,
            "province": "四川省",
            "city": "广安市",
            "district": "岳池县"
        }
    },
    {
        "id": "13807200324141317927",
        "title": "公共厕所",
        "address": "四川省广安市广安区城墙街26-2号",
        "tel": "",
        "category": "基础设施:公共设施:公共厕所",
        "type": 0,
        "location": {
            "lat": 30.475954,
            "lng": 106.643235
        },
        "ad_info": {
            "adcode": 511602,
            "province": "四川省",
            "city": "广安市",
            "district": "广安区"
        }
    },
    {
        "id": "17157368908621273268",
        "title": "公共厕所",
        "address": "四川省广安市前锋区益民路南段与石滨路三段交叉口东南方向125米左右",
        "tel": "",
        "category": "基础设施:公共设施:公共厕所",
        "type": 0,
        "location": {
            "lat": 30.46815,
            "lng": 106.669071
        },
        "ad_info": {
            "adcode": 511603,
            "province": "四川省",
            "city": "广安市",
            "district": "前锋区"
        }
    },
    {
        "id": "16747657635947598989",
        "title": "公共厕所",
        "address": "四川省广安市广安区会展街与环溪一路交叉口正北方向98米左右",
        "tel": "",
        "category": "基础设施:公共设施:公共厕所",
        "type": 0,
        "location": {
            "lat": 30.462312,
            "lng": 106.618501
        },
        "ad_info": {
            "adcode": 511602,
            "province": "四川省",
            "city": "广安市",
            "district": "广安区"
        }
    },
    {
        "id": "864316419306045918",
        "title": "公共厕所",
        "address": "四川省广安市华蓥市华蓥山广场步行街与滨河东路交叉口西南方向80米左右",
        "tel": "",
        "category": "基础设施:公共设施:公共厕所",
        "type": 0,
        "location": {
            "lat": 30.383256,
            "lng": 106.779533
        },
        "ad_info": {
            "adcode": 511681,
            "province": "四川省",
            "city": "广安市",
            "district": "华蓥市"
        }
    },
    {
        "id": "17783547339415723798",
        "title": "公共厕所",
        "address": "四川省广安市岳池县恒欣太平洋电影城(滨河东路西)",
        "tel": "",
        "category": "基础设施:公共设施:公共厕所",
        "type": 0,
        "location": {
            "lat": 30.52978,
            "lng": 106.454415
        },
        "ad_info": {
            "adcode": 511621,
            "province": "四川省",
            "city": "广安市",
            "district": "岳池县"
        }
    },
    {
        "id": "5477677077561006650",
        "title": "公共厕所",
        "address": "四川省广安市广安区滨江东路滨江公园(西侧)",
        "tel": "",
        "category": "基础设施:公共设施:公共厕所",
        "type": 0,
        "location": {
            "lat": 30.465866,
            "lng": 106.662742
        },
        "ad_info": {
            "adcode": 511602,
            "province": "四川省",
            "city": "广安市",
            "district": "广安区"
        }
    },
    {
        "id": "10968490816162232093",
        "title": "公共厕所",
        "address": "四川省广安市广安区滨河路一段与环形巷交叉口正北方向107米左右",
        "tel": "",
        "category": "基础设施:公共设施:公共厕所",
        "type": 0,
        "location": {
            "lat": 30.455011,
            "lng": 106.628931
        },
        "ad_info": {
            "adcode": 511602,
            "province": "四川省",
            "city": "广安市",
            "district": "广安区"
        }
    },
    {
        "id": "2821876357459324314",
        "title": "公共厕所",
        "address": "四川省广安市岳池县东外街与环城东路交叉口西北方向36米左右",
        "tel": "",
        "category": "基础设施:公共设施:公共厕所",
        "type": 0,
        "location": {
            "lat": 30.5386,
            "lng": 106.442096
        },
        "ad_info": {
            "adcode": 511621,
            "province": "四川省",
            "city": "广安市",
            "district": "岳池县"
        }
    },
    {
        "id": "16937105099900208867",
        "title": "公共厕所",
        "address": "四川省广安市广安区G318与S205交叉口正西方向194米左右",
        "tel": "",
        "category": "基础设施:公共设施:公共厕所",
        "type": 0,
        "location": {
            "lat": 30.784915,
            "lng": 106.70369
        },
        "ad_info": {
            "adcode": 511602,
            "province": "四川省",
            "city": "广安市",
            "district": "广安区"
        }
    },
    {
        "id": "18010552514212214405",
        "title": "公共厕所",
        "address": "四川省广安市广安区学府路中桥美好家园",
        "tel": "",
        "category": "基础设施:公共设施:公共厕所",
        "type": 0,
        "location": {
            "lat": 30.459137,
            "lng": 106.663488
        },
        "ad_info": {
            "adcode": 511602,
            "province": "四川省",
            "city": "广安市",
            "district": "广安区"
        }
    },
    {
        "id": "10678163545328337116",
        "title": "公共厕所",
        "address": "四川省广安市广安区洞子沟街与长宁街交叉口西北方向23米左右",
        "tel": "",
        "category": "基础设施:公共设施:公共厕所",
        "type": 0,
        "location": {
            "lat": 30.445331,
            "lng": 106.623507
        },
        "ad_info": {
            "adcode": 511602,
            "province": "四川省",
            "city": "广安市",
            "district": "广安区"
        }
    },
    {
        "id": "3659912568682008945",
        "title": "公共厕所",
        "address": "四川省广安市广安区广惠街与民安下街交叉口西南方向37米左右",
        "tel": "",
        "category": "基础设施:公共设施:公共厕所",
        "type": 0,
        "location": {
            "lat": 30.452993,
            "lng": 106.63344
        },
        "ad_info": {
            "adcode": 511602,
            "province": "四川省",
            "city": "广安市",
            "district": "广安区"
        }
    },
    {
        "id": "17058002321446720232",
        "title": "公共厕所",
        "address": "四川省广安市前锋区星城大道与永兴街交叉口正北方向63米左右",
        "tel": "",
        "category": "基础设施:公共设施:公共厕所",
        "type": 0,
        "location": {
            "lat": 30.520731,
            "lng": 106.81607
        },
        "ad_info": {
            "adcode": 511603,
            "province": "四川省",
            "city": "广安市",
            "district": "前锋区"
        }
    },
    {
        "id": "15296892904625096280",
        "title": "公共厕所",
        "address": "四川省广安市广安区公园街与滨河路二段交叉口正北方向139米左右",
        "tel": "",
        "category": "基础设施:公共设施:公共厕所",
        "type": 0,
        "location": {
            "lat": 30.452114,
            "lng": 106.636408
        },
        "ad_info": {
            "adcode": 511602,
            "province": "四川省",
            "city": "广安市",
            "district": "广安区"
        }
    },
    {
        "id": "1730471781967220418",
        "title": "公共厕所",
        "address": "四川省广安市广安区建安北路与渔林街交叉口东北方向235米左右",
        "tel": "",
        "category": "基础设施:公共设施:公共厕所",
        "type": 0,
        "location": {
            "lat": 30.462769,
            "lng": 106.640313
        },
        "ad_info": {
            "adcode": 511602,
            "province": "四川省",
            "city": "广安市",
            "district": "广安区"
        }
    },
    {
        "id": "11444433499335415065",
        "title": "公共厕所",
        "address": "四川省广安市前锋区弘前大道与滨河东路交叉口东北方向138米左右",
        "tel": "",
        "category": "基础设施:公共设施:公共厕所",
        "type": 0,
        "location": {
            "lat": 30.495711,
            "lng": 106.896626
        },
        "ad_info": {
            "adcode": 511603,
            "province": "四川省",
            "city": "广安市",
            "district": "前锋区"
        }
    },
    {
        "id": "1314512269386966971",
        "title": "公共厕所",
        "address": "四川省广安市广安区凌云路与青莲东街交叉口正北方向169米左右",
        "tel": "",
        "category": "基础设施:公共设施:公共厕所",
        "type": 0,
        "location": {
            "lat": 30.460153,
            "lng": 106.650996
        },
        "ad_info": {
            "adcode": 511602,
            "province": "四川省",
            "city": "广安市",
            "district": "广安区"
        }
    },
    {
        "id": "16603849088517047286",
        "title": "公共厕所",
        "address": "四川省广安市广安区广武东路与广武路交叉口正南方向128米左右",
        "tel": "",
        "category": "基础设施:公共设施:公共厕所",
        "type": 0,
        "location": {
            "lat": 30.438869,
            "lng": 106.605348
        },
        "ad_info": {
            "adcode": 511602,
            "province": "四川省",
            "city": "广安市",
            "district": "广安区"
        }
    },
    {
        "id": "15824599193134696467",
        "title": "公共厕所",
        "address": "四川省广安市广安区万盛西路与滨河路一段交叉口西南方向41米左右",
        "tel": "",
        "category": "基础设施:公共设施:公共厕所",
        "type": 0,
        "location": {
            "lat": 30.453369,
            "lng": 106.628565
        },
        "ad_info": {
            "adcode": 511602,
            "province": "四川省",
            "city": "广安市",
            "district": "广安区"
        }
    },
    {
        "id": "14068940259266019509",
        "title": "公共厕所",
        "address": "四川省广安市广安区建新街与环城北路三段交叉口正北方向348米左右",
        "tel": "",
        "category": "基础设施:公共设施:公共厕所",
        "type": 0,
        "location": {
            "lat": 30.489955,
            "lng": 106.635403
        },
        "ad_info": {
            "adcode": 511602,
            "province": "四川省",
            "city": "广安市",
            "district": "广安区"
        }
    },
    {
        "id": "6336449765182129933",
        "title": "公共厕所",
        "address": "四川省广安市岳池县惠安路与济恩街交叉口正西方向279米左右",
        "tel": "",
        "category": "基础设施:公共设施:公共厕所",
        "type": 0,
        "location": {
            "lat": 30.628339,
            "lng": 106.527239
        },
        "ad_info": {
            "adcode": 511621,
            "province": "四川省",
            "city": "广安市",
            "district": "岳池县"
        }
    },
    {
        "id": "12886950535882213430",
        "title": "公共厕所",
        "address": "四川省广安市广安区广武东路与广武南路交叉口正东方向270米左右",
        "tel": "",
        "category": "基础设施:公共设施:公共厕所",
        "type": 0,
        "location": {
            "lat": 30.442931,
            "lng": 106.60024
        },
        "ad_info": {
            "adcode": 511602,
            "province": "四川省",
            "city": "广安市",
            "district": "广安区"
        }
    },
    {
        "id": "16505670093388600170",
        "title": "公共厕所",
        "address": "四川省广安市广安区X06与苟梭路交叉口正南方向145米左右",
        "tel": "",
        "category": "基础设施:公共设施:公共厕所",
        "type": 0,
        "location": {
            "lat": 30.617121,
            "lng": 106.60488
        },
        "ad_info": {
            "adcode": 511602,
            "province": "四川省",
            "city": "广安市",
            "district": "广安区"
        }
    },
    {
        "id": "7914089058136669485",
        "title": "公共厕所",
        "address": "四川省广安市岳池县凤凰山水东侧200米",
        "tel": "",
        "category": "基础设施:公共设施:公共厕所",
        "type": 0,
        "location": {
            "lat": 30.526244,
            "lng": 106.465
        },
        "ad_info": {
            "adcode": 511621,
            "province": "四川省",
            "city": "广安市",
            "district": "岳池县"
        }
    },
    {
        "id": "13032657545276710144",
        "title": "公共厕所",
        "address": "四川省广安市广安区小平故里路与建安北路交叉口正南方向105米左右",
        "tel": "",
        "category": "基础设施:公共设施:公共厕所",
        "type": 0,
        "location": {
            "lat": 30.467694,
            "lng": 106.628829
        },
        "ad_info": {
            "adcode": 511602,
            "province": "四川省",
            "city": "广安市",
            "district": "广安区"
        }
    },
    {
        "id": "576081534384862035",
        "title": "公共厕所",
        "address": "四川省广安市广安区滨河路二段与百业街交叉口正东方向41米左右",
        "tel": "",
        "category": "基础设施:公共设施:公共厕所",
        "type": 0,
        "location": {
            "lat": 30.450769,
            "lng": 106.633193
        },
        "ad_info": {
            "adcode": 511602,
            "province": "四川省",
            "city": "广安市",
            "district": "广安区"
        }
    },
    {
        "id": "9602667351787476917",
        "title": "公共厕所",
        "address": "四川省广安市广安区西溪路与金安大道上段交叉口西北160米",
        "tel": "",
        "category": "基础设施:公共设施:公共厕所",
        "type": 0,
        "location": {
            "lat": 30.463417,
            "lng": 106.625976
        },
        "ad_info": {
            "adcode": 511602,
            "province": "四川省",
            "city": "广安市",
            "district": "广安区"
        }
    },
    {
        "id": "13122395886546453128",
        "title": "公共厕所",
        "address": "四川省广安市广安区金源三街118号",
        "tel": "",
        "category": "基础设施:公共设施:公共厕所",
        "type": 0,
        "location": {
            "lat": 30.461548,
            "lng": 106.634981
        },
        "ad_info": {
            "adcode": 511602,
            "province": "四川省",
            "city": "广安市",
            "district": "广安区"
        }
    },
    {
        "id": "3202850669340688026",
        "title": "公共厕所",
        "address": "四川省广安市岳池县安拱路东二段与惠民街交叉口正东方向125米左右",
        "tel": "",
        "category": "基础设施:公共设施:公共厕所",
        "type": 0,
        "location": {
            "lat": 30.536501,
            "lng": 106.46943
        },
        "ad_info": {
            "adcode": 511621,
            "province": "四川省",
            "city": "广安市",
            "district": "岳池县"
        }
    },
    {
        "id": "17987811236186326680",
        "title": "公共厕所",
        "address": "四川省广安市岳池县大西街与石桥街交叉口正南方向90米左右",
        "tel": "",
        "category": "基础设施:公共设施:公共厕所",
        "type": 0,
        "location": {
            "lat": 30.532149,
            "lng": 106.450577
        },
        "ad_info": {
            "adcode": 511621,
            "province": "四川省",
            "city": "广安市",
            "district": "岳池县"
        }
    },
    {
        "id": "6673807280641716753",
        "title": "公共厕所",
        "address": "四川省广安市广安区小平故里路与新合街交叉口正西方向85米左右",
        "tel": "",
        "category": "基础设施:公共设施:公共厕所",
        "type": 0,
        "location": {
            "lat": 30.523589,
            "lng": 106.639266
        },
        "ad_info": {
            "adcode": 511602,
            "province": "四川省",
            "city": "广安市",
            "district": "广安区"
        }
    },
    {
        "id": "690578360384859637",
        "title": "公共厕所",
        "address": "四川省广安市广安区新和街与牌坊路交叉口东南方向166米左右",
        "tel": "",
        "category": "基础设施:公共设施:公共厕所",
        "type": 0,
        "location": {
            "lat": 30.538388,
            "lng": 106.637199
        },
        "ad_info": {
            "adcode": 511602,
            "province": "四川省",
            "city": "广安市",
            "district": "广安区"
        }
    },
    {
        "id": "1052810749470688957",
        "title": "公共厕所",
        "address": "四川省广安市广安区小平故里路协兴生态文化影视城",
        "tel": "",
        "category": "基础设施:公共设施:公共厕所",
        "type": 0,
        "location": {
            "lat": 30.49759,
            "lng": 106.635645
        },
        "ad_info": {
            "adcode": 511602,
            "province": "四川省",
            "city": "广安市",
            "district": "广安区"
        }
    },
    {
        "id": "14795431165150725528",
        "title": "公共厕所",
        "address": "四川省广安市广安区站前大道东段与迎宾大道交叉口东南方向141米左右",
        "tel": "",
        "category": "基础设施:公共设施:公共厕所",
        "type": 0,
        "location": {
            "lat": 30.440453,
            "lng": 106.60785
        },
        "ad_info": {
            "adcode": 511602,
            "province": "四川省",
            "city": "广安市",
            "district": "广安区"
        }
    },
    {
        "id": "1825345614298097093",
        "title": "公共厕所",
        "address": "四川省广安市广安区五福西路与会展下街交叉口东北方向95米左右",
        "tel": "",
        "category": "基础设施:公共设施:公共厕所",
        "type": 0,
        "location": {
            "lat": 30.461362,
            "lng": 106.627632
        },
        "ad_info": {
            "adcode": 511602,
            "province": "四川省",
            "city": "广安市",
            "district": "广安区"
        }
    },
    {
        "id": "3111059241542520366",
        "title": "公共厕所",
        "address": "四川省广安市华蓥市星星路与蓥光路交叉口正东方向135米左右",
        "tel": "",
        "category": "基础设施:公共设施:公共厕所",
        "type": 0,
        "location": {
            "lat": 30.376855,
            "lng": 106.781262
        },
        "ad_info": {
            "adcode": 511681,
            "province": "四川省",
            "city": "广安市",
            "district": "华蓥市"
        }
    },
    {
        "id": "10702629005077772675",
        "title": "公共厕所",
        "address": "四川省广安市岳池县滨河西路与银城南路交叉口正东方向121米左右",
        "tel": "",
        "category": "基础设施:公共设施:公共厕所",
        "type": 0,
        "location": {
            "lat": 30.52473,
            "lng": 106.446567
        },
        "ad_info": {
            "adcode": 511621,
            "province": "四川省",
            "city": "广安市",
            "district": "岳池县"
        }
    },
    {
        "id": "12798262035115171251",
        "title": "公共厕所",
        "address": "四川省广安市岳池县翔凤大道中段与花园路东二路交叉口正西方向262米左右",
        "tel": "",
        "category": "基础设施:公共设施:公共厕所",
        "type": 0,
        "location": {
            "lat": 30.546953,
            "lng": 106.45739
        },
        "ad_info": {
            "adcode": 511621,
            "province": "四川省",
            "city": "广安市",
            "district": "岳池县"
        }
    },
    {
        "id": "18235846704793245853",
        "title": "公共厕所",
        "address": "四川省广安市华蓥市石岭岗东巷与石岭岗路交叉口正南方向61米左右",
        "tel": "",
        "category": "基础设施:公共设施:公共厕所",
        "type": 0,
        "location": {
            "lat": 30.389785,
            "lng": 106.785064
        },
        "ad_info": {
            "adcode": 511681,
            "province": "四川省",
            "city": "广安市",
            "district": "华蓥市"
        }
    },
    {
        "id": "15753496390793755063",
        "title": "公共厕所",
        "address": "四川省广安市岳池县安拱巷与安拱路交叉口正北方向16米左右",
        "tel": "",
        "category": "基础设施:公共设施:公共厕所",
        "type": 0,
        "location": {
            "lat": 30.540419,
            "lng": 106.448759
        },
        "ad_info": {
            "adcode": 511621,
            "province": "四川省",
            "city": "广安市",
            "district": "岳池县"
        }
    },
    {
        "id": "7281765398259181225",
        "title": "公共厕所",
        "address": "四川省广安市武胜县柳堡街339号",
        "tel": "",
        "category": "基础设施:公共设施:公共厕所",
        "type": 0,
        "location": {
            "lat": 30.339606,
            "lng": 106.283111
        },
        "ad_info": {
            "adcode": 511622,
            "province": "四川省",
            "city": "广安市",
            "district": "武胜县"
        }
    },
    {
        "id": "6452784939303114598",
        "title": "公共厕所",
        "address": "四川省广安市广安区公园街与滨河路二段交叉口东北方向64米左右",
        "tel": "",
        "category": "基础设施:公共设施:公共厕所",
        "type": 0,
        "location": {
            "lat": 30.45131,
            "lng": 106.63745
        },
        "ad_info": {
            "adcode": 511602,
            "province": "四川省",
            "city": "广安市",
            "district": "广安区"
        }
    },
    {
        "id": "5144602320850932773",
        "title": "公共厕所",
        "address": "四川省广安市岳池县百江燃气cng加气站西北",
        "tel": "",
        "category": "基础设施:公共设施:公共厕所",
        "type": 0,
        "location": {
            "lat": 30.520608,
            "lng": 106.451221
        },
        "ad_info": {
            "adcode": 511621,
            "province": "四川省",
            "city": "广安市",
            "district": "岳池县"
        }
    },
    {
        "id": "11468745252287554251",
        "title": "公共厕所",
        "address": "四川省广安市前锋区文化路与渠江大街交叉口正东方向94米左右",
        "tel": "",
        "category": "基础设施:公共设施:公共厕所",
        "type": 0,
        "location": {
            "lat": 30.517407,
            "lng": 106.823546
        },
        "ad_info": {
            "adcode": 511603,
            "province": "四川省",
            "city": "广安市",
            "district": "前锋区"
        }
    },
    {
        "id": "10805698154268289850",
        "title": "公共厕所",
        "address": "四川省广安市广安区广武南路与建明中路交叉口东北方向157米左右",
        "tel": "",
        "category": "基础设施:公共设施:公共厕所",
        "type": 0,
        "location": {
            "lat": 30.442224,
            "lng": 106.594266
        },
        "ad_info": {
            "adcode": 511602,
            "province": "四川省",
            "city": "广安市",
            "district": "广安区"
        }
    },
    {
        "id": "15815272983406103075",
        "title": "公共厕所",
        "address": "四川省广安市岳池县健康路与光彩路东段交叉口西北方向162米左右",
        "tel": "",
        "category": "基础设施:公共设施:公共厕所",
        "type": 0,
        "location": {
            "lat": 30.512199,
            "lng": 106.450853
        },
        "ad_info": {
            "adcode": 511621,
            "province": "四川省",
            "city": "广安市",
            "district": "岳池县"
        }
    },
    {
        "id": "9518134711007563790",
        "title": "公共厕所",
        "address": "四川省广安市武胜县乐中路与龙岩路交叉口正南方向146米左右",
        "tel": "",
        "category": "基础设施:公共设施:公共厕所",
        "type": 0,
        "location": {
            "lat": 30.260861,
            "lng": 106.315133
        },
        "ad_info": {
            "adcode": 511622,
            "province": "四川省",
            "city": "广安市",
            "district": "武胜县"
        }
    },
    {
        "id": "14166806605649015491",
        "title": "公共厕所",
        "address": "四川省广安市广安区乐活城北侧330米",
        "tel": "",
        "category": "基础设施:公共设施:公共厕所",
        "type": 0,
        "location": {
            "lat": 30.500826,
            "lng": 106.636165
        },
        "ad_info": {
            "adcode": 511602,
            "province": "四川省",
            "city": "广安市",
            "district": "广安区"
        }
    },
    {
        "id": "8413506359845682117",
        "title": "公共厕所",
        "address": "四川省广安市岳池县上南街与中南街交叉口正西方向24米左右",
        "tel": "",
        "category": "基础设施:公共设施:公共厕所",
        "type": 0,
        "location": {
            "lat": 30.535934,
            "lng": 106.438977
        },
        "ad_info": {
            "adcode": 511621,
            "province": "四川省",
            "city": "广安市",
            "district": "岳池县"
        }
    },
    {
        "id": "1044879774514460649",
        "title": "公共厕所",
        "address": "四川省广安市岳池县光彩路东段与狮子坡路同天段交叉口西北方向159米左右",
        "tel": "",
        "category": "基础设施:公共设施:公共厕所",
        "type": 0,
        "location": {
            "lat": 30.510134,
            "lng": 106.456426
        },
        "ad_info": {
            "adcode": 511621,
            "province": "四川省",
            "city": "广安市",
            "district": "岳池县"
        }
    },
    {
        "id": "14078981521696413498",
        "title": "公共厕所",
        "address": "四川省广安市武胜县下西街与农林街交叉口正东方向82米左右",
        "tel": "",
        "category": "基础设施:公共设施:公共厕所",
        "type": 0,
        "location": {
            "lat": 30.345041,
            "lng": 106.289973
        },
        "ad_info": {
            "adcode": 511622,
            "province": "四川省",
            "city": "广安市",
            "district": "武胜县"
        }
    },
    {
        "id": "13049760624104945468",
        "title": "公共厕所",
        "address": "四川省广安市前锋区弘前大道与龙井路交叉口正东方向197米左右",
        "tel": "",
        "category": "基础设施:公共设施:公共厕所",
        "type": 0,
        "location": {
            "lat": 30.491407,
            "lng": 106.878287
        },
        "ad_info": {
            "adcode": 511603,
            "province": "四川省",
            "city": "广安市",
            "district": "前锋区"
        }
    },
    {
        "id": "10940386500209509029",
        "title": "公共厕所",
        "address": "四川省广安市广安区民和街77号",
        "tel": "",
        "category": "基础设施:公共设施:公共厕所",
        "type": 0,
        "location": {
            "lat": 30.455509,
            "lng": 106.637992
        },
        "ad_info": {
            "adcode": 511602,
            "province": "四川省",
            "city": "广安市",
            "district": "广安区"
        }
    },
    {
        "id": "1448498552309229839",
        "title": "公共厕所",
        "address": "四川省广安市武胜县下东街与南环路交叉口东南方向39米左右",
        "tel": "",
        "category": "基础设施:公共设施:公共厕所",
        "type": 0,
        "location": {
            "lat": 30.344853,
            "lng": 106.302252
        },
        "ad_info": {
            "adcode": 511622,
            "province": "四川省",
            "city": "广安市",
            "district": "武胜县"
        }
    },
    {
        "id": "8548970074897070353",
        "title": "公共厕所",
        "address": "四川省广安市武胜县冯纯华口腔诊所西北侧60米",
        "tel": "",
        "category": "基础设施:公共设施:公共厕所",
        "type": 0,
        "location": {
            "lat": 30.347352,
            "lng": 106.288427
        },
        "ad_info": {
            "adcode": 511622,
            "province": "四川省",
            "city": "广安市",
            "district": "武胜县"
        }
    },
    {
        "id": "2657366924073310789",
        "title": "公共厕所",
        "address": "四川省广安市邻水县北街与向阳巷交叉口西南方向42米左右",
        "tel": "",
        "category": "基础设施:公共设施:公共厕所",
        "type": 0,
        "location": {
            "lat": 30.3384,
            "lng": 106.93178
        },
        "ad_info": {
            "adcode": 511623,
            "province": "四川省",
            "city": "广安市",
            "district": "邻水县"
        }
    },
    {
        "id": "9027029793613720726",
        "title": "公共厕所",
        "address": "四川省广安市武胜县万山街与猛山路交叉口正北方向38米左右",
        "tel": "",
        "category": "基础设施:公共设施:公共厕所",
        "type": 0,
        "location": {
            "lat": 30.350082,
            "lng": 106.428405
        },
        "ad_info": {
            "adcode": 511622,
            "province": "四川省",
            "city": "广安市",
            "district": "武胜县"
        }
    },
    {
        "id": "2633566827739571030",
        "title": "公共厕所",
        "address": "四川省广安市前锋区永兴街与渠江大街交叉口东北方向99米左右",
        "tel": "",
        "category": "基础设施:公共设施:公共厕所",
        "type": 0,
        "location": {
            "lat": 30.520499,
            "lng": 106.823503
        },
        "ad_info": {
            "adcode": 511603,
            "province": "四川省",
            "city": "广安市",
            "district": "前锋区"
        }
    },
    {
        "id": "1495152412626941560",
        "title": "公共厕所",
        "address": "四川省广安市岳池县光彩路东段与狮子坡路同天段交叉口东南方向919米左右",
        "tel": "",
        "category": "基础设施:公共设施:公共厕所",
        "type": 0,
        "location": {
            "lat": 30.506056,
            "lng": 106.466574
        },
        "ad_info": {
            "adcode": 511621,
            "province": "四川省",
            "city": "广安市",
            "district": "岳池县"
        }
    },
    {
        "id": "2054557530777990823",
        "title": "公共厕所",
        "address": "四川省广安市前锋区大方路与桂北路交叉口正西方向205米左右",
        "tel": "",
        "category": "基础设施:公共设施:公共厕所",
        "type": 0,
        "location": {
            "lat": 30.470019,
            "lng": 106.909764
        },
        "ad_info": {
            "adcode": 511603,
            "province": "四川省",
            "city": "广安市",
            "district": "前锋区"
        }
    },
    {
        "id": "2021505992262191468",
        "title": "公共厕所",
        "address": "四川省广安市邻水县古邻大道南段293号",
        "tel": "",
        "category": "基础设施:公共设施:公共厕所",
        "type": 0,
        "location": {
            "lat": 30.321746,
            "lng": 106.933389
        },
        "ad_info": {
            "adcode": 511623,
            "province": "四川省",
            "city": "广安市",
            "district": "邻水县"
        }
    },
    {
        "id": "10133511775300100395",
        "title": "公共厕所",
        "address": "四川省广安市武胜县滨江路东双·滨江医养",
        "tel": "",
        "category": "基础设施:公共设施:公共厕所",
        "type": 0,
        "location": {
            "lat": 30.343642,
            "lng": 106.280158
        },
        "ad_info": {
            "adcode": 511622,
            "province": "四川省",
            "city": "广安市",
            "district": "武胜县"
        }
    },
    {
        "id": "4894106253162479594",
        "title": "公共厕所",
        "address": "四川省广安市广安区富民巷与建安南路交叉口正北方向129米左右",
        "tel": "",
        "category": "基础设施:公共设施:公共厕所",
        "type": 0,
        "location": {
            "lat": 30.451672,
            "lng": 106.628801
        },
        "ad_info": {
            "adcode": 511602,
            "province": "四川省",
            "city": "广安市",
            "district": "广安区"
        }
    },
    {
        "id": "2809863908779014789",
        "title": "公共厕所",
        "address": "四川省广安市邻水县鼎屏镇南门桥(皇亿楼)",
        "tel": "",
        "category": "基础设施:公共设施:公共厕所",
        "type": 0,
        "location": {
            "lat": 30.333132,
            "lng": 106.931717
        },
        "ad_info": {
            "adcode": 511623,
            "province": "四川省",
            "city": "广安市",
            "district": "邻水县"
        }
    },
    {
        "id": "3950222556258090419",
        "title": "公共厕所",
        "address": "四川省广安市邻水县和平大道北段与育才路交叉口正西方向29米左右",
        "tel": "",
        "category": "基础设施:公共设施:公共厕所",
        "type": 0,
        "location": {
            "lat": 30.194226,
            "lng": 107.066588
        },
        "ad_info": {
            "adcode": 511623,
            "province": "四川省",
            "city": "广安市",
            "district": "邻水县"
        }
    },
    {
        "id": "11056901282550062137",
        "title": "公共厕所",
        "address": "四川省广安市武胜县建设北路329号",
        "tel": "",
        "category": "基础设施:公共设施:公共厕所",
        "type": 0,
        "location": {
            "lat": 30.352934,
            "lng": 106.291156
        },
        "ad_info": {
            "adcode": 511622,
            "province": "四川省",
            "city": "广安市",
            "district": "武胜县"
        }
    },
    {
        "id": "3686417605378054938",
        "title": "公共厕所",
        "address": "四川省广安市武胜县宝箴塞路与榆林街交叉口正南方向1015米左右",
        "tel": "",
        "category": "基础设施:公共设施:公共厕所",
        "type": 0,
        "location": {
            "lat": 30.352282,
            "lng": 106.073493
        },
        "ad_info": {
            "adcode": 511622,
            "province": "四川省",
            "city": "广安市",
            "district": "武胜县"
        }
    },
    {
        "id": "8215597082167277811",
        "title": "公共厕所",
        "address": "四川省广安市武胜县G212与南渝路交叉口西北方向121米左右",
        "tel": "",
        "category": "基础设施:公共设施:公共厕所",
        "type": 0,
        "location": {
            "lat": 30.318053,
            "lng": 106.136684
        },
        "ad_info": {
            "adcode": 511622,
            "province": "四川省",
            "city": "广安市",
            "district": "武胜县"
        }
    },
    {
        "id": "10022485215493732622",
        "title": "公共厕所",
        "address": "四川省广安市岳池县天龙街与玉龙街交叉口正东方向39米左右",
        "tel": "",
        "category": "基础设施:公共设施:公共厕所",
        "type": 0,
        "location": {
            "lat": 30.530578,
            "lng": 106.441842
        },
        "ad_info": {
            "adcode": 511621,
            "province": "四川省",
            "city": "广安市",
            "district": "岳池县"
        }
    },
    {
        "id": "11690269486431093470",
        "title": "公共厕所",
        "address": "四川省广安市广安区建南路与翠福街交叉口正北方向64米左右",
        "tel": "",
        "category": "基础设施:公共设施:公共厕所",
        "type": 0,
        "location": {
            "lat": 30.478532,
            "lng": 106.636774
        },
        "ad_info": {
            "adcode": 511602,
            "province": "四川省",
            "city": "广安市",
            "district": "广安区"
        }
    },
    {
        "id": "11678602474382060858",
        "title": "公共厕所",
        "address": "四川省广安市邻水县大佛寺东路与渝邻大道交叉口西南方向204米左右",
        "tel": "",
        "category": "基础设施:公共设施:公共厕所",
        "type": 0,
        "location": {
            "lat": 30.306908,
            "lng": 106.918962
        },
        "ad_info": {
            "adcode": 511623,
            "province": "四川省",
            "city": "广安市",
            "district": "邻水县"
        }
    },
    {
        "id": "4957932637543233166",
        "title": "公共厕所",
        "address": "四川省广安市武胜县利民街与科技街交叉口正北方向100米左右",
        "tel": "",
        "category": "基础设施:公共设施:公共厕所",
        "type": 0,
        "location": {
            "lat": 30.346993,
            "lng": 106.299763
        },
        "ad_info": {
            "adcode": 511622,
            "province": "四川省",
            "city": "广安市",
            "district": "武胜县"
        }
    },
    {
        "id": "13246632650074192520",
        "title": "广安南站公共厕所",
        "address": "四川省广安市广安区刘家祠街与建明中路交叉口东北方向267米左右",
        "tel": "",
        "category": "基础设施:公共设施:公共厕所",
        "type": 0,
        "location": {
            "lat": 30.449276,
            "lng": 106.59234
        },
        "ad_info": {
            "adcode": 511602,
            "province": "四川省",
            "city": "广安市",
            "district": "广安区"
        }
    },
    {
        "id": "5506549779836716156",
        "title": "公共厕所",
        "address": "四川省广安市岳池县外滩街与建设路交叉口正南方向122米左右",
        "tel": "",
        "category": "基础设施:公共设施:公共厕所",
        "type": 0,
        "location": {
            "lat": 30.534438,
            "lng": 106.452063
        },
        "ad_info": {
            "adcode": 511621,
            "province": "四川省",
            "city": "广安市",
            "district": "岳池县"
        }
    },
    {
        "id": "16576436366257256381",
        "title": "公共厕所",
        "address": "四川省广安市广安区城墙街与滨江路北段交叉口西北方向150米左右",
        "tel": "",
        "category": "基础设施:公共设施:公共厕所",
        "type": 0,
        "location": {
            "lat": 30.474988,
            "lng": 106.644099
        },
        "ad_info": {
            "adcode": 511602,
            "province": "四川省",
            "city": "广安市",
            "district": "广安区"
        }
    },
    {
        "id": "10889054495660612235",
        "title": "公共厕所",
        "address": "四川省广安市邻水县环城路东二段与青年路交叉口东南方向377米左右",
        "tel": "",
        "category": "基础设施:公共设施:公共厕所",
        "type": 0,
        "location": {
            "lat": 30.328292,
            "lng": 106.945615
        },
        "ad_info": {
            "adcode": 511623,
            "province": "四川省",
            "city": "广安市",
            "district": "邻水县"
        }
    },
    {
        "id": "12672398720410159597",
        "title": "公共厕所",
        "address": "四川省广安市广安区渠江北路23-7号东南方向50米",
        "tel": "",
        "category": "基础设施:公共设施:公共厕所",
        "type": 0,
        "location": {
            "lat": 30.479272,
            "lng": 106.646941
        },
        "ad_info": {
            "adcode": 511602,
            "province": "四川省",
            "city": "广安市",
            "district": "广安区"
        }
    },
    {
        "id": "3023708789861105300",
        "title": "公共厕所",
        "address": "四川省广安市邻水县建新路与熙源路交叉口西北方向74米左右",
        "tel": "",
        "category": "基础设施:公共设施:公共厕所",
        "type": 0,
        "location": {
            "lat": 30.333351,
            "lng": 106.939821
        },
        "ad_info": {
            "adcode": 511623,
            "province": "四川省",
            "city": "广安市",
            "district": "邻水县"
        }
    },
    {
        "id": "17713543905755388483",
        "title": "公共厕所",
        "address": "四川省广安市前锋区广前大道兴盛小区",
        "tel": "",
        "category": "基础设施:公共设施:公共厕所",
        "type": 0,
        "location": {
            "lat": 30.499127,
            "lng": 106.893611
        },
        "ad_info": {
            "adcode": 511603,
            "province": "四川省",
            "city": "广安市",
            "district": "前锋区"
        }
    },
    {
        "id": "9721026213921962506",
        "title": "公共厕所",
        "address": "四川省广安市岳池县园田巷与园田路交叉口正南方向38米左右",
        "tel": "",
        "category": "基础设施:公共设施:公共厕所",
        "type": 0,
        "location": {
            "lat": 30.535088,
            "lng": 106.444289
        },
        "ad_info": {
            "adcode": 511621,
            "province": "四川省",
            "city": "广安市",
            "district": "岳池县"
        }
    },
    {
        "id": "3520952047083292890",
        "title": "公共厕所",
        "address": "四川省广安市岳池县新马路与银城南路交叉口正西方向56米左右",
        "tel": "",
        "category": "基础设施:公共设施:公共厕所",
        "type": 0,
        "location": {
            "lat": 30.528655,
            "lng": 106.437689
        },
        "ad_info": {
            "adcode": 511621,
            "province": "四川省",
            "city": "广安市",
            "district": "岳池县"
        }
    },
    {
        "id": "10679977125946122603",
        "title": "公共厕所",
        "address": "四川省广安市广安区河街与滨江路南段辅路交叉口东南方向187米左右",
        "tel": "",
        "category": "基础设施:公共设施:公共厕所",
        "type": 0,
        "location": {
            "lat": 30.462803,
            "lng": 106.649652
        },
        "ad_info": {
            "adcode": 511602,
            "province": "四川省",
            "city": "广安市",
            "district": "广安区"
        }
    },
    {
        "id": "7514992459908666102",
        "title": "公共厕所",
        "address": "四川省广安市岳池县东湖路东湖公园(西南角)",
        "tel": "",
        "category": "基础设施:公共设施:公共厕所",
        "type": 0,
        "location": {
            "lat": 30.541749,
            "lng": 106.455835
        },
        "ad_info": {
            "adcode": 511621,
            "province": "四川省",
            "city": "广安市",
            "district": "岳池县"
        }
    },
    {
        "id": "15928930002944424141",
        "title": "公共厕所",
        "address": "四川省广安市前锋区滨河东路26号",
        "tel": "",
        "category": "基础设施:公共设施:公共厕所",
        "type": 0,
        "location": {
            "lat": 30.492788,
            "lng": 106.893595
        },
        "ad_info": {
            "adcode": 511603,
            "province": "四川省",
            "city": "广安市",
            "district": "前锋区"
        }
    },
    {
        "id": "15017247713580171030",
        "title": "公共厕所",
        "address": "四川省广安市广安区广门路15号",
        "tel": "",
        "category": "基础设施:公共设施:公共厕所",
        "type": 0,
        "location": {
            "lat": 30.46822,
            "lng": 106.64028
        },
        "ad_info": {
            "adcode": 511602,
            "province": "四川省",
            "city": "广安市",
            "district": "广安区"
        }
    },
    {
        "id": "4210837950264645343",
        "title": "广安服务区公共厕所",
        "address": "四川省广安市广安区银昆高速",
        "tel": "",
        "category": "基础设施:公共设施:公共厕所",
        "type": 0,
        "location": {
            "lat": 30.533972,
            "lng": 106.583233
        },
        "ad_info": {
            "adcode": 511602,
            "province": "四川省",
            "city": "广安市",
            "district": "广安区"
        }
    },
    {
        "id": "6849642351247249456",
        "title": "公共厕所",
        "address": "四川省广安市岳池县丝绸路与滨河西路交叉口正南方向111米左右",
        "tel": "",
        "category": "基础设施:公共设施:公共厕所",
        "type": 0,
        "location": {
            "lat": 30.527052,
            "lng": 106.452632
        },
        "ad_info": {
            "adcode": 511621,
            "province": "四川省",
            "city": "广安市",
            "district": "岳池县"
        }
    },
    {
        "id": "7740291219305156411",
        "title": "万兴公共厕所",
        "address": "四川省广安市邻水县万兴北路与万兴大道交叉口正北方向108米左右",
        "tel": "",
        "category": "基础设施:公共设施:公共厕所",
        "type": 0,
        "location": {
            "lat": 30.327521,
            "lng": 106.928207
        },
        "ad_info": {
            "adcode": 511623,
            "province": "四川省",
            "city": "广安市",
            "district": "邻水县"
        }
    },
    {
        "id": "6001899513105625255",
        "title": "公共厕所",
        "address": "四川省广安市岳池县滨河东路与滨河东路东一路交叉口正西方向145米左右",
        "tel": "",
        "category": "基础设施:公共设施:公共厕所",
        "type": 0,
        "location": {
            "lat": 30.524841,
            "lng": 106.44985
        },
        "ad_info": {
            "adcode": 511621,
            "province": "四川省",
            "city": "广安市",
            "district": "岳池县"
        }
    },
    {
        "id": "3566205583797720757",
        "title": "公共厕所",
        "address": "四川省广安市岳池县丝绸路中国石油银城加油站",
        "tel": "",
        "category": "基础设施:公共设施:公共厕所",
        "type": 0,
        "location": {
            "lat": 30.527962,
            "lng": 106.446774
        },
        "ad_info": {
            "adcode": 511621,
            "province": "四川省",
            "city": "广安市",
            "district": "岳池县"
        }
    },
    {
        "id": "7346565170488084646",
        "title": "武胜站公共厕所",
        "address": "四川省广安市武胜县武胜站站前广场西南侧160米",
        "tel": "",
        "category": "基础设施:公共设施:公共厕所",
        "type": 0,
        "location": {
            "lat": 30.368397,
            "lng": 106.106351
        },
        "ad_info": {
            "adcode": 511622,
            "province": "四川省",
            "city": "广安市",
            "district": "武胜县"
        }
    },
    {
        "id": "9750556430981079903",
        "title": "公共厕所",
        "address": "四川省广安市武胜县仁和街与小河街交叉口西南方向23米左右",
        "tel": "",
        "category": "基础设施:公共设施:公共厕所",
        "type": 0,
        "location": {
            "lat": 30.344071,
            "lng": 106.294823
        },
        "ad_info": {
            "adcode": 511622,
            "province": "四川省",
            "city": "广安市",
            "district": "武胜县"
        }
    },
    {
        "id": "641649277140973902",
        "title": "公共厕所",
        "address": "四川省广安市广安区星河街东阳国际酒店",
        "tel": "",
        "category": "基础设施:公共设施:公共厕所",
        "type": 0,
        "location": {
            "lat": 30.459791,
            "lng": 106.64104
        },
        "ad_info": {
            "adcode": 511602,
            "province": "四川省",
            "city": "广安市",
            "district": "广安区"
        }
    },
    {
        "id": "1965226976818490102",
        "title": "公共厕所",
        "address": "四川省广安市武胜县光明路与兴武大道交叉口西南方向114米左右",
        "tel": "",
        "category": "基础设施:公共设施:公共厕所",
        "type": 0,
        "location": {
            "lat": 30.337518,
            "lng": 106.288851
        },
        "ad_info": {
            "adcode": 511622,
            "province": "四川省",
            "city": "广安市",
            "district": "武胜县"
        }
    },
    {
        "id": "3293651593150814479",
        "title": "私人厕所",
        "address": "四川省广安市邻水县",
        "tel": "",
        "category": "基础设施:公共设施:公共厕所",
        "type": 0,
        "location": {
            "lat": 30.336952,
            "lng": 106.934186
        },
        "ad_info": {
            "adcode": 511623,
            "province": "四川省",
            "city": "广安市",
            "district": "邻水县"
        }
    },
    {
        "id": "11328490295550877590",
        "title": "公共厕所",
        "address": "四川省广安市武胜县庙山街与弘武大道交叉口西北方向243米左右",
        "tel": "",
        "category": "基础设施:公共设施:公共厕所",
        "type": 0,
        "location": {
            "lat": 30.342977,
            "lng": 106.278234
        },
        "ad_info": {
            "adcode": 511622,
            "province": "四川省",
            "city": "广安市",
            "district": "武胜县"
        }
    },
    {
        "id": "414684087562743765",
        "title": "免费公共厕所",
        "address": "四川省广安市邻水县万兴中路与万兴大道交叉口正东方向118米左右",
        "tel": "",
        "category": "基础设施:公共设施:公共厕所",
        "type": 0,
        "location": {
            "lat": 30.325066,
            "lng": 106.929109
        },
        "ad_info": {
            "adcode": 511623,
            "province": "四川省",
            "city": "广安市",
            "district": "邻水县"
        }
    },
    {
        "id": "2170351711914814246",
        "title": "公共厕所",
        "address": "四川省广安市邻水县黄桷西路公园王府",
        "tel": "",
        "category": "基础设施:公共设施:公共厕所",
        "type": 0,
        "location": {
            "lat": 30.343622,
            "lng": 106.932591
        },
        "ad_info": {
            "adcode": 511623,
            "province": "四川省",
            "city": "广安市",
            "district": "邻水县"
        }
    },
    {
        "id": "1142633322550452105",
        "title": "公共厕所",
        "address": "四川省广安市武胜县解放街与锅市街交叉口正北方向121米左右",
        "tel": "",
        "category": "基础设施:公共设施:公共厕所",
        "type": 0,
        "location": {
            "lat": 30.356269,
            "lng": 106.289451
        },
        "ad_info": {
            "adcode": 511622,
            "province": "四川省",
            "city": "广安市",
            "district": "武胜县"
        }
    },
    {
        "id": "9325083689860743606",
        "title": "飞龙服务区公共厕所",
        "address": "四川省广安市武胜县飞龙镇S18附近",
        "tel": "",
        "category": "基础设施:公共设施:公共厕所",
        "type": 0,
        "location": {
            "lat": 30.400581,
            "lng": 106.372107
        },
        "ad_info": {
            "adcode": 511622,
            "province": "四川省",
            "city": "广安市",
            "district": "武胜县"
        }
    },
    {
        "id": "14648696745324133426",
        "title": "邻水服务区公共厕所",
        "address": "四川省广安市邻水县乐融街与牟泰路交叉口正南方向289米左右",
        "tel": "",
        "category": "基础设施:公共设施:公共厕所",
        "type": 0,
        "location": {
            "lat": 30.24776,
            "lng": 106.886964
        },
        "ad_info": {
            "adcode": 511623,
            "province": "四川省",
            "city": "广安市",
            "district": "邻水县"
        }
    },
    {
        "id": "14353597509231015028",
        "title": "公共厕所",
        "address": "四川省广安市邻水县古邻大道与汇龙巷交叉口正西方向80米左右",
        "tel": "",
        "category": "基础设施:公共设施:公共厕所",
        "type": 0,
        "location": {
            "lat": 30.340741,
            "lng": 106.937701
        },
        "ad_info": {
            "adcode": 511623,
            "province": "四川省",
            "city": "广安市",
            "district": "邻水县"
        }
    },
    {
        "id": "10616609236465928009",
        "title": "公共厕所",
        "address": "四川省广安市邻水县乌龟碑街与长宁街交叉口东南方向72米左右",
        "tel": "",
        "category": "基础设施:公共设施:公共厕所",
        "type": 0,
        "location": {
            "lat": 30.328873,
            "lng": 106.934371
        },
        "ad_info": {
            "adcode": 511623,
            "province": "四川省",
            "city": "广安市",
            "district": "邻水县"
        }
    },
    {
        "id": "18372750656276033608",
        "title": "公共厕所",
        "address": "四川省广安市邻水县古邻大道南段与渝邻大道交叉口东南方向55米左右",
        "tel": "",
        "category": "基础设施:公共设施:公共厕所",
        "type": 0,
        "location": {
            "lat": 30.320108,
            "lng": 106.932923
        },
        "ad_info": {
            "adcode": 511623,
            "province": "四川省",
            "city": "广安市",
            "district": "邻水县"
        }
    },
    {
        "id": "9616395482978308359",
        "title": "武胜服务区公共厕所",
        "address": "四川省广安市武胜县沿口镇金银坎兰海高速公路武胜服务区",
        "tel": "",
        "category": "基础设施:公共设施:公共厕所",
        "type": 0,
        "location": {
            "lat": 30.37659,
            "lng": 106.295942
        },
        "ad_info": {
            "adcode": 511622,
            "province": "四川省",
            "city": "广安市",
            "district": "武胜县"
        }
    },
    {
        "id": "8995873176660907364",
        "title": "荆坪服务区公共厕所",
        "address": "四川省广安市邻水县新农街与荆兴街交叉口东南方向540米左右",
        "tel": "",
        "category": "基础设施:公共设施:公共厕所",
        "type": 0,
        "location": {
            "lat": 30.257286,
            "lng": 107.080847
        },
        "ad_info": {
            "adcode": 511623,
            "province": "四川省",
            "city": "广安市",
            "district": "邻水县"
        }
    },
    {
        "id": "10578982626837795774",
        "title": "飞龙服务区公共厕所",
        "address": "四川省广安市武胜县Y221与飞龙南路交叉口西南方向1749米左右",
        "tel": "",
        "category": "基础设施:公共设施:公共厕所",
        "type": 0,
        "location": {
            "lat": 30.402759,
            "lng": 106.375552
        },
        "ad_info": {
            "adcode": 511622,
            "province": "四川省",
            "city": "广安市",
            "district": "武胜县"
        }
    },
    {
        "id": "17182911902934045453",
        "title": "岳池服务区公共厕所",
        "address": "四川省广安市岳池县Y107与大石街交叉口正北方向1920米左右",
        "tel": "",
        "category": "基础设施:公共设施:公共厕所",
        "type": 0,
        "location": {
            "lat": 30.534943,
            "lng": 106.512228
        },
        "ad_info": {
            "adcode": 511621,
            "province": "四川省",
            "city": "广安市",
            "district": "岳池县"
        }
    },
    {
        "id": "17448445504372478525",
        "title": "武胜服务区公共厕所",
        "address": "四川省广安市武胜县兰海高速武胜服务区",
        "tel": "",
        "category": "基础设施:公共设施:公共厕所",
        "type": 0,
        "location": {
            "lat": 30.37825,
            "lng": 106.297366
        },
        "ad_info": {
            "adcode": 511622,
            "province": "四川省",
            "city": "广安市",
            "district": "武胜县"
        }
    },
    {
        "id": "10660976959319253908",
        "title": "邻水服务区公共厕所",
        "address": "四川省广安市邻水县邻水服务区(包茂高速公路东)",
        "tel": "",
        "category": "基础设施:公共设施:公共厕所",
        "type": 0,
        "location": {
            "lat": 30.245724,
            "lng": 106.887803
        },
        "ad_info": {
            "adcode": 511623,
            "province": "四川省",
            "city": "广安市",
            "district": "邻水县"
        }
    },
    {
        "id": "4516458247315729363",
        "title": "公共厕所",
        "address": "四川省广安市广安区兴安下街与建安中路交叉口东南方向81米左右",
        "tel": "",
        "category": "基础设施:公共设施:公共厕所",
        "type": 0,
        "location": {
            "lat": 30.455098,
            "lng": 106.640267
        },
        "ad_info": {
            "adcode": 511602,
            "province": "四川省",
            "city": "广安市",
            "district": "广安区"
        }
    },
    {
        "id": "13528228241669739036",
        "title": "公共厕所",
        "address": "四川省广安市邻水县G350与老柳街交叉口东北方向1539米左右",
        "tel": "",
        "category": "基础设施:公共设施:公共厕所",
        "type": 0,
        "location": {
            "lat": 30.265208,
            "lng": 107.145329
        },
        "ad_info": {
            "adcode": 511623,
            "province": "四川省",
            "city": "广安市",
            "district": "邻水县"
        }
    },
    {
        "id": "14259618114441204163",
        "title": "公共厕所(SC-GA-0024)",
        "address": "四川省广安市华蓥市兴旺街与阳和新街交叉口正东方向128米左右",
        "tel": "",
        "category": "基础设施:公共设施:公共厕所",
        "type": 0,
        "location": {
            "lat": 30.30477,
            "lng": 106.743727
        },
        "ad_info": {
            "adcode": 511681,
            "province": "四川省",
            "city": "广安市",
            "district": "华蓥市"
        }
    },
    {
        "id": "8503864909695507327",
        "title": "公共厕所",
        "address": "四川省广安市岳池县兴隆街与小兴街交叉口正北方向24米左右",
        "tel": "",
        "category": "基础设施:公共设施:公共厕所",
        "type": 0,
        "location": {
            "lat": 30.640313,
            "lng": 106.316728
        },
        "ad_info": {
            "adcode": 511621,
            "province": "四川省",
            "city": "广安市",
            "district": "岳池县"
        }
    },
    {
        "id": "13372147486888177396",
        "title": "广安服务区公共厕所",
        "address": "四川省广安市广安区G85银昆高速与广安服务区交叉口西南220米",
        "tel": "",
        "category": "基础设施:公共设施:公共厕所",
        "type": 0,
        "location": {
            "lat": 30.535358,
            "lng": 106.581179
        },
        "ad_info": {
            "adcode": 511602,
            "province": "四川省",
            "city": "广安市",
            "district": "广安区"
        }
    },
    {
        "id": "11458252318288044494",
        "title": "公共厕所",
        "address": "四川省广安市武胜县上东街58号",
        "tel": "",
        "category": "基础设施:公共设施:公共厕所",
        "type": 0,
        "location": {
            "lat": 30.350335,
            "lng": 106.29141
        },
        "ad_info": {
            "adcode": 511622,
            "province": "四川省",
            "city": "广安市",
            "district": "武胜县"
        }
    },
    {
        "id": "13489362568810689347",
        "title": "公共厕所",
        "address": "四川省广安市华蓥市同心路与开元路交叉口西北方向959米左右",
        "tel": "",
        "category": "基础设施:公共设施:公共厕所",
        "type": 0,
        "location": {
            "lat": 30.462859,
            "lng": 106.812378
        },
        "ad_info": {
            "adcode": 511681,
            "province": "四川省",
            "city": "广安市",
            "district": "华蓥市"
        }
    },
    {
        "id": "1596910033852948571",
        "title": "公共厕所",
        "address": "四川省广安市岳池县坪滩镇卫生院-预防接种门诊西南侧190米",
        "tel": "",
        "category": "基础设施:公共设施:公共厕所",
        "type": 0,
        "location": {
            "lat": 30.469976,
            "lng": 106.153325
        },
        "ad_info": {
            "adcode": 511621,
            "province": "四川省",
            "city": "广安市",
            "district": "岳池县"
        }
    },
    {
        "id": "6199970312572484201",
        "title": "公共厕所",
        "address": "四川省广安市华蓥市三号桥与兴坪街交叉口正南方向279米左右",
        "tel": "",
        "category": "基础设施:公共设施:公共厕所",
        "type": 0,
        "location": {
            "lat": 30.383166,
            "lng": 106.766351
        },
        "ad_info": {
            "adcode": 511681,
            "province": "四川省",
            "city": "广安市",
            "district": "华蓥市"
        }
    },
    {
        "id": "9184163933713011162",
        "title": "公共厕所",
        "address": "四川省广安市前锋区桂南路与老天路交叉口东北方向85米左右",
        "tel": "",
        "category": "基础设施:公共设施:公共厕所",
        "type": 0,
        "location": {
            "lat": 30.466661,
            "lng": 106.90429
        },
        "ad_info": {
            "adcode": 511603,
            "province": "四川省",
            "city": "广安市",
            "district": "前锋区"
        }
    },
    {
        "id": "4987514126462698761",
        "title": "公共厕所",
        "address": "四川省广安市岳池县公园三号",
        "tel": "",
        "category": "基础设施:公共设施:公共厕所",
        "type": 0,
        "location": {
            "lat": 30.521475,
            "lng": 106.464372
        },
        "ad_info": {
            "adcode": 511621,
            "province": "四川省",
            "city": "广安市",
            "district": "岳池县"
        }
    },
    {
        "id": "2219686048936699899",
        "title": "公共厕所",
        "address": "四川省广安市邻水县G210与思安路交叉口西南方向52米左右",
        "tel": "",
        "category": "基础设施:公共设施:公共厕所",
        "type": 0,
        "location": {
            "lat": 30.182844,
            "lng": 106.833484
        },
        "ad_info": {
            "adcode": 511623,
            "province": "四川省",
            "city": "广安市",
            "district": "邻水县"
        }
    },
    {
        "id": "4356456253086943454",
        "title": "公共厕所",
        "address": "四川省广安市广安区福兴大道与福寿街交叉口正西方向365米左右",
        "tel": "",
        "category": "基础设施:公共设施:公共厕所",
        "type": 0,
        "location": {
            "lat": 30.496773,
            "lng": 106.637079
        },
        "ad_info": {
            "adcode": 511602,
            "province": "四川省",
            "city": "广安市",
            "district": "广安区"
        }
    },
    {
        "id": "10077651698284864590",
        "title": "公共厕所",
        "address": "四川省广安市广安区劳动街120号",
        "tel": "",
        "category": "基础设施:公共设施:公共厕所",
        "type": 0,
        "location": {
            "lat": 30.458275,
            "lng": 106.626499
        },
        "ad_info": {
            "adcode": 511602,
            "province": "四川省",
            "city": "广安市",
            "district": "广安区"
        }
    },
    {
        "id": "2664035116407081767",
        "title": "公共厕所",
        "address": "四川省广安市华蓥市明光路246号",
        "tel": "",
        "category": "基础设施:公共设施:公共厕所",
        "type": 0,
        "location": {
            "lat": 30.36963,
            "lng": 106.773857
        },
        "ad_info": {
            "adcode": 511681,
            "province": "四川省",
            "city": "广安市",
            "district": "华蓥市"
        }
    },
    {
        "id": "5320619851037166600",
        "title": "公共厕所",
        "address": "四川省广安市华蓥市明光路与桂花路交叉口正北方向30米左右",
        "tel": "",
        "category": "基础设施:公共设施:公共厕所",
        "type": 0,
        "location": {
            "lat": 30.374707,
            "lng": 106.776281
        },
        "ad_info": {
            "adcode": 511681,
            "province": "四川省",
            "city": "广安市",
            "district": "华蓥市"
        }
    },
    {
        "id": "16927592860298744226",
        "title": "公共卫生间",
        "address": "四川省广安市岳池县兴酉街东街与文广路交叉口东北方向304米左右",
        "tel": "",
        "category": "基础设施:公共设施:公共厕所",
        "type": 0,
        "location": {
            "lat": 30.573914,
            "lng": 106.284062
        },
        "ad_info": {
            "adcode": 511621,
            "province": "四川省",
            "city": "广安市",
            "district": "岳池县"
        }
    },
    {
        "id": "7314923240357675735",
        "title": "公共厕所",
        "address": "四川省广安市广安区G318与S205交叉口正东方向1680米左右",
        "tel": "",
        "category": "基础设施:公共设施:公共厕所",
        "type": 0,
        "location": {
            "lat": 30.785658,
            "lng": 106.723229
        },
        "ad_info": {
            "adcode": 511602,
            "province": "四川省",
            "city": "广安市",
            "district": "广安区"
        }
    },
    {
        "id": "10336504217514979535",
        "title": "岳池服务区公共厕所",
        "address": "四川省广安市岳池县花园镇沪蓉高速公路岳池服务区附近",
        "tel": "",
        "category": "基础设施:公共设施:公共厕所",
        "type": 0,
        "location": {
            "lat": 30.536889,
            "lng": 106.512871
        },
        "ad_info": {
            "adcode": 511621,
            "province": "四川省",
            "city": "广安市",
            "district": "岳池县"
        }
    },
    {
        "id": "2251989909319289015",
        "title": "公共厕所",
        "address": "四川省广安市邻水县古邻大道南段与金源路交叉口正北方向61米左右",
        "tel": "",
        "category": "基础设施:公共设施:公共厕所",
        "type": 0,
        "location": {
            "lat": 30.326923,
            "lng": 106.935827
        },
        "ad_info": {
            "adcode": 511623,
            "province": "四川省",
            "city": "广安市",
            "district": "邻水县"
        }
    },
    {
        "id": "7187417742878268141",
        "title": "公共厕所",
        "address": "四川省广安市华蓥市",
        "tel": "",
        "category": "基础设施:公共设施:公共厕所",
        "type": 0,
        "location": {
            "lat": 30.323784,
            "lng": 106.828085
        },
        "ad_info": {
            "adcode": 511681,
            "province": "四川省",
            "city": "广安市",
            "district": "华蓥市"
        }
    },
    {
        "id": "10614571796263854351",
        "title": "公共厕所",
        "address": "四川省广安市广安区凌云路137-139号",
        "tel": "",
        "category": "基础设施:公共设施:公共厕所",
        "type": 0,
        "location": {
            "lat": 30.458337,
            "lng": 106.643819
        },
        "ad_info": {
            "adcode": 511602,
            "province": "四川省",
            "city": "广安市",
            "district": "广安区"
        }
    },
    {
        "id": "2411313142203329060",
        "title": "公共厕所",
        "address": "四川省广安市前锋区广前公路与科塔大道中段交叉口东北方向174米左右",
        "tel": "",
        "category": "基础设施:公共设施:公共厕所",
        "type": 0,
        "location": {
            "lat": 30.497318,
            "lng": 106.847493
        },
        "ad_info": {
            "adcode": 511603,
            "province": "四川省",
            "city": "广安市",
            "district": "前锋区"
        }
    },
    {
        "id": "7067673518653980386",
        "title": "公共厕所",
        "address": "四川省广安市岳池县G244与金城大街下段交叉口正南方向172米左右",
        "tel": "",
        "category": "基础设施:公共设施:公共厕所",
        "type": 0,
        "location": {
            "lat": 30.653227,
            "lng": 106.466632
        },
        "ad_info": {
            "adcode": 511621,
            "province": "四川省",
            "city": "广安市",
            "district": "岳池县"
        }
    },
    {
        "id": "3327863709446918677",
        "title": "公共厕所",
        "address": "四川省广安市广安区新街1号南新街与老南街交汇处",
        "tel": "",
        "category": "基础设施:公共设施:公共厕所",
        "type": 0,
        "location": {
            "lat": 30.469151,
            "lng": 106.642538
        },
        "ad_info": {
            "adcode": 511602,
            "province": "四川省",
            "city": "广安市",
            "district": "广安区"
        }
    },
    {
        "id": "17722016258249700015",
        "title": "公共厕所",
        "address": "四川省广安市武胜县人民北路与人民南路交叉口正东方向93米左右",
        "tel": "",
        "category": "基础设施:公共设施:公共厕所",
        "type": 0,
        "location": {
            "lat": 30.472707,
            "lng": 106.090424
        },
        "ad_info": {
            "adcode": 511622,
            "province": "四川省",
            "city": "广安市",
            "district": "武胜县"
        }
    },
    {
        "id": "9243680842092518657",
        "title": "公共厕所",
        "address": "四川省广安市广安区五福西路与滨河路一段交叉口正西方向51米左右",
        "tel": "",
        "category": "基础设施:公共设施:公共厕所",
        "type": 0,
        "location": {
            "lat": 30.451703,
            "lng": 106.625344
        },
        "ad_info": {
            "adcode": 511602,
            "province": "四川省",
            "city": "广安市",
            "district": "广安区"
        }
    },
    {
        "id": "10412634962153339569",
        "title": "公共厕所",
        "address": "四川省广安市广安区洞子沟街与祖寺街交叉口东北方向24米左右",
        "tel": "",
        "category": "基础设施:公共设施:公共厕所",
        "type": 0,
        "location": {
            "lat": 30.443929,
            "lng": 106.623645
        },
        "ad_info": {
            "adcode": 511602,
            "province": "四川省",
            "city": "广安市",
            "district": "广安区"
        }
    },
    {
        "id": "16729243334361178375",
        "title": "公共厕所",
        "address": "四川省广安市广安区滨江路南段与新平街交叉口东20米",
        "tel": "",
        "category": "基础设施:公共设施:公共厕所",
        "type": 0,
        "location": {
            "lat": 30.466999,
            "lng": 106.640561
        },
        "ad_info": {
            "adcode": 511602,
            "province": "四川省",
            "city": "广安市",
            "district": "广安区"
        }
    },
    {
        "id": "6502241074350788718",
        "title": "公共厕所",
        "address": "四川省广安市广安区建安中路与建安南路交叉口西南方向133米左右",
        "tel": "",
        "category": "基础设施:公共设施:公共厕所",
        "type": 0,
        "location": {
            "lat": 30.452392,
            "lng": 106.636739
        },
        "ad_info": {
            "adcode": 511602,
            "province": "四川省",
            "city": "广安市",
            "district": "广安区"
        }
    },
    {
        "id": "7526524678534288073",
        "title": "公共厕所",
        "address": "四川省广安市岳池县广高路与万河街交叉口西380米",
        "tel": "",
        "category": "基础设施:公共设施:公共厕所",
        "type": 0,
        "location": {
            "lat": 30.562663,
            "lng": 106.324254
        },
        "ad_info": {
            "adcode": 511621,
            "province": "四川省",
            "city": "广安市",
            "district": "岳池县"
        }
    },
    {
        "id": "15585878469532193766",
        "title": "公共厕所",
        "address": "四川省广安市岳池县广泸高速与广洪高速交叉口正南方向792米左右",
        "tel": "",
        "category": "基础设施:公共设施:公共厕所",
        "type": 0,
        "location": {
            "lat": 30.398489,
            "lng": 106.549528
        },
        "ad_info": {
            "adcode": 511621,
            "province": "四川省",
            "city": "广安市",
            "district": "岳池县"
        }
    },
    {
        "id": "13917878133019117093",
        "title": "公共厕所",
        "address": "四川省广安市邻水县古邻大道南段与御城路交叉口正西方向147米左右",
        "tel": "",
        "category": "基础设施:公共设施:公共厕所",
        "type": 0,
        "location": {
            "lat": 30.325162,
            "lng": 106.933761
        },
        "ad_info": {
            "adcode": 511623,
            "province": "四川省",
            "city": "广安市",
            "district": "邻水县"
        }
    },
    {
        "id": "13899832959879937490",
        "title": "公共厕所",
        "address": "四川省广安市华蓥市S203庆华加油站",
        "tel": "",
        "category": "基础设施:公共设施:公共厕所",
        "type": 0,
        "location": {
            "lat": 30.219216,
            "lng": 106.662746
        },
        "ad_info": {
            "adcode": 511681,
            "province": "四川省",
            "city": "广安市",
            "district": "华蓥市"
        }
    },
    {
        "id": "16090681920921087391",
        "title": "公共卫生间",
        "address": "四川省广安市广安区服装街与枣山街交叉口东南方向94米左右",
        "tel": "",
        "category": "基础设施:公共设施:公共厕所",
        "type": 0,
        "location": {
            "lat": 30.449142,
            "lng": 106.60792
        },
        "ad_info": {
            "adcode": 511602,
            "province": "四川省",
            "city": "广安市",
            "district": "广安区"
        }
    },
    {
        "id": "17844598113371539705",
        "title": "公共厕所",
        "address": "四川省广安市广安区广泸高速与广洪高速交叉口正北方向1343米左右",
        "tel": "",
        "category": "基础设施:公共设施:公共厕所",
        "type": 0,
        "location": {
            "lat": 30.419211,
            "lng": 106.55785
        },
        "ad_info": {
            "adcode": 511602,
            "province": "四川省",
            "city": "广安市",
            "district": "广安区"
        }
    },
    {
        "id": "13693539912090998597",
        "title": "公共厕所",
        "address": "四川省广安市广安区洪洲大道东段北辰湖",
        "tel": "",
        "category": "基础设施:公共设施:公共厕所",
        "type": 0,
        "location": {
            "lat": 30.482865,
            "lng": 106.644351
        },
        "ad_info": {
            "adcode": 511602,
            "province": "四川省",
            "city": "广安市",
            "district": "广安区"
        }
    },
    {
        "id": "16033322842369802604",
        "title": "公共厕所",
        "address": "四川省广安市武胜县东关路与新建街交叉口东北方向240米左右",
        "tel": "",
        "category": "基础设施:公共设施:公共厕所",
        "type": 0,
        "location": {
            "lat": 30.478668,
            "lng": 106.092093
        },
        "ad_info": {
            "adcode": 511622,
            "province": "四川省",
            "city": "广安市",
            "district": "武胜县"
        }
    },
    {
        "id": "9993951292193728825",
        "title": "公共厕所",
        "address": "四川省广安市岳池县龙湖南路一段与龙湖南路二段交叉口西北方向498米左右",
        "tel": "",
        "category": "基础设施:公共设施:公共厕所",
        "type": 0,
        "location": {
            "lat": 30.521849,
            "lng": 106.473031
        },
        "ad_info": {
            "adcode": 511621,
            "province": "四川省",
            "city": "广安市",
            "district": "岳池县"
        }
    },
    {
        "id": "713100633189194475",
        "title": "公共厕所",
        "address": "四川省广安市邻水县汉驭路与渝邻大道交叉口正东方向37米左右",
        "tel": "",
        "category": "基础设施:公共设施:公共厕所",
        "type": 0,
        "location": {
            "lat": 30.311963,
            "lng": 106.92431
        },
        "ad_info": {
            "adcode": 511623,
            "province": "四川省",
            "city": "广安市",
            "district": "邻水县"
        }
    },
    {
        "id": "7236654796584310972",
        "title": "公共厕所",
        "address": "四川省广安市岳池县广高路与狮子坡路同天段交叉口东南方向167米左右",
        "tel": "",
        "category": "基础设施:公共设施:公共厕所",
        "type": 0,
        "location": {
            "lat": 30.511385,
            "lng": 106.460826
        },
        "ad_info": {
            "adcode": 511621,
            "province": "四川省",
            "city": "广安市",
            "district": "岳池县"
        }
    },
    {
        "id": "13261539049453302739",
        "title": "公共厕所",
        "address": "四川省广安市武胜县印山街与石桥路交叉口正南方向21米左右",
        "tel": "",
        "category": "基础设施:公共设施:公共厕所",
        "type": 0,
        "location": {
            "lat": 30.340932,
            "lng": 106.291867
        },
        "ad_info": {
            "adcode": 511622,
            "province": "四川省",
            "city": "广安市",
            "district": "武胜县"
        }
    },
    {
        "id": "11814458913270664044",
        "title": "公共厕所",
        "address": "四川省广安市广安区穿石乡小学校南侧50米",
        "tel": "",
        "category": "基础设施:公共设施:公共厕所",
        "type": 0,
        "location": {
            "lat": 30.42205,
            "lng": 106.620195
        },
        "ad_info": {
            "adcode": 511602,
            "province": "四川省",
            "city": "广安市",
            "district": "广安区"
        }
    },
    {
        "id": "9790035023081538018",
        "title": "公共厕所",
        "address": "四川省广安市广安区环溪一巷与环溪一路交叉口西南方向42米左右",
        "tel": "",
        "category": "基础设施:公共设施:公共厕所",
        "type": 0,
        "location": {
            "lat": 30.456769,
            "lng": 106.622328
        },
        "ad_info": {
            "adcode": 511602,
            "province": "四川省",
            "city": "广安市",
            "district": "广安区"
        }
    },
    {
        "id": "8325477563182995313",
        "title": "无障碍公共厕所",
        "address": "四川省广安市广安区四川大学华西医院(广安医院)东北",
        "tel": "",
        "category": "基础设施:公共设施:公共厕所",
        "type": 0,
        "location": {
            "lat": 30.453046,
            "lng": 106.647128
        },
        "ad_info": {
            "adcode": 511602,
            "province": "四川省",
            "city": "广安市",
            "district": "广安区"
        }
    },
    {
        "id": "5894832144627509214",
        "title": "公共厕所",
        "address": "四川省广安市前锋区广前大道与李子园街交叉口正西方向147米左右",
        "tel": "",
        "category": "基础设施:公共设施:公共厕所",
        "type": 0,
        "location": {
            "lat": 30.502953,
            "lng": 106.895677
        },
        "ad_info": {
            "adcode": 511603,
            "province": "四川省",
            "city": "广安市",
            "district": "前锋区"
        }
    },
    {
        "id": "18325113510188801197",
        "title": "公共厕所",
        "address": "四川省广安市武胜县滨江街与跃进路交叉口西北方向585米左右",
        "tel": "",
        "category": "基础设施:公共设施:公共厕所",
        "type": 0,
        "location": {
            "lat": 30.471861,
            "lng": 106.134998
        },
        "ad_info": {
            "adcode": 511622,
            "province": "四川省",
            "city": "广安市",
            "district": "武胜县"
        }
    },
    {
        "id": "4636438435899500279",
        "title": "公共厕所",
        "address": "四川省广安市广安区枣罗街与站前大道东段交叉口东南方向164米左右",
        "tel": "",
        "category": "基础设施:公共设施:公共厕所",
        "type": 0,
        "location": {
            "lat": 30.443241,
            "lng": 106.604099
        },
        "ad_info": {
            "adcode": 511602,
            "province": "四川省",
            "city": "广安市",
            "district": "广安区"
        }
    },
    {
        "id": "10508300298609788333",
        "title": "公共厕所",
        "address": "四川省广安市广安区龙旺街与龙桥街交叉口正西方向520米左右",
        "tel": "",
        "category": "基础设施:公共设施:公共厕所",
        "type": 0,
        "location": {
            "lat": 30.738579,
            "lng": 106.780251
        },
        "ad_info": {
            "adcode": 511602,
            "province": "四川省",
            "city": "广安市",
            "district": "广安区"
        }
    },
    {
        "id": "3405419818367614112",
        "title": "公共厕所",
        "address": "四川省广安市邻水县包茂高速与邻水枢纽交叉口正北方向349米左右",
        "tel": "",
        "category": "基础设施:公共设施:公共厕所",
        "type": 0,
        "location": {
            "lat": 30.312301,
            "lng": 106.938541
        },
        "ad_info": {
            "adcode": 511623,
            "province": "四川省",
            "city": "广安市",
            "district": "邻水县"
        }
    },
    {
        "id": "11675763745755256628",
        "title": "平安公园公共厕所",
        "address": "四川省广安市广安区兴华街与兴平街交叉口正西方向85米左右",
        "tel": "",
        "category": "基础设施:公共设施:公共厕所",
        "type": 0,
        "location": {
            "lat": 30.468154,
            "lng": 106.633783
        },
        "ad_info": {
            "adcode": 511602,
            "province": "四川省",
            "city": "广安市",
            "district": "广安区"
        }
    },
    {
        "id": "1357437198319057981",
        "title": "公共厕所",
        "address": "四川省广安市广安区佛手街51号",
        "tel": "",
        "category": "基础设施:公共设施:公共厕所",
        "type": 0,
        "location": {
            "lat": 30.534382,
            "lng": 106.642626
        },
        "ad_info": {
            "adcode": 511602,
            "province": "四川省",
            "city": "广安市",
            "district": "广安区"
        }
    },
    {
        "id": "16055647651881711887",
        "title": "公共厕所",
        "address": "四川省广安市华蓥市新华大道与红星一路西段交叉口东南方向206米左右",
        "tel": "",
        "category": "基础设施:公共设施:公共厕所",
        "type": 0,
        "location": {
            "lat": 30.386466,
            "lng": 106.773998
        },
        "ad_info": {
            "adcode": 511681,
            "province": "四川省",
            "city": "广安市",
            "district": "华蓥市"
        }
    },
    {
        "id": "2105887306197988013",
        "title": "公共厕所",
        "address": "四川省广安市前锋区奎阁大道与裕民路交叉口东南方向156米左右",
        "tel": "",
        "category": "基础设施:公共设施:公共厕所",
        "type": 0,
        "location": {
            "lat": 30.467708,
            "lng": 106.67455
        },
        "ad_info": {
            "adcode": 511603,
            "province": "四川省",
            "city": "广安市",
            "district": "前锋区"
        }
    },
    {
        "id": "8946146623753952698",
        "title": "公共厕所",
        "address": "四川省广安市岳池县上街与新街交叉口东北方向205米左右",
        "tel": "",
        "category": "基础设施:公共设施:公共厕所",
        "type": 0,
        "location": {
            "lat": 30.656738,
            "lng": 106.240276
        },
        "ad_info": {
            "adcode": 511621,
            "province": "四川省",
            "city": "广安市",
            "district": "岳池县"
        }
    },
    {
        "id": "11091617100719930335",
        "title": "公共厕所",
        "address": "四川省广安市华蓥市",
        "tel": "",
        "category": "基础设施:公共设施:公共厕所",
        "type": 0,
        "location": {
            "lat": 30.388712,
            "lng": 106.665741
        },
        "ad_info": {
            "adcode": 511681,
            "province": "四川省",
            "city": "广安市",
            "district": "华蓥市"
        }
    },
    {
        "id": "4761581481981609743",
        "title": "公共厕所",
        "address": "四川省广安市岳池县广场街与越江路交叉口正东方向50米左右",
        "tel": "",
        "category": "基础设施:公共设施:公共厕所",
        "type": 0,
        "location": {
            "lat": 30.491242,
            "lng": 106.204149
        },
        "ad_info": {
            "adcode": 511621,
            "province": "四川省",
            "city": "广安市",
            "district": "岳池县"
        }
    },
    {
        "id": "18240719393290343453",
        "title": "公共厕所",
        "address": "四川省广安市广安区凉亭街与广门路交叉口西南方向30米左右",
        "tel": "",
        "category": "基础设施:公共设施:公共厕所",
        "type": 0,
        "location": {
            "lat": 30.46353,
            "lng": 106.637037
        },
        "ad_info": {
            "adcode": 511602,
            "province": "四川省",
            "city": "广安市",
            "district": "广安区"
        }
    },
    {
        "id": "1397440733610723799",
        "title": "公共厕所",
        "address": "四川省广安市邻水县古邻大道南段与金源路交叉口正北方向122米左右",
        "tel": "",
        "category": "基础设施:公共设施:公共厕所",
        "type": 0,
        "location": {
            "lat": 30.327461,
            "lng": 106.935728
        },
        "ad_info": {
            "adcode": 511623,
            "province": "四川省",
            "city": "广安市",
            "district": "邻水县"
        }
    },
    {
        "id": "189467511358129675",
        "title": "公共厕所",
        "address": "四川省广安市广安区玉兔美好家园东南侧260米",
        "tel": "",
        "category": "基础设施:公共设施:公共厕所",
        "type": 0,
        "location": {
            "lat": 30.451368,
            "lng": 106.615498
        },
        "ad_info": {
            "adcode": 511602,
            "province": "四川省",
            "city": "广安市",
            "district": "广安区"
        }
    },
    {
        "id": "11347215211092005780",
        "title": "公共厕所",
        "address": "四川省广安市武胜县东街与太和街交叉口正北方向112米左右",
        "tel": "",
        "category": "基础设施:公共设施:公共厕所",
        "type": 0,
        "location": {
            "lat": 30.348989,
            "lng": 106.29864
        },
        "ad_info": {
            "adcode": 511622,
            "province": "四川省",
            "city": "广安市",
            "district": "武胜县"
        }
    },
    {
        "id": "2206982454885371911",
        "title": "公共厕所",
        "address": "四川省广安市邻水县挞子丘路与民生巷交叉口西北方向60米左右",
        "tel": "",
        "category": "基础设施:公共设施:公共厕所",
        "type": 0,
        "location": {
            "lat": 30.335614,
            "lng": 106.937426
        },
        "ad_info": {
            "adcode": 511623,
            "province": "四川省",
            "city": "广安市",
            "district": "邻水县"
        }
    },
    {
        "id": "13294776315675241220",
        "title": "公共厕所",
        "address": "四川省广安市广安区建安北路与渔林街交叉口东北方向236米左右",
        "tel": "",
        "category": "基础设施:公共设施:公共厕所",
        "type": 0,
        "location": {
            "lat": 30.463021,
            "lng": 106.640192
        },
        "ad_info": {
            "adcode": 511602,
            "province": "四川省",
            "city": "广安市",
            "district": "广安区"
        }
    },
    {
        "id": "14177581863741927104",
        "title": "公共厕所",
        "address": "四川省广安市前锋区深广渠江云谷",
        "tel": "",
        "category": "基础设施:公共设施:公共厕所",
        "type": 0,
        "location": {
            "lat": 30.466009,
            "lng": 106.68146
        },
        "ad_info": {
            "adcode": 511603,
            "province": "四川省",
            "city": "广安市",
            "district": "前锋区"
        }
    },
    {
        "id": "17619471896053172807",
        "title": "前锋服务区公共厕所",
        "address": "四川省广安市前锋区S15(SX)广安绕城高速与前锋服务区交叉口东南320米",
        "tel": "",
        "category": "基础设施:公共设施:公共厕所",
        "type": 0,
        "location": {
            "lat": 30.492742,
            "lng": 106.78752
        },
        "ad_info": {
            "adcode": 511603,
            "province": "四川省",
            "city": "广安市",
            "district": "前锋区"
        }
    },
    {
        "id": "7828431418641694523",
        "title": "公共厕所",
        "address": "四川省广安市前锋区正东街与观广路交叉口正北方向455米左右",
        "tel": "",
        "category": "基础设施:公共设施:公共厕所",
        "type": 0,
        "location": {
            "lat": 30.587946,
            "lng": 106.917102
        },
        "ad_info": {
            "adcode": 511603,
            "province": "四川省",
            "city": "广安市",
            "district": "前锋区"
        }
    },
    {
        "id": "2230520283751854412",
        "title": "葛麻场公共厕所",
        "address": "四川省广安市广安区广恒快速通道与苟梭路交叉口正东方向343米左右",
        "tel": "",
        "category": "基础设施:公共设施:公共厕所",
        "type": 0,
        "location": {
            "lat": 30.610607,
            "lng": 106.738198
        },
        "ad_info": {
            "adcode": 511602,
            "province": "四川省",
            "city": "广安市",
            "district": "广安区"
        }
    },
    {
        "id": "7210969862399210097",
        "title": "前锋服务区公共厕所",
        "address": "四川省广安市前锋区S15(SX)广安绕城高速与前锋服务区交叉口西南380米",
        "tel": "",
        "category": "基础设施:公共设施:公共厕所",
        "type": 0,
        "location": {
            "lat": 30.492158,
            "lng": 106.784989
        },
        "ad_info": {
            "adcode": 511603,
            "province": "四川省",
            "city": "广安市",
            "district": "前锋区"
        }
    },
    {
        "id": "5619654146501539156",
        "title": "公共厕所",
        "address": "四川省广安市邻水县广邻大道与邻山中路交叉口正北方向401米左右",
        "tel": "",
        "category": "基础设施:公共设施:公共厕所",
        "type": 0,
        "location": {
            "lat": 30.336277,
            "lng": 106.925622
        },
        "ad_info": {
            "adcode": 511623,
            "province": "四川省",
            "city": "广安市",
            "district": "邻水县"
        }
    },
    {
        "id": "10753290144508477453",
        "title": "公共厕所",
        "address": "四川省广安市华蓥市华蓥山路与红岩路交叉口正南方向207米左右",
        "tel": "",
        "category": "基础设施:公共设施:公共厕所",
        "type": 0,
        "location": {
            "lat": 30.348417,
            "lng": 106.777935
        },
        "ad_info": {
            "adcode": 511681,
            "province": "四川省",
            "city": "广安市",
            "district": "华蓥市"
        }
    },
    {
        "id": "10486182249774653181",
        "title": "华蓥服务区公共厕所",
        "address": "四川省广安市华蓥市S15通广高速与华蓥服务区交叉口西南280米",
        "tel": "",
        "category": "基础设施:公共设施:公共厕所",
        "type": 0,
        "location": {
            "lat": 30.171249,
            "lng": 106.663383
        },
        "ad_info": {
            "adcode": 511681,
            "province": "四川省",
            "city": "广安市",
            "district": "华蓥市"
        }
    },
    {
        "id": "15409001427474714245",
        "title": "公共厕所",
        "address": "四川省广安市岳池县十子街与干货一条街交叉口正北方向49米左右",
        "tel": "",
        "category": "基础设施:公共设施:公共厕所",
        "type": 0,
        "location": {
            "lat": 30.469704,
            "lng": 106.495962
        },
        "ad_info": {
            "adcode": 511621,
            "province": "四川省",
            "city": "广安市",
            "district": "岳池县"
        }
    },
    {
        "id": "280171778133610192",
        "title": "公共厕所",
        "address": "四川省广安市武胜县东街步行街与建设南路交叉口正西方向66米左右",
        "tel": "",
        "category": "基础设施:公共设施:公共厕所",
        "type": 0,
        "location": {
            "lat": 30.347644,
            "lng": 106.289903
        },
        "ad_info": {
            "adcode": 511622,
            "province": "四川省",
            "city": "广安市",
            "district": "武胜县"
        }
    },
    {
        "id": "16879198119634520355",
        "title": "公共厕所",
        "address": "四川省广安市邻水县西后街与西街交叉口正东方向24米左右",
        "tel": "",
        "category": "基础设施:公共设施:公共厕所",
        "type": 0,
        "location": {
            "lat": 30.332312,
            "lng": 106.929344
        },
        "ad_info": {
            "adcode": 511623,
            "province": "四川省",
            "city": "广安市",
            "district": "邻水县"
        }
    },
    {
        "id": "10803750890531691722",
        "title": "公共厕所",
        "address": "四川省广安市岳池县上街与新街交叉口西北方向249米左右",
        "tel": "",
        "category": "基础设施:公共设施:公共厕所",
        "type": 0,
        "location": {
            "lat": 30.657173,
            "lng": 106.23669
        },
        "ad_info": {
            "adcode": 511621,
            "province": "四川省",
            "city": "广安市",
            "district": "岳池县"
        }
    },
    {
        "id": "9912145625424185154",
        "title": "公共厕所",
        "address": "四川省广安市广安区民乐街33号",
        "tel": "",
        "category": "基础设施:公共设施:公共厕所",
        "type": 0,
        "location": {
            "lat": 30.492528,
            "lng": 106.650886
        },
        "ad_info": {
            "adcode": 511602,
            "province": "四川省",
            "city": "广安市",
            "district": "广安区"
        }
    },
    {
        "id": "2862842273400796668",
        "title": "公共厕所",
        "address": "四川省广安市前锋区广前公路与杨房子街交叉口正北方向87米左右",
        "tel": "",
        "category": "基础设施:公共设施:公共厕所",
        "type": 0,
        "location": {
            "lat": 30.504891,
            "lng": 106.689358
        },
        "ad_info": {
            "adcode": 511603,
            "province": "四川省",
            "city": "广安市",
            "district": "前锋区"
        }
    },
    {
        "id": "17552272646546882076",
        "title": "公共厕所",
        "address": "四川省广安市广安区康泉文武学校东侧80米",
        "tel": "",
        "category": "基础设施:公共设施:公共厕所",
        "type": 0,
        "location": {
            "lat": 30.512049,
            "lng": 106.640275
        },
        "ad_info": {
            "adcode": 511602,
            "province": "四川省",
            "city": "广安市",
            "district": "广安区"
        }
    },
    {
        "id": "15093234342993851718",
        "title": "公共厕所",
        "address": "四川省广安市广安区环溪一路与环溪三巷交叉口正北方向225米左右",
        "tel": "",
        "category": "基础设施:公共设施:公共厕所",
        "type": 0,
        "location": {
            "lat": 30.467068,
            "lng": 106.620869
        },
        "ad_info": {
            "adcode": 511602,
            "province": "四川省",
            "city": "广安市",
            "district": "广安区"
        }
    },
    {
        "id": "5487570904109297959",
        "title": "公共厕所",
        "address": "四川省广安市邻水县G350与西麓产业大道交叉口西南方向1132米左右",
        "tel": "",
        "category": "基础设施:公共设施:公共厕所",
        "type": 0,
        "location": {
            "lat": 30.271639,
            "lng": 106.936204
        },
        "ad_info": {
            "adcode": 511623,
            "province": "四川省",
            "city": "广安市",
            "district": "邻水县"
        }
    },
    {
        "id": "13309601123939005466",
        "title": "公共厕所",
        "address": "四川省广安市广安区万新二巷与东方街交叉口正西方向46米左右",
        "tel": "",
        "category": "基础设施:公共设施:公共厕所",
        "type": 0,
        "location": {
            "lat": 30.446464,
            "lng": 106.633506
        },
        "ad_info": {
            "adcode": 511602,
            "province": "四川省",
            "city": "广安市",
            "district": "广安区"
        }
    },
    {
        "id": "2206982454885371911",
        "title": "公共厕所",
        "address": "四川省广安市邻水县挞子丘路与民生巷交叉口西北方向60米左右",
        "tel": "",
        "category": "基础设施:公共设施:公共厕所",
        "type": 0,
        "location": {
            "lat": 30.335614,
            "lng": 106.937426
        },
        "ad_info": {
            "adcode": 511623,
            "province": "四川省",
            "city": "广安市",
            "district": "邻水县"
        }
    },
    {
        "id": "13294776315675241220",
        "title": "公共厕所",
        "address": "四川省广安市广安区建安北路与渔林街交叉口东北方向236米左右",
        "tel": "",
        "category": "基础设施:公共设施:公共厕所",
        "type": 0,
        "location": {
            "lat": 30.463021,
            "lng": 106.640192
        },
        "ad_info": {
            "adcode": 511602,
            "province": "四川省",
            "city": "广安市",
            "district": "广安区"
        }
    },
    {
        "id": "14177581863741927104",
        "title": "公共厕所",
        "address": "四川省广安市前锋区深广渠江云谷",
        "tel": "",
        "category": "基础设施:公共设施:公共厕所",
        "type": 0,
        "location": {
            "lat": 30.466009,
            "lng": 106.68146
        },
        "ad_info": {
            "adcode": 511603,
            "province": "四川省",
            "city": "广安市",
            "district": "前锋区"
        }
    },
    {
        "id": "17619471896053172807",
        "title": "前锋服务区公共厕所",
        "address": "四川省广安市前锋区S15(SX)广安绕城高速与前锋服务区交叉口东南320米",
        "tel": "",
        "category": "基础设施:公共设施:公共厕所",
        "type": 0,
        "location": {
            "lat": 30.492742,
            "lng": 106.78752
        },
        "ad_info": {
            "adcode": 511603,
            "province": "四川省",
            "city": "广安市",
            "district": "前锋区"
        }
    },
    {
        "id": "7828431418641694523",
        "title": "公共厕所",
        "address": "四川省广安市前锋区正东街与观广路交叉口正北方向455米左右",
        "tel": "",
        "category": "基础设施:公共设施:公共厕所",
        "type": 0,
        "location": {
            "lat": 30.587946,
            "lng": 106.917102
        },
        "ad_info": {
            "adcode": 511603,
            "province": "四川省",
            "city": "广安市",
            "district": "前锋区"
        }
    },
    {
        "id": "2230520283751854412",
        "title": "葛麻场公共厕所",
        "address": "四川省广安市广安区广恒快速通道与苟梭路交叉口正东方向343米左右",
        "tel": "",
        "category": "基础设施:公共设施:公共厕所",
        "type": 0,
        "location": {
            "lat": 30.610607,
            "lng": 106.738198
        },
        "ad_info": {
            "adcode": 511602,
            "province": "四川省",
            "city": "广安市",
            "district": "广安区"
        }
    },
    {
        "id": "7210969862399210097",
        "title": "前锋服务区公共厕所",
        "address": "四川省广安市前锋区S15(SX)广安绕城高速与前锋服务区交叉口西南380米",
        "tel": "",
        "category": "基础设施:公共设施:公共厕所",
        "type": 0,
        "location": {
            "lat": 30.492158,
            "lng": 106.784989
        },
        "ad_info": {
            "adcode": 511603,
            "province": "四川省",
            "city": "广安市",
            "district": "前锋区"
        }
    },
    {
        "id": "5619654146501539156",
        "title": "公共厕所",
        "address": "四川省广安市邻水县广邻大道与邻山中路交叉口正北方向401米左右",
        "tel": "",
        "category": "基础设施:公共设施:公共厕所",
        "type": 0,
        "location": {
            "lat": 30.336277,
            "lng": 106.925622
        },
        "ad_info": {
            "adcode": 511623,
            "province": "四川省",
            "city": "广安市",
            "district": "邻水县"
        }
    },
    {
        "id": "10753290144508477453",
        "title": "公共厕所",
        "address": "四川省广安市华蓥市华蓥山路与红岩路交叉口正南方向207米左右",
        "tel": "",
        "category": "基础设施:公共设施:公共厕所",
        "type": 0,
        "location": {
            "lat": 30.348417,
            "lng": 106.777935
        },
        "ad_info": {
            "adcode": 511681,
            "province": "四川省",
            "city": "广安市",
            "district": "华蓥市"
        }
    },
    {
        "id": "10486182249774653181",
        "title": "华蓥服务区公共厕所",
        "address": "四川省广安市华蓥市S15通广高速与华蓥服务区交叉口西南280米",
        "tel": "",
        "category": "基础设施:公共设施:公共厕所",
        "type": 0,
        "location": {
            "lat": 30.171249,
            "lng": 106.663383
        },
        "ad_info": {
            "adcode": 511681,
            "province": "四川省",
            "city": "广安市",
            "district": "华蓥市"
        }
    },
    {
        "id": "15409001427474714245",
        "title": "公共厕所",
        "address": "四川省广安市岳池县十子街与干货一条街交叉口正北方向49米左右",
        "tel": "",
        "category": "基础设施:公共设施:公共厕所",
        "type": 0,
        "location": {
            "lat": 30.469704,
            "lng": 106.495962
        },
        "ad_info": {
            "adcode": 511621,
            "province": "四川省",
            "city": "广安市",
            "district": "岳池县"
        }
    },
    {
        "id": "280171778133610192",
        "title": "公共厕所",
        "address": "四川省广安市武胜县东街步行街与建设南路交叉口正西方向66米左右",
        "tel": "",
        "category": "基础设施:公共设施:公共厕所",
        "type": 0,
        "location": {
            "lat": 30.347644,
            "lng": 106.289903
        },
        "ad_info": {
            "adcode": 511622,
            "province": "四川省",
            "city": "广安市",
            "district": "武胜县"
        }
    },
    {
        "id": "16879198119634520355",
        "title": "公共厕所",
        "address": "四川省广安市邻水县西后街与西街交叉口正东方向24米左右",
        "tel": "",
        "category": "基础设施:公共设施:公共厕所",
        "type": 0,
        "location": {
            "lat": 30.332312,
            "lng": 106.929344
        },
        "ad_info": {
            "adcode": 511623,
            "province": "四川省",
            "city": "广安市",
            "district": "邻水县"
        }
    },
    {
        "id": "10803750890531691722",
        "title": "公共厕所",
        "address": "四川省广安市岳池县上街与新街交叉口西北方向249米左右",
        "tel": "",
        "category": "基础设施:公共设施:公共厕所",
        "type": 0,
        "location": {
            "lat": 30.657173,
            "lng": 106.23669
        },
        "ad_info": {
            "adcode": 511621,
            "province": "四川省",
            "city": "广安市",
            "district": "岳池县"
        }
    },
    {
        "id": "9912145625424185154",
        "title": "公共厕所",
        "address": "四川省广安市广安区民乐街33号",
        "tel": "",
        "category": "基础设施:公共设施:公共厕所",
        "type": 0,
        "location": {
            "lat": 30.492528,
            "lng": 106.650886
        },
        "ad_info": {
            "adcode": 511602,
            "province": "四川省",
            "city": "广安市",
            "district": "广安区"
        }
    },
    {
        "id": "2862842273400796668",
        "title": "公共厕所",
        "address": "四川省广安市前锋区广前公路与杨房子街交叉口正北方向87米左右",
        "tel": "",
        "category": "基础设施:公共设施:公共厕所",
        "type": 0,
        "location": {
            "lat": 30.504891,
            "lng": 106.689358
        },
        "ad_info": {
            "adcode": 511603,
            "province": "四川省",
            "city": "广安市",
            "district": "前锋区"
        }
    },
    {
        "id": "17552272646546882076",
        "title": "公共厕所",
        "address": "四川省广安市广安区康泉文武学校东侧80米",
        "tel": "",
        "category": "基础设施:公共设施:公共厕所",
        "type": 0,
        "location": {
            "lat": 30.512049,
            "lng": 106.640275
        },
        "ad_info": {
            "adcode": 511602,
            "province": "四川省",
            "city": "广安市",
            "district": "广安区"
        }
    },
    {
        "id": "15093234342993851718",
        "title": "公共厕所",
        "address": "四川省广安市广安区环溪一路与环溪三巷交叉口正北方向225米左右",
        "tel": "",
        "category": "基础设施:公共设施:公共厕所",
        "type": 0,
        "location": {
            "lat": 30.467068,
            "lng": 106.620869
        },
        "ad_info": {
            "adcode": 511602,
            "province": "四川省",
            "city": "广安市",
            "district": "广安区"
        }
    },
    {
        "id": "5487570904109297959",
        "title": "公共厕所",
        "address": "四川省广安市邻水县G350与西麓产业大道交叉口西南方向1132米左右",
        "tel": "",
        "category": "基础设施:公共设施:公共厕所",
        "type": 0,
        "location": {
            "lat": 30.271639,
            "lng": 106.936204
        },
        "ad_info": {
            "adcode": 511623,
            "province": "四川省",
            "city": "广安市",
            "district": "邻水县"
        }
    },
    {
        "id": "13309601123939005466",
        "title": "公共厕所",
        "address": "四川省广安市广安区万新二巷与东方街交叉口正西方向46米左右",
        "tel": "",
        "category": "基础设施:公共设施:公共厕所",
        "type": 0,
        "location": {
            "lat": 30.446464,
            "lng": 106.633506
        },
        "ad_info": {
            "adcode": 511602,
            "province": "四川省",
            "city": "广安市",
            "district": "广安区"
        }
    },
    {
        "id": "2206982454885371911",
        "title": "公共厕所",
        "address": "四川省广安市邻水县挞子丘路与民生巷交叉口西北方向60米左右",
        "tel": "",
        "category": "基础设施:公共设施:公共厕所",
        "type": 0,
        "location": {
            "lat": 30.335614,
            "lng": 106.937426
        },
        "ad_info": {
            "adcode": 511623,
            "province": "四川省",
            "city": "广安市",
            "district": "邻水县"
        }
    },
    {
        "id": "13294776315675241220",
        "title": "公共厕所",
        "address": "四川省广安市广安区建安北路与渔林街交叉口东北方向236米左右",
        "tel": "",
        "category": "基础设施:公共设施:公共厕所",
        "type": 0,
        "location": {
            "lat": 30.463021,
            "lng": 106.640192
        },
        "ad_info": {
            "adcode": 511602,
            "province": "四川省",
            "city": "广安市",
            "district": "广安区"
        }
    },
    {
        "id": "14177581863741927104",
        "title": "公共厕所",
        "address": "四川省广安市前锋区深广渠江云谷",
        "tel": "",
        "category": "基础设施:公共设施:公共厕所",
        "type": 0,
        "location": {
            "lat": 30.466009,
            "lng": 106.68146
        },
        "ad_info": {
            "adcode": 511603,
            "province": "四川省",
            "city": "广安市",
            "district": "前锋区"
        }
    },
    {
        "id": "17619471896053172807",
        "title": "前锋服务区公共厕所",
        "address": "四川省广安市前锋区S15(SX)广安绕城高速与前锋服务区交叉口东南320米",
        "tel": "",
        "category": "基础设施:公共设施:公共厕所",
        "type": 0,
        "location": {
            "lat": 30.492742,
            "lng": 106.78752
        },
        "ad_info": {
            "adcode": 511603,
            "province": "四川省",
            "city": "广安市",
            "district": "前锋区"
        }
    },
    {
        "id": "7828431418641694523",
        "title": "公共厕所",
        "address": "四川省广安市前锋区正东街与观广路交叉口正北方向455米左右",
        "tel": "",
        "category": "基础设施:公共设施:公共厕所",
        "type": 0,
        "location": {
            "lat": 30.587946,
            "lng": 106.917102
        },
        "ad_info": {
            "adcode": 511603,
            "province": "四川省",
            "city": "广安市",
            "district": "前锋区"
        }
    },
    {
        "id": "2230520283751854412",
        "title": "葛麻场公共厕所",
        "address": "四川省广安市广安区广恒快速通道与苟梭路交叉口正东方向343米左右",
        "tel": "",
        "category": "基础设施:公共设施:公共厕所",
        "type": 0,
        "location": {
            "lat": 30.610607,
            "lng": 106.738198
        },
        "ad_info": {
            "adcode": 511602,
            "province": "四川省",
            "city": "广安市",
            "district": "广安区"
        }
    },
    {
        "id": "7210969862399210097",
        "title": "前锋服务区公共厕所",
        "address": "四川省广安市前锋区S15(SX)广安绕城高速与前锋服务区交叉口西南380米",
        "tel": "",
        "category": "基础设施:公共设施:公共厕所",
        "type": 0,
        "location": {
            "lat": 30.492158,
            "lng": 106.784989
        },
        "ad_info": {
            "adcode": 511603,
            "province": "四川省",
            "city": "广安市",
            "district": "前锋区"
        }
    },
    {
        "id": "5619654146501539156",
        "title": "公共厕所",
        "address": "四川省广安市邻水县广邻大道与邻山中路交叉口正北方向401米左右",
        "tel": "",
        "category": "基础设施:公共设施:公共厕所",
        "type": 0,
        "location": {
            "lat": 30.336277,
            "lng": 106.925622
        },
        "ad_info": {
            "adcode": 511623,
            "province": "四川省",
            "city": "广安市",
            "district": "邻水县"
        }
    },
    {
        "id": "10753290144508477453",
        "title": "公共厕所",
        "address": "四川省广安市华蓥市华蓥山路与红岩路交叉口正南方向207米左右",
        "tel": "",
        "category": "基础设施:公共设施:公共厕所",
        "type": 0,
        "location": {
            "lat": 30.348417,
            "lng": 106.777935
        },
        "ad_info": {
            "adcode": 511681,
            "province": "四川省",
            "city": "广安市",
            "district": "华蓥市"
        }
    },
    {
        "id": "10486182249774653181",
        "title": "华蓥服务区公共厕所",
        "address": "四川省广安市华蓥市S15通广高速与华蓥服务区交叉口西南280米",
        "tel": "",
        "category": "基础设施:公共设施:公共厕所",
        "type": 0,
        "location": {
            "lat": 30.171249,
            "lng": 106.663383
        },
        "ad_info": {
            "adcode": 511681,
            "province": "四川省",
            "city": "广安市",
            "district": "华蓥市"
        }
    },
    {
        "id": "15409001427474714245",
        "title": "公共厕所",
        "address": "四川省广安市岳池县十子街与干货一条街交叉口正北方向49米左右",
        "tel": "",
        "category": "基础设施:公共设施:公共厕所",
        "type": 0,
        "location": {
            "lat": 30.469704,
            "lng": 106.495962
        },
        "ad_info": {
            "adcode": 511621,
            "province": "四川省",
            "city": "广安市",
            "district": "岳池县"
        }
    },
    {
        "id": "280171778133610192",
        "title": "公共厕所",
        "address": "四川省广安市武胜县东街步行街与建设南路交叉口正西方向66米左右",
        "tel": "",
        "category": "基础设施:公共设施:公共厕所",
        "type": 0,
        "location": {
            "lat": 30.347644,
            "lng": 106.289903
        },
        "ad_info": {
            "adcode": 511622,
            "province": "四川省",
            "city": "广安市",
            "district": "武胜县"
        }
    },
    {
        "id": "16879198119634520355",
        "title": "公共厕所",
        "address": "四川省广安市邻水县西后街与西街交叉口正东方向24米左右",
        "tel": "",
        "category": "基础设施:公共设施:公共厕所",
        "type": 0,
        "location": {
            "lat": 30.332312,
            "lng": 106.929344
        },
        "ad_info": {
            "adcode": 511623,
            "province": "四川省",
            "city": "广安市",
            "district": "邻水县"
        }
    },
    {
        "id": "10803750890531691722",
        "title": "公共厕所",
        "address": "四川省广安市岳池县上街与新街交叉口西北方向249米左右",
        "tel": "",
        "category": "基础设施:公共设施:公共厕所",
        "type": 0,
        "location": {
            "lat": 30.657173,
            "lng": 106.23669
        },
        "ad_info": {
            "adcode": 511621,
            "province": "四川省",
            "city": "广安市",
            "district": "岳池县"
        }
    },
    {
        "id": "9912145625424185154",
        "title": "公共厕所",
        "address": "四川省广安市广安区民乐街33号",
        "tel": "",
        "category": "基础设施:公共设施:公共厕所",
        "type": 0,
        "location": {
            "lat": 30.492528,
            "lng": 106.650886
        },
        "ad_info": {
            "adcode": 511602,
            "province": "四川省",
            "city": "广安市",
            "district": "广安区"
        }
    },
    {
        "id": "2862842273400796668",
        "title": "公共厕所",
        "address": "四川省广安市前锋区广前公路与杨房子街交叉口正北方向87米左右",
        "tel": "",
        "category": "基础设施:公共设施:公共厕所",
        "type": 0,
        "location": {
            "lat": 30.504891,
            "lng": 106.689358
        },
        "ad_info": {
            "adcode": 511603,
            "province": "四川省",
            "city": "广安市",
            "district": "前锋区"
        }
    },
    {
        "id": "17552272646546882076",
        "title": "公共厕所",
        "address": "四川省广安市广安区康泉文武学校东侧80米",
        "tel": "",
        "category": "基础设施:公共设施:公共厕所",
        "type": 0,
        "location": {
            "lat": 30.512049,
            "lng": 106.640275
        },
        "ad_info": {
            "adcode": 511602,
            "province": "四川省",
            "city": "广安市",
            "district": "广安区"
        }
    },
    {
        "id": "15093234342993851718",
        "title": "公共厕所",
        "address": "四川省广安市广安区环溪一路与环溪三巷交叉口正北方向225米左右",
        "tel": "",
        "category": "基础设施:公共设施:公共厕所",
        "type": 0,
        "location": {
            "lat": 30.467068,
            "lng": 106.620869
        },
        "ad_info": {
            "adcode": 511602,
            "province": "四川省",
            "city": "广安市",
            "district": "广安区"
        }
    },
    {
        "id": "5487570904109297959",
        "title": "公共厕所",
        "address": "四川省广安市邻水县G350与西麓产业大道交叉口西南方向1132米左右",
        "tel": "",
        "category": "基础设施:公共设施:公共厕所",
        "type": 0,
        "location": {
            "lat": 30.271639,
            "lng": 106.936204
        },
        "ad_info": {
            "adcode": 511623,
            "province": "四川省",
            "city": "广安市",
            "district": "邻水县"
        }
    },
    {
        "id": "13309601123939005466",
        "title": "公共厕所",
        "address": "四川省广安市广安区万新二巷与东方街交叉口正西方向46米左右",
        "tel": "",
        "category": "基础设施:公共设施:公共厕所",
        "type": 0,
        "location": {
            "lat": 30.446464,
            "lng": 106.633506
        },
        "ad_info": {
            "adcode": 511602,
            "province": "四川省",
            "city": "广安市",
            "district": "广安区"
        }
    },
    {
        "id": "2206982454885371911",
        "title": "公共厕所",
        "address": "四川省广安市邻水县挞子丘路与民生巷交叉口西北方向60米左右",
        "tel": "",
        "category": "基础设施:公共设施:公共厕所",
        "type": 0,
        "location": {
            "lat": 30.335614,
            "lng": 106.937426
        },
        "ad_info": {
            "adcode": 511623,
            "province": "四川省",
            "city": "广安市",
            "district": "邻水县"
        }
    },
    {
        "id": "13294776315675241220",
        "title": "公共厕所",
        "address": "四川省广安市广安区建安北路与渔林街交叉口东北方向236米左右",
        "tel": "",
        "category": "基础设施:公共设施:公共厕所",
        "type": 0,
        "location": {
            "lat": 30.463021,
            "lng": 106.640192
        },
        "ad_info": {
            "adcode": 511602,
            "province": "四川省",
            "city": "广安市",
            "district": "广安区"
        }
    },
    {
        "id": "14177581863741927104",
        "title": "公共厕所",
        "address": "四川省广安市前锋区深广渠江云谷",
        "tel": "",
        "category": "基础设施:公共设施:公共厕所",
        "type": 0,
        "location": {
            "lat": 30.466009,
            "lng": 106.68146
        },
        "ad_info": {
            "adcode": 511603,
            "province": "四川省",
            "city": "广安市",
            "district": "前锋区"
        }
    },
    {
        "id": "17619471896053172807",
        "title": "前锋服务区公共厕所",
        "address": "四川省广安市前锋区S15(SX)广安绕城高速与前锋服务区交叉口东南320米",
        "tel": "",
        "category": "基础设施:公共设施:公共厕所",
        "type": 0,
        "location": {
            "lat": 30.492742,
            "lng": 106.78752
        },
        "ad_info": {
            "adcode": 511603,
            "province": "四川省",
            "city": "广安市",
            "district": "前锋区"
        }
    },
    {
        "id": "7828431418641694523",
        "title": "公共厕所",
        "address": "四川省广安市前锋区正东街与观广路交叉口正北方向455米左右",
        "tel": "",
        "category": "基础设施:公共设施:公共厕所",
        "type": 0,
        "location": {
            "lat": 30.587946,
            "lng": 106.917102
        },
        "ad_info": {
            "adcode": 511603,
            "province": "四川省",
            "city": "广安市",
            "district": "前锋区"
        }
    },
    {
        "id": "2230520283751854412",
        "title": "葛麻场公共厕所",
        "address": "四川省广安市广安区广恒快速通道与苟梭路交叉口正东方向343米左右",
        "tel": "",
        "category": "基础设施:公共设施:公共厕所",
        "type": 0,
        "location": {
            "lat": 30.610607,
            "lng": 106.738198
        },
        "ad_info": {
            "adcode": 511602,
            "province": "四川省",
            "city": "广安市",
            "district": "广安区"
        }
    },
    {
        "id": "7210969862399210097",
        "title": "前锋服务区公共厕所",
        "address": "四川省广安市前锋区S15(SX)广安绕城高速与前锋服务区交叉口西南380米",
        "tel": "",
        "category": "基础设施:公共设施:公共厕所",
        "type": 0,
        "location": {
            "lat": 30.492158,
            "lng": 106.784989
        },
        "ad_info": {
            "adcode": 511603,
            "province": "四川省",
            "city": "广安市",
            "district": "前锋区"
        }
    },
    {
        "id": "5619654146501539156",
        "title": "公共厕所",
        "address": "四川省广安市邻水县广邻大道与邻山中路交叉口正北方向401米左右",
        "tel": "",
        "category": "基础设施:公共设施:公共厕所",
        "type": 0,
        "location": {
            "lat": 30.336277,
            "lng": 106.925622
        },
        "ad_info": {
            "adcode": 511623,
            "province": "四川省",
            "city": "广安市",
            "district": "邻水县"
        }
    },
    {
        "id": "10753290144508477453",
        "title": "公共厕所",
        "address": "四川省广安市华蓥市华蓥山路与红岩路交叉口正南方向207米左右",
        "tel": "",
        "category": "基础设施:公共设施:公共厕所",
        "type": 0,
        "location": {
            "lat": 30.348417,
            "lng": 106.777935
        },
        "ad_info": {
            "adcode": 511681,
            "province": "四川省",
            "city": "广安市",
            "district": "华蓥市"
        }
    },
    {
        "id": "10486182249774653181",
        "title": "华蓥服务区公共厕所",
        "address": "四川省广安市华蓥市S15通广高速与华蓥服务区交叉口西南280米",
        "tel": "",
        "category": "基础设施:公共设施:公共厕所",
        "type": 0,
        "location": {
            "lat": 30.171249,
            "lng": 106.663383
        },
        "ad_info": {
            "adcode": 511681,
            "province": "四川省",
            "city": "广安市",
            "district": "华蓥市"
        }
    },
    {
        "id": "15409001427474714245",
        "title": "公共厕所",
        "address": "四川省广安市岳池县十子街与干货一条街交叉口正北方向49米左右",
        "tel": "",
        "category": "基础设施:公共设施:公共厕所",
        "type": 0,
        "location": {
            "lat": 30.469704,
            "lng": 106.495962
        },
        "ad_info": {
            "adcode": 511621,
            "province": "四川省",
            "city": "广安市",
            "district": "岳池县"
        }
    },
    {
        "id": "280171778133610192",
        "title": "公共厕所",
        "address": "四川省广安市武胜县东街步行街与建设南路交叉口正西方向66米左右",
        "tel": "",
        "category": "基础设施:公共设施:公共厕所",
        "type": 0,
        "location": {
            "lat": 30.347644,
            "lng": 106.289903
        },
        "ad_info": {
            "adcode": 511622,
            "province": "四川省",
            "city": "广安市",
            "district": "武胜县"
        }
    },
    {
        "id": "16879198119634520355",
        "title": "公共厕所",
        "address": "四川省广安市邻水县西后街与西街交叉口正东方向24米左右",
        "tel": "",
        "category": "基础设施:公共设施:公共厕所",
        "type": 0,
        "location": {
            "lat": 30.332312,
            "lng": 106.929344
        },
        "ad_info": {
            "adcode": 511623,
            "province": "四川省",
            "city": "广安市",
            "district": "邻水县"
        }
    },
    {
        "id": "10803750890531691722",
        "title": "公共厕所",
        "address": "四川省广安市岳池县上街与新街交叉口西北方向249米左右",
        "tel": "",
        "category": "基础设施:公共设施:公共厕所",
        "type": 0,
        "location": {
            "lat": 30.657173,
            "lng": 106.23669
        },
        "ad_info": {
            "adcode": 511621,
            "province": "四川省",
            "city": "广安市",
            "district": "岳池县"
        }
    },
    {
        "id": "9912145625424185154",
        "title": "公共厕所",
        "address": "四川省广安市广安区民乐街33号",
        "tel": "",
        "category": "基础设施:公共设施:公共厕所",
        "type": 0,
        "location": {
            "lat": 30.492528,
            "lng": 106.650886
        },
        "ad_info": {
            "adcode": 511602,
            "province": "四川省",
            "city": "广安市",
            "district": "广安区"
        }
    },
    {
        "id": "2862842273400796668",
        "title": "公共厕所",
        "address": "四川省广安市前锋区广前公路与杨房子街交叉口正北方向87米左右",
        "tel": "",
        "category": "基础设施:公共设施:公共厕所",
        "type": 0,
        "location": {
            "lat": 30.504891,
            "lng": 106.689358
        },
        "ad_info": {
            "adcode": 511603,
            "province": "四川省",
            "city": "广安市",
            "district": "前锋区"
        }
    },
    {
        "id": "17552272646546882076",
        "title": "公共厕所",
        "address": "四川省广安市广安区康泉文武学校东侧80米",
        "tel": "",
        "category": "基础设施:公共设施:公共厕所",
        "type": 0,
        "location": {
            "lat": 30.512049,
            "lng": 106.640275
        },
        "ad_info": {
            "adcode": 511602,
            "province": "四川省",
            "city": "广安市",
            "district": "广安区"
        }
    },
    {
        "id": "15093234342993851718",
        "title": "公共厕所",
        "address": "四川省广安市广安区环溪一路与环溪三巷交叉口正北方向225米左右",
        "tel": "",
        "category": "基础设施:公共设施:公共厕所",
        "type": 0,
        "location": {
            "lat": 30.467068,
            "lng": 106.620869
        },
        "ad_info": {
            "adcode": 511602,
            "province": "四川省",
            "city": "广安市",
            "district": "广安区"
        }
    },
    {
        "id": "5487570904109297959",
        "title": "公共厕所",
        "address": "四川省广安市邻水县G350与西麓产业大道交叉口西南方向1132米左右",
        "tel": "",
        "category": "基础设施:公共设施:公共厕所",
        "type": 0,
        "location": {
            "lat": 30.271639,
            "lng": 106.936204
        },
        "ad_info": {
            "adcode": 511623,
            "province": "四川省",
            "city": "广安市",
            "district": "邻水县"
        }
    },
    {
        "id": "13309601123939005466",
        "title": "公共厕所",
        "address": "四川省广安市广安区万新二巷与东方街交叉口正西方向46米左右",
        "tel": "",
        "category": "基础设施:公共设施:公共厕所",
        "type": 0,
        "location": {
            "lat": 30.446464,
            "lng": 106.633506
        },
        "ad_info": {
            "adcode": 511602,
            "province": "四川省",
            "city": "广安市",
            "district": "广安区"
        }
    }
]