[
    {
        "id": "1355795437625535100",
        "title": "公共厕所",
        "address": "四川省广元市利州区云台路与胤国路交叉口西南方向97米左右",
        "tel": "",
        "category": "基础设施:公共设施:公共厕所",
        "type": 0,
        "location": {
            "lat": 32.418496,
            "lng": 105.868
        },
        "ad_info": {
            "adcode": 510802,
            "province": "四川省",
            "city": "广元市",
            "district": "利州区"
        }
    },
    {
        "id": "4829047537348566739",
        "title": "公共厕所",
        "address": "四川省广元市利州区广元皮肤泌尿专科医院东侧120米",
        "tel": "",
        "category": "基础设施:公共设施:公共厕所",
        "type": 0,
        "location": {
            "lat": 32.448981,
            "lng": 105.822305
        },
        "ad_info": {
            "adcode": 510802,
            "province": "四川省",
            "city": "广元市",
            "district": "利州区"
        }
    },
    {
        "id": "9156539295116486849",
        "title": "公共卫生间",
        "address": "四川省广元市利州区剑门路与米仓路交叉口正北方向191米左右",
        "tel": "",
        "category": "基础设施:公共设施:公共厕所",
        "type": 0,
        "location": {
            "lat": 32.425176,
            "lng": 105.875731
        },
        "ad_info": {
            "adcode": 510802,
            "province": "四川省",
            "city": "广元市",
            "district": "利州区"
        }
    },
    {
        "id": "12073934271027221782",
        "title": "公共厕所",
        "address": "四川省广元市利州区两桥街21号",
        "tel": "",
        "category": "基础设施:公共设施:公共厕所",
        "type": 0,
        "location": {
            "lat": 32.433205,
            "lng": 105.854431
        },
        "ad_info": {
            "adcode": 510802,
            "province": "四川省",
            "city": "广元市",
            "district": "利州区"
        }
    },
    {
        "id": "15343081880431210700",
        "title": "公共厕所",
        "address": "四川省广元市利州区丹桂巷与河阳路交叉口西北方向30米左右",
        "tel": "",
        "category": "基础设施:公共设施:公共厕所",
        "type": 0,
        "location": {
            "lat": 32.427265,
            "lng": 105.856178
        },
        "ad_info": {
            "adcode": 510802,
            "province": "四川省",
            "city": "广元市",
            "district": "利州区"
        }
    },
    {
        "id": "8118201520366790131",
        "title": "公共厕所",
        "address": "四川省广元市利州区电影街与市场街交叉口东北方向42米",
        "tel": "",
        "category": "基础设施:公共设施:公共厕所",
        "type": 0,
        "location": {
            "lat": 32.437651,
            "lng": 105.823731
        },
        "ad_info": {
            "adcode": 510802,
            "province": "四川省",
            "city": "广元市",
            "district": "利州区"
        }
    },
    {
        "id": "7839977811707982004",
        "title": "公共厕所",
        "address": "四川省广元市利州区利州西路一段与南街交叉口西北方向64米左右",
        "tel": "",
        "category": "基础设施:公共设施:公共厕所",
        "type": 0,
        "location": {
            "lat": 32.432236,
            "lng": 105.821411
        },
        "ad_info": {
            "adcode": 510802,
            "province": "四川省",
            "city": "广元市",
            "district": "利州区"
        }
    },
    {
        "id": "15515568047799903832",
        "title": "公共厕所",
        "address": "四川省广元市利州区粮丰街111号",
        "tel": "",
        "category": "基础设施:公共设施:公共厕所",
        "type": 0,
        "location": {
            "lat": 32.42703,
            "lng": 105.847417
        },
        "ad_info": {
            "adcode": 510802,
            "province": "四川省",
            "city": "广元市",
            "district": "利州区"
        }
    },
    {
        "id": "38396227244541361",
        "title": "公共厕所",
        "address": "四川省广元市利州区大西街与西益街交叉口正南方向24米左右",
        "tel": "",
        "category": "基础设施:公共设施:公共厕所",
        "type": 0,
        "location": {
            "lat": 32.43623,
            "lng": 105.820901
        },
        "ad_info": {
            "adcode": 510802,
            "province": "四川省",
            "city": "广元市",
            "district": "利州区"
        }
    },
    {
        "id": "6037674586916166291",
        "title": "公共厕所",
        "address": "四川省广元市利州区人民路与公园街交叉口东南方向78米左右",
        "tel": "",
        "category": "基础设施:公共设施:公共厕所",
        "type": 0,
        "location": {
            "lat": 32.436119,
            "lng": 105.845125
        },
        "ad_info": {
            "adcode": 510802,
            "province": "四川省",
            "city": "广元市",
            "district": "利州区"
        }
    },
    {
        "id": "5188562108156049525",
        "title": "公共厕所",
        "address": "四川省广元市利州区快乐大桥与滨河路交叉口正南方向250米左右",
        "tel": "",
        "category": "基础设施:公共设施:公共厕所",
        "type": 0,
        "location": {
            "lat": 32.411187,
            "lng": 105.896433
        },
        "ad_info": {
            "adcode": 510802,
            "province": "四川省",
            "city": "广元市",
            "district": "利州区"
        }
    },
    {
        "id": "14062146936833224189",
        "title": "公共厕所",
        "address": "四川省广元市利州区石器路金橄榄广场",
        "tel": "",
        "category": "基础设施:公共设施:公共厕所",
        "type": 0,
        "location": {
            "lat": 32.427836,
            "lng": 105.860116
        },
        "ad_info": {
            "adcode": 510802,
            "province": "四川省",
            "city": "广元市",
            "district": "利州区"
        }
    },
    {
        "id": "16258931005811354471",
        "title": "公共厕所",
        "address": "四川省广元市利州区南渡巷与郑州路交叉口正北方向18米左右",
        "tel": "",
        "category": "基础设施:公共设施:公共厕所",
        "type": 0,
        "location": {
            "lat": 32.42756,
            "lng": 105.827716
        },
        "ad_info": {
            "adcode": 510802,
            "province": "四川省",
            "city": "广元市",
            "district": "利州区"
        }
    },
    {
        "id": "10948825449033511792",
        "title": "公共厕所",
        "address": "四川省广元市利州区打铁街与南街交叉口东60米二楼",
        "tel": "",
        "category": "基础设施:公共设施:公共厕所",
        "type": 0,
        "location": {
            "lat": 32.433249,
            "lng": 105.822727
        },
        "ad_info": {
            "adcode": 510802,
            "province": "四川省",
            "city": "广元市",
            "district": "利州区"
        }
    },
    {
        "id": "13067165529364170607",
        "title": "公共厕所",
        "address": "四川省广元市利州区滨河南路27-35号",
        "tel": "",
        "category": "基础设施:公共设施:公共厕所",
        "type": 0,
        "location": {
            "lat": 32.431306,
            "lng": 105.838133
        },
        "ad_info": {
            "adcode": 510802,
            "province": "四川省",
            "city": "广元市",
            "district": "利州区"
        }
    },
    {
        "id": "2960889124826012856",
        "title": "公共厕所",
        "address": "四川省广元市利州区学府路与银杏南路二段交叉口正北方向484米左右",
        "tel": "",
        "category": "基础设施:公共设施:公共厕所",
        "type": 0,
        "location": {
            "lat": 32.462957,
            "lng": 105.855279
        },
        "ad_info": {
            "adcode": 510802,
            "province": "四川省",
            "city": "广元市",
            "district": "利州区"
        }
    },
    {
        "id": "12382082368421592476",
        "title": "公共厕所",
        "address": "四川省广元市利州区则天路与龙舟路交叉口正东方向39米左右",
        "tel": "",
        "category": "基础设施:公共设施:公共厕所",
        "type": 0,
        "location": {
            "lat": 32.445263,
            "lng": 105.819105
        },
        "ad_info": {
            "adcode": 510802,
            "province": "四川省",
            "city": "广元市",
            "district": "利州区"
        }
    },
    {
        "id": "6396145174537000010",
        "title": "公共厕所",
        "address": "四川省广元市利州区水电路北段与苟家巷交叉口东北方向50米左右",
        "tel": "",
        "category": "基础设施:公共设施:公共厕所",
        "type": 0,
        "location": {
            "lat": 32.380986,
            "lng": 105.643691
        },
        "ad_info": {
            "adcode": 510802,
            "province": "四川省",
            "city": "广元市",
            "district": "利州区"
        }
    },
    {
        "id": "8824186249575036158",
        "title": "公共厕所",
        "address": "四川省广元市旺苍县商业南街与朝阳巷交叉口东北方向39米左右",
        "tel": "",
        "category": "基础设施:公共设施:公共厕所",
        "type": 0,
        "location": {
            "lat": 32.22714,
            "lng": 106.292104
        },
        "ad_info": {
            "adcode": 510821,
            "province": "四川省",
            "city": "广元市",
            "district": "旺苍县"
        }
    },
    {
        "id": "17008055046615030508",
        "title": "公共厕所",
        "address": "四川省广元市利州区上河街与海星巷交叉口东南方向90米左右",
        "tel": "",
        "category": "基础设施:公共设施:公共厕所",
        "type": 0,
        "location": {
            "lat": 32.437366,
            "lng": 105.819596
        },
        "ad_info": {
            "adcode": 510802,
            "province": "四川省",
            "city": "广元市",
            "district": "利州区"
        }
    },
    {
        "id": "16498765051635205773",
        "title": "公共厕所",
        "address": "四川省广元市利州区滨河北路一段160号",
        "tel": "",
        "category": "基础设施:公共设施:公共厕所",
        "type": 0,
        "location": {
            "lat": 32.43009,
            "lng": 105.842552
        },
        "ad_info": {
            "adcode": 510802,
            "province": "四川省",
            "city": "广元市",
            "district": "利州区"
        }
    },
    {
        "id": "2463564696174864003",
        "title": "公共厕所",
        "address": "四川省广元市利州区东安路与苴国路交叉口正南方向129米左右",
        "tel": "",
        "category": "基础设施:公共设施:公共厕所",
        "type": 0,
        "location": {
            "lat": 32.424441,
            "lng": 105.86778
        },
        "ad_info": {
            "adcode": 510802,
            "province": "四川省",
            "city": "广元市",
            "district": "利州区"
        }
    },
    {
        "id": "10043492469359297487",
        "title": "公共厕所",
        "address": "四川省广元市苍溪县Y065与苍旺公路交叉口东南方向143米左右",
        "tel": "",
        "category": "基础设施:公共设施:公共厕所",
        "type": 0,
        "location": {
            "lat": 31.85682,
            "lng": 106.084854
        },
        "ad_info": {
            "adcode": 510824,
            "province": "四川省",
            "city": "广元市",
            "district": "苍溪县"
        }
    },
    {
        "id": "7274860507809844346",
        "title": "公共厕所",
        "address": "四川省广元市利州区G108与G212交叉口正南方向290米左右",
        "tel": "",
        "category": "基础设施:公共设施:公共厕所",
        "type": 0,
        "location": {
            "lat": 32.404923,
            "lng": 105.706793
        },
        "ad_info": {
            "adcode": 510802,
            "province": "四川省",
            "city": "广元市",
            "district": "利州区"
        }
    },
    {
        "id": "10413121269934110557",
        "title": "公共厕所",
        "address": "四川省广元市利州区嘉陵路南段与文化路交叉口西北方向104米左右",
        "tel": "",
        "category": "基础设施:公共设施:公共厕所",
        "type": 0,
        "location": {
            "lat": 32.43327,
            "lng": 105.839641
        },
        "ad_info": {
            "adcode": 510802,
            "province": "四川省",
            "city": "广元市",
            "district": "利州区"
        }
    },
    {
        "id": "15696923459901659128",
        "title": "公共厕所",
        "address": "四川省广元市利州区学府路与滨河路交叉口东南方向223米左右",
        "tel": "",
        "category": "基础设施:公共设施:公共厕所",
        "type": 0,
        "location": {
            "lat": 32.411561,
            "lng": 105.891719
        },
        "ad_info": {
            "adcode": 510802,
            "province": "四川省",
            "city": "广元市",
            "district": "利州区"
        }
    },
    {
        "id": "11819107573542376307",
        "title": "公共厕所",
        "address": "四川省广元市利州区上海路与郑州路西段交叉口北60米",
        "tel": "",
        "category": "基础设施:公共设施:公共厕所",
        "type": 0,
        "location": {
            "lat": 32.425561,
            "lng": 105.820621
        },
        "ad_info": {
            "adcode": 510802,
            "province": "四川省",
            "city": "广元市",
            "district": "利州区"
        }
    },
    {
        "id": "15282981037123798097",
        "title": "公共厕所",
        "address": "四川省广元市利州区五福巷与望江路交叉口正南方向41米左右",
        "tel": "",
        "category": "基础设施:公共设施:公共厕所",
        "type": 0,
        "location": {
            "lat": 32.441586,
            "lng": 105.821376
        },
        "ad_info": {
            "adcode": 510802,
            "province": "四川省",
            "city": "广元市",
            "district": "利州区"
        }
    },
    {
        "id": "3411778640151269749",
        "title": "公共厕所",
        "address": "四川省广元市利州区一号滨河路与文峰路交叉口正东方向51米左右",
        "tel": "",
        "category": "基础设施:公共设施:公共厕所",
        "type": 0,
        "location": {
            "lat": 32.417561,
            "lng": 105.744685
        },
        "ad_info": {
            "adcode": 510802,
            "province": "四川省",
            "city": "广元市",
            "district": "利州区"
        }
    },
    {
        "id": "12357374262271424301",
        "title": "公共厕所",
        "address": "四川省广元市苍溪县红滨路115号",
        "tel": "",
        "category": "基础设施:公共设施:公共厕所",
        "type": 0,
        "location": {
            "lat": 31.734027,
            "lng": 105.925144
        },
        "ad_info": {
            "adcode": 510824,
            "province": "四川省",
            "city": "广元市",
            "district": "苍溪县"
        }
    },
    {
        "id": "5655528290156985657",
        "title": "公共厕所",
        "address": "四川省广元市利州区则天路与女皇路交叉口正西方向60米左右",
        "tel": "",
        "category": "基础设施:公共设施:公共厕所",
        "type": 0,
        "location": {
            "lat": 32.44169,
            "lng": 105.81395
        },
        "ad_info": {
            "adcode": 510802,
            "province": "四川省",
            "city": "广元市",
            "district": "利州区"
        }
    },
    {
        "id": "7781705929124832809",
        "title": "公共厕所",
        "address": "四川省广元市利州区京昆线菲力克斯宾馆",
        "tel": "",
        "category": "基础设施:公共设施:公共厕所",
        "type": 0,
        "location": {
            "lat": 32.431939,
            "lng": 105.822756
        },
        "ad_info": {
            "adcode": 510802,
            "province": "四川省",
            "city": "广元市",
            "district": "利州区"
        }
    },
    {
        "id": "15953730359719858030",
        "title": "公共厕所",
        "address": "四川省广元市利州区万源一号路与万缘路交叉口正西方向128米左右",
        "tel": "",
        "category": "基础设施:公共设施:公共厕所",
        "type": 0,
        "location": {
            "lat": 32.419863,
            "lng": 105.859108
        },
        "ad_info": {
            "adcode": 510802,
            "province": "四川省",
            "city": "广元市",
            "district": "利州区"
        }
    },
    {
        "id": "6424110280335274597",
        "title": "公共厕所",
        "address": "四川省广元市利州区下河街98号",
        "tel": "",
        "category": "基础设施:公共设施:公共厕所",
        "type": 0,
        "location": {
            "lat": 32.434429,
            "lng": 105.818115
        },
        "ad_info": {
            "adcode": 510802,
            "province": "四川省",
            "city": "广元市",
            "district": "利州区"
        }
    },
    {
        "id": "13216486856302323705",
        "title": "公共厕所",
        "address": "四川省广元市利州区大西街与西益街交叉口正北方向62米左右",
        "tel": "",
        "category": "基础设施:公共设施:公共厕所",
        "type": 0,
        "location": {
            "lat": 32.436991,
            "lng": 105.820711
        },
        "ad_info": {
            "adcode": 510802,
            "province": "四川省",
            "city": "广元市",
            "district": "利州区"
        }
    },
    {
        "id": "16756854667670391246",
        "title": "公共厕所",
        "address": "四川省广元市利州区建设路与蜀门北路一段交叉口正北方向181米左右",
        "tel": "",
        "category": "基础设施:公共设施:公共厕所",
        "type": 0,
        "location": {
            "lat": 32.445362,
            "lng": 105.826301
        },
        "ad_info": {
            "adcode": 510802,
            "province": "四川省",
            "city": "广元市",
            "district": "利州区"
        }
    },
    {
        "id": "17963930113858135370",
        "title": "公共厕所",
        "address": "四川省广元市利州区北京路与武汉路交叉口正北方向66米左右",
        "tel": "",
        "category": "基础设施:公共设施:公共厕所",
        "type": 0,
        "location": {
            "lat": 32.426291,
            "lng": 105.829592
        },
        "ad_info": {
            "adcode": 510802,
            "province": "四川省",
            "city": "广元市",
            "district": "利州区"
        }
    },
    {
        "id": "11208927291300517850",
        "title": "公共厕所",
        "address": "四川省广元市利州区滨河南路111号",
        "tel": "",
        "category": "基础设施:公共设施:公共厕所",
        "type": 0,
        "location": {
            "lat": 32.430732,
            "lng": 105.830682
        },
        "ad_info": {
            "adcode": 510802,
            "province": "四川省",
            "city": "广元市",
            "district": "利州区"
        }
    },
    {
        "id": "17767150079931492272",
        "title": "公共厕所",
        "address": "四川省广元市利州区凤鸣路与建设路交叉口东南方向131米左右",
        "tel": "",
        "category": "基础设施:公共设施:公共厕所",
        "type": 0,
        "location": {
            "lat": 32.441838,
            "lng": 105.831533
        },
        "ad_info": {
            "adcode": 510802,
            "province": "四川省",
            "city": "广元市",
            "district": "利州区"
        }
    },
    {
        "id": "357995049279319903",
        "title": "公共厕所",
        "address": "四川省广元市利州区下河街与古渡路交叉口正北方向53米左右",
        "tel": "",
        "category": "基础设施:公共设施:公共厕所",
        "type": 0,
        "location": {
            "lat": 32.434142,
            "lng": 105.818664
        },
        "ad_info": {
            "adcode": 510802,
            "province": "四川省",
            "city": "广元市",
            "district": "利州区"
        }
    },
    {
        "id": "3208775646748033215",
        "title": "公共厕所",
        "address": "四川省广元市利州区文溯路与滨河北路二段交叉口西北方向289米左右",
        "tel": "",
        "category": "基础设施:公共设施:公共厕所",
        "type": 0,
        "location": {
            "lat": 32.42784,
            "lng": 105.88002
        },
        "ad_info": {
            "adcode": 510802,
            "province": "四川省",
            "city": "广元市",
            "district": "利州区"
        }
    },
    {
        "id": "17754433139328276893",
        "title": "公共厕所",
        "address": "四川省广元市利州区仁孝巷51号",
        "tel": "",
        "category": "基础设施:公共设施:公共厕所",
        "type": 0,
        "location": {
            "lat": 32.428039,
            "lng": 105.831622
        },
        "ad_info": {
            "adcode": 510802,
            "province": "四川省",
            "city": "广元市",
            "district": "利州区"
        }
    },
    {
        "id": "11729681937729151069",
        "title": "公共厕所",
        "address": "四川省广元市利州区东山街与蜀门北路一段交叉口东180米",
        "tel": "",
        "category": "基础设施:公共设施:公共厕所",
        "type": 0,
        "location": {
            "lat": 32.434634,
            "lng": 105.826584
        },
        "ad_info": {
            "adcode": 510802,
            "province": "四川省",
            "city": "广元市",
            "district": "利州区"
        }
    },
    {
        "id": "11351727898787326865",
        "title": "公共厕所",
        "address": "四川省广元市利州区站前广场进站口左边",
        "tel": "",
        "category": "基础设施:公共设施:公共厕所",
        "type": 0,
        "location": {
            "lat": 32.449665,
            "lng": 105.823061
        },
        "ad_info": {
            "adcode": 510802,
            "province": "四川省",
            "city": "广元市",
            "district": "利州区"
        }
    },
    {
        "id": "13861922612980139090",
        "title": "公共卫生间",
        "address": "四川省广元市利州区郑州路300号",
        "tel": "",
        "category": "基础设施:公共设施:公共厕所",
        "type": 0,
        "location": {
            "lat": 32.42803,
            "lng": 105.829164
        },
        "ad_info": {
            "adcode": 510802,
            "province": "四川省",
            "city": "广元市",
            "district": "利州区"
        }
    },
    {
        "id": "81356636571511926",
        "title": "公共厕所",
        "address": "四川省广元市利州区兴安路385,383号",
        "tel": "",
        "category": "基础设施:公共设施:公共厕所",
        "type": 0,
        "location": {
            "lat": 32.434454,
            "lng": 105.860323
        },
        "ad_info": {
            "adcode": 510802,
            "province": "四川省",
            "city": "广元市",
            "district": "利州区"
        }
    },
    {
        "id": "276985028128227610",
        "title": "公共厕所",
        "address": "四川省广元市利州区德缘路与利州东路三段交叉口南80米",
        "tel": "",
        "category": "基础设施:公共设施:公共厕所",
        "type": 0,
        "location": {
            "lat": 32.428218,
            "lng": 105.874884
        },
        "ad_info": {
            "adcode": 510802,
            "province": "四川省",
            "city": "广元市",
            "district": "利州区"
        }
    },
    {
        "id": "13396759954307688506",
        "title": "公共厕所",
        "address": "四川省广元市青川县G212与乌龙路交叉口东北方向26米左右",
        "tel": "",
        "category": "基础设施:公共设施:公共厕所",
        "type": 0,
        "location": {
            "lat": 32.671156,
            "lng": 105.484802
        },
        "ad_info": {
            "adcode": 510822,
            "province": "四川省",
            "city": "广元市",
            "district": "青川县"
        }
    },
    {
        "id": "3494173436110776809",
        "title": "公共厕所",
        "address": "四川省广元市利州区市场街与蜀门北路一段交叉口东南方向45米左右",
        "tel": "",
        "category": "基础设施:公共设施:公共厕所",
        "type": 0,
        "location": {
            "lat": 32.436947,
            "lng": 105.825133
        },
        "ad_info": {
            "adcode": 510802,
            "province": "四川省",
            "city": "广元市",
            "district": "利州区"
        }
    },
    {
        "id": "2808710168307325225",
        "title": "公共厕所",
        "address": "四川省广元市昭化区躬身路与长滩河路中段交叉口东北方向679米左右",
        "tel": "",
        "category": "基础设施:公共设施:公共厕所",
        "type": 0,
        "location": {
            "lat": 32.339843,
            "lng": 105.961287
        },
        "ad_info": {
            "adcode": 510811,
            "province": "四川省",
            "city": "广元市",
            "district": "昭化区"
        }
    },
    {
        "id": "10587754256128439804",
        "title": "公共厕所",
        "address": "四川省广元市利州区北京路与成都路交叉口正西方向186米左右",
        "tel": "",
        "category": "基础设施:公共设施:公共厕所",
        "type": 0,
        "location": {
            "lat": 32.42421,
            "lng": 105.82259
        },
        "ad_info": {
            "adcode": 510802,
            "province": "四川省",
            "city": "广元市",
            "district": "利州区"
        }
    },
    {
        "id": "17614877741671906845",
        "title": "公共厕所",
        "address": "四川省广元市苍溪县滨江路下段与玄武路交叉口东南方向268米左右",
        "tel": "",
        "category": "基础设施:公共设施:公共厕所",
        "type": 0,
        "location": {
            "lat": 31.729396,
            "lng": 105.957434
        },
        "ad_info": {
            "adcode": 510824,
            "province": "四川省",
            "city": "广元市",
            "district": "苍溪县"
        }
    },
    {
        "id": "7464355700288238626",
        "title": "公共厕所",
        "address": "四川省广元市利州区利州东路一段602号",
        "tel": "",
        "category": "基础设施:公共设施:公共厕所",
        "type": 0,
        "location": {
            "lat": 32.435348,
            "lng": 105.840167
        },
        "ad_info": {
            "adcode": 510802,
            "province": "四川省",
            "city": "广元市",
            "district": "利州区"
        }
    },
    {
        "id": "12772262694516254291",
        "title": "公共厕所",
        "address": "四川省广元市苍溪县望江路007号",
        "tel": "",
        "category": "基础设施:公共设施:公共厕所",
        "type": 0,
        "location": {
            "lat": 31.905435,
            "lng": 105.866362
        },
        "ad_info": {
            "adcode": 510824,
            "province": "四川省",
            "city": "广元市",
            "district": "苍溪县"
        }
    },
    {
        "id": "3076697603508012070",
        "title": "公共厕所",
        "address": "四川省广元市朝天区明月路1号",
        "tel": "",
        "category": "基础设施:公共设施:公共厕所",
        "type": 0,
        "location": {
            "lat": 32.642249,
            "lng": 105.889791
        },
        "ad_info": {
            "adcode": 510812,
            "province": "四川省",
            "city": "广元市",
            "district": "朝天区"
        }
    },
    {
        "id": "9967147739011608736",
        "title": "公共厕所",
        "address": "四川省广元市昭化区滨河路与紫云路交叉口西北方向32米左右",
        "tel": "",
        "category": "基础设施:公共设施:公共厕所",
        "type": 0,
        "location": {
            "lat": 32.321389,
            "lng": 105.963323
        },
        "ad_info": {
            "adcode": 510811,
            "province": "四川省",
            "city": "广元市",
            "district": "昭化区"
        }
    },
    {
        "id": "6640342296589605330",
        "title": "公共厕所",
        "address": "四川省广元市青川县华南街41号",
        "tel": "",
        "category": "基础设施:公共设施:公共厕所",
        "type": 0,
        "location": {
            "lat": 32.57098,
            "lng": 105.223779
        },
        "ad_info": {
            "adcode": 510822,
            "province": "四川省",
            "city": "广元市",
            "district": "青川县"
        }
    },
    {
        "id": "17429048047036220537",
        "title": "公共厕所",
        "address": "四川省广元市利州区商业街与滨河北路交叉口正北方向32米左右",
        "tel": "",
        "category": "基础设施:公共设施:公共厕所",
        "type": 0,
        "location": {
            "lat": 32.434987,
            "lng": 105.837471
        },
        "ad_info": {
            "adcode": 510802,
            "province": "四川省",
            "city": "广元市",
            "district": "利州区"
        }
    },
    {
        "id": "8059003857416860096",
        "title": "公共厕所",
        "address": "四川省广元市利州区女皇温泉度假区",
        "tel": "",
        "category": "基础设施:公共设施:公共厕所",
        "type": 0,
        "location": {
            "lat": 32.490929,
            "lng": 105.878553
        },
        "ad_info": {
            "adcode": 510802,
            "province": "四川省",
            "city": "广元市",
            "district": "利州区"
        }
    },
    {
        "id": "12928134375020288195",
        "title": "卫生间",
        "address": "四川省广元市利州区利州东路一段与古渡路交叉口西南280米",
        "tel": "",
        "category": "基础设施:公共设施:公共厕所",
        "type": 0,
        "location": {
            "lat": 32.432321,
            "lng": 105.828431
        },
        "ad_info": {
            "adcode": 510802,
            "province": "四川省",
            "city": "广元市",
            "district": "利州区"
        }
    },
    {
        "id": "6421904843376996210",
        "title": "公共厕所",
        "address": "四川省广元市苍溪县苍旺公路与红军路中段交叉口正东方向62米",
        "tel": "",
        "category": "基础设施:公共设施:公共厕所",
        "type": 0,
        "location": {
            "lat": 31.73404,
            "lng": 105.937108
        },
        "ad_info": {
            "adcode": 510824,
            "province": "四川省",
            "city": "广元市",
            "district": "苍溪县"
        }
    },
    {
        "id": "13800404991856113021",
        "title": "公共厕所",
        "address": "四川省广元市朝天区政府路与沙曾公路交叉口正东方向71米左右",
        "tel": "",
        "category": "基础设施:公共设施:公共厕所",
        "type": 0,
        "location": {
            "lat": 32.619256,
            "lng": 106.107707
        },
        "ad_info": {
            "adcode": 510812,
            "province": "四川省",
            "city": "广元市",
            "district": "朝天区"
        }
    },
    {
        "id": "5965552754209147332",
        "title": "公共厕所",
        "address": "四川省广元市苍溪县幸福路与渡江路交叉口正西方向79米左右",
        "tel": "",
        "category": "基础设施:公共设施:公共厕所",
        "type": 0,
        "location": {
            "lat": 31.727649,
            "lng": 105.946152
        },
        "ad_info": {
            "adcode": 510824,
            "province": "四川省",
            "city": "广元市",
            "district": "苍溪县"
        }
    },
    {
        "id": "3038657537243335561",
        "title": "公共厕所",
        "address": "四川省广元市昭化区射箭镇京元村",
        "tel": "",
        "category": "基础设施:公共设施:公共厕所",
        "type": 0,
        "location": {
            "lat": 32.293762,
            "lng": 105.741553
        },
        "ad_info": {
            "adcode": 510811,
            "province": "四川省",
            "city": "广元市",
            "district": "昭化区"
        }
    },
    {
        "id": "223482279330002932",
        "title": "公共厕所",
        "address": "四川省广元市旺苍县东河镇沙坝街领秀江南(水岸花都附近)",
        "tel": "",
        "category": "基础设施:公共设施:公共厕所",
        "type": 0,
        "location": {
            "lat": 32.23272,
            "lng": 106.30868
        },
        "ad_info": {
            "adcode": 510821,
            "province": "四川省",
            "city": "广元市",
            "district": "旺苍县"
        }
    },
    {
        "id": "13961151338402609932",
        "title": "公共厕所",
        "address": "四川省广元市青川县G543与板白公路交叉口东北方向1292米左右",
        "tel": "",
        "category": "基础设施:公共设施:公共厕所",
        "type": 0,
        "location": {
            "lat": 32.63305,
            "lng": 105.388426
        },
        "ad_info": {
            "adcode": 510822,
            "province": "四川省",
            "city": "广元市",
            "district": "青川县"
        }
    },
    {
        "id": "634043229621197618",
        "title": "公共卫生间",
        "address": "四川省广元市昭化区葭萌路与青梅路交叉口西南方向26米左右",
        "tel": "",
        "category": "基础设施:公共设施:公共厕所",
        "type": 0,
        "location": {
            "lat": 32.321364,
            "lng": 105.967542
        },
        "ad_info": {
            "adcode": 510811,
            "province": "四川省",
            "city": "广元市",
            "district": "昭化区"
        }
    },
    {
        "id": "18220252654558346641",
        "title": "公共厕所",
        "address": "四川省广元市青川县青剑路与黄沙路交叉口东北方向251米左右",
        "tel": "",
        "category": "基础设施:公共设施:公共厕所",
        "type": 0,
        "location": {
            "lat": 32.207754,
            "lng": 105.328154
        },
        "ad_info": {
            "adcode": 510822,
            "province": "四川省",
            "city": "广元市",
            "district": "青川县"
        }
    },
    {
        "id": "3568284419780626761",
        "title": "公共卫生间",
        "address": "四川省广元市剑阁县汉德街与清江路交叉口西北方向91米左右",
        "tel": "",
        "category": "基础设施:公共设施:公共厕所",
        "type": 0,
        "location": {
            "lat": 32.286085,
            "lng": 105.528898
        },
        "ad_info": {
            "adcode": 510823,
            "province": "四川省",
            "city": "广元市",
            "district": "剑阁县"
        }
    },
    {
        "id": "4301453043366886178",
        "title": "公共厕所",
        "address": "四川省广元市旺苍县凤凰路与红星南路交叉口正东方向71米左右",
        "tel": "",
        "category": "基础设施:公共设施:公共厕所",
        "type": 0,
        "location": {
            "lat": 32.225035,
            "lng": 106.287247
        },
        "ad_info": {
            "adcode": 510821,
            "province": "四川省",
            "city": "广元市",
            "district": "旺苍县"
        }
    },
    {
        "id": "10582403167331611049",
        "title": "公共厕所",
        "address": "四川省广元市朝天区G108与中子隧道交叉口正南方向108米左右",
        "tel": "",
        "category": "基础设施:公共设施:公共厕所",
        "type": 0,
        "location": {
            "lat": 32.705914,
            "lng": 106.072761
        },
        "ad_info": {
            "adcode": 510812,
            "province": "四川省",
            "city": "广元市",
            "district": "朝天区"
        }
    },
    {
        "id": "13655651215183330608",
        "title": "公共厕所",
        "address": "四川省广元市旺苍县文昌街与沙坝街交叉口正北方向389米左右",
        "tel": "",
        "category": "基础设施:公共设施:公共厕所",
        "type": 0,
        "location": {
            "lat": 32.240026,
            "lng": 106.306703
        },
        "ad_info": {
            "adcode": 510821,
            "province": "四川省",
            "city": "广元市",
            "district": "旺苍县"
        }
    },
    {
        "id": "13909277142321733894",
        "title": "公共厕所",
        "address": "四川省广元市旺苍县G542与杨前路交叉口东北方向131米左右",
        "tel": "",
        "category": "基础设施:公共设施:公共厕所",
        "type": 0,
        "location": {
            "lat": 32.20677,
            "lng": 106.202281
        },
        "ad_info": {
            "adcode": 510821,
            "province": "四川省",
            "city": "广元市",
            "district": "旺苍县"
        }
    },
    {
        "id": "17671817547709969669",
        "title": "公共厕所",
        "address": "四川省广元市利州区三江大道与皂角树街交叉口正北方向106米左右",
        "tel": "",
        "category": "基础设施:公共设施:公共厕所",
        "type": 0,
        "location": {
            "lat": 32.380131,
            "lng": 105.63851
        },
        "ad_info": {
            "adcode": 510802,
            "province": "四川省",
            "city": "广元市",
            "district": "利州区"
        }
    },
    {
        "id": "6482007356546663761",
        "title": "公共厕所",
        "address": "四川省广元市利州区海口路与滨江路交叉口正北方向250米左右",
        "tel": "",
        "category": "基础设施:公共设施:公共厕所",
        "type": 0,
        "location": {
            "lat": 32.42013,
            "lng": 105.81486
        },
        "ad_info": {
            "adcode": 510802,
            "province": "四川省",
            "city": "广元市",
            "district": "利州区"
        }
    },
    {
        "id": "18079694722812866191",
        "title": "公共厕所",
        "address": "四川省广元市苍溪县三清路与汉古街交叉口西20米",
        "tel": "",
        "category": "基础设施:公共设施:公共厕所",
        "type": 0,
        "location": {
            "lat": 31.734472,
            "lng": 105.927564
        },
        "ad_info": {
            "adcode": 510824,
            "province": "四川省",
            "city": "广元市",
            "district": "苍溪县"
        }
    },
    {
        "id": "6896154473211431849",
        "title": "公共厕所",
        "address": "四川省广元市苍溪县状元桥街82号",
        "tel": "",
        "category": "基础设施:公共设施:公共厕所",
        "type": 0,
        "location": {
            "lat": 31.730181,
            "lng": 105.939798
        },
        "ad_info": {
            "adcode": 510824,
            "province": "四川省",
            "city": "广元市",
            "district": "苍溪县"
        }
    },
    {
        "id": "2757475612457593786",
        "title": "公共厕所",
        "address": "四川省广元市苍溪县北门沟东街与汉昌路交叉口西北方向45米左右",
        "tel": "",
        "category": "基础设施:公共设施:公共厕所",
        "type": 0,
        "location": {
            "lat": 31.740273,
            "lng": 105.938695
        },
        "ad_info": {
            "adcode": 510824,
            "province": "四川省",
            "city": "广元市",
            "district": "苍溪县"
        }
    },
    {
        "id": "13345131406293591333",
        "title": "公共厕所",
        "address": "四川省广元市旺苍县红军巷与红星南路交叉口正东方向28米左右",
        "tel": "",
        "category": "基础设施:公共设施:公共厕所",
        "type": 0,
        "location": {
            "lat": 32.226671,
            "lng": 106.286768
        },
        "ad_info": {
            "adcode": 510821,
            "province": "四川省",
            "city": "广元市",
            "district": "旺苍县"
        }
    },
    {
        "id": "11785185626338540525",
        "title": "公共厕所",
        "address": "四川省广元市旺苍县Y147与苍旺公路交叉口正南方向255米左右",
        "tel": "",
        "category": "基础设施:公共设施:公共厕所",
        "type": 0,
        "location": {
            "lat": 32.202798,
            "lng": 106.213119
        },
        "ad_info": {
            "adcode": 510821,
            "province": "四川省",
            "city": "广元市",
            "district": "旺苍县"
        }
    },
    {
        "id": "2198990842566087844",
        "title": "公共厕所",
        "address": "四川省广元市旺苍县凤阳巷与建设路交叉口东北方向30米左右",
        "tel": "",
        "category": "基础设施:公共设施:公共厕所",
        "type": 0,
        "location": {
            "lat": 32.226319,
            "lng": 106.295985
        },
        "ad_info": {
            "adcode": 510821,
            "province": "四川省",
            "city": "广元市",
            "district": "旺苍县"
        }
    },
    {
        "id": "3300955814163284512",
        "title": "公共厕所",
        "address": "四川省广元市旺苍县文昌街与沙坝街交叉口西南方向43米左右",
        "tel": "",
        "category": "基础设施:公共设施:公共厕所",
        "type": 0,
        "location": {
            "lat": 32.236205,
            "lng": 106.305917
        },
        "ad_info": {
            "adcode": 510821,
            "province": "四川省",
            "city": "广元市",
            "district": "旺苍县"
        }
    },
    {
        "id": "11798595111836944726",
        "title": "公共厕所",
        "address": "四川省广元市利州区栖凤路与梧桐路交叉口西南方向39米左右",
        "tel": "",
        "category": "基础设施:公共设施:公共厕所",
        "type": 0,
        "location": {
            "lat": 32.437142,
            "lng": 105.831251
        },
        "ad_info": {
            "adcode": 510802,
            "province": "四川省",
            "city": "广元市",
            "district": "利州区"
        }
    },
    {
        "id": "8402291066754208789",
        "title": "公共厕所",
        "address": "四川省广元市剑阁县龙江大道四川省剑门关高级中学",
        "tel": "",
        "category": "基础设施:公共设施:公共厕所",
        "type": 0,
        "location": {
            "lat": 32.278694,
            "lng": 105.506665
        },
        "ad_info": {
            "adcode": 510823,
            "province": "四川省",
            "city": "广元市",
            "district": "剑阁县"
        }
    },
    {
        "id": "10400843753219520666",
        "title": "公共厕所",
        "address": "四川省广元市利州区万缘路与玉潭路交叉口正西方向105米左右",
        "tel": "",
        "category": "基础设施:公共设施:公共厕所",
        "type": 0,
        "location": {
            "lat": 32.422267,
            "lng": 105.866598
        },
        "ad_info": {
            "adcode": 510802,
            "province": "四川省",
            "city": "广元市",
            "district": "利州区"
        }
    },
    {
        "id": "6455529210861515410",
        "title": "公共厕所",
        "address": "四川省广元市利州区万缘东路与万缘路交叉口东南方向49米左右",
        "tel": "",
        "category": "基础设施:公共设施:公共厕所",
        "type": 0,
        "location": {
            "lat": 32.419491,
            "lng": 105.88476
        },
        "ad_info": {
            "adcode": 510802,
            "province": "四川省",
            "city": "广元市",
            "district": "利州区"
        }
    },
    {
        "id": "9536434870079310709",
        "title": "公共厕所",
        "address": "四川省广元市剑阁县何家巷与青剑路交叉口正南方向30米左右",
        "tel": "",
        "category": "基础设施:公共设施:公共厕所",
        "type": 0,
        "location": {
            "lat": 32.048397,
            "lng": 105.462514
        },
        "ad_info": {
            "adcode": 510823,
            "province": "四川省",
            "city": "广元市",
            "district": "剑阁县"
        }
    },
    {
        "id": "15741513619590681673",
        "title": "公共厕所",
        "address": "四川省广元市利州区兴安路与孙沟路交叉口正西方向42米左右",
        "tel": "",
        "category": "基础设施:公共设施:公共厕所",
        "type": 0,
        "location": {
            "lat": 32.432241,
            "lng": 105.8645
        },
        "ad_info": {
            "adcode": 510802,
            "province": "四川省",
            "city": "广元市",
            "district": "利州区"
        }
    },
    {
        "id": "13636846539181860449",
        "title": "公共厕所",
        "address": "四川省广元市剑阁县剑门商业街与百草园街交叉口正东方向43米左右",
        "tel": "",
        "category": "基础设施:公共设施:公共厕所",
        "type": 0,
        "location": {
            "lat": 32.276607,
            "lng": 105.524005
        },
        "ad_info": {
            "adcode": 510823,
            "province": "四川省",
            "city": "广元市",
            "district": "剑阁县"
        }
    },
    {
        "id": "5203039251158450034",
        "title": "公共厕所",
        "address": "四川省广元市利州区上海路与南环路交叉口正北方向264米左右",
        "tel": "",
        "category": "基础设施:公共设施:公共厕所",
        "type": 0,
        "location": {
            "lat": 32.415242,
            "lng": 105.818211
        },
        "ad_info": {
            "adcode": 510802,
            "province": "四川省",
            "city": "广元市",
            "district": "利州区"
        }
    },
    {
        "id": "7428481214112213910",
        "title": "公共厕所",
        "address": "四川省广元市剑阁县剑门路与学街交叉口西北方向77米左右",
        "tel": "",
        "category": "基础设施:公共设施:公共厕所",
        "type": 0,
        "location": {
            "lat": 32.036071,
            "lng": 105.471496
        },
        "ad_info": {
            "adcode": 510823,
            "province": "四川省",
            "city": "广元市",
            "district": "剑阁县"
        }
    },
    {
        "id": "1523020497229995225",
        "title": "公共厕所",
        "address": "四川省广元市剑阁县环山路与邮电巷交叉口东北方向24米左右",
        "tel": "",
        "category": "基础设施:公共设施:公共厕所",
        "type": 0,
        "location": {
            "lat": 32.285554,
            "lng": 105.523456
        },
        "ad_info": {
            "adcode": 510823,
            "province": "四川省",
            "city": "广元市",
            "district": "剑阁县"
        }
    },
    {
        "id": "4363844159946843221",
        "title": "宝轮服务区公共厕所",
        "address": "四川省广元市利州区G75兰海高速与宝轮停车区交叉口西北380米",
        "tel": "",
        "category": "基础设施:公共设施:公共厕所",
        "type": 0,
        "location": {
            "lat": 32.38092,
            "lng": 105.606708
        },
        "ad_info": {
            "adcode": 510802,
            "province": "四川省",
            "city": "广元市",
            "district": "利州区"
        }
    },
    {
        "id": "4087828359001045352",
        "title": "苍溪县劳动者驿站(国大公共厕所)",
        "address": "四川省广元市苍溪县陵江镇滨江路苍溪县文化旅游和体育局西南",
        "tel": "",
        "category": "基础设施:公共设施:公共厕所",
        "type": 0,
        "location": {
            "lat": 31.737503,
            "lng": 105.920894
        },
        "ad_info": {
            "adcode": 510824,
            "province": "四川省",
            "city": "广元市",
            "district": "苍溪县"
        }
    },
    {
        "id": "14065200573075115906",
        "title": "公共厕所",
        "address": "四川省广元市朝天区稼轩街与陵江东路交叉口正西方向16米左右",
        "tel": "",
        "category": "基础设施:公共设施:公共厕所",
        "type": 0,
        "location": {
            "lat": 32.651731,
            "lng": 105.880612
        },
        "ad_info": {
            "adcode": 510812,
            "province": "四川省",
            "city": "广元市",
            "district": "朝天区"
        }
    },
    {
        "id": "7982185054752335027",
        "title": "公共厕所",
        "address": "四川省广元市剑阁县剑门大道与陈家巷交叉口正东方向84米左右",
        "tel": "",
        "category": "基础设施:公共设施:公共厕所",
        "type": 0,
        "location": {
            "lat": 32.273816,
            "lng": 105.525376
        },
        "ad_info": {
            "adcode": 510823,
            "province": "四川省",
            "city": "广元市",
            "district": "剑阁县"
        }
    },
    {
        "id": "5766840340119445366",
        "title": "公共厕所",
        "address": "四川省广元市剑阁县姚家小学西侧140米",
        "tel": "",
        "category": "基础设施:公共设施:公共厕所",
        "type": 0,
        "location": {
            "lat": 32.130928,
            "lng": 105.390343
        },
        "ad_info": {
            "adcode": 510823,
            "province": "四川省",
            "city": "广元市",
            "district": "剑阁县"
        }
    },
    {
        "id": "16532888701549295244",
        "title": "公共厕所",
        "address": "四川省广元市昭化区",
        "tel": "",
        "category": "基础设施:公共设施:公共厕所",
        "type": 0,
        "location": {
            "lat": 32.00157,
            "lng": 105.7273
        },
        "ad_info": {
            "adcode": 510811,
            "province": "四川省",
            "city": "广元市",
            "district": "昭化区"
        }
    },
    {
        "id": "16688589411389048093",
        "title": "公共厕所",
        "address": "四川省广元市剑阁县G347与通河路交叉口西南方向785米左右",
        "tel": "",
        "category": "基础设施:公共设施:公共厕所",
        "type": 0,
        "location": {
            "lat": 31.616375,
            "lng": 105.507121
        },
        "ad_info": {
            "adcode": 510823,
            "province": "四川省",
            "city": "广元市",
            "district": "剑阁县"
        }
    },
    {
        "id": "12898288655967744109",
        "title": "公共厕所",
        "address": "四川省广元市旺苍县幸福巷41号",
        "tel": "",
        "category": "基础设施:公共设施:公共厕所",
        "type": 0,
        "location": {
            "lat": 32.230521,
            "lng": 106.292512
        },
        "ad_info": {
            "adcode": 510821,
            "province": "四川省",
            "city": "广元市",
            "district": "旺苍县"
        }
    },
    {
        "id": "14036000189665418513",
        "title": "公共厕所",
        "address": "四川省广元市利州区利州东路一段与嘉陵路北段交叉口东北方向90米左右",
        "tel": "",
        "category": "基础设施:公共设施:公共厕所",
        "type": 0,
        "location": {
            "lat": 32.43574,
            "lng": 105.84144
        },
        "ad_info": {
            "adcode": 510802,
            "province": "四川省",
            "city": "广元市",
            "district": "利州区"
        }
    },
    {
        "id": "12981032910298532887",
        "title": "公共卫生间",
        "address": "四川省广元市剑阁县汉德街与清江路交叉口正北方向90米左右",
        "tel": "",
        "category": "基础设施:公共设施:公共厕所",
        "type": 0,
        "location": {
            "lat": 32.286191,
            "lng": 105.529315
        },
        "ad_info": {
            "adcode": 510823,
            "province": "四川省",
            "city": "广元市",
            "district": "剑阁县"
        }
    },
    {
        "id": "3891444282440702549",
        "title": "公共卫生间",
        "address": "四川省广元市剑阁县南华街与清江路交叉口正北方向75米左右",
        "tel": "",
        "category": "基础设施:公共设施:公共厕所",
        "type": 0,
        "location": {
            "lat": 32.282861,
            "lng": 105.529605
        },
        "ad_info": {
            "adcode": 510823,
            "province": "四川省",
            "city": "广元市",
            "district": "剑阁县"
        }
    },
    {
        "id": "17420064728625116107",
        "title": "苍溪服务区公共厕所",
        "address": "四川省广元市苍溪县兰海高速苍溪服务区",
        "tel": "",
        "category": "基础设施:公共设施:公共厕所",
        "type": 0,
        "location": {
            "lat": 31.965009,
            "lng": 105.921263
        },
        "ad_info": {
            "adcode": 510824,
            "province": "四川省",
            "city": "广元市",
            "district": "苍溪县"
        }
    },
    {
        "id": "11713177702138066082",
        "title": "公共厕所",
        "address": "四川省广元市旺苍县万盛巷169号",
        "tel": "",
        "category": "基础设施:公共设施:公共厕所",
        "type": 0,
        "location": {
            "lat": 32.22221,
            "lng": 106.27061
        },
        "ad_info": {
            "adcode": 510821,
            "province": "四川省",
            "city": "广元市",
            "district": "旺苍县"
        }
    },
    {
        "id": "12415711278368370460",
        "title": "苍溪服务区第二公共厕所",
        "address": "四川省广元市苍溪县兰海高速附近",
        "tel": "",
        "category": "基础设施:公共设施:公共厕所",
        "type": 0,
        "location": {
            "lat": 31.963935,
            "lng": 105.919443
        },
        "ad_info": {
            "adcode": 510824,
            "province": "四川省",
            "city": "广元市",
            "district": "苍溪县"
        }
    },
    {
        "id": "5286452791118827247",
        "title": "旺苍服务区第二公共厕所",
        "address": "四川省广元市旺苍县G5012恩广高速与旺苍服务区交叉口东北160米",
        "tel": "",
        "category": "基础设施:公共设施:公共厕所",
        "type": 0,
        "location": {
            "lat": 32.214594,
            "lng": 106.253353
        },
        "ad_info": {
            "adcode": 510821,
            "province": "四川省",
            "city": "广元市",
            "district": "旺苍县"
        }
    },
    {
        "id": "17813359542033354423",
        "title": "地坪熊猫茶寨智慧公厕",
        "address": "四川省广元市青川县G543",
        "tel": "18284082912",
        "category": "基础设施:公共设施:公共厕所",
        "type": 0,
        "location": {
            "lat": 32.535586,
            "lng": 105.063659
        },
        "ad_info": {
            "adcode": 510822,
            "province": "四川省",
            "city": "广元市",
            "district": "青川县"
        }
    },
    {
        "id": "8457742502159675964",
        "title": "地坪熊猫茶寨智慧公厕",
        "address": "四川省广元市青川县G543",
        "tel": "18284082912",
        "category": "基础设施:公共设施:公共厕所",
        "type": 0,
        "location": {
            "lat": 32.535586,
            "lng": 105.063659
        },
        "ad_info": {
            "adcode": 510822,
            "province": "四川省",
            "city": "广元市",
            "district": "青川县"
        }
    },
    {
        "id": "11392207286364643489",
        "title": "乐安寺旅游公共厕所",
        "address": "四川省广元市青川县G543与红卫桥交叉口西北方向107米左右",
        "tel": "",
        "category": "基础设施:公共设施:公共厕所",
        "type": 0,
        "location": {
            "lat": 32.486558,
            "lng": 105.082586
        },
        "ad_info": {
            "adcode": 510822,
            "province": "四川省",
            "city": "广元市",
            "district": "青川县"
        }
    },
    {
        "id": "15755841866852452071",
        "title": "元坝服务区第三公共厕所",
        "address": "四川省广元市昭化区G5012恩广高速与元坝服务区交叉口东120米",
        "tel": "",
        "category": "基础设施:公共设施:公共厕所",
        "type": 0,
        "location": {
            "lat": 32.259025,
            "lng": 105.994951
        },
        "ad_info": {
            "adcode": 510811,
            "province": "四川省",
            "city": "广元市",
            "district": "昭化区"
        }
    },
    {
        "id": "12720669160180791109",
        "title": "剑门关服务区第二公共厕所",
        "address": "四川省广元市剑阁县G108与剑山大道交叉口东南方向101米左右",
        "tel": "",
        "category": "基础设施:公共设施:公共厕所",
        "type": 0,
        "location": {
            "lat": 32.293381,
            "lng": 105.543813
        },
        "ad_info": {
            "adcode": 510823,
            "province": "四川省",
            "city": "广元市",
            "district": "剑阁县"
        }
    },
    {
        "id": "1220921138531216183",
        "title": "剑门关服务区公共厕所",
        "address": "四川省广元市剑阁县G108与剑山大道交叉口正南方向308米左右",
        "tel": "",
        "category": "基础设施:公共设施:公共厕所",
        "type": 0,
        "location": {
            "lat": 32.291139,
            "lng": 105.542812
        },
        "ad_info": {
            "adcode": 510823,
            "province": "四川省",
            "city": "广元市",
            "district": "剑阁县"
        }
    },
    {
        "id": "4379613204269634629",
        "title": "剑门关服务区第一公共厕所",
        "address": "四川省广元市剑阁县G108与剑山大道交叉口正南方向134米左右",
        "tel": "",
        "category": "基础设施:公共设施:公共厕所",
        "type": 0,
        "location": {
            "lat": 32.292957,
            "lng": 105.542731
        },
        "ad_info": {
            "adcode": 510823,
            "province": "四川省",
            "city": "广元市",
            "district": "剑阁县"
        }
    },
    {
        "id": "11253149062995469417",
        "title": "女洗手间",
        "address": "四川省广元市利州区万缘路与万源大桥交叉口东南角广元利州万达广场3F",
        "tel": "",
        "category": "基础设施:公共设施:女洗手间",
        "type": 0,
        "location": {
            "lat": 32.424206,
            "lng": 105.876841
        },
        "ad_info": {
            "adcode": 510802,
            "province": "四川省",
            "city": "广元市",
            "district": "利州区"
        }
    },
    {
        "id": "12191744068805814277",
        "title": "女洗手间(广元万达广场)",
        "address": "四川省广元市利州区万缘路与万源大桥交叉口东南角广元利州万达广场1F",
        "tel": "",
        "category": "基础设施:公共设施:女洗手间",
        "type": 0,
        "location": {
            "lat": 32.424606,
            "lng": 105.877795
        },
        "ad_info": {
            "adcode": 510802,
            "province": "四川省",
            "city": "广元市",
            "district": "利州区"
        }
    },
    {
        "id": "9880198127603846419",
        "title": "无障碍洗手间(广元万达广场)",
        "address": "四川省广元市利州区万缘路与万源大桥交叉口东南角广元利州万达广场3F",
        "tel": "",
        "category": "基础设施:公共设施:无障碍洗手间",
        "type": 0,
        "location": {
            "lat": 32.424637,
            "lng": 105.87779
        },
        "ad_info": {
            "adcode": 510802,
            "province": "四川省",
            "city": "广元市",
            "district": "利州区"
        }
    },
    {
        "id": "13365742622455488162",
        "title": "男洗手间",
        "address": "四川省广元市利州区万缘路与万源大桥交叉口东南角广元利州万达广场3F",
        "tel": "",
        "category": "基础设施:公共设施:男洗手间",
        "type": 0,
        "location": {
            "lat": 32.424156,
            "lng": 105.876849
        },
        "ad_info": {
            "adcode": 510802,
            "province": "四川省",
            "city": "广元市",
            "district": "利州区"
        }
    },
    {
        "id": "14280191873772366023",
        "title": "半山.花间小区公共厕所",
        "address": "四川省广元市利州区半山.花间小区5栋1单元架空层",
        "tel": "",
        "category": "基础设施:公共设施:公共厕所",
        "type": 0,
        "location": {
            "lat": 32.460334,
            "lng": 105.852138
        },
        "ad_info": {
            "adcode": 510802,
            "province": "四川省",
            "city": "广元市",
            "district": "利州区"
        }
    },
    {
        "id": "7267139601944007976",
        "title": "公共厕所",
        "address": "四川省广元市利州区平安路与滨河路交叉口东南方向43米左右",
        "tel": "",
        "category": "基础设施:公共设施:公共厕所",
        "type": 0,
        "location": {
            "lat": 32.391107,
            "lng": 105.9272
        },
        "ad_info": {
            "adcode": 510802,
            "province": "四川省",
            "city": "广元市",
            "district": "利州区"
        }
    },
    {
        "id": "14786431976347694236",
        "title": "公共厕所",
        "address": "四川省广元市旺苍县G542与黄高路交叉口西北方向86米左右",
        "tel": "",
        "category": "基础设施:公共设施:公共厕所",
        "type": 0,
        "location": {
            "lat": 32.238513,
            "lng": 106.375332
        },
        "ad_info": {
            "adcode": 510821,
            "province": "四川省",
            "city": "广元市",
            "district": "旺苍县"
        }
    },
    {
        "id": "11668484786946933996",
        "title": "男洗手间(广元万达广场)",
        "address": "四川省广元市利州区万缘路与万源大桥交叉口东南角广元利州万达广场2F",
        "tel": "",
        "category": "基础设施:公共设施:男洗手间",
        "type": 0,
        "location": {
            "lat": 32.424152,
            "lng": 105.876842
        },
        "ad_info": {
            "adcode": 510802,
            "province": "四川省",
            "city": "广元市",
            "district": "利州区"
        }
    },
    {
        "id": "3803818938974960734",
        "title": "公共厕所",
        "address": "四川省广元市利州区乐泉加油站西北侧80米",
        "tel": "",
        "category": "基础设施:公共设施:公共厕所",
        "type": 0,
        "location": {
            "lat": 32.369313,
            "lng": 105.964721
        },
        "ad_info": {
            "adcode": 510802,
            "province": "四川省",
            "city": "广元市",
            "district": "利州区"
        }
    },
    {
        "id": "5042682482581522681",
        "title": "公共厕所",
        "address": "四川省广元市青川县G543与小北街交叉口西北方向1778米左右",
        "tel": "",
        "category": "基础设施:公共设施:公共厕所",
        "type": 0,
        "location": {
            "lat": 32.597041,
            "lng": 105.217256
        },
        "ad_info": {
            "adcode": 510822,
            "province": "四川省",
            "city": "广元市",
            "district": "青川县"
        }
    },
    {
        "id": "14858895069449088798",
        "title": "卫生间",
        "address": "四川省广元市利州区G108与严家湾隧道交叉口正东方向438米左右",
        "tel": "",
        "category": "基础设施:公共设施:公共厕所",
        "type": 0,
        "location": {
            "lat": 32.456024,
            "lng": 105.846887
        },
        "ad_info": {
            "adcode": 510802,
            "province": "四川省",
            "city": "广元市",
            "district": "利州区"
        }
    },
    {
        "id": "13012848061288925985",
        "title": "公共厕所",
        "address": "四川省广元市利州区则天路与国粮街交叉口正东方向18米左右",
        "tel": "",
        "category": "基础设施:公共设施:公共厕所",
        "type": 0,
        "location": {
            "lat": 32.452107,
            "lng": 105.827518
        },
        "ad_info": {
            "adcode": 510802,
            "province": "四川省",
            "city": "广元市",
            "district": "利州区"
        }
    },
    {
        "id": "8066716668139572846",
        "title": "公共厕所",
        "address": "四川省广元市利州区樵歌路与阜康大道交叉口东北方向261米左右",
        "tel": "",
        "category": "基础设施:公共设施:公共厕所",
        "type": 0,
        "location": {
            "lat": 32.434987,
            "lng": 105.891018
        },
        "ad_info": {
            "adcode": 510802,
            "province": "四川省",
            "city": "广元市",
            "district": "利州区"
        }
    },
    {
        "id": "3210244308863159282",
        "title": "旺苍服务区公共厕所",
        "address": "四川省广元市旺苍县丰华路与新桥路交叉口东南方向442米左右",
        "tel": "",
        "category": "基础设施:公共设施:公共厕所",
        "type": 0,
        "location": {
            "lat": 32.214095,
            "lng": 106.255457
        },
        "ad_info": {
            "adcode": 510821,
            "province": "四川省",
            "city": "广元市",
            "district": "旺苍县"
        }
    },
    {
        "id": "7896686984264547834",
        "title": "苍溪县劳动者驿站(工业园区公共厕所)",
        "address": "四川省广元市苍溪县猕都大道与通威大道交叉口正东方向70米左右",
        "tel": "",
        "category": "基础设施:公共设施:公共厕所",
        "type": 0,
        "location": {
            "lat": 31.698509,
            "lng": 105.953847
        },
        "ad_info": {
            "adcode": 510824,
            "province": "四川省",
            "city": "广元市",
            "district": "苍溪县"
        }
    },
    {
        "id": "13724013755755153986",
        "title": "公共厕所",
        "address": "四川省广元市利州区金轮南路356号",
        "tel": "",
        "category": "基础设施:公共设施:公共厕所",
        "type": 0,
        "location": {
            "lat": 32.443176,
            "lng": 105.814982
        },
        "ad_info": {
            "adcode": 510802,
            "province": "四川省",
            "city": "广元市",
            "district": "利州区"
        }
    },
    {
        "id": "8920986869051553204",
        "title": "女洗手间(广元万达广场)",
        "address": "四川省广元市利州区万缘路与万源大桥交叉口东南角广元利州万达广场1F",
        "tel": "",
        "category": "基础设施:公共设施:女洗手间",
        "type": 0,
        "location": {
            "lat": 32.424273,
            "lng": 105.878718
        },
        "ad_info": {
            "adcode": 510802,
            "province": "四川省",
            "city": "广元市",
            "district": "利州区"
        }
    },
    {
        "id": "4738708426905299576",
        "title": "男洗手间(广元万达广场)",
        "address": "四川省广元市利州区万缘路与万源大桥交叉口东南角广元利州万达广场2F",
        "tel": "",
        "category": "基础设施:公共设施:男洗手间",
        "type": 0,
        "location": {
            "lat": 32.424664,
            "lng": 105.877786
        },
        "ad_info": {
            "adcode": 510802,
            "province": "四川省",
            "city": "广元市",
            "district": "利州区"
        }
    },
    {
        "id": "10658515793530901671",
        "title": "无障碍-洗手间",
        "address": "四川省广元市利州区万缘路与万源大桥交叉口东南角广元利州万达广场3F",
        "tel": "",
        "category": "基础设施:公共设施:无障碍洗手间",
        "type": 0,
        "location": {
            "lat": 32.424184,
            "lng": 105.876842
        },
        "ad_info": {
            "adcode": 510802,
            "province": "四川省",
            "city": "广元市",
            "district": "利州区"
        }
    },
    {
        "id": "13142056104081934593",
        "title": "公共厕所",
        "address": "四川省广元市利州区学府路与文津路交叉口西北方向265米左右",
        "tel": "",
        "category": "基础设施:公共设施:公共厕所",
        "type": 0,
        "location": {
            "lat": 32.422236,
            "lng": 105.889848
        },
        "ad_info": {
            "adcode": 510802,
            "province": "四川省",
            "city": "广元市",
            "district": "利州区"
        }
    },
    {
        "id": "8246755917267680659",
        "title": "公共厕所",
        "address": "四川省广元市青川县G543与永安路交叉口正南方向42米左右",
        "tel": "",
        "category": "基础设施:公共设施:公共厕所",
        "type": 0,
        "location": {
            "lat": 32.644504,
            "lng": 105.416301
        },
        "ad_info": {
            "adcode": 510822,
            "province": "四川省",
            "city": "广元市",
            "district": "青川县"
        }
    },
    {
        "id": "10798613986691410771",
        "title": "无障碍-洗手间",
        "address": "四川省广元市利州区万缘路与万源大桥交叉口东南角广元利州万达广场2F",
        "tel": "",
        "category": "基础设施:公共设施:无障碍洗手间",
        "type": 0,
        "location": {
            "lat": 32.424636,
            "lng": 105.877789
        },
        "ad_info": {
            "adcode": 510802,
            "province": "四川省",
            "city": "广元市",
            "district": "利州区"
        }
    },
    {
        "id": "14038480381222524103",
        "title": "公共厕所",
        "address": "四川省广元市昭化区益昌路与雪松街交叉口正南方向356米左右",
        "tel": "",
        "category": "基础设施:公共设施:公共厕所",
        "type": 0,
        "location": {
            "lat": 32.318905,
            "lng": 105.970801
        },
        "ad_info": {
            "adcode": 510811,
            "province": "四川省",
            "city": "广元市",
            "district": "昭化区"
        }
    },
    {
        "id": "6837194945316863678",
        "title": "公共厕所",
        "address": "四川省广元市利州区学府路与滨河路交叉口东南方向205米左右",
        "tel": "",
        "category": "基础设施:公共设施:公共厕所",
        "type": 0,
        "location": {
            "lat": 32.41156,
            "lng": 105.891441
        },
        "ad_info": {
            "adcode": 510802,
            "province": "四川省",
            "city": "广元市",
            "district": "利州区"
        }
    },
    {
        "id": "15330300560347929277",
        "title": "中子服务区公共厕所",
        "address": "四川省广元市朝天区中子服务区与G5京昆高速出口交叉口东北180米",
        "tel": "",
        "category": "基础设施:公共设施:公共厕所",
        "type": 0,
        "location": {
            "lat": 32.703526,
            "lng": 106.046164
        },
        "ad_info": {
            "adcode": 510812,
            "province": "四川省",
            "city": "广元市",
            "district": "朝天区"
        }
    },
    {
        "id": "2453471858852191365",
        "title": "女洗手间",
        "address": "四川省广元市利州区万缘路与万源大桥交叉口东南角广元利州万达广场1F",
        "tel": "",
        "category": "基础设施:公共设施:女洗手间",
        "type": 0,
        "location": {
            "lat": 32.424212,
            "lng": 105.876848
        },
        "ad_info": {
            "adcode": 510802,
            "province": "四川省",
            "city": "广元市",
            "district": "利州区"
        }
    },
    {
        "id": "3080364253018388708",
        "title": "公共厕所",
        "address": "四川省广元市苍溪县Y066与苍旺公路交叉口西南方向412米左右",
        "tel": "",
        "category": "基础设施:公共设施:公共厕所",
        "type": 0,
        "location": {
            "lat": 31.878514,
            "lng": 106.150052
        },
        "ad_info": {
            "adcode": 510824,
            "province": "四川省",
            "city": "广元市",
            "district": "苍溪县"
        }
    },
    {
        "id": "108460747250660691",
        "title": "公共厕所",
        "address": "四川省广元市利州区滨河南路与蜀门南路交叉口东北方向64米左右",
        "tel": "",
        "category": "基础设施:公共设施:公共厕所",
        "type": 0,
        "location": {
            "lat": 32.429122,
            "lng": 105.826303
        },
        "ad_info": {
            "adcode": 510802,
            "province": "四川省",
            "city": "广元市",
            "district": "利州区"
        }
    },
    {
        "id": "14080435648674370481",
        "title": "公共厕所",
        "address": "四川省广元市利州区南环路与广州路交叉口正西方向162米左右",
        "tel": "",
        "category": "基础设施:公共设施:公共厕所",
        "type": 0,
        "location": {
            "lat": 32.422858,
            "lng": 105.831882
        },
        "ad_info": {
            "adcode": 510802,
            "province": "四川省",
            "city": "广元市",
            "district": "利州区"
        }
    },
    {
        "id": "2172494188229647771",
        "title": "公共厕所",
        "address": "四川省广元市青川县滨江路与青剑路交叉口正北方向102米左右",
        "tel": "",
        "category": "基础设施:公共设施:公共厕所",
        "type": 0,
        "location": {
            "lat": 32.265292,
            "lng": 105.305613
        },
        "ad_info": {
            "adcode": 510822,
            "province": "四川省",
            "city": "广元市",
            "district": "青川县"
        }
    },
    {
        "id": "13335647118574992845",
        "title": "青龙湖服务区公共厕所",
        "address": "四川省广元市青川县青龙湖服务区与S18广平高速交叉口东南80米",
        "tel": "",
        "category": "基础设施:公共设施:公共厕所",
        "type": 0,
        "location": {
            "lat": 32.492801,
            "lng": 104.941885
        },
        "ad_info": {
            "adcode": 510822,
            "province": "四川省",
            "city": "广元市",
            "district": "青川县"
        }
    },
    {
        "id": "16038972008470963031",
        "title": "公共厕所",
        "address": "四川省广元市利州区北二环与银杏南路一段交叉口西北方向343米左右",
        "tel": "",
        "category": "基础设施:公共设施:公共厕所",
        "type": 0,
        "location": {
            "lat": 32.46104,
            "lng": 105.85651
        },
        "ad_info": {
            "adcode": 510802,
            "province": "四川省",
            "city": "广元市",
            "district": "利州区"
        }
    },
    {
        "id": "6979314973147534942",
        "title": "公共厕所",
        "address": "四川省广元市利州区三江大道与三江大道西段交叉口东南方向169米左右",
        "tel": "",
        "category": "基础设施:公共设施:公共厕所",
        "type": 0,
        "location": {
            "lat": 32.37825,
            "lng": 105.641222
        },
        "ad_info": {
            "adcode": 510802,
            "province": "四川省",
            "city": "广元市",
            "district": "利州区"
        }
    },
    {
        "id": "4230594950548873583",
        "title": "公共厕所",
        "address": "四川省广元市昭化区广永路附近",
        "tel": "",
        "category": "基础设施:公共设施:公共厕所",
        "type": 0,
        "location": {
            "lat": 32.001034,
            "lng": 105.727273
        },
        "ad_info": {
            "adcode": 510811,
            "province": "四川省",
            "city": "广元市",
            "district": "昭化区"
        }
    },
    {
        "id": "15355319958004483690",
        "title": "羊木镇东山公园旅游厕所",
        "address": "四川省广元市朝天区大河路与大羊路交叉口西北方向1426米左右",
        "tel": "",
        "category": "基础设施:公共设施:公共厕所",
        "type": 0,
        "location": {
            "lat": 32.612334,
            "lng": 105.806515
        },
        "ad_info": {
            "adcode": 510812,
            "province": "四川省",
            "city": "广元市",
            "district": "朝天区"
        }
    },
    {
        "id": "3817896935302711004",
        "title": "公共厕所",
        "address": "四川省广元市青川县滨河路1号",
        "tel": "",
        "category": "基础设施:公共设施:公共厕所",
        "type": 0,
        "location": {
            "lat": 32.575714,
            "lng": 105.24346
        },
        "ad_info": {
            "adcode": 510822,
            "province": "四川省",
            "city": "广元市",
            "district": "青川县"
        }
    },
    {
        "id": "18049825785455146281",
        "title": "公共厕所",
        "address": "四川省广元市利州区米仓路与胤国路交叉口正北方向128米左右",
        "tel": "",
        "category": "基础设施:公共设施:公共厕所",
        "type": 0,
        "location": {
            "lat": 32.422507,
            "lng": 105.882273
        },
        "ad_info": {
            "adcode": 510802,
            "province": "四川省",
            "city": "广元市",
            "district": "利州区"
        }
    },
    {
        "id": "11893878641574140458",
        "title": "中子服务区公共厕所",
        "address": "四川省广元市朝天区京昆高速中子服务区",
        "tel": "",
        "category": "基础设施:公共设施:公共厕所",
        "type": 0,
        "location": {
            "lat": 32.701842,
            "lng": 106.046655
        },
        "ad_info": {
            "adcode": 510812,
            "province": "四川省",
            "city": "广元市",
            "district": "朝天区"
        }
    },
    {
        "id": "3077424414742372466",
        "title": "女洗手间",
        "address": "四川省广元市利州区万缘路与万源大桥交叉口东南角广元利州万达广场2F",
        "tel": "",
        "category": "基础设施:公共设施:女洗手间",
        "type": 0,
        "location": {
            "lat": 32.424606,
            "lng": 105.877793
        },
        "ad_info": {
            "adcode": 510802,
            "province": "四川省",
            "city": "广元市",
            "district": "利州区"
        }
    },
    {
        "id": "10795332289190637831",
        "title": "无障碍公共厕所",
        "address": "四川省广元市利州区人民路与公园街交叉口东南方向53米左右",
        "tel": "",
        "category": "基础设施:公共设施:公共厕所",
        "type": 0,
        "location": {
            "lat": 32.436239,
            "lng": 105.844894
        },
        "ad_info": {
            "adcode": 510802,
            "province": "四川省",
            "city": "广元市",
            "district": "利州区"
        }
    },
    {
        "id": "8300679701302492046",
        "title": "元坝停车区公共厕所",
        "address": "四川省广元市昭化区G75兰海高速与元坝停车区交叉口东南180米",
        "tel": "",
        "category": "基础设施:公共设施:公共厕所",
        "type": 0,
        "location": {
            "lat": 32.283677,
            "lng": 105.838912
        },
        "ad_info": {
            "adcode": 510811,
            "province": "四川省",
            "city": "广元市",
            "district": "昭化区"
        }
    },
    {
        "id": "8863867965762804043",
        "title": "公共厕所",
        "address": "四川省广元市利州区文达路与胤国路交叉口西南方向111米左右",
        "tel": "",
        "category": "基础设施:公共设施:公共厕所",
        "type": 0,
        "location": {
            "lat": 32.41883,
            "lng": 105.865612
        },
        "ad_info": {
            "adcode": 510802,
            "province": "四川省",
            "city": "广元市",
            "district": "利州区"
        }
    },
    {
        "id": "16545131962717177779",
        "title": "公共厕所",
        "address": "四川省广元市青川县华南街与育才路交叉口正南方向209米左右",
        "tel": "",
        "category": "基础设施:公共设施:公共厕所",
        "type": 0,
        "location": {
            "lat": 32.566565,
            "lng": 105.224557
        },
        "ad_info": {
            "adcode": 510822,
            "province": "四川省",
            "city": "广元市",
            "district": "青川县"
        }
    },
    {
        "id": "15905927171296453748",
        "title": "男洗手间",
        "address": "四川省广元市利州区万缘路与万源大桥交叉口东南角广元利州万达广场3F",
        "tel": "",
        "category": "基础设施:公共设施:男洗手间",
        "type": 0,
        "location": {
            "lat": 32.424244,
            "lng": 105.878809
        },
        "ad_info": {
            "adcode": 510802,
            "province": "四川省",
            "city": "广元市",
            "district": "利州区"
        }
    },
    {
        "id": "5818609983258137405",
        "title": "男洗手间",
        "address": "四川省广元市利州区万缘路与万源大桥交叉口东南角广元利州万达广场1F",
        "tel": "",
        "category": "基础设施:公共设施:男洗手间",
        "type": 0,
        "location": {
            "lat": 32.424252,
            "lng": 105.878795
        },
        "ad_info": {
            "adcode": 510802,
            "province": "四川省",
            "city": "广元市",
            "district": "利州区"
        }
    },
    {
        "id": "320013924666883408",
        "title": "公共厕所",
        "address": "四川省广元市昭化区桂园路与躬身路交叉口正北方向57米左右",
        "tel": "",
        "category": "基础设施:公共设施:公共厕所",
        "type": 0,
        "location": {
            "lat": 32.333218,
            "lng": 105.960002
        },
        "ad_info": {
            "adcode": 510811,
            "province": "四川省",
            "city": "广元市",
            "district": "昭化区"
        }
    },
    {
        "id": "3499380595584956034",
        "title": "无障碍洗手间(广元万达广场)",
        "address": "四川省广元市利州区万缘路与万源大桥交叉口东南角广元利州万达广场1F",
        "tel": "",
        "category": "基础设施:公共设施:无障碍洗手间",
        "type": 0,
        "location": {
            "lat": 32.424254,
            "lng": 105.878754
        },
        "ad_info": {
            "adcode": 510802,
            "province": "四川省",
            "city": "广元市",
            "district": "利州区"
        }
    },
    {
        "id": "7423095788956369464",
        "title": "公共厕所",
        "address": "四川省广元市利州区北二环与银杏南路一段交叉口正北方向482米左右",
        "tel": "",
        "category": "基础设施:公共设施:公共厕所",
        "type": 0,
        "location": {
            "lat": 32.462849,
            "lng": 105.8608
        },
        "ad_info": {
            "adcode": 510802,
            "province": "四川省",
            "city": "广元市",
            "district": "利州区"
        }
    },
    {
        "id": "10716407054862356847",
        "title": "青龙湖服务区公共厕所",
        "address": "四川省广元市青川县青龙湖服务区与S18广平高速交叉口北140米",
        "tel": "",
        "category": "基础设施:公共设施:公共厕所",
        "type": 0,
        "location": {
            "lat": 32.491754,
            "lng": 104.942007
        },
        "ad_info": {
            "adcode": 510822,
            "province": "四川省",
            "city": "广元市",
            "district": "青川县"
        }
    },
    {
        "id": "18443517256177713877",
        "title": "公共厕所",
        "address": "四川省广元市利州区新华街与蜀门北路一段交叉口正南方向36米左右",
        "tel": "",
        "category": "基础设施:公共设施:公共厕所",
        "type": 0,
        "location": {
            "lat": 32.43889,
            "lng": 105.825441
        },
        "ad_info": {
            "adcode": 510802,
            "province": "四川省",
            "city": "广元市",
            "district": "利州区"
        }
    },
    {
        "id": "8058514861761643677",
        "title": "女洗手间(广元万达广场)",
        "address": "四川省广元市利州区万缘路与万源大桥交叉口东南角广元利州万达广场3F",
        "tel": "",
        "category": "基础设施:公共设施:女洗手间",
        "type": 0,
        "location": {
            "lat": 32.42424,
            "lng": 105.878737
        },
        "ad_info": {
            "adcode": 510802,
            "province": "四川省",
            "city": "广元市",
            "district": "利州区"
        }
    },
    {
        "id": "15288437864211353205",
        "title": "公共厕所",
        "address": "四川省广元市利州区利州东路一段与滨河北路交叉口东南方向80米左右",
        "tel": "",
        "category": "基础设施:公共设施:公共厕所",
        "type": 0,
        "location": {
            "lat": 32.435229,
            "lng": 105.836326
        },
        "ad_info": {
            "adcode": 510802,
            "province": "四川省",
            "city": "广元市",
            "district": "利州区"
        }
    },
    {
        "id": "1100274272646736743",
        "title": "元坝停车区公共厕所",
        "address": "四川省广元市昭化区京昆高速与兰海高速交叉口东南方向1141米左右",
        "tel": "",
        "category": "基础设施:公共设施:公共厕所",
        "type": 0,
        "location": {
            "lat": 32.280489,
            "lng": 105.839818
        },
        "ad_info": {
            "adcode": 510811,
            "province": "四川省",
            "city": "广元市",
            "district": "昭化区"
        }
    },
    {
        "id": "13102726091951282399",
        "title": "无障碍-洗手间",
        "address": "四川省广元市利州区万缘路与万源大桥交叉口东南角广元利州万达广场2F",
        "tel": "",
        "category": "基础设施:公共设施:无障碍洗手间",
        "type": 0,
        "location": {
            "lat": 32.424255,
            "lng": 105.87877
        },
        "ad_info": {
            "adcode": 510802,
            "province": "四川省",
            "city": "广元市",
            "district": "利州区"
        }
    },
    {
        "id": "18431314484453319102",
        "title": "男洗手间",
        "address": "四川省广元市利州区万缘路与万源大桥交叉口东南角广元利州万达广场3F",
        "tel": "",
        "category": "基础设施:公共设施:男洗手间",
        "type": 0,
        "location": {
            "lat": 32.424665,
            "lng": 105.877786
        },
        "ad_info": {
            "adcode": 510802,
            "province": "四川省",
            "city": "广元市",
            "district": "利州区"
        }
    },
    {
        "id": "6146120216585639273",
        "title": "公共厕所",
        "address": "四川省广元市利州区菖溪河漂流游客中心",
        "tel": "",
        "category": "基础设施:公共设施:公共厕所",
        "type": 0,
        "location": {
            "lat": 32.418037,
            "lng": 105.574191
        },
        "ad_info": {
            "adcode": 510802,
            "province": "四川省",
            "city": "广元市",
            "district": "利州区"
        }
    },
    {
        "id": "2391926161168563208",
        "title": "公共厕所",
        "address": "四川省广元市剑阁县南街与西街交叉口东南方向99米左右",
        "tel": "",
        "category": "基础设施:公共设施:公共厕所",
        "type": 0,
        "location": {
            "lat": 32.03178,
            "lng": 105.46996
        },
        "ad_info": {
            "adcode": 510823,
            "province": "四川省",
            "city": "广元市",
            "district": "剑阁县"
        }
    },
    {
        "id": "3067784815742925043",
        "title": "乔庄停车区公共厕所",
        "address": "四川省广元市青川县S18广平高速与乔庄停车区交叉口西240米",
        "tel": "",
        "category": "基础设施:公共设施:公共厕所",
        "type": 0,
        "location": {
            "lat": 32.533676,
            "lng": 105.267539
        },
        "ad_info": {
            "adcode": 510822,
            "province": "四川省",
            "city": "广元市",
            "district": "青川县"
        }
    },
    {
        "id": "4970725150833209256",
        "title": "公共厕所",
        "address": "四川省广元市青川县木牍街与浙金大道北段交叉口正东方向100米左右",
        "tel": "",
        "category": "基础设施:公共设施:公共厕所",
        "type": 0,
        "location": {
            "lat": 32.584363,
            "lng": 105.242058
        },
        "ad_info": {
            "adcode": 510822,
            "province": "四川省",
            "city": "广元市",
            "district": "青川县"
        }
    },
    {
        "id": "2342105767632226782",
        "title": "公共厕所",
        "address": "四川省广元市昭化区曲回路与育才路交叉口西南方向381米左右",
        "tel": "",
        "category": "基础设施:公共设施:公共厕所",
        "type": 0,
        "location": {
            "lat": 32.320503,
            "lng": 105.958264
        },
        "ad_info": {
            "adcode": 510811,
            "province": "四川省",
            "city": "广元市",
            "district": "昭化区"
        }
    },
    {
        "id": "1483123771365294530",
        "title": "苍溪停车区公共厕所",
        "address": "四川省广元市苍溪县苍溪停车区西50米",
        "tel": "",
        "category": "基础设施:公共设施:公共厕所",
        "type": 0,
        "location": {
            "lat": 31.767927,
            "lng": 105.923223
        },
        "ad_info": {
            "adcode": 510824,
            "province": "四川省",
            "city": "广元市",
            "district": "苍溪县"
        }
    },
    {
        "id": "2619897287332658091",
        "title": "女洗手间",
        "address": "四川省广元市利州区万缘路与万源大桥交叉口东南角广元利州万达广场3F",
        "tel": "",
        "category": "基础设施:公共设施:女洗手间",
        "type": 0,
        "location": {
            "lat": 32.424607,
            "lng": 105.877794
        },
        "ad_info": {
            "adcode": 510802,
            "province": "四川省",
            "city": "广元市",
            "district": "利州区"
        }
    },
    {
        "id": "3040118248642481651",
        "title": "公共厕所",
        "address": "四川省广元市利州区市场街与电影街交叉口东北方向43米左右",
        "tel": "",
        "category": "基础设施:公共设施:公共厕所",
        "type": 0,
        "location": {
            "lat": 32.437898,
            "lng": 105.823508
        },
        "ad_info": {
            "adcode": 510802,
            "province": "四川省",
            "city": "广元市",
            "district": "利州区"
        }
    },
    {
        "id": "13554693149044788424",
        "title": "中子服务区第三公共厕所",
        "address": "四川省广元市朝天区中子服务区与G5京昆高速出口交叉口东100米",
        "tel": "",
        "category": "基础设施:公共设施:公共厕所",
        "type": 0,
        "location": {
            "lat": 32.702904,
            "lng": 106.045646
        },
        "ad_info": {
            "adcode": 510812,
            "province": "四川省",
            "city": "广元市",
            "district": "朝天区"
        }
    },
    {
        "id": "1330409210483481867",
        "title": "无障碍-洗手间",
        "address": "四川省广元市利州区万缘路与万源大桥交叉口东南角广元利州万达广场1F",
        "tel": "",
        "category": "基础设施:公共设施:无障碍洗手间",
        "type": 0,
        "location": {
            "lat": 32.424636,
            "lng": 105.87779
        },
        "ad_info": {
            "adcode": 510802,
            "province": "四川省",
            "city": "广元市",
            "district": "利州区"
        }
    },
    {
        "id": "11339111931220165056",
        "title": "智慧生态公共厕所117(广元旺苍第一台)",
        "address": "四川省广元市旺苍县滨河中路与红星北路交叉口东北方向134米左右",
        "tel": "",
        "category": "基础设施:公共设施:公共厕所",
        "type": 0,
        "location": {
            "lat": 32.231051,
            "lng": 106.286127
        },
        "ad_info": {
            "adcode": 510821,
            "province": "四川省",
            "city": "广元市",
            "district": "旺苍县"
        }
    },
    {
        "id": "9949071053357174745",
        "title": "智慧生态公共厕所118(广元旺苍红星北路)",
        "address": "四川省广元市旺苍县滨河中路与红星北路交叉口正西方向78米左右",
        "tel": "",
        "category": "基础设施:公共设施:公共厕所",
        "type": 0,
        "location": {
            "lat": 32.230192,
            "lng": 106.284181
        },
        "ad_info": {
            "adcode": 510821,
            "province": "四川省",
            "city": "广元市",
            "district": "旺苍县"
        }
    },
    {
        "id": "5895359015056241475",
        "title": "剑门关服务区第二公共厕所",
        "address": "四川省广元市剑阁县G108与剑山大道交叉口东南方向77米左右",
        "tel": "",
        "category": "基础设施:公共设施:公共厕所",
        "type": 0,
        "location": {
            "lat": 32.293401,
            "lng": 105.543572
        },
        "ad_info": {
            "adcode": 510823,
            "province": "四川省",
            "city": "广元市",
            "district": "剑阁县"
        }
    },
    {
        "id": "1578466568305762097",
        "title": "男洗手间",
        "address": "四川省广元市利州区万缘路与万源大桥交叉口东南角广元利州万达广场1F",
        "tel": "",
        "category": "基础设施:公共设施:男洗手间",
        "type": 0,
        "location": {
            "lat": 32.424161,
            "lng": 105.876851
        },
        "ad_info": {
            "adcode": 510802,
            "province": "四川省",
            "city": "广元市",
            "district": "利州区"
        }
    },
    {
        "id": "3146838087859263238",
        "title": "无障碍-洗手间",
        "address": "四川省广元市利州区万缘路与万源大桥交叉口东南角广元利州万达广场3F",
        "tel": "",
        "category": "基础设施:公共设施:无障碍洗手间",
        "type": 0,
        "location": {
            "lat": 32.424237,
            "lng": 105.878775
        },
        "ad_info": {
            "adcode": 510802,
            "province": "四川省",
            "city": "广元市",
            "district": "利州区"
        }
    },
    {
        "id": "7484246302191060782",
        "title": "卫生间",
        "address": "四川省广元市利州区",
        "tel": "",
        "category": "基础设施:公共设施:公共厕所",
        "type": 0,
        "location": {
            "lat": 32.374288,
            "lng": 105.41939
        },
        "ad_info": {
            "adcode": 510802,
            "province": "四川省",
            "city": "广元市",
            "district": "利州区"
        }
    },
    {
        "id": "15929628940052825054",
        "title": "公共厕所",
        "address": "四川省广元市利州区雍锦天下1栋1楼",
        "tel": "",
        "category": "基础设施:公共设施:公共厕所",
        "type": 0,
        "location": {
            "lat": 32.448031,
            "lng": 105.844838
        },
        "ad_info": {
            "adcode": 510802,
            "province": "四川省",
            "city": "广元市",
            "district": "利州区"
        }
    },
    {
        "id": "13293323774581250542",
        "title": "骑马公共厕所",
        "address": "四川省广元市青川县板白公路与永康街交叉口西北方向97米左右",
        "tel": "",
        "category": "基础设施:公共设施:公共厕所",
        "type": 0,
        "location": {
            "lat": 32.599334,
            "lng": 105.406563
        },
        "ad_info": {
            "adcode": 510822,
            "province": "四川省",
            "city": "广元市",
            "district": "青川县"
        }
    },
    {
        "id": "5520396475754457915",
        "title": "苍溪停车区公共厕所",
        "address": "四川省广元市苍溪县苍溪停车区西50米",
        "tel": "",
        "category": "基础设施:公共设施:公共厕所",
        "type": 0,
        "location": {
            "lat": 31.767555,
            "lng": 105.924726
        },
        "ad_info": {
            "adcode": 510824,
            "province": "四川省",
            "city": "广元市",
            "district": "苍溪县"
        }
    },
    {
        "id": "2767614400445055120",
        "title": "苍溪县劳动者驿站(龙王沟公厕)",
        "address": "四川省广元市苍溪县汉古街与红军路西段交叉口正北方向33米左右",
        "tel": "",
        "category": "基础设施:公共设施:公共厕所",
        "type": 0,
        "location": {
            "lat": 31.734798,
            "lng": 105.927942
        },
        "ad_info": {
            "adcode": 510824,
            "province": "四川省",
            "city": "广元市",
            "district": "苍溪县"
        }
    },
    {
        "id": "7788681036054514901",
        "title": "无障碍洗手间(广元万达广场)",
        "address": "四川省广元市利州区万缘路与万源大桥交叉口东南角广元利州万达广场2F",
        "tel": "",
        "category": "基础设施:公共设施:公共厕所",
        "type": 0,
        "location": {
            "lat": 32.424178,
            "lng": 105.876841
        },
        "ad_info": {
            "adcode": 510802,
            "province": "四川省",
            "city": "广元市",
            "district": "利州区"
        }
    },
    {
        "id": "16751660836611803746",
        "title": "公共厕所",
        "address": "四川省广元市昭化区幸福苑东北侧250米",
        "tel": "",
        "category": "基础设施:公共设施:公共厕所",
        "type": 0,
        "location": {
            "lat": 32.349623,
            "lng": 105.969881
        },
        "ad_info": {
            "adcode": 510811,
            "province": "四川省",
            "city": "广元市",
            "district": "昭化区"
        }
    },
    {
        "id": "1700829121833134696",
        "title": "男洗手间(广元万达广场)",
        "address": "四川省广元市利州区万缘路与万源大桥交叉口东南角广元利州万达广场1F",
        "tel": "",
        "category": "基础设施:公共设施:公共厕所",
        "type": 0,
        "location": {
            "lat": 32.424664,
            "lng": 105.877785
        },
        "ad_info": {
            "adcode": 510802,
            "province": "四川省",
            "city": "广元市",
            "district": "利州区"
        }
    },
    {
        "id": "11960060396019479562",
        "title": "公共厕所",
        "address": "四川省广元市利州区清江大道与清江河大桥交叉口西南方向343米左右",
        "tel": "",
        "category": "基础设施:公共设施:公共厕所",
        "type": 0,
        "location": {
            "lat": 32.37647,
            "lng": 105.65014
        },
        "ad_info": {
            "adcode": 510802,
            "province": "四川省",
            "city": "广元市",
            "district": "利州区"
        }
    },
    {
        "id": "7355740873007034152",
        "title": "公共厕所",
        "address": "四川省广元市昭化区花园路2号",
        "tel": "",
        "category": "基础设施:公共设施:公共厕所",
        "type": 0,
        "location": {
            "lat": 32.320188,
            "lng": 105.962868
        },
        "ad_info": {
            "adcode": 510811,
            "province": "四川省",
            "city": "广元市",
            "district": "昭化区"
        }
    },
    {
        "id": "8066792911120193336",
        "title": "男洗手间(广元万达广场)",
        "address": "四川省广元市利州区万缘路与万源大桥交叉口东南角广元利州万达广场2F",
        "tel": "",
        "category": "基础设施:公共设施:男洗手间",
        "type": 0,
        "location": {
            "lat": 32.424253,
            "lng": 105.878804
        },
        "ad_info": {
            "adcode": 510802,
            "province": "四川省",
            "city": "广元市",
            "district": "利州区"
        }
    },
    {
        "id": "8324387368648724332",
        "title": "公共厕所",
        "address": "四川省广元市利州区大西街与西益街交叉口正南方向85米左右",
        "tel": "",
        "category": "基础设施:公共设施:公共厕所",
        "type": 0,
        "location": {
            "lat": 32.435665,
            "lng": 105.820902
        },
        "ad_info": {
            "adcode": 510802,
            "province": "四川省",
            "city": "广元市",
            "district": "利州区"
        }
    },
    {
        "id": "8099541811045985808",
        "title": "剑门关服务区第一公共厕所",
        "address": "四川省广元市剑阁县京昆高速剑门关服务区",
        "tel": "",
        "category": "基础设施:公共设施:公共厕所",
        "type": 0,
        "location": {
            "lat": 32.292805,
            "lng": 105.542509
        },
        "ad_info": {
            "adcode": 510823,
            "province": "四川省",
            "city": "广元市",
            "district": "剑阁县"
        }
    },
    {
        "id": "9751253504891070986",
        "title": "女洗手间",
        "address": "四川省广元市利州区万缘路与万源大桥交叉口东南角广元利州万达广场2F",
        "tel": "",
        "category": "基础设施:公共设施:女洗手间",
        "type": 0,
        "location": {
            "lat": 32.424204,
            "lng": 105.876841
        },
        "ad_info": {
            "adcode": 510802,
            "province": "四川省",
            "city": "广元市",
            "district": "利州区"
        }
    },
    {
        "id": "10377338083878381203",
        "title": "公共厕所",
        "address": "四川省广元市利州区将军路与望江路交叉口东北方向133米左右",
        "tel": "",
        "category": "基础设施:公共设施:公共厕所",
        "type": 0,
        "location": {
            "lat": 32.449569,
            "lng": 105.830226
        },
        "ad_info": {
            "adcode": 510802,
            "province": "四川省",
            "city": "广元市",
            "district": "利州区"
        }
    },
    {
        "id": "11927498254772820319",
        "title": "公共厕所",
        "address": "四川省广元市苍溪县Y086与苍旺公路交叉口正东方向58米左右",
        "tel": "",
        "category": "基础设施:公共设施:公共厕所",
        "type": 0,
        "location": {
            "lat": 31.825857,
            "lng": 106.041698
        },
        "ad_info": {
            "adcode": 510824,
            "province": "四川省",
            "city": "广元市",
            "district": "苍溪县"
        }
    },
    {
        "id": "9949071053357174745",
        "title": "智慧生态公共厕所118(广元旺苍红星北路)",
        "address": "四川省广元市旺苍县滨河中路与红星北路交叉口正西方向78米左右",
        "tel": "",
        "category": "基础设施:公共设施:公共厕所",
        "type": 0,
        "location": {
            "lat": 32.230192,
            "lng": 106.284181
        },
        "ad_info": {
            "adcode": 510821,
            "province": "四川省",
            "city": "广元市",
            "district": "旺苍县"
        }
    },
    {
        "id": "5895359015056241475",
        "title": "剑门关服务区第二公共厕所",
        "address": "四川省广元市剑阁县G108与剑山大道交叉口东南方向77米左右",
        "tel": "",
        "category": "基础设施:公共设施:公共厕所",
        "type": 0,
        "location": {
            "lat": 32.293401,
            "lng": 105.543572
        },
        "ad_info": {
            "adcode": 510823,
            "province": "四川省",
            "city": "广元市",
            "district": "剑阁县"
        }
    },
    {
        "id": "1578466568305762097",
        "title": "男洗手间",
        "address": "四川省广元市利州区万缘路与万源大桥交叉口东南角广元利州万达广场1F",
        "tel": "",
        "category": "基础设施:公共设施:男洗手间",
        "type": 0,
        "location": {
            "lat": 32.424161,
            "lng": 105.876851
        },
        "ad_info": {
            "adcode": 510802,
            "province": "四川省",
            "city": "广元市",
            "district": "利州区"
        }
    },
    {
        "id": "3146838087859263238",
        "title": "无障碍-洗手间",
        "address": "四川省广元市利州区万缘路与万源大桥交叉口东南角广元利州万达广场3F",
        "tel": "",
        "category": "基础设施:公共设施:无障碍洗手间",
        "type": 0,
        "location": {
            "lat": 32.424237,
            "lng": 105.878775
        },
        "ad_info": {
            "adcode": 510802,
            "province": "四川省",
            "city": "广元市",
            "district": "利州区"
        }
    },
    {
        "id": "7484246302191060782",
        "title": "卫生间",
        "address": "四川省广元市利州区",
        "tel": "",
        "category": "基础设施:公共设施:公共厕所",
        "type": 0,
        "location": {
            "lat": 32.374288,
            "lng": 105.41939
        },
        "ad_info": {
            "adcode": 510802,
            "province": "四川省",
            "city": "广元市",
            "district": "利州区"
        }
    },
    {
        "id": "15929628940052825054",
        "title": "公共厕所",
        "address": "四川省广元市利州区雍锦天下1栋1楼",
        "tel": "",
        "category": "基础设施:公共设施:公共厕所",
        "type": 0,
        "location": {
            "lat": 32.448031,
            "lng": 105.844838
        },
        "ad_info": {
            "adcode": 510802,
            "province": "四川省",
            "city": "广元市",
            "district": "利州区"
        }
    },
    {
        "id": "13293323774581250542",
        "title": "骑马公共厕所",
        "address": "四川省广元市青川县板白公路与永康街交叉口西北方向97米左右",
        "tel": "",
        "category": "基础设施:公共设施:公共厕所",
        "type": 0,
        "location": {
            "lat": 32.599334,
            "lng": 105.406563
        },
        "ad_info": {
            "adcode": 510822,
            "province": "四川省",
            "city": "广元市",
            "district": "青川县"
        }
    },
    {
        "id": "5520396475754457915",
        "title": "苍溪停车区公共厕所",
        "address": "四川省广元市苍溪县苍溪停车区西50米",
        "tel": "",
        "category": "基础设施:公共设施:公共厕所",
        "type": 0,
        "location": {
            "lat": 31.767555,
            "lng": 105.924726
        },
        "ad_info": {
            "adcode": 510824,
            "province": "四川省",
            "city": "广元市",
            "district": "苍溪县"
        }
    },
    {
        "id": "2767614400445055120",
        "title": "苍溪县劳动者驿站(龙王沟公厕)",
        "address": "四川省广元市苍溪县汉古街与红军路西段交叉口正北方向33米左右",
        "tel": "",
        "category": "基础设施:公共设施:公共厕所",
        "type": 0,
        "location": {
            "lat": 31.734798,
            "lng": 105.927942
        },
        "ad_info": {
            "adcode": 510824,
            "province": "四川省",
            "city": "广元市",
            "district": "苍溪县"
        }
    },
    {
        "id": "7788681036054514901",
        "title": "无障碍洗手间(广元万达广场)",
        "address": "四川省广元市利州区万缘路与万源大桥交叉口东南角广元利州万达广场2F",
        "tel": "",
        "category": "基础设施:公共设施:公共厕所",
        "type": 0,
        "location": {
            "lat": 32.424178,
            "lng": 105.876841
        },
        "ad_info": {
            "adcode": 510802,
            "province": "四川省",
            "city": "广元市",
            "district": "利州区"
        }
    },
    {
        "id": "16751660836611803746",
        "title": "公共厕所",
        "address": "四川省广元市昭化区幸福苑东北侧250米",
        "tel": "",
        "category": "基础设施:公共设施:公共厕所",
        "type": 0,
        "location": {
            "lat": 32.349623,
            "lng": 105.969881
        },
        "ad_info": {
            "adcode": 510811,
            "province": "四川省",
            "city": "广元市",
            "district": "昭化区"
        }
    },
    {
        "id": "1700829121833134696",
        "title": "男洗手间(广元万达广场)",
        "address": "四川省广元市利州区万缘路与万源大桥交叉口东南角广元利州万达广场1F",
        "tel": "",
        "category": "基础设施:公共设施:公共厕所",
        "type": 0,
        "location": {
            "lat": 32.424664,
            "lng": 105.877785
        },
        "ad_info": {
            "adcode": 510802,
            "province": "四川省",
            "city": "广元市",
            "district": "利州区"
        }
    },
    {
        "id": "11960060396019479562",
        "title": "公共厕所",
        "address": "四川省广元市利州区清江大道与清江河大桥交叉口西南方向343米左右",
        "tel": "",
        "category": "基础设施:公共设施:公共厕所",
        "type": 0,
        "location": {
            "lat": 32.37647,
            "lng": 105.65014
        },
        "ad_info": {
            "adcode": 510802,
            "province": "四川省",
            "city": "广元市",
            "district": "利州区"
        }
    },
    {
        "id": "7355740873007034152",
        "title": "公共厕所",
        "address": "四川省广元市昭化区花园路2号",
        "tel": "",
        "category": "基础设施:公共设施:公共厕所",
        "type": 0,
        "location": {
            "lat": 32.320188,
            "lng": 105.962868
        },
        "ad_info": {
            "adcode": 510811,
            "province": "四川省",
            "city": "广元市",
            "district": "昭化区"
        }
    },
    {
        "id": "8066792911120193336",
        "title": "男洗手间(广元万达广场)",
        "address": "四川省广元市利州区万缘路与万源大桥交叉口东南角广元利州万达广场2F",
        "tel": "",
        "category": "基础设施:公共设施:男洗手间",
        "type": 0,
        "location": {
            "lat": 32.424253,
            "lng": 105.878804
        },
        "ad_info": {
            "adcode": 510802,
            "province": "四川省",
            "city": "广元市",
            "district": "利州区"
        }
    },
    {
        "id": "8324387368648724332",
        "title": "公共厕所",
        "address": "四川省广元市利州区大西街与西益街交叉口正南方向85米左右",
        "tel": "",
        "category": "基础设施:公共设施:公共厕所",
        "type": 0,
        "location": {
            "lat": 32.435665,
            "lng": 105.820902
        },
        "ad_info": {
            "adcode": 510802,
            "province": "四川省",
            "city": "广元市",
            "district": "利州区"
        }
    },
    {
        "id": "8099541811045985808",
        "title": "剑门关服务区第一公共厕所",
        "address": "四川省广元市剑阁县京昆高速剑门关服务区",
        "tel": "",
        "category": "基础设施:公共设施:公共厕所",
        "type": 0,
        "location": {
            "lat": 32.292805,
            "lng": 105.542509
        },
        "ad_info": {
            "adcode": 510823,
            "province": "四川省",
            "city": "广元市",
            "district": "剑阁县"
        }
    },
    {
        "id": "9751253504891070986",
        "title": "女洗手间",
        "address": "四川省广元市利州区万缘路与万源大桥交叉口东南角广元利州万达广场2F",
        "tel": "",
        "category": "基础设施:公共设施:女洗手间",
        "type": 0,
        "location": {
            "lat": 32.424204,
            "lng": 105.876841
        },
        "ad_info": {
            "adcode": 510802,
            "province": "四川省",
            "city": "广元市",
            "district": "利州区"
        }
    },
    {
        "id": "10377338083878381203",
        "title": "公共厕所",
        "address": "四川省广元市利州区将军路与望江路交叉口东北方向133米左右",
        "tel": "",
        "category": "基础设施:公共设施:公共厕所",
        "type": 0,
        "location": {
            "lat": 32.449569,
            "lng": 105.830226
        },
        "ad_info": {
            "adcode": 510802,
            "province": "四川省",
            "city": "广元市",
            "district": "利州区"
        }
    },
    {
        "id": "11927498254772820319",
        "title": "公共厕所",
        "address": "四川省广元市苍溪县Y086与苍旺公路交叉口正东方向58米左右",
        "tel": "",
        "category": "基础设施:公共设施:公共厕所",
        "type": 0,
        "location": {
            "lat": 31.825857,
            "lng": 106.041698
        },
        "ad_info": {
            "adcode": 510824,
            "province": "四川省",
            "city": "广元市",
            "district": "苍溪县"
        }
    },
    {
        "id": "9949071053357174745",
        "title": "智慧生态公共厕所118(广元旺苍红星北路)",
        "address": "四川省广元市旺苍县滨河中路与红星北路交叉口正西方向78米左右",
        "tel": "",
        "category": "基础设施:公共设施:公共厕所",
        "type": 0,
        "location": {
            "lat": 32.230192,
            "lng": 106.284181
        },
        "ad_info": {
            "adcode": 510821,
            "province": "四川省",
            "city": "广元市",
            "district": "旺苍县"
        }
    },
    {
        "id": "5895359015056241475",
        "title": "剑门关服务区第二公共厕所",
        "address": "四川省广元市剑阁县G108与剑山大道交叉口东南方向77米左右",
        "tel": "",
        "category": "基础设施:公共设施:公共厕所",
        "type": 0,
        "location": {
            "lat": 32.293401,
            "lng": 105.543572
        },
        "ad_info": {
            "adcode": 510823,
            "province": "四川省",
            "city": "广元市",
            "district": "剑阁县"
        }
    },
    {
        "id": "1578466568305762097",
        "title": "男洗手间",
        "address": "四川省广元市利州区万缘路与万源大桥交叉口东南角广元利州万达广场1F",
        "tel": "",
        "category": "基础设施:公共设施:男洗手间",
        "type": 0,
        "location": {
            "lat": 32.424161,
            "lng": 105.876851
        },
        "ad_info": {
            "adcode": 510802,
            "province": "四川省",
            "city": "广元市",
            "district": "利州区"
        }
    },
    {
        "id": "3146838087859263238",
        "title": "无障碍-洗手间",
        "address": "四川省广元市利州区万缘路与万源大桥交叉口东南角广元利州万达广场3F",
        "tel": "",
        "category": "基础设施:公共设施:无障碍洗手间",
        "type": 0,
        "location": {
            "lat": 32.424237,
            "lng": 105.878775
        },
        "ad_info": {
            "adcode": 510802,
            "province": "四川省",
            "city": "广元市",
            "district": "利州区"
        }
    },
    {
        "id": "7484246302191060782",
        "title": "卫生间",
        "address": "四川省广元市利州区",
        "tel": "",
        "category": "基础设施:公共设施:公共厕所",
        "type": 0,
        "location": {
            "lat": 32.374288,
            "lng": 105.41939
        },
        "ad_info": {
            "adcode": 510802,
            "province": "四川省",
            "city": "广元市",
            "district": "利州区"
        }
    },
    {
        "id": "15929628940052825054",
        "title": "公共厕所",
        "address": "四川省广元市利州区雍锦天下1栋1楼",
        "tel": "",
        "category": "基础设施:公共设施:公共厕所",
        "type": 0,
        "location": {
            "lat": 32.448031,
            "lng": 105.844838
        },
        "ad_info": {
            "adcode": 510802,
            "province": "四川省",
            "city": "广元市",
            "district": "利州区"
        }
    },
    {
        "id": "13293323774581250542",
        "title": "骑马公共厕所",
        "address": "四川省广元市青川县板白公路与永康街交叉口西北方向97米左右",
        "tel": "",
        "category": "基础设施:公共设施:公共厕所",
        "type": 0,
        "location": {
            "lat": 32.599334,
            "lng": 105.406563
        },
        "ad_info": {
            "adcode": 510822,
            "province": "四川省",
            "city": "广元市",
            "district": "青川县"
        }
    },
    {
        "id": "5520396475754457915",
        "title": "苍溪停车区公共厕所",
        "address": "四川省广元市苍溪县苍溪停车区西50米",
        "tel": "",
        "category": "基础设施:公共设施:公共厕所",
        "type": 0,
        "location": {
            "lat": 31.767555,
            "lng": 105.924726
        },
        "ad_info": {
            "adcode": 510824,
            "province": "四川省",
            "city": "广元市",
            "district": "苍溪县"
        }
    },
    {
        "id": "2767614400445055120",
        "title": "苍溪县劳动者驿站(龙王沟公厕)",
        "address": "四川省广元市苍溪县汉古街与红军路西段交叉口正北方向33米左右",
        "tel": "",
        "category": "基础设施:公共设施:公共厕所",
        "type": 0,
        "location": {
            "lat": 31.734798,
            "lng": 105.927942
        },
        "ad_info": {
            "adcode": 510824,
            "province": "四川省",
            "city": "广元市",
            "district": "苍溪县"
        }
    },
    {
        "id": "7788681036054514901",
        "title": "无障碍洗手间(广元万达广场)",
        "address": "四川省广元市利州区万缘路与万源大桥交叉口东南角广元利州万达广场2F",
        "tel": "",
        "category": "基础设施:公共设施:公共厕所",
        "type": 0,
        "location": {
            "lat": 32.424178,
            "lng": 105.876841
        },
        "ad_info": {
            "adcode": 510802,
            "province": "四川省",
            "city": "广元市",
            "district": "利州区"
        }
    },
    {
        "id": "16751660836611803746",
        "title": "公共厕所",
        "address": "四川省广元市昭化区幸福苑东北侧250米",
        "tel": "",
        "category": "基础设施:公共设施:公共厕所",
        "type": 0,
        "location": {
            "lat": 32.349623,
            "lng": 105.969881
        },
        "ad_info": {
            "adcode": 510811,
            "province": "四川省",
            "city": "广元市",
            "district": "昭化区"
        }
    },
    {
        "id": "1700829121833134696",
        "title": "男洗手间(广元万达广场)",
        "address": "四川省广元市利州区万缘路与万源大桥交叉口东南角广元利州万达广场1F",
        "tel": "",
        "category": "基础设施:公共设施:公共厕所",
        "type": 0,
        "location": {
            "lat": 32.424664,
            "lng": 105.877785
        },
        "ad_info": {
            "adcode": 510802,
            "province": "四川省",
            "city": "广元市",
            "district": "利州区"
        }
    },
    {
        "id": "11960060396019479562",
        "title": "公共厕所",
        "address": "四川省广元市利州区清江大道与清江河大桥交叉口西南方向343米左右",
        "tel": "",
        "category": "基础设施:公共设施:公共厕所",
        "type": 0,
        "location": {
            "lat": 32.37647,
            "lng": 105.65014
        },
        "ad_info": {
            "adcode": 510802,
            "province": "四川省",
            "city": "广元市",
            "district": "利州区"
        }
    },
    {
        "id": "7355740873007034152",
        "title": "公共厕所",
        "address": "四川省广元市昭化区花园路2号",
        "tel": "",
        "category": "基础设施:公共设施:公共厕所",
        "type": 0,
        "location": {
            "lat": 32.320188,
            "lng": 105.962868
        },
        "ad_info": {
            "adcode": 510811,
            "province": "四川省",
            "city": "广元市",
            "district": "昭化区"
        }
    },
    {
        "id": "8066792911120193336",
        "title": "男洗手间(广元万达广场)",
        "address": "四川省广元市利州区万缘路与万源大桥交叉口东南角广元利州万达广场2F",
        "tel": "",
        "category": "基础设施:公共设施:男洗手间",
        "type": 0,
        "location": {
            "lat": 32.424253,
            "lng": 105.878804
        },
        "ad_info": {
            "adcode": 510802,
            "province": "四川省",
            "city": "广元市",
            "district": "利州区"
        }
    },
    {
        "id": "8324387368648724332",
        "title": "公共厕所",
        "address": "四川省广元市利州区大西街与西益街交叉口正南方向85米左右",
        "tel": "",
        "category": "基础设施:公共设施:公共厕所",
        "type": 0,
        "location": {
            "lat": 32.435665,
            "lng": 105.820902
        },
        "ad_info": {
            "adcode": 510802,
            "province": "四川省",
            "city": "广元市",
            "district": "利州区"
        }
    },
    {
        "id": "8099541811045985808",
        "title": "剑门关服务区第一公共厕所",
        "address": "四川省广元市剑阁县京昆高速剑门关服务区",
        "tel": "",
        "category": "基础设施:公共设施:公共厕所",
        "type": 0,
        "location": {
            "lat": 32.292805,
            "lng": 105.542509
        },
        "ad_info": {
            "adcode": 510823,
            "province": "四川省",
            "city": "广元市",
            "district": "剑阁县"
        }
    },
    {
        "id": "9751253504891070986",
        "title": "女洗手间",
        "address": "四川省广元市利州区万缘路与万源大桥交叉口东南角广元利州万达广场2F",
        "tel": "",
        "category": "基础设施:公共设施:女洗手间",
        "type": 0,
        "location": {
            "lat": 32.424204,
            "lng": 105.876841
        },
        "ad_info": {
            "adcode": 510802,
            "province": "四川省",
            "city": "广元市",
            "district": "利州区"
        }
    },
    {
        "id": "10377338083878381203",
        "title": "公共厕所",
        "address": "四川省广元市利州区将军路与望江路交叉口东北方向133米左右",
        "tel": "",
        "category": "基础设施:公共设施:公共厕所",
        "type": 0,
        "location": {
            "lat": 32.449569,
            "lng": 105.830226
        },
        "ad_info": {
            "adcode": 510802,
            "province": "四川省",
            "city": "广元市",
            "district": "利州区"
        }
    },
    {
        "id": "11927498254772820319",
        "title": "公共厕所",
        "address": "四川省广元市苍溪县Y086与苍旺公路交叉口正东方向58米左右",
        "tel": "",
        "category": "基础设施:公共设施:公共厕所",
        "type": 0,
        "location": {
            "lat": 31.825857,
            "lng": 106.041698
        },
        "ad_info": {
            "adcode": 510824,
            "province": "四川省",
            "city": "广元市",
            "district": "苍溪县"
        }
    },
    {
        "id": "9949071053357174745",
        "title": "智慧生态公共厕所118(广元旺苍红星北路)",
        "address": "四川省广元市旺苍县滨河中路与红星北路交叉口正西方向78米左右",
        "tel": "",
        "category": "基础设施:公共设施:公共厕所",
        "type": 0,
        "location": {
            "lat": 32.230192,
            "lng": 106.284181
        },
        "ad_info": {
            "adcode": 510821,
            "province": "四川省",
            "city": "广元市",
            "district": "旺苍县"
        }
    },
    {
        "id": "5895359015056241475",
        "title": "剑门关服务区第二公共厕所",
        "address": "四川省广元市剑阁县G108与剑山大道交叉口东南方向77米左右",
        "tel": "",
        "category": "基础设施:公共设施:公共厕所",
        "type": 0,
        "location": {
            "lat": 32.293401,
            "lng": 105.543572
        },
        "ad_info": {
            "adcode": 510823,
            "province": "四川省",
            "city": "广元市",
            "district": "剑阁县"
        }
    },
    {
        "id": "1578466568305762097",
        "title": "男洗手间",
        "address": "四川省广元市利州区万缘路与万源大桥交叉口东南角广元利州万达广场1F",
        "tel": "",
        "category": "基础设施:公共设施:男洗手间",
        "type": 0,
        "location": {
            "lat": 32.424161,
            "lng": 105.876851
        },
        "ad_info": {
            "adcode": 510802,
            "province": "四川省",
            "city": "广元市",
            "district": "利州区"
        }
    },
    {
        "id": "3146838087859263238",
        "title": "无障碍-洗手间",
        "address": "四川省广元市利州区万缘路与万源大桥交叉口东南角广元利州万达广场3F",
        "tel": "",
        "category": "基础设施:公共设施:无障碍洗手间",
        "type": 0,
        "location": {
            "lat": 32.424237,
            "lng": 105.878775
        },
        "ad_info": {
            "adcode": 510802,
            "province": "四川省",
            "city": "广元市",
            "district": "利州区"
        }
    },
    {
        "id": "7484246302191060782",
        "title": "卫生间",
        "address": "四川省广元市利州区",
        "tel": "",
        "category": "基础设施:公共设施:公共厕所",
        "type": 0,
        "location": {
            "lat": 32.374288,
            "lng": 105.41939
        },
        "ad_info": {
            "adcode": 510802,
            "province": "四川省",
            "city": "广元市",
            "district": "利州区"
        }
    },
    {
        "id": "15929628940052825054",
        "title": "公共厕所",
        "address": "四川省广元市利州区雍锦天下1栋1楼",
        "tel": "",
        "category": "基础设施:公共设施:公共厕所",
        "type": 0,
        "location": {
            "lat": 32.448031,
            "lng": 105.844838
        },
        "ad_info": {
            "adcode": 510802,
            "province": "四川省",
            "city": "广元市",
            "district": "利州区"
        }
    },
    {
        "id": "13293323774581250542",
        "title": "骑马公共厕所",
        "address": "四川省广元市青川县板白公路与永康街交叉口西北方向97米左右",
        "tel": "",
        "category": "基础设施:公共设施:公共厕所",
        "type": 0,
        "location": {
            "lat": 32.599334,
            "lng": 105.406563
        },
        "ad_info": {
            "adcode": 510822,
            "province": "四川省",
            "city": "广元市",
            "district": "青川县"
        }
    },
    {
        "id": "5520396475754457915",
        "title": "苍溪停车区公共厕所",
        "address": "四川省广元市苍溪县苍溪停车区西50米",
        "tel": "",
        "category": "基础设施:公共设施:公共厕所",
        "type": 0,
        "location": {
            "lat": 31.767555,
            "lng": 105.924726
        },
        "ad_info": {
            "adcode": 510824,
            "province": "四川省",
            "city": "广元市",
            "district": "苍溪县"
        }
    },
    {
        "id": "2767614400445055120",
        "title": "苍溪县劳动者驿站(龙王沟公厕)",
        "address": "四川省广元市苍溪县汉古街与红军路西段交叉口正北方向33米左右",
        "tel": "",
        "category": "基础设施:公共设施:公共厕所",
        "type": 0,
        "location": {
            "lat": 31.734798,
            "lng": 105.927942
        },
        "ad_info": {
            "adcode": 510824,
            "province": "四川省",
            "city": "广元市",
            "district": "苍溪县"
        }
    },
    {
        "id": "7788681036054514901",
        "title": "无障碍洗手间(广元万达广场)",
        "address": "四川省广元市利州区万缘路与万源大桥交叉口东南角广元利州万达广场2F",
        "tel": "",
        "category": "基础设施:公共设施:公共厕所",
        "type": 0,
        "location": {
            "lat": 32.424178,
            "lng": 105.876841
        },
        "ad_info": {
            "adcode": 510802,
            "province": "四川省",
            "city": "广元市",
            "district": "利州区"
        }
    },
    {
        "id": "16751660836611803746",
        "title": "公共厕所",
        "address": "四川省广元市昭化区幸福苑东北侧250米",
        "tel": "",
        "category": "基础设施:公共设施:公共厕所",
        "type": 0,
        "location": {
            "lat": 32.349623,
            "lng": 105.969881
        },
        "ad_info": {
            "adcode": 510811,
            "province": "四川省",
            "city": "广元市",
            "district": "昭化区"
        }
    },
    {
        "id": "1700829121833134696",
        "title": "男洗手间(广元万达广场)",
        "address": "四川省广元市利州区万缘路与万源大桥交叉口东南角广元利州万达广场1F",
        "tel": "",
        "category": "基础设施:公共设施:公共厕所",
        "type": 0,
        "location": {
            "lat": 32.424664,
            "lng": 105.877785
        },
        "ad_info": {
            "adcode": 510802,
            "province": "四川省",
            "city": "广元市",
            "district": "利州区"
        }
    },
    {
        "id": "11960060396019479562",
        "title": "公共厕所",
        "address": "四川省广元市利州区清江大道与清江河大桥交叉口西南方向343米左右",
        "tel": "",
        "category": "基础设施:公共设施:公共厕所",
        "type": 0,
        "location": {
            "lat": 32.37647,
            "lng": 105.65014
        },
        "ad_info": {
            "adcode": 510802,
            "province": "四川省",
            "city": "广元市",
            "district": "利州区"
        }
    },
    {
        "id": "7355740873007034152",
        "title": "公共厕所",
        "address": "四川省广元市昭化区花园路2号",
        "tel": "",
        "category": "基础设施:公共设施:公共厕所",
        "type": 0,
        "location": {
            "lat": 32.320188,
            "lng": 105.962868
        },
        "ad_info": {
            "adcode": 510811,
            "province": "四川省",
            "city": "广元市",
            "district": "昭化区"
        }
    },
    {
        "id": "8066792911120193336",
        "title": "男洗手间(广元万达广场)",
        "address": "四川省广元市利州区万缘路与万源大桥交叉口东南角广元利州万达广场2F",
        "tel": "",
        "category": "基础设施:公共设施:男洗手间",
        "type": 0,
        "location": {
            "lat": 32.424253,
            "lng": 105.878804
        },
        "ad_info": {
            "adcode": 510802,
            "province": "四川省",
            "city": "广元市",
            "district": "利州区"
        }
    },
    {
        "id": "8324387368648724332",
        "title": "公共厕所",
        "address": "四川省广元市利州区大西街与西益街交叉口正南方向85米左右",
        "tel": "",
        "category": "基础设施:公共设施:公共厕所",
        "type": 0,
        "location": {
            "lat": 32.435665,
            "lng": 105.820902
        },
        "ad_info": {
            "adcode": 510802,
            "province": "四川省",
            "city": "广元市",
            "district": "利州区"
        }
    },
    {
        "id": "8099541811045985808",
        "title": "剑门关服务区第一公共厕所",
        "address": "四川省广元市剑阁县京昆高速剑门关服务区",
        "tel": "",
        "category": "基础设施:公共设施:公共厕所",
        "type": 0,
        "location": {
            "lat": 32.292805,
            "lng": 105.542509
        },
        "ad_info": {
            "adcode": 510823,
            "province": "四川省",
            "city": "广元市",
            "district": "剑阁县"
        }
    },
    {
        "id": "9751253504891070986",
        "title": "女洗手间",
        "address": "四川省广元市利州区万缘路与万源大桥交叉口东南角广元利州万达广场2F",
        "tel": "",
        "category": "基础设施:公共设施:女洗手间",
        "type": 0,
        "location": {
            "lat": 32.424204,
            "lng": 105.876841
        },
        "ad_info": {
            "adcode": 510802,
            "province": "四川省",
            "city": "广元市",
            "district": "利州区"
        }
    },
    {
        "id": "10377338083878381203",
        "title": "公共厕所",
        "address": "四川省广元市利州区将军路与望江路交叉口东北方向133米左右",
        "tel": "",
        "category": "基础设施:公共设施:公共厕所",
        "type": 0,
        "location": {
            "lat": 32.449569,
            "lng": 105.830226
        },
        "ad_info": {
            "adcode": 510802,
            "province": "四川省",
            "city": "广元市",
            "district": "利州区"
        }
    },
    {
        "id": "11927498254772820319",
        "title": "公共厕所",
        "address": "四川省广元市苍溪县Y086与苍旺公路交叉口正东方向58米左右",
        "tel": "",
        "category": "基础设施:公共设施:公共厕所",
        "type": 0,
        "location": {
            "lat": 31.825857,
            "lng": 106.041698
        },
        "ad_info": {
            "adcode": 510824,
            "province": "四川省",
            "city": "广元市",
            "district": "苍溪县"
        }
    },
    {
        "id": "9949071053357174745",
        "title": "智慧生态公共厕所118(广元旺苍红星北路)",
        "address": "四川省广元市旺苍县滨河中路与红星北路交叉口正西方向78米左右",
        "tel": "",
        "category": "基础设施:公共设施:公共厕所",
        "type": 0,
        "location": {
            "lat": 32.230192,
            "lng": 106.284181
        },
        "ad_info": {
            "adcode": 510821,
            "province": "四川省",
            "city": "广元市",
            "district": "旺苍县"
        }
    },
    {
        "id": "5895359015056241475",
        "title": "剑门关服务区第二公共厕所",
        "address": "四川省广元市剑阁县G108与剑山大道交叉口东南方向77米左右",
        "tel": "",
        "category": "基础设施:公共设施:公共厕所",
        "type": 0,
        "location": {
            "lat": 32.293401,
            "lng": 105.543572
        },
        "ad_info": {
            "adcode": 510823,
            "province": "四川省",
            "city": "广元市",
            "district": "剑阁县"
        }
    },
    {
        "id": "1578466568305762097",
        "title": "男洗手间",
        "address": "四川省广元市利州区万缘路与万源大桥交叉口东南角广元利州万达广场1F",
        "tel": "",
        "category": "基础设施:公共设施:男洗手间",
        "type": 0,
        "location": {
            "lat": 32.424161,
            "lng": 105.876851
        },
        "ad_info": {
            "adcode": 510802,
            "province": "四川省",
            "city": "广元市",
            "district": "利州区"
        }
    },
    {
        "id": "3146838087859263238",
        "title": "无障碍-洗手间",
        "address": "四川省广元市利州区万缘路与万源大桥交叉口东南角广元利州万达广场3F",
        "tel": "",
        "category": "基础设施:公共设施:无障碍洗手间",
        "type": 0,
        "location": {
            "lat": 32.424237,
            "lng": 105.878775
        },
        "ad_info": {
            "adcode": 510802,
            "province": "四川省",
            "city": "广元市",
            "district": "利州区"
        }
    },
    {
        "id": "7484246302191060782",
        "title": "卫生间",
        "address": "四川省广元市利州区",
        "tel": "",
        "category": "基础设施:公共设施:公共厕所",
        "type": 0,
        "location": {
            "lat": 32.374288,
            "lng": 105.41939
        },
        "ad_info": {
            "adcode": 510802,
            "province": "四川省",
            "city": "广元市",
            "district": "利州区"
        }
    },
    {
        "id": "15929628940052825054",
        "title": "公共厕所",
        "address": "四川省广元市利州区雍锦天下1栋1楼",
        "tel": "",
        "category": "基础设施:公共设施:公共厕所",
        "type": 0,
        "location": {
            "lat": 32.448031,
            "lng": 105.844838
        },
        "ad_info": {
            "adcode": 510802,
            "province": "四川省",
            "city": "广元市",
            "district": "利州区"
        }
    },
    {
        "id": "13293323774581250542",
        "title": "骑马公共厕所",
        "address": "四川省广元市青川县板白公路与永康街交叉口西北方向97米左右",
        "tel": "",
        "category": "基础设施:公共设施:公共厕所",
        "type": 0,
        "location": {
            "lat": 32.599334,
            "lng": 105.406563
        },
        "ad_info": {
            "adcode": 510822,
            "province": "四川省",
            "city": "广元市",
            "district": "青川县"
        }
    },
    {
        "id": "5520396475754457915",
        "title": "苍溪停车区公共厕所",
        "address": "四川省广元市苍溪县苍溪停车区西50米",
        "tel": "",
        "category": "基础设施:公共设施:公共厕所",
        "type": 0,
        "location": {
            "lat": 31.767555,
            "lng": 105.924726
        },
        "ad_info": {
            "adcode": 510824,
            "province": "四川省",
            "city": "广元市",
            "district": "苍溪县"
        }
    },
    {
        "id": "2767614400445055120",
        "title": "苍溪县劳动者驿站(龙王沟公厕)",
        "address": "四川省广元市苍溪县汉古街与红军路西段交叉口正北方向33米左右",
        "tel": "",
        "category": "基础设施:公共设施:公共厕所",
        "type": 0,
        "location": {
            "lat": 31.734798,
            "lng": 105.927942
        },
        "ad_info": {
            "adcode": 510824,
            "province": "四川省",
            "city": "广元市",
            "district": "苍溪县"
        }
    },
    {
        "id": "7788681036054514901",
        "title": "无障碍洗手间(广元万达广场)",
        "address": "四川省广元市利州区万缘路与万源大桥交叉口东南角广元利州万达广场2F",
        "tel": "",
        "category": "基础设施:公共设施:公共厕所",
        "type": 0,
        "location": {
            "lat": 32.424178,
            "lng": 105.876841
        },
        "ad_info": {
            "adcode": 510802,
            "province": "四川省",
            "city": "广元市",
            "district": "利州区"
        }
    },
    {
        "id": "16751660836611803746",
        "title": "公共厕所",
        "address": "四川省广元市昭化区幸福苑东北侧250米",
        "tel": "",
        "category": "基础设施:公共设施:公共厕所",
        "type": 0,
        "location": {
            "lat": 32.349623,
            "lng": 105.969881
        },
        "ad_info": {
            "adcode": 510811,
            "province": "四川省",
            "city": "广元市",
            "district": "昭化区"
        }
    },
    {
        "id": "1700829121833134696",
        "title": "男洗手间(广元万达广场)",
        "address": "四川省广元市利州区万缘路与万源大桥交叉口东南角广元利州万达广场1F",
        "tel": "",
        "category": "基础设施:公共设施:公共厕所",
        "type": 0,
        "location": {
            "lat": 32.424664,
            "lng": 105.877785
        },
        "ad_info": {
            "adcode": 510802,
            "province": "四川省",
            "city": "广元市",
            "district": "利州区"
        }
    },
    {
        "id": "11960060396019479562",
        "title": "公共厕所",
        "address": "四川省广元市利州区清江大道与清江河大桥交叉口西南方向343米左右",
        "tel": "",
        "category": "基础设施:公共设施:公共厕所",
        "type": 0,
        "location": {
            "lat": 32.37647,
            "lng": 105.65014
        },
        "ad_info": {
            "adcode": 510802,
            "province": "四川省",
            "city": "广元市",
            "district": "利州区"
        }
    },
    {
        "id": "7355740873007034152",
        "title": "公共厕所",
        "address": "四川省广元市昭化区花园路2号",
        "tel": "",
        "category": "基础设施:公共设施:公共厕所",
        "type": 0,
        "location": {
            "lat": 32.320188,
            "lng": 105.962868
        },
        "ad_info": {
            "adcode": 510811,
            "province": "四川省",
            "city": "广元市",
            "district": "昭化区"
        }
    },
    {
        "id": "8066792911120193336",
        "title": "男洗手间(广元万达广场)",
        "address": "四川省广元市利州区万缘路与万源大桥交叉口东南角广元利州万达广场2F",
        "tel": "",
        "category": "基础设施:公共设施:男洗手间",
        "type": 0,
        "location": {
            "lat": 32.424253,
            "lng": 105.878804
        },
        "ad_info": {
            "adcode": 510802,
            "province": "四川省",
            "city": "广元市",
            "district": "利州区"
        }
    },
    {
        "id": "8324387368648724332",
        "title": "公共厕所",
        "address": "四川省广元市利州区大西街与西益街交叉口正南方向85米左右",
        "tel": "",
        "category": "基础设施:公共设施:公共厕所",
        "type": 0,
        "location": {
            "lat": 32.435665,
            "lng": 105.820902
        },
        "ad_info": {
            "adcode": 510802,
            "province": "四川省",
            "city": "广元市",
            "district": "利州区"
        }
    },
    {
        "id": "8099541811045985808",
        "title": "剑门关服务区第一公共厕所",
        "address": "四川省广元市剑阁县京昆高速剑门关服务区",
        "tel": "",
        "category": "基础设施:公共设施:公共厕所",
        "type": 0,
        "location": {
            "lat": 32.292805,
            "lng": 105.542509
        },
        "ad_info": {
            "adcode": 510823,
            "province": "四川省",
            "city": "广元市",
            "district": "剑阁县"
        }
    },
    {
        "id": "9751253504891070986",
        "title": "女洗手间",
        "address": "四川省广元市利州区万缘路与万源大桥交叉口东南角广元利州万达广场2F",
        "tel": "",
        "category": "基础设施:公共设施:女洗手间",
        "type": 0,
        "location": {
            "lat": 32.424204,
            "lng": 105.876841
        },
        "ad_info": {
            "adcode": 510802,
            "province": "四川省",
            "city": "广元市",
            "district": "利州区"
        }
    },
    {
        "id": "10377338083878381203",
        "title": "公共厕所",
        "address": "四川省广元市利州区将军路与望江路交叉口东北方向133米左右",
        "tel": "",
        "category": "基础设施:公共设施:公共厕所",
        "type": 0,
        "location": {
            "lat": 32.449569,
            "lng": 105.830226
        },
        "ad_info": {
            "adcode": 510802,
            "province": "四川省",
            "city": "广元市",
            "district": "利州区"
        }
    },
    {
        "id": "11927498254772820319",
        "title": "公共厕所",
        "address": "四川省广元市苍溪县Y086与苍旺公路交叉口正东方向58米左右",
        "tel": "",
        "category": "基础设施:公共设施:公共厕所",
        "type": 0,
        "location": {
            "lat": 31.825857,
            "lng": 106.041698
        },
        "ad_info": {
            "adcode": 510824,
            "province": "四川省",
            "city": "广元市",
            "district": "苍溪县"
        }
    },
    {
        "id": "9949071053357174745",
        "title": "智慧生态公共厕所118(广元旺苍红星北路)",
        "address": "四川省广元市旺苍县滨河中路与红星北路交叉口正西方向78米左右",
        "tel": "",
        "category": "基础设施:公共设施:公共厕所",
        "type": 0,
        "location": {
            "lat": 32.230192,
            "lng": 106.284181
        },
        "ad_info": {
            "adcode": 510821,
            "province": "四川省",
            "city": "广元市",
            "district": "旺苍县"
        }
    },
    {
        "id": "5895359015056241475",
        "title": "剑门关服务区第二公共厕所",
        "address": "四川省广元市剑阁县G108与剑山大道交叉口东南方向77米左右",
        "tel": "",
        "category": "基础设施:公共设施:公共厕所",
        "type": 0,
        "location": {
            "lat": 32.293401,
            "lng": 105.543572
        },
        "ad_info": {
            "adcode": 510823,
            "province": "四川省",
            "city": "广元市",
            "district": "剑阁县"
        }
    },
    {
        "id": "1578466568305762097",
        "title": "男洗手间",
        "address": "四川省广元市利州区万缘路与万源大桥交叉口东南角广元利州万达广场1F",
        "tel": "",
        "category": "基础设施:公共设施:男洗手间",
        "type": 0,
        "location": {
            "lat": 32.424161,
            "lng": 105.876851
        },
        "ad_info": {
            "adcode": 510802,
            "province": "四川省",
            "city": "广元市",
            "district": "利州区"
        }
    },
    {
        "id": "3146838087859263238",
        "title": "无障碍-洗手间",
        "address": "四川省广元市利州区万缘路与万源大桥交叉口东南角广元利州万达广场3F",
        "tel": "",
        "category": "基础设施:公共设施:无障碍洗手间",
        "type": 0,
        "location": {
            "lat": 32.424237,
            "lng": 105.878775
        },
        "ad_info": {
            "adcode": 510802,
            "province": "四川省",
            "city": "广元市",
            "district": "利州区"
        }
    },
    {
        "id": "7484246302191060782",
        "title": "卫生间",
        "address": "四川省广元市利州区",
        "tel": "",
        "category": "基础设施:公共设施:公共厕所",
        "type": 0,
        "location": {
            "lat": 32.374288,
            "lng": 105.41939
        },
        "ad_info": {
            "adcode": 510802,
            "province": "四川省",
            "city": "广元市",
            "district": "利州区"
        }
    },
    {
        "id": "15929628940052825054",
        "title": "公共厕所",
        "address": "四川省广元市利州区雍锦天下1栋1楼",
        "tel": "",
        "category": "基础设施:公共设施:公共厕所",
        "type": 0,
        "location": {
            "lat": 32.448031,
            "lng": 105.844838
        },
        "ad_info": {
            "adcode": 510802,
            "province": "四川省",
            "city": "广元市",
            "district": "利州区"
        }
    },
    {
        "id": "13293323774581250542",
        "title": "骑马公共厕所",
        "address": "四川省广元市青川县板白公路与永康街交叉口西北方向97米左右",
        "tel": "",
        "category": "基础设施:公共设施:公共厕所",
        "type": 0,
        "location": {
            "lat": 32.599334,
            "lng": 105.406563
        },
        "ad_info": {
            "adcode": 510822,
            "province": "四川省",
            "city": "广元市",
            "district": "青川县"
        }
    },
    {
        "id": "5520396475754457915",
        "title": "苍溪停车区公共厕所",
        "address": "四川省广元市苍溪县苍溪停车区西50米",
        "tel": "",
        "category": "基础设施:公共设施:公共厕所",
        "type": 0,
        "location": {
            "lat": 31.767555,
            "lng": 105.924726
        },
        "ad_info": {
            "adcode": 510824,
            "province": "四川省",
            "city": "广元市",
            "district": "苍溪县"
        }
    },
    {
        "id": "2767614400445055120",
        "title": "苍溪县劳动者驿站(龙王沟公厕)",
        "address": "四川省广元市苍溪县汉古街与红军路西段交叉口正北方向33米左右",
        "tel": "",
        "category": "基础设施:公共设施:公共厕所",
        "type": 0,
        "location": {
            "lat": 31.734798,
            "lng": 105.927942
        },
        "ad_info": {
            "adcode": 510824,
            "province": "四川省",
            "city": "广元市",
            "district": "苍溪县"
        }
    },
    {
        "id": "7788681036054514901",
        "title": "无障碍洗手间(广元万达广场)",
        "address": "四川省广元市利州区万缘路与万源大桥交叉口东南角广元利州万达广场2F",
        "tel": "",
        "category": "基础设施:公共设施:公共厕所",
        "type": 0,
        "location": {
            "lat": 32.424178,
            "lng": 105.876841
        },
        "ad_info": {
            "adcode": 510802,
            "province": "四川省",
            "city": "广元市",
            "district": "利州区"
        }
    },
    {
        "id": "16751660836611803746",
        "title": "公共厕所",
        "address": "四川省广元市昭化区幸福苑东北侧250米",
        "tel": "",
        "category": "基础设施:公共设施:公共厕所",
        "type": 0,
        "location": {
            "lat": 32.349623,
            "lng": 105.969881
        },
        "ad_info": {
            "adcode": 510811,
            "province": "四川省",
            "city": "广元市",
            "district": "昭化区"
        }
    },
    {
        "id": "1700829121833134696",
        "title": "男洗手间(广元万达广场)",
        "address": "四川省广元市利州区万缘路与万源大桥交叉口东南角广元利州万达广场1F",
        "tel": "",
        "category": "基础设施:公共设施:公共厕所",
        "type": 0,
        "location": {
            "lat": 32.424664,
            "lng": 105.877785
        },
        "ad_info": {
            "adcode": 510802,
            "province": "四川省",
            "city": "广元市",
            "district": "利州区"
        }
    },
    {
        "id": "11960060396019479562",
        "title": "公共厕所",
        "address": "四川省广元市利州区清江大道与清江河大桥交叉口西南方向343米左右",
        "tel": "",
        "category": "基础设施:公共设施:公共厕所",
        "type": 0,
        "location": {
            "lat": 32.37647,
            "lng": 105.65014
        },
        "ad_info": {
            "adcode": 510802,
            "province": "四川省",
            "city": "广元市",
            "district": "利州区"
        }
    },
    {
        "id": "7355740873007034152",
        "title": "公共厕所",
        "address": "四川省广元市昭化区花园路2号",
        "tel": "",
        "category": "基础设施:公共设施:公共厕所",
        "type": 0,
        "location": {
            "lat": 32.320188,
            "lng": 105.962868
        },
        "ad_info": {
            "adcode": 510811,
            "province": "四川省",
            "city": "广元市",
            "district": "昭化区"
        }
    },
    {
        "id": "8066792911120193336",
        "title": "男洗手间(广元万达广场)",
        "address": "四川省广元市利州区万缘路与万源大桥交叉口东南角广元利州万达广场2F",
        "tel": "",
        "category": "基础设施:公共设施:男洗手间",
        "type": 0,
        "location": {
            "lat": 32.424253,
            "lng": 105.878804
        },
        "ad_info": {
            "adcode": 510802,
            "province": "四川省",
            "city": "广元市",
            "district": "利州区"
        }
    },
    {
        "id": "8324387368648724332",
        "title": "公共厕所",
        "address": "四川省广元市利州区大西街与西益街交叉口正南方向85米左右",
        "tel": "",
        "category": "基础设施:公共设施:公共厕所",
        "type": 0,
        "location": {
            "lat": 32.435665,
            "lng": 105.820902
        },
        "ad_info": {
            "adcode": 510802,
            "province": "四川省",
            "city": "广元市",
            "district": "利州区"
        }
    },
    {
        "id": "8099541811045985808",
        "title": "剑门关服务区第一公共厕所",
        "address": "四川省广元市剑阁县京昆高速剑门关服务区",
        "tel": "",
        "category": "基础设施:公共设施:公共厕所",
        "type": 0,
        "location": {
            "lat": 32.292805,
            "lng": 105.542509
        },
        "ad_info": {
            "adcode": 510823,
            "province": "四川省",
            "city": "广元市",
            "district": "剑阁县"
        }
    },
    {
        "id": "9751253504891070986",
        "title": "女洗手间",
        "address": "四川省广元市利州区万缘路与万源大桥交叉口东南角广元利州万达广场2F",
        "tel": "",
        "category": "基础设施:公共设施:女洗手间",
        "type": 0,
        "location": {
            "lat": 32.424204,
            "lng": 105.876841
        },
        "ad_info": {
            "adcode": 510802,
            "province": "四川省",
            "city": "广元市",
            "district": "利州区"
        }
    },
    {
        "id": "10377338083878381203",
        "title": "公共厕所",
        "address": "四川省广元市利州区将军路与望江路交叉口东北方向133米左右",
        "tel": "",
        "category": "基础设施:公共设施:公共厕所",
        "type": 0,
        "location": {
            "lat": 32.449569,
            "lng": 105.830226
        },
        "ad_info": {
            "adcode": 510802,
            "province": "四川省",
            "city": "广元市",
            "district": "利州区"
        }
    },
    {
        "id": "11927498254772820319",
        "title": "公共厕所",
        "address": "四川省广元市苍溪县Y086与苍旺公路交叉口正东方向58米左右",
        "tel": "",
        "category": "基础设施:公共设施:公共厕所",
        "type": 0,
        "location": {
            "lat": 31.825857,
            "lng": 106.041698
        },
        "ad_info": {
            "adcode": 510824,
            "province": "四川省",
            "city": "广元市",
            "district": "苍溪县"
        }
    },
    {
        "id": "9949071053357174745",
        "title": "智慧生态公共厕所118(广元旺苍红星北路)",
        "address": "四川省广元市旺苍县滨河中路与红星北路交叉口正西方向78米左右",
        "tel": "",
        "category": "基础设施:公共设施:公共厕所",
        "type": 0,
        "location": {
            "lat": 32.230192,
            "lng": 106.284181
        },
        "ad_info": {
            "adcode": 510821,
            "province": "四川省",
            "city": "广元市",
            "district": "旺苍县"
        }
    },
    {
        "id": "5895359015056241475",
        "title": "剑门关服务区第二公共厕所",
        "address": "四川省广元市剑阁县G108与剑山大道交叉口东南方向77米左右",
        "tel": "",
        "category": "基础设施:公共设施:公共厕所",
        "type": 0,
        "location": {
            "lat": 32.293401,
            "lng": 105.543572
        },
        "ad_info": {
            "adcode": 510823,
            "province": "四川省",
            "city": "广元市",
            "district": "剑阁县"
        }
    },
    {
        "id": "1578466568305762097",
        "title": "男洗手间",
        "address": "四川省广元市利州区万缘路与万源大桥交叉口东南角广元利州万达广场1F",
        "tel": "",
        "category": "基础设施:公共设施:男洗手间",
        "type": 0,
        "location": {
            "lat": 32.424161,
            "lng": 105.876851
        },
        "ad_info": {
            "adcode": 510802,
            "province": "四川省",
            "city": "广元市",
            "district": "利州区"
        }
    },
    {
        "id": "3146838087859263238",
        "title": "无障碍-洗手间",
        "address": "四川省广元市利州区万缘路与万源大桥交叉口东南角广元利州万达广场3F",
        "tel": "",
        "category": "基础设施:公共设施:无障碍洗手间",
        "type": 0,
        "location": {
            "lat": 32.424237,
            "lng": 105.878775
        },
        "ad_info": {
            "adcode": 510802,
            "province": "四川省",
            "city": "广元市",
            "district": "利州区"
        }
    },
    {
        "id": "7484246302191060782",
        "title": "卫生间",
        "address": "四川省广元市利州区",
        "tel": "",
        "category": "基础设施:公共设施:公共厕所",
        "type": 0,
        "location": {
            "lat": 32.374288,
            "lng": 105.41939
        },
        "ad_info": {
            "adcode": 510802,
            "province": "四川省",
            "city": "广元市",
            "district": "利州区"
        }
    },
    {
        "id": "15929628940052825054",
        "title": "公共厕所",
        "address": "四川省广元市利州区雍锦天下1栋1楼",
        "tel": "",
        "category": "基础设施:公共设施:公共厕所",
        "type": 0,
        "location": {
            "lat": 32.448031,
            "lng": 105.844838
        },
        "ad_info": {
            "adcode": 510802,
            "province": "四川省",
            "city": "广元市",
            "district": "利州区"
        }
    },
    {
        "id": "13293323774581250542",
        "title": "骑马公共厕所",
        "address": "四川省广元市青川县板白公路与永康街交叉口西北方向97米左右",
        "tel": "",
        "category": "基础设施:公共设施:公共厕所",
        "type": 0,
        "location": {
            "lat": 32.599334,
            "lng": 105.406563
        },
        "ad_info": {
            "adcode": 510822,
            "province": "四川省",
            "city": "广元市",
            "district": "青川县"
        }
    },
    {
        "id": "5520396475754457915",
        "title": "苍溪停车区公共厕所",
        "address": "四川省广元市苍溪县苍溪停车区西50米",
        "tel": "",
        "category": "基础设施:公共设施:公共厕所",
        "type": 0,
        "location": {
            "lat": 31.767555,
            "lng": 105.924726
        },
        "ad_info": {
            "adcode": 510824,
            "province": "四川省",
            "city": "广元市",
            "district": "苍溪县"
        }
    },
    {
        "id": "2767614400445055120",
        "title": "苍溪县劳动者驿站(龙王沟公厕)",
        "address": "四川省广元市苍溪县汉古街与红军路西段交叉口正北方向33米左右",
        "tel": "",
        "category": "基础设施:公共设施:公共厕所",
        "type": 0,
        "location": {
            "lat": 31.734798,
            "lng": 105.927942
        },
        "ad_info": {
            "adcode": 510824,
            "province": "四川省",
            "city": "广元市",
            "district": "苍溪县"
        }
    },
    {
        "id": "7788681036054514901",
        "title": "无障碍洗手间(广元万达广场)",
        "address": "四川省广元市利州区万缘路与万源大桥交叉口东南角广元利州万达广场2F",
        "tel": "",
        "category": "基础设施:公共设施:公共厕所",
        "type": 0,
        "location": {
            "lat": 32.424178,
            "lng": 105.876841
        },
        "ad_info": {
            "adcode": 510802,
            "province": "四川省",
            "city": "广元市",
            "district": "利州区"
        }
    },
    {
        "id": "16751660836611803746",
        "title": "公共厕所",
        "address": "四川省广元市昭化区幸福苑东北侧250米",
        "tel": "",
        "category": "基础设施:公共设施:公共厕所",
        "type": 0,
        "location": {
            "lat": 32.349623,
            "lng": 105.969881
        },
        "ad_info": {
            "adcode": 510811,
            "province": "四川省",
            "city": "广元市",
            "district": "昭化区"
        }
    },
    {
        "id": "1700829121833134696",
        "title": "男洗手间(广元万达广场)",
        "address": "四川省广元市利州区万缘路与万源大桥交叉口东南角广元利州万达广场1F",
        "tel": "",
        "category": "基础设施:公共设施:公共厕所",
        "type": 0,
        "location": {
            "lat": 32.424664,
            "lng": 105.877785
        },
        "ad_info": {
            "adcode": 510802,
            "province": "四川省",
            "city": "广元市",
            "district": "利州区"
        }
    },
    {
        "id": "11960060396019479562",
        "title": "公共厕所",
        "address": "四川省广元市利州区清江大道与清江河大桥交叉口西南方向343米左右",
        "tel": "",
        "category": "基础设施:公共设施:公共厕所",
        "type": 0,
        "location": {
            "lat": 32.37647,
            "lng": 105.65014
        },
        "ad_info": {
            "adcode": 510802,
            "province": "四川省",
            "city": "广元市",
            "district": "利州区"
        }
    },
    {
        "id": "7355740873007034152",
        "title": "公共厕所",
        "address": "四川省广元市昭化区花园路2号",
        "tel": "",
        "category": "基础设施:公共设施:公共厕所",
        "type": 0,
        "location": {
            "lat": 32.320188,
            "lng": 105.962868
        },
        "ad_info": {
            "adcode": 510811,
            "province": "四川省",
            "city": "广元市",
            "district": "昭化区"
        }
    },
    {
        "id": "8066792911120193336",
        "title": "男洗手间(广元万达广场)",
        "address": "四川省广元市利州区万缘路与万源大桥交叉口东南角广元利州万达广场2F",
        "tel": "",
        "category": "基础设施:公共设施:男洗手间",
        "type": 0,
        "location": {
            "lat": 32.424253,
            "lng": 105.878804
        },
        "ad_info": {
            "adcode": 510802,
            "province": "四川省",
            "city": "广元市",
            "district": "利州区"
        }
    },
    {
        "id": "8324387368648724332",
        "title": "公共厕所",
        "address": "四川省广元市利州区大西街与西益街交叉口正南方向85米左右",
        "tel": "",
        "category": "基础设施:公共设施:公共厕所",
        "type": 0,
        "location": {
            "lat": 32.435665,
            "lng": 105.820902
        },
        "ad_info": {
            "adcode": 510802,
            "province": "四川省",
            "city": "广元市",
            "district": "利州区"
        }
    },
    {
        "id": "8099541811045985808",
        "title": "剑门关服务区第一公共厕所",
        "address": "四川省广元市剑阁县京昆高速剑门关服务区",
        "tel": "",
        "category": "基础设施:公共设施:公共厕所",
        "type": 0,
        "location": {
            "lat": 32.292805,
            "lng": 105.542509
        },
        "ad_info": {
            "adcode": 510823,
            "province": "四川省",
            "city": "广元市",
            "district": "剑阁县"
        }
    },
    {
        "id": "9751253504891070986",
        "title": "女洗手间",
        "address": "四川省广元市利州区万缘路与万源大桥交叉口东南角广元利州万达广场2F",
        "tel": "",
        "category": "基础设施:公共设施:女洗手间",
        "type": 0,
        "location": {
            "lat": 32.424204,
            "lng": 105.876841
        },
        "ad_info": {
            "adcode": 510802,
            "province": "四川省",
            "city": "广元市",
            "district": "利州区"
        }
    },
    {
        "id": "10377338083878381203",
        "title": "公共厕所",
        "address": "四川省广元市利州区将军路与望江路交叉口东北方向133米左右",
        "tel": "",
        "category": "基础设施:公共设施:公共厕所",
        "type": 0,
        "location": {
            "lat": 32.449569,
            "lng": 105.830226
        },
        "ad_info": {
            "adcode": 510802,
            "province": "四川省",
            "city": "广元市",
            "district": "利州区"
        }
    },
    {
        "id": "11927498254772820319",
        "title": "公共厕所",
        "address": "四川省广元市苍溪县Y086与苍旺公路交叉口正东方向58米左右",
        "tel": "",
        "category": "基础设施:公共设施:公共厕所",
        "type": 0,
        "location": {
            "lat": 31.825857,
            "lng": 106.041698
        },
        "ad_info": {
            "adcode": 510824,
            "province": "四川省",
            "city": "广元市",
            "district": "苍溪县"
        }
    }
]