[
    {
        "id": "13998159400268629223",
        "title": "公共卫生间",
        "address": "甘肃省庆阳市西峰区兰州路东墅一品商住小区",
        "tel": "",
        "category": "基础设施:公共设施:公共厕所",
        "type": 0,
        "location": {
            "lat": 35.721079,
            "lng": 107.65935
        },
        "ad_info": {
            "adcode": 621002,
            "province": "甘肃省",
            "city": "庆阳市",
            "district": "西峰区"
        }
    },
    {
        "id": "9557593415547439604",
        "title": "公共厕所",
        "address": "甘肃省庆阳市西峰区兰州路与南大街交叉口正西方向78米左右",
        "tel": "",
        "category": "基础设施:公共设施:公共厕所",
        "type": 0,
        "location": {
            "lat": 35.718385,
            "lng": 107.643018
        },
        "ad_info": {
            "adcode": 621002,
            "province": "甘肃省",
            "city": "庆阳市",
            "district": "西峰区"
        }
    },
    {
        "id": "17126143128087173498",
        "title": "公共厕所",
        "address": "甘肃省庆阳市环县G211与灵武路交叉口正东方向25米左右",
        "tel": "",
        "category": "基础设施:公共设施:公共厕所",
        "type": 0,
        "location": {
            "lat": 36.584356,
            "lng": 107.290747
        },
        "ad_info": {
            "adcode": 621022,
            "province": "甘肃省",
            "city": "庆阳市",
            "district": "环县"
        }
    },
    {
        "id": "11655204589528819195",
        "title": "公共厕所",
        "address": "甘肃省庆阳市华池县柔东公路与老城街交叉口西北方向95米左右",
        "tel": "",
        "category": "基础设施:公共设施:公共厕所",
        "type": 0,
        "location": {
            "lat": 36.459458,
            "lng": 107.995528
        },
        "ad_info": {
            "adcode": 621023,
            "province": "甘肃省",
            "city": "庆阳市",
            "district": "华池县"
        }
    },
    {
        "id": "16518571854682835887",
        "title": "公共厕所",
        "address": "甘肃省庆阳市西峰区北大街与古象东路交叉口正北方向66米左右",
        "tel": "",
        "category": "基础设施:公共设施:公共厕所",
        "type": 0,
        "location": {
            "lat": 35.750055,
            "lng": 107.637653
        },
        "ad_info": {
            "adcode": 621002,
            "province": "甘肃省",
            "city": "庆阳市",
            "district": "西峰区"
        }
    },
    {
        "id": "9694993551945916469",
        "title": "公共厕所",
        "address": "甘肃省庆阳市宁县G244与G327交叉口正南方向112米左右",
        "tel": "",
        "category": "基础设施:公共设施:公共厕所",
        "type": 0,
        "location": {
            "lat": 35.498006,
            "lng": 107.749129
        },
        "ad_info": {
            "adcode": 621026,
            "province": "甘肃省",
            "city": "庆阳市",
            "district": "宁县"
        }
    },
    {
        "id": "14241659757500183927",
        "title": "公共厕所",
        "address": "甘肃省庆阳市西峰区东大街与北大街交叉口正东方向54米左右",
        "tel": "",
        "category": "基础设施:公共设施:公共厕所",
        "type": 0,
        "location": {
            "lat": 35.735151,
            "lng": 107.64355
        },
        "ad_info": {
            "adcode": 621002,
            "province": "甘肃省",
            "city": "庆阳市",
            "district": "西峰区"
        }
    },
    {
        "id": "4884761100792958435",
        "title": "公共厕所",
        "address": "甘肃省庆阳市西峰区九龙路庆阳第四中学",
        "tel": "",
        "category": "基础设施:公共设施:公共厕所",
        "type": 0,
        "location": {
            "lat": 35.72621,
            "lng": 107.652972
        },
        "ad_info": {
            "adcode": 621002,
            "province": "甘肃省",
            "city": "庆阳市",
            "district": "西峰区"
        }
    },
    {
        "id": "5679334492434485930",
        "title": "公共厕所",
        "address": "甘肃省庆阳市西峰区朔州西路与长庆大道交叉口正西方向212米左右",
        "tel": "",
        "category": "基础设施:公共设施:公共厕所",
        "type": 0,
        "location": {
            "lat": 35.703206,
            "lng": 107.635466
        },
        "ad_info": {
            "adcode": 621002,
            "province": "甘肃省",
            "city": "庆阳市",
            "district": "西峰区"
        }
    },
    {
        "id": "9509989917232745756",
        "title": "公共厕所",
        "address": "甘肃省庆阳市西峰区岐黄大道与秦直东路交叉口正北方向173米左右",
        "tel": "",
        "category": "基础设施:公共设施:公共厕所",
        "type": 0,
        "location": {
            "lat": 35.716511,
            "lng": 107.644654
        },
        "ad_info": {
            "adcode": 621002,
            "province": "甘肃省",
            "city": "庆阳市",
            "district": "西峰区"
        }
    },
    {
        "id": "10781601034200947128",
        "title": "公共厕所",
        "address": "甘肃省庆阳市华池县南梁镇南梁景区停车场",
        "tel": "",
        "category": "基础设施:公共设施:公共厕所",
        "type": 0,
        "location": {
            "lat": 36.393413,
            "lng": 108.341366
        },
        "ad_info": {
            "adcode": 621023,
            "province": "甘肃省",
            "city": "庆阳市",
            "district": "华池县"
        }
    },
    {
        "id": "1617721929171777913",
        "title": "公共厕所",
        "address": "甘肃省庆阳市合水县富康东路与富康西路交叉口正北方向58米左右",
        "tel": "",
        "category": "基础设施:公共设施:公共厕所",
        "type": 0,
        "location": {
            "lat": 35.82166,
            "lng": 108.019767
        },
        "ad_info": {
            "adcode": 621024,
            "province": "甘肃省",
            "city": "庆阳市",
            "district": "合水县"
        }
    },
    {
        "id": "10291597864058047588",
        "title": "公共厕所",
        "address": "甘肃省庆阳市西峰区合水巷38号",
        "tel": "",
        "category": "基础设施:公共设施:公共厕所",
        "type": 0,
        "location": {
            "lat": 35.732965,
            "lng": 107.641944
        },
        "ad_info": {
            "adcode": 621002,
            "province": "甘肃省",
            "city": "庆阳市",
            "district": "西峰区"
        }
    },
    {
        "id": "17912934643405382751",
        "title": "公共厕所",
        "address": "甘肃省庆阳市宁县人民路与新宁路交叉口东南方向38米左右",
        "tel": "",
        "category": "基础设施:公共设施:公共厕所",
        "type": 0,
        "location": {
            "lat": 35.503545,
            "lng": 107.923928
        },
        "ad_info": {
            "adcode": 621026,
            "province": "甘肃省",
            "city": "庆阳市",
            "district": "宁县"
        }
    },
    {
        "id": "5646771696788821476",
        "title": "公共厕所",
        "address": "甘肃省庆阳市西峰区安定西路与马莲河大道交叉口正西方向78米左右",
        "tel": "",
        "category": "基础设施:公共设施:公共厕所",
        "type": 0,
        "location": {
            "lat": 35.730884,
            "lng": 107.637097
        },
        "ad_info": {
            "adcode": 621002,
            "province": "甘肃省",
            "city": "庆阳市",
            "district": "西峰区"
        }
    },
    {
        "id": "11400549325814499815",
        "title": "公共厕所",
        "address": "甘肃省庆阳市西峰区兰州路健身广场",
        "tel": "",
        "category": "基础设施:公共设施:公共厕所",
        "type": 0,
        "location": {
            "lat": 35.716604,
            "lng": 107.634544
        },
        "ad_info": {
            "adcode": 621002,
            "province": "甘肃省",
            "city": "庆阳市",
            "district": "西峰区"
        }
    },
    {
        "id": "8328775948060715591",
        "title": "公共厕所",
        "address": "甘肃省庆阳市西峰区秦直东路与陇东大道交叉口西北方向42米左右",
        "tel": "",
        "category": "基础设施:公共设施:公共厕所",
        "type": 0,
        "location": {
            "lat": 35.717769,
            "lng": 107.654694
        },
        "ad_info": {
            "adcode": 621002,
            "province": "甘肃省",
            "city": "庆阳市",
            "district": "西峰区"
        }
    },
    {
        "id": "17869736771374531505",
        "title": "公共厕所",
        "address": "甘肃省庆阳市西峰区老西环路67号",
        "tel": "",
        "category": "基础设施:公共设施:公共厕所",
        "type": 0,
        "location": {
            "lat": 35.733713,
            "lng": 107.629812
        },
        "ad_info": {
            "adcode": 621002,
            "province": "甘肃省",
            "city": "庆阳市",
            "district": "西峰区"
        }
    },
    {
        "id": "15865424708242868884",
        "title": "公共厕所",
        "address": "甘肃省庆阳市西峰区南街办事处西安专线东侧蓝顶民居",
        "tel": "",
        "category": "基础设施:公共设施:公共厕所",
        "type": 0,
        "location": {
            "lat": 35.718841,
            "lng": 107.648748
        },
        "ad_info": {
            "adcode": 621002,
            "province": "甘肃省",
            "city": "庆阳市",
            "district": "西峰区"
        }
    },
    {
        "id": "2938878346014787255",
        "title": "公共厕所",
        "address": "甘肃省庆阳市西峰区陇东大道正洋凤凰大境",
        "tel": "",
        "category": "基础设施:公共设施:公共厕所",
        "type": 0,
        "location": {
            "lat": 35.703993,
            "lng": 107.657953
        },
        "ad_info": {
            "adcode": 621002,
            "province": "甘肃省",
            "city": "庆阳市",
            "district": "西峰区"
        }
    },
    {
        "id": "8387444530905379283",
        "title": "公共厕所",
        "address": "甘肃省庆阳市宁县Y042",
        "tel": "",
        "category": "基础设施:公共设施:公共厕所",
        "type": 0,
        "location": {
            "lat": 35.632405,
            "lng": 107.881069
        },
        "ad_info": {
            "adcode": 621026,
            "province": "甘肃省",
            "city": "庆阳市",
            "district": "宁县"
        }
    },
    {
        "id": "1270796526062695536",
        "title": "公共厕所",
        "address": "甘肃省庆阳市西峰区永乐道与解放东路交叉口正南方向62米左右",
        "tel": "",
        "category": "基础设施:公共设施:公共厕所",
        "type": 0,
        "location": {
            "lat": 35.742357,
            "lng": 107.644861
        },
        "ad_info": {
            "adcode": 621002,
            "province": "甘肃省",
            "city": "庆阳市",
            "district": "西峰区"
        }
    },
    {
        "id": "4707772626641665277",
        "title": "公共厕所",
        "address": "甘肃省庆阳市西峰区康寿路老城幼儿园",
        "tel": "",
        "category": "基础设施:公共设施:公共厕所",
        "type": 0,
        "location": {
            "lat": 35.747601,
            "lng": 107.646004
        },
        "ad_info": {
            "adcode": 621002,
            "province": "甘肃省",
            "city": "庆阳市",
            "district": "西峰区"
        }
    },
    {
        "id": "15373713272731235851",
        "title": "公共厕所",
        "address": "甘肃省庆阳市西峰区兴隆家园东侧180米",
        "tel": "",
        "category": "基础设施:公共设施:公共厕所",
        "type": 0,
        "location": {
            "lat": 35.717517,
            "lng": 107.670709
        },
        "ad_info": {
            "adcode": 621002,
            "province": "甘肃省",
            "city": "庆阳市",
            "district": "西峰区"
        }
    },
    {
        "id": "55304609301892423",
        "title": "公共厕所",
        "address": "甘肃省庆阳市宁县东滨河路与九龙路交叉口正南方向109米左右",
        "tel": "",
        "category": "基础设施:公共设施:公共厕所",
        "type": 0,
        "location": {
            "lat": 35.500671,
            "lng": 107.919821
        },
        "ad_info": {
            "adcode": 621026,
            "province": "甘肃省",
            "city": "庆阳市",
            "district": "宁县"
        }
    },
    {
        "id": "16588789881247938930",
        "title": "公共厕所",
        "address": "甘肃省庆阳市西峰区南大街418号",
        "tel": "",
        "category": "基础设施:公共设施:公共厕所",
        "type": 0,
        "location": {
            "lat": 35.72291,
            "lng": 107.643554
        },
        "ad_info": {
            "adcode": 621002,
            "province": "甘肃省",
            "city": "庆阳市",
            "district": "西峰区"
        }
    },
    {
        "id": "4416743952420014445",
        "title": "公共厕所",
        "address": "甘肃省庆阳市合水县人民路与古象西路交叉口东南方向251米左右",
        "tel": "",
        "category": "基础设施:公共设施:公共厕所",
        "type": 0,
        "location": {
            "lat": 35.831025,
            "lng": 108.023848
        },
        "ad_info": {
            "adcode": 621024,
            "province": "甘肃省",
            "city": "庆阳市",
            "district": "合水县"
        }
    },
    {
        "id": "14351254947122254861",
        "title": "公共厕所",
        "address": "甘肃省庆阳市西峰区中心血站巷与永乐道交叉口西北方向73米左右",
        "tel": "",
        "category": "基础设施:公共设施:公共厕所",
        "type": 0,
        "location": {
            "lat": 35.728744,
            "lng": 107.648888
        },
        "ad_info": {
            "adcode": 621002,
            "province": "甘肃省",
            "city": "庆阳市",
            "district": "西峰区"
        }
    },
    {
        "id": "9084046603850081128",
        "title": "公共厕所",
        "address": "甘肃省庆阳市合水县乐蟠西路与秦直路交叉口东北方向39米左右",
        "tel": "",
        "category": "基础设施:公共设施:公共厕所",
        "type": 0,
        "location": {
            "lat": 35.833167,
            "lng": 108.015437
        },
        "ad_info": {
            "adcode": 621024,
            "province": "甘肃省",
            "city": "庆阳市",
            "district": "合水县"
        }
    },
    {
        "id": "18346075621777211822",
        "title": "公共厕所(陇东建材城)",
        "address": "甘肃省庆阳市西峰区育才西路供电公司西侧陇东建材城F1层",
        "tel": "",
        "category": "基础设施:公共设施:公共厕所",
        "type": 0,
        "location": {
            "lat": 35.719938,
            "lng": 107.636577
        },
        "ad_info": {
            "adcode": 621002,
            "province": "甘肃省",
            "city": "庆阳市",
            "district": "西峰区"
        }
    },
    {
        "id": "10834299201896265683",
        "title": "公共厕所",
        "address": "甘肃省庆阳市合水县文化东路(合水一中)",
        "tel": "",
        "category": "基础设施:公共设施:公共厕所",
        "type": 0,
        "location": {
            "lat": 35.817114,
            "lng": 108.021834
        },
        "ad_info": {
            "adcode": 621024,
            "province": "甘肃省",
            "city": "庆阳市",
            "district": "合水县"
        }
    },
    {
        "id": "11261425978212513247",
        "title": "公共厕所",
        "address": "甘肃省庆阳市宁县人民路与广场路交叉口正西方向563米左右",
        "tel": "",
        "category": "基础设施:公共设施:公共厕所",
        "type": 0,
        "location": {
            "lat": 35.447489,
            "lng": 108.176471
        },
        "ad_info": {
            "adcode": 621026,
            "province": "甘肃省",
            "city": "庆阳市",
            "district": "宁县"
        }
    },
    {
        "id": "17837499479641892047",
        "title": "公共厕所",
        "address": "甘肃省庆阳市西峰区九龙路与秦霸岭东路交叉口正西方向125米左右",
        "tel": "",
        "category": "基础设施:公共设施:公共厕所",
        "type": 0,
        "location": {
            "lat": 35.722353,
            "lng": 107.652332
        },
        "ad_info": {
            "adcode": 621002,
            "province": "甘肃省",
            "city": "庆阳市",
            "district": "西峰区"
        }
    },
    {
        "id": "2060832312936013770",
        "title": "公共厕所",
        "address": "甘肃省庆阳市西峰区安化东路人民法院(电信家园附近)",
        "tel": "",
        "category": "基础设施:公共设施:公共厕所",
        "type": 0,
        "location": {
            "lat": 35.711949,
            "lng": 107.647493
        },
        "ad_info": {
            "adcode": 621002,
            "province": "甘肃省",
            "city": "庆阳市",
            "district": "西峰区"
        }
    },
    {
        "id": "4854200855408629668",
        "title": "公共厕所",
        "address": "甘肃省庆阳市华池县吴华高速与吴平高速交叉口正东方向1156米左右",
        "tel": "",
        "category": "基础设施:公共设施:公共厕所",
        "type": 0,
        "location": {
            "lat": 36.511266,
            "lng": 108.043452
        },
        "ad_info": {
            "adcode": 621023,
            "province": "甘肃省",
            "city": "庆阳市",
            "district": "华池县"
        }
    },
    {
        "id": "6435129274244641303",
        "title": "公共厕所",
        "address": "甘肃省庆阳市西峰区南大街庆阳一中",
        "tel": "",
        "category": "基础设施:公共设施:公共厕所",
        "type": 0,
        "location": {
            "lat": 35.729617,
            "lng": 107.642215
        },
        "ad_info": {
            "adcode": 621002,
            "province": "甘肃省",
            "city": "庆阳市",
            "district": "西峰区"
        }
    },
    {
        "id": "1192162020583006679",
        "title": "公共厕所",
        "address": "甘肃省庆阳市西峰区鹏达钢材东北侧90米",
        "tel": "",
        "category": "基础设施:公共设施:公共厕所",
        "type": 0,
        "location": {
            "lat": 35.718565,
            "lng": 107.624806
        },
        "ad_info": {
            "adcode": 621002,
            "province": "甘肃省",
            "city": "庆阳市",
            "district": "西峰区"
        }
    },
    {
        "id": "8692170497132008202",
        "title": "公共厕所",
        "address": "甘肃省庆阳市西峰区九龙路与安定东路交叉口西南方向76米左右",
        "tel": "",
        "category": "基础设施:公共设施:公共厕所",
        "type": 0,
        "location": {
            "lat": 35.73099,
            "lng": 107.65036
        },
        "ad_info": {
            "adcode": 621002,
            "province": "甘肃省",
            "city": "庆阳市",
            "district": "西峰区"
        }
    },
    {
        "id": "5866952657791974543",
        "title": "公共厕所",
        "address": "甘肃省庆阳市正宁县榆林子镇北街20号正西方向62米",
        "tel": "",
        "category": "基础设施:公共设施:公共厕所",
        "type": 0,
        "location": {
            "lat": 35.383488,
            "lng": 108.198447
        },
        "ad_info": {
            "adcode": 621025,
            "province": "甘肃省",
            "city": "庆阳市",
            "district": "正宁县"
        }
    },
    {
        "id": "6714963252896548448",
        "title": "公共厕所",
        "address": "甘肃省庆阳市正宁县新建巷与长乐路交叉口正南方向67米左右",
        "tel": "",
        "category": "基础设施:公共设施:公共厕所",
        "type": 0,
        "location": {
            "lat": 35.492478,
            "lng": 108.358416
        },
        "ad_info": {
            "adcode": 621025,
            "province": "甘肃省",
            "city": "庆阳市",
            "district": "正宁县"
        }
    },
    {
        "id": "7140195549423450843",
        "title": "公共厕所",
        "address": "甘肃省庆阳市西峰区西峰区政府政务服务中心(九龙路西)",
        "tel": "",
        "category": "基础设施:公共设施:公共厕所",
        "type": 0,
        "location": {
            "lat": 35.734543,
            "lng": 107.64987
        },
        "ad_info": {
            "adcode": 621002,
            "province": "甘肃省",
            "city": "庆阳市",
            "district": "西峰区"
        }
    },
    {
        "id": "16054674914017563645",
        "title": "公共厕所",
        "address": "甘肃省庆阳市环县G211与南环路交叉口东北方向61米左右",
        "tel": "",
        "category": "基础设施:公共设施:公共厕所",
        "type": 0,
        "location": {
            "lat": 36.556662,
            "lng": 107.320126
        },
        "ad_info": {
            "adcode": 621022,
            "province": "甘肃省",
            "city": "庆阳市",
            "district": "环县"
        }
    },
    {
        "id": "1429481484282805546",
        "title": "公共厕所",
        "address": "甘肃省庆阳市西峰区九龙路与古象东路交叉口东北方向69米左右",
        "tel": "",
        "category": "基础设施:公共设施:公共厕所",
        "type": 0,
        "location": {
            "lat": 35.750483,
            "lng": 107.646111
        },
        "ad_info": {
            "adcode": 621002,
            "province": "甘肃省",
            "city": "庆阳市",
            "district": "西峰区"
        }
    },
    {
        "id": "8721971622667292810",
        "title": "公共厕所",
        "address": "甘肃省庆阳市环县G211与S202交叉口正西方向81米左右",
        "tel": "",
        "category": "基础设施:公共设施:公共厕所",
        "type": 0,
        "location": {
            "lat": 36.341996,
            "lng": 107.486809
        },
        "ad_info": {
            "adcode": 621022,
            "province": "甘肃省",
            "city": "庆阳市",
            "district": "环县"
        }
    },
    {
        "id": "7059434725557805595",
        "title": "公共厕所",
        "address": "甘肃省庆阳市西峰区S318与兰州路交叉口正北方向123米左右",
        "tel": "",
        "category": "基础设施:公共设施:公共厕所",
        "type": 0,
        "location": {
            "lat": 35.71695,
            "lng": 107.62921
        },
        "ad_info": {
            "adcode": 621002,
            "province": "甘肃省",
            "city": "庆阳市",
            "district": "西峰区"
        }
    },
    {
        "id": "18014106606092188124",
        "title": "公共厕所",
        "address": "甘肃省庆阳市环县成业路与环州北路交叉口西南方向108米左右",
        "tel": "",
        "category": "基础设施:公共设施:公共厕所",
        "type": 0,
        "location": {
            "lat": 36.565261,
            "lng": 107.312211
        },
        "ad_info": {
            "adcode": 621022,
            "province": "甘肃省",
            "city": "庆阳市",
            "district": "环县"
        }
    },
    {
        "id": "13314131683440894189",
        "title": "公共厕所",
        "address": "甘肃省庆阳市西峰区西大街庆阳市第五中学",
        "tel": "",
        "category": "基础设施:公共设施:公共厕所",
        "type": 0,
        "location": {
            "lat": 35.734941,
            "lng": 107.635531
        },
        "ad_info": {
            "adcode": 621002,
            "province": "甘肃省",
            "city": "庆阳市",
            "district": "西峰区"
        }
    },
    {
        "id": "17514423198407144897",
        "title": "公共厕所",
        "address": "甘肃省庆阳市西峰区育才西路与长庆大道交叉口正西方向588米左右",
        "tel": "",
        "category": "基础设施:公共设施:公共厕所",
        "type": 0,
        "location": {
            "lat": 35.723411,
            "lng": 107.628294
        },
        "ad_info": {
            "adcode": 621002,
            "province": "甘肃省",
            "city": "庆阳市",
            "district": "西峰区"
        }
    },
    {
        "id": "2316489563981352079",
        "title": "公共厕所",
        "address": "甘肃省庆阳市宁县农贸路与北滨河路交叉口西南方向60米左右",
        "tel": "",
        "category": "基础设施:公共设施:公共厕所",
        "type": 0,
        "location": {
            "lat": 35.5036,
            "lng": 107.920794
        },
        "ad_info": {
            "adcode": 621026,
            "province": "甘肃省",
            "city": "庆阳市",
            "district": "宁县"
        }
    },
    {
        "id": "6189916995049964199",
        "title": "公共厕所",
        "address": "甘肃省庆阳市西峰区国税局巷13号",
        "tel": "",
        "category": "基础设施:公共设施:公共厕所",
        "type": 0,
        "location": {
            "lat": 35.726185,
            "lng": 107.646842
        },
        "ad_info": {
            "adcode": 621002,
            "province": "甘肃省",
            "city": "庆阳市",
            "district": "西峰区"
        }
    },
    {
        "id": "15254856450129156576",
        "title": "公共厕所",
        "address": "甘肃省庆阳市西峰区解放西路40号",
        "tel": "",
        "category": "基础设施:公共设施:公共厕所",
        "type": 0,
        "location": {
            "lat": 35.738858,
            "lng": 107.62902
        },
        "ad_info": {
            "adcode": 621002,
            "province": "甘肃省",
            "city": "庆阳市",
            "district": "西峰区"
        }
    },
    {
        "id": "6762875516777759154",
        "title": "公共厕所",
        "address": "甘肃省庆阳市西峰区北地东路与北地西路交叉口正西方向55米左右",
        "tel": "",
        "category": "基础设施:公共设施:公共厕所",
        "type": 0,
        "location": {
            "lat": 35.702096,
            "lng": 107.646527
        },
        "ad_info": {
            "adcode": 621002,
            "province": "甘肃省",
            "city": "庆阳市",
            "district": "西峰区"
        }
    },
    {
        "id": "18145940886441325837",
        "title": "公共厕所",
        "address": "甘肃省庆阳市环县广场路与广场路东段交叉口正北方向76米左右",
        "tel": "",
        "category": "基础设施:公共设施:公共厕所",
        "type": 0,
        "location": {
            "lat": 36.566854,
            "lng": 107.307553
        },
        "ad_info": {
            "adcode": 621022,
            "province": "甘肃省",
            "city": "庆阳市",
            "district": "环县"
        }
    },
    {
        "id": "2042417789112429435",
        "title": "公共厕所",
        "address": "甘肃省庆阳市西峰区北京大道科教苑",
        "tel": "",
        "category": "基础设施:公共设施:公共厕所",
        "type": 0,
        "location": {
            "lat": 35.711424,
            "lng": 107.662447
        },
        "ad_info": {
            "adcode": 621002,
            "province": "甘肃省",
            "city": "庆阳市",
            "district": "西峰区"
        }
    },
    {
        "id": "12836695158193092613",
        "title": "公共厕所",
        "address": "甘肃省庆阳市环县211国道西50米",
        "tel": "",
        "category": "基础设施:公共设施:公共厕所",
        "type": 0,
        "location": {
            "lat": 36.304785,
            "lng": 107.514021
        },
        "ad_info": {
            "adcode": 621022,
            "province": "甘肃省",
            "city": "庆阳市",
            "district": "环县"
        }
    },
    {
        "id": "5850303476453509919",
        "title": "公共厕所",
        "address": "甘肃省庆阳市西峰区老西环路131号",
        "tel": "",
        "category": "基础设施:公共设施:公共厕所",
        "type": 0,
        "location": {
            "lat": 35.725987,
            "lng": 107.638277
        },
        "ad_info": {
            "adcode": 621002,
            "province": "甘肃省",
            "city": "庆阳市",
            "district": "西峰区"
        }
    },
    {
        "id": "5379910871091075540",
        "title": "公共厕所",
        "address": "甘肃省庆阳市西峰区北大街与向阳巷交叉口东北方向21米左右",
        "tel": "",
        "category": "基础设施:公共设施:公共厕所",
        "type": 0,
        "location": {
            "lat": 35.738833,
            "lng": 107.643187
        },
        "ad_info": {
            "adcode": 621002,
            "province": "甘肃省",
            "city": "庆阳市",
            "district": "西峰区"
        }
    },
    {
        "id": "482029132503267989",
        "title": "公共厕所",
        "address": "甘肃省庆阳市宁县九龙路与辑宁南路交叉口东北方向54米左右",
        "tel": "",
        "category": "基础设施:公共设施:公共厕所",
        "type": 0,
        "location": {
            "lat": 35.500681,
            "lng": 107.923471
        },
        "ad_info": {
            "adcode": 621026,
            "province": "甘肃省",
            "city": "庆阳市",
            "district": "宁县"
        }
    },
    {
        "id": "10689338147244734642",
        "title": "公共厕所",
        "address": "甘肃省庆阳市环县成业路与环江大道交叉口正西方向34米左右",
        "tel": "",
        "category": "基础设施:公共设施:公共厕所",
        "type": 0,
        "location": {
            "lat": 36.563678,
            "lng": 107.310135
        },
        "ad_info": {
            "adcode": 621022,
            "province": "甘肃省",
            "city": "庆阳市",
            "district": "环县"
        }
    },
    {
        "id": "12854768173471044445",
        "title": "公共厕所",
        "address": "甘肃省庆阳市西峰区九龙路与解放东路交叉口正东方向127米左右",
        "tel": "",
        "category": "基础设施:公共设施:公共厕所",
        "type": 0,
        "location": {
            "lat": 35.743696,
            "lng": 107.64883
        },
        "ad_info": {
            "adcode": 621002,
            "province": "甘肃省",
            "city": "庆阳市",
            "district": "西峰区"
        }
    },
    {
        "id": "6013538376291465266",
        "title": "公共厕所",
        "address": "甘肃省庆阳市西峰区S318与兰州路交叉口正北方向143米左右",
        "tel": "",
        "category": "基础设施:公共设施:公共厕所",
        "type": 0,
        "location": {
            "lat": 35.71717,
            "lng": 107.629667
        },
        "ad_info": {
            "adcode": 621002,
            "province": "甘肃省",
            "city": "庆阳市",
            "district": "西峰区"
        }
    },
    {
        "id": "3136587109506838264",
        "title": "公共厕所",
        "address": "甘肃省庆阳市合水县309国道东50米",
        "tel": "",
        "category": "基础设施:公共设施:公共厕所",
        "type": 0,
        "location": {
            "lat": 35.888289,
            "lng": 107.966524
        },
        "ad_info": {
            "adcode": 621024,
            "province": "甘肃省",
            "city": "庆阳市",
            "district": "合水县"
        }
    },
    {
        "id": "3962879854845973250",
        "title": "公共厕所",
        "address": "甘肃省庆阳市宁县宁州大道与西滨河路交叉口正北方向31米左右",
        "tel": "",
        "category": "基础设施:公共设施:公共厕所",
        "type": 0,
        "location": {
            "lat": 35.501414,
            "lng": 107.915035
        },
        "ad_info": {
            "adcode": 621026,
            "province": "甘肃省",
            "city": "庆阳市",
            "district": "宁县"
        }
    },
    {
        "id": "1985625465774081658",
        "title": "公共厕所",
        "address": "甘肃省庆阳市西峰区安定西路与庆化大道交叉口东南方向55米左右",
        "tel": "",
        "category": "基础设施:公共设施:公共厕所",
        "type": 0,
        "location": {
            "lat": 35.728895,
            "lng": 107.628065
        },
        "ad_info": {
            "adcode": 621002,
            "province": "甘肃省",
            "city": "庆阳市",
            "district": "西峰区"
        }
    },
    {
        "id": "10986009388582715195",
        "title": "公共厕所",
        "address": "甘肃省庆阳市合水县何家畔镇产白",
        "tel": "",
        "category": "基础设施:公共设施:公共厕所",
        "type": 0,
        "location": {
            "lat": 35.735801,
            "lng": 107.876621
        },
        "ad_info": {
            "adcode": 621024,
            "province": "甘肃省",
            "city": "庆阳市",
            "district": "合水县"
        }
    },
    {
        "id": "18381763962894915367",
        "title": "公共厕所",
        "address": "甘肃省庆阳市西峰区古象西路与庆化大道交叉口正南方向472米左右",
        "tel": "",
        "category": "基础设施:公共设施:公共厕所",
        "type": 0,
        "location": {
            "lat": 35.744086,
            "lng": 107.625301
        },
        "ad_info": {
            "adcode": 621002,
            "province": "甘肃省",
            "city": "庆阳市",
            "district": "西峰区"
        }
    },
    {
        "id": "6303668310241290104",
        "title": "公共厕所",
        "address": "甘肃省庆阳市西峰区合水东路庆阳体育馆",
        "tel": "",
        "category": "基础设施:公共设施:公共厕所",
        "type": 0,
        "location": {
            "lat": 35.69447,
            "lng": 107.651483
        },
        "ad_info": {
            "adcode": 621002,
            "province": "甘肃省",
            "city": "庆阳市",
            "district": "西峰区"
        }
    },
    {
        "id": "7325694613442874899",
        "title": "公共厕所",
        "address": "甘肃省庆阳市西峰区显胜乡毛寺村",
        "tel": "",
        "category": "基础设施:公共设施:公共厕所",
        "type": 0,
        "location": {
            "lat": 35.45026,
            "lng": 107.637833
        },
        "ad_info": {
            "adcode": 621002,
            "province": "甘肃省",
            "city": "庆阳市",
            "district": "西峰区"
        }
    },
    {
        "id": "2258724142471412032",
        "title": "公共厕所",
        "address": "甘肃省庆阳市西峰区朔州西路与长庆大道交叉口正西方向48米左右",
        "tel": "",
        "category": "基础设施:公共设施:公共厕所",
        "type": 0,
        "location": {
            "lat": 35.703389,
            "lng": 107.637311
        },
        "ad_info": {
            "adcode": 621002,
            "province": "甘肃省",
            "city": "庆阳市",
            "district": "西峰区"
        }
    },
    {
        "id": "8700806932655811870",
        "title": "公共厕所",
        "address": "甘肃省庆阳市西峰区长庆大道",
        "tel": "",
        "category": "基础设施:公共设施:公共厕所",
        "type": 0,
        "location": {
            "lat": 35.74341,
            "lng": 107.631394
        },
        "ad_info": {
            "adcode": 621002,
            "province": "甘肃省",
            "city": "庆阳市",
            "district": "西峰区"
        }
    },
    {
        "id": "16725147678806332166",
        "title": "公共厕所",
        "address": "甘肃省庆阳市西峰区永乐道与解放东路交叉口正北方向229米左右",
        "tel": "",
        "category": "基础设施:公共设施:公共厕所",
        "type": 0,
        "location": {
            "lat": 35.744983,
            "lng": 107.644706
        },
        "ad_info": {
            "adcode": 621002,
            "province": "甘肃省",
            "city": "庆阳市",
            "district": "西峰区"
        }
    },
    {
        "id": "10117318354860036756",
        "title": "公共厕所",
        "address": "甘肃省庆阳市环县成业路与滨河路交叉口西南方向22米左右",
        "tel": "",
        "category": "基础设施:公共设施:公共厕所",
        "type": 0,
        "location": {
            "lat": 36.561701,
            "lng": 107.308124
        },
        "ad_info": {
            "adcode": 621022,
            "province": "甘肃省",
            "city": "庆阳市",
            "district": "环县"
        }
    },
    {
        "id": "18143353762533542694",
        "title": "无障碍公共厕所",
        "address": "甘肃省庆阳市西峰区寨子巷与西峰巷交叉口正东方向50米左右",
        "tel": "",
        "category": "基础设施:公共设施:公共厕所",
        "type": 0,
        "location": {
            "lat": 35.737994,
            "lng": 107.642107
        },
        "ad_info": {
            "adcode": 621002,
            "province": "甘肃省",
            "city": "庆阳市",
            "district": "西峰区"
        }
    },
    {
        "id": "18308434014308885538",
        "title": "公共卫生间",
        "address": "甘肃省庆阳市西峰区安定东路东湖公园南门南侧约30米",
        "tel": "",
        "category": "基础设施:公共设施:公共厕所",
        "type": 0,
        "location": {
            "lat": 35.733307,
            "lng": 107.653861
        },
        "ad_info": {
            "adcode": 621002,
            "province": "甘肃省",
            "city": "庆阳市",
            "district": "西峰区"
        }
    },
    {
        "id": "13526010090045864775",
        "title": "公共厕所",
        "address": "甘肃省庆阳市西峰区翼龙路与长庆大道交叉口西北方向38米左右",
        "tel": "",
        "category": "基础设施:公共设施:公共厕所",
        "type": 0,
        "location": {
            "lat": 35.756222,
            "lng": 107.629351
        },
        "ad_info": {
            "adcode": 621002,
            "province": "甘肃省",
            "city": "庆阳市",
            "district": "西峰区"
        }
    },
    {
        "id": "9380197114574098846",
        "title": "公共卫生间(向阳巷口)",
        "address": "甘肃省庆阳市西峰区向阳巷2号",
        "tel": "15268990116",
        "category": "基础设施:公共设施:公共厕所",
        "type": 0,
        "location": {
            "lat": 35.738914,
            "lng": 107.64345
        },
        "ad_info": {
            "adcode": 621002,
            "province": "甘肃省",
            "city": "庆阳市",
            "district": "西峰区"
        }
    },
    {
        "id": "18327393501328278179",
        "title": "公共厕所",
        "address": "甘肃省庆阳市宁县303省道西50米",
        "tel": "",
        "category": "基础设施:公共设施:公共厕所",
        "type": 0,
        "location": {
            "lat": 35.543463,
            "lng": 107.797912
        },
        "ad_info": {
            "adcode": 621026,
            "province": "甘肃省",
            "city": "庆阳市",
            "district": "宁县"
        }
    },
    {
        "id": "3656183853917050371",
        "title": "公共厕所",
        "address": "甘肃省庆阳市西峰区X002与庆化大道交叉口正南方向1365米左右",
        "tel": "",
        "category": "基础设施:公共设施:公共厕所",
        "type": 0,
        "location": {
            "lat": 35.645797,
            "lng": 107.644764
        },
        "ad_info": {
            "adcode": 621002,
            "province": "甘肃省",
            "city": "庆阳市",
            "district": "西峰区"
        }
    },
    {
        "id": "12409631938887091060",
        "title": "公共厕所",
        "address": "甘肃省庆阳市西峰区凤凰路北街实验学校",
        "tel": "",
        "category": "基础设施:公共设施:公共厕所",
        "type": 0,
        "location": {
            "lat": 35.746578,
            "lng": 107.635727
        },
        "ad_info": {
            "adcode": 621002,
            "province": "甘肃省",
            "city": "庆阳市",
            "district": "西峰区"
        }
    },
    {
        "id": "17509981165995296016",
        "title": "公共厕所",
        "address": "甘肃省庆阳市西峰区北大街与古象东路交叉口东南方向173米左右",
        "tel": "",
        "category": "基础设施:公共设施:公共厕所",
        "type": 0,
        "location": {
            "lat": 35.748237,
            "lng": 107.638946
        },
        "ad_info": {
            "adcode": 621002,
            "province": "甘肃省",
            "city": "庆阳市",
            "district": "西峰区"
        }
    },
    {
        "id": "14228602679448801412",
        "title": "公共厕所",
        "address": "甘肃省庆阳市西峰区宁县东路与陇东大道交叉口西南方向26米左右",
        "tel": "",
        "category": "基础设施:公共设施:公共厕所",
        "type": 0,
        "location": {
            "lat": 35.688546,
            "lng": 107.660188
        },
        "ad_info": {
            "adcode": 621002,
            "province": "甘肃省",
            "city": "庆阳市",
            "district": "西峰区"
        }
    },
    {
        "id": "16145298766176714590",
        "title": "公共厕所",
        "address": "甘肃省庆阳市西峰区东城锦绣南侧270米",
        "tel": "",
        "category": "基础设施:公共设施:公共厕所",
        "type": 0,
        "location": {
            "lat": 35.710904,
            "lng": 107.669055
        },
        "ad_info": {
            "adcode": 621002,
            "province": "甘肃省",
            "city": "庆阳市",
            "district": "西峰区"
        }
    },
    {
        "id": "18290457487330519254",
        "title": "公共厕所",
        "address": "甘肃省庆阳市正宁县东大街与北环路交叉口西北方向324米左右",
        "tel": "",
        "category": "基础设施:公共设施:公共厕所",
        "type": 0,
        "location": {
            "lat": 35.492213,
            "lng": 108.368958
        },
        "ad_info": {
            "adcode": 621025,
            "province": "甘肃省",
            "city": "庆阳市",
            "district": "正宁县"
        }
    },
    {
        "id": "11054494256205171368",
        "title": "公共厕所",
        "address": "甘肃省庆阳市正宁县南环路与永正路交叉口正西方向86米左右",
        "tel": "",
        "category": "基础设施:公共设施:公共厕所",
        "type": 0,
        "location": {
            "lat": 35.486363,
            "lng": 108.363365
        },
        "ad_info": {
            "adcode": 621025,
            "province": "甘肃省",
            "city": "庆阳市",
            "district": "正宁县"
        }
    },
    {
        "id": "9111286243576156631",
        "title": "公共厕所",
        "address": "甘肃省庆阳市西峰区李岭幼儿园北侧200米",
        "tel": "",
        "category": "基础设施:公共设施:公共厕所",
        "type": 0,
        "location": {
            "lat": 35.682234,
            "lng": 107.799008
        },
        "ad_info": {
            "adcode": 621002,
            "province": "甘肃省",
            "city": "庆阳市",
            "district": "西峰区"
        }
    },
    {
        "id": "1731659798865681202",
        "title": "公共厕所",
        "address": "甘肃省庆阳市西峰区和谐路与幸福路交叉口正西方向158米左右",
        "tel": "",
        "category": "基础设施:公共设施:公共厕所",
        "type": 0,
        "location": {
            "lat": 35.686784,
            "lng": 107.795656
        },
        "ad_info": {
            "adcode": 621002,
            "province": "甘肃省",
            "city": "庆阳市",
            "district": "西峰区"
        }
    },
    {
        "id": "17437306252318749177",
        "title": "公共厕所",
        "address": "甘肃省庆阳市西峰区",
        "tel": "",
        "category": "基础设施:公共设施:公共厕所",
        "type": 0,
        "location": {
            "lat": 35.688736,
            "lng": 107.71244
        },
        "ad_info": {
            "adcode": 621002,
            "province": "甘肃省",
            "city": "庆阳市",
            "district": "西峰区"
        }
    },
    {
        "id": "11587476579459498556",
        "title": "公共厕所",
        "address": "甘肃省庆阳市正宁县兴旺路与南大街交叉口正西方向63米左右",
        "tel": "",
        "category": "基础设施:公共设施:公共厕所",
        "type": 0,
        "location": {
            "lat": 35.488196,
            "lng": 108.361415
        },
        "ad_info": {
            "adcode": 621025,
            "province": "甘肃省",
            "city": "庆阳市",
            "district": "正宁县"
        }
    },
    {
        "id": "17295076713606687015",
        "title": "公共厕所",
        "address": "甘肃省庆阳市西峰区寨子巷与西峰巷交叉口正北方向162米左右",
        "tel": "",
        "category": "基础设施:公共设施:公共厕所",
        "type": 0,
        "location": {
            "lat": 35.739253,
            "lng": 107.64087
        },
        "ad_info": {
            "adcode": 621002,
            "province": "甘肃省",
            "city": "庆阳市",
            "district": "西峰区"
        }
    },
    {
        "id": "8009528319027167980",
        "title": "公共厕所",
        "address": "甘肃省庆阳市西峰区S318与和谐路交叉口东北方向32米左右",
        "tel": "",
        "category": "基础设施:公共设施:公共厕所",
        "type": 0,
        "location": {
            "lat": 35.684392,
            "lng": 107.786877
        },
        "ad_info": {
            "adcode": 621002,
            "province": "甘肃省",
            "city": "庆阳市",
            "district": "西峰区"
        }
    },
    {
        "id": "17393050243594068533",
        "title": "公共厕所",
        "address": "甘肃省庆阳市西峰区北大街与翼龙路交叉口东南方向222米左右",
        "tel": "",
        "category": "基础设施:公共设施:公共厕所",
        "type": 0,
        "location": {
            "lat": 35.754759,
            "lng": 107.633884
        },
        "ad_info": {
            "adcode": 621002,
            "province": "甘肃省",
            "city": "庆阳市",
            "district": "西峰区"
        }
    },
    {
        "id": "4032124835128039130",
        "title": "公共厕所",
        "address": "甘肃省庆阳市正宁县永正初中西侧290米",
        "tel": "",
        "category": "基础设施:公共设施:公共厕所",
        "type": 0,
        "location": {
            "lat": 35.424972,
            "lng": 108.252056
        },
        "ad_info": {
            "adcode": 621025,
            "province": "甘肃省",
            "city": "庆阳市",
            "district": "正宁县"
        }
    },
    {
        "id": "16332579554327833580",
        "title": "公共卫生间",
        "address": "甘肃省庆阳市镇原县原州中路与原州西路交叉口西南方向88米左右",
        "tel": "",
        "category": "基础设施:公共设施:公共厕所",
        "type": 0,
        "location": {
            "lat": 35.678474,
            "lng": 107.194652
        },
        "ad_info": {
            "adcode": 621027,
            "province": "甘肃省",
            "city": "庆阳市",
            "district": "镇原县"
        }
    },
    {
        "id": "2016637681946404188",
        "title": "公共厕所",
        "address": "甘肃省庆阳市正宁县子午岭国家森林公园东北侧280米",
        "tel": "",
        "category": "基础设施:公共设施:公共厕所",
        "type": 0,
        "location": {
            "lat": 35.441983,
            "lng": 108.574222
        },
        "ad_info": {
            "adcode": 621025,
            "province": "甘肃省",
            "city": "庆阳市",
            "district": "正宁县"
        }
    },
    {
        "id": "3041830296427303348",
        "title": "公共厕所",
        "address": "甘肃省庆阳市镇原县南环路与原州东路交叉口正东方向33米左右",
        "tel": "",
        "category": "基础设施:公共设施:公共厕所",
        "type": 0,
        "location": {
            "lat": 35.676331,
            "lng": 107.203667
        },
        "ad_info": {
            "adcode": 621027,
            "province": "甘肃省",
            "city": "庆阳市",
            "district": "镇原县"
        }
    },
    {
        "id": "13299676942198583759",
        "title": "公共厕所",
        "address": "甘肃省庆阳市正宁县303省道北50米",
        "tel": "",
        "category": "基础设施:公共设施:公共厕所",
        "type": 0,
        "location": {
            "lat": 35.417808,
            "lng": 108.505146
        },
        "ad_info": {
            "adcode": 621025,
            "province": "甘肃省",
            "city": "庆阳市",
            "district": "正宁县"
        }
    },
    {
        "id": "7248628952905531350",
        "title": "公共厕所",
        "address": "甘肃省庆阳市庆城县兴庆路与安化路交叉口西北方向302米左右",
        "tel": "",
        "category": "基础设施:公共设施:公共厕所",
        "type": 0,
        "location": {
            "lat": 36.016631,
            "lng": 107.88057
        },
        "ad_info": {
            "adcode": 621021,
            "province": "甘肃省",
            "city": "庆阳市",
            "district": "庆城县"
        }
    },
    {
        "id": "3738038520945935269",
        "title": "东湖公园公共厕所",
        "address": "甘肃省庆阳市西峰区东大街与九龙路交叉口正北方向84米左右",
        "tel": "",
        "category": "基础设施:公共设施:公共厕所",
        "type": 0,
        "location": {
            "lat": 35.736737,
            "lng": 107.649822
        },
        "ad_info": {
            "adcode": 621002,
            "province": "甘肃省",
            "city": "庆阳市",
            "district": "西峰区"
        }
    },
    {
        "id": "2702925095822322197",
        "title": "公共厕所",
        "address": "甘肃省庆阳市庆城县G211与长庆路交叉口西北方向597米左右",
        "tel": "",
        "category": "基础设施:公共设施:公共厕所",
        "type": 0,
        "location": {
            "lat": 36.020624,
            "lng": 107.85459
        },
        "ad_info": {
            "adcode": 621021,
            "province": "甘肃省",
            "city": "庆阳市",
            "district": "庆城县"
        }
    },
    {
        "id": "12370404384694675536",
        "title": "公共厕所",
        "address": "甘肃省庆阳市镇原县南环路与康复巷交叉口西北方向17米左右",
        "tel": "",
        "category": "基础设施:公共设施:公共厕所",
        "type": 0,
        "location": {
            "lat": 35.675485,
            "lng": 107.200307
        },
        "ad_info": {
            "adcode": 621027,
            "province": "甘肃省",
            "city": "庆阳市",
            "district": "镇原县"
        }
    },
    {
        "id": "2039303972383463561",
        "title": "公共厕所",
        "address": "甘肃省庆阳市庆城县皇城路与长庆路交叉口东南方向62米左右",
        "tel": "",
        "category": "基础设施:公共设施:公共厕所",
        "type": 0,
        "location": {
            "lat": 36.007961,
            "lng": 107.88321
        },
        "ad_info": {
            "adcode": 621021,
            "province": "甘肃省",
            "city": "庆阳市",
            "district": "庆城县"
        }
    },
    {
        "id": "16323142063520876990",
        "title": "公共厕所",
        "address": "甘肃省庆阳市西峰区东环南路与南苑路交叉口正东方向88米左右",
        "tel": "",
        "category": "基础设施:公共设施:公共厕所",
        "type": 0,
        "location": {
            "lat": 35.729748,
            "lng": 107.65397
        },
        "ad_info": {
            "adcode": 621002,
            "province": "甘肃省",
            "city": "庆阳市",
            "district": "西峰区"
        }
    },
    {
        "id": "17201111912666717423",
        "title": "公共厕所",
        "address": "甘肃省庆阳市庆城县庆阳路与朝阳路交叉口西北方向24米左右",
        "tel": "",
        "category": "基础设施:公共设施:公共厕所",
        "type": 0,
        "location": {
            "lat": 36.011454,
            "lng": 107.885374
        },
        "ad_info": {
            "adcode": 621021,
            "province": "甘肃省",
            "city": "庆阳市",
            "district": "庆城县"
        }
    },
    {
        "id": "9663874653944244571",
        "title": "公共厕所",
        "address": "甘肃省庆阳市庆城县兴庆路与安化路交叉口正南方向37米左右",
        "tel": "",
        "category": "基础设施:公共设施:公共厕所",
        "type": 0,
        "location": {
            "lat": 36.014234,
            "lng": 107.882571
        },
        "ad_info": {
            "adcode": 621021,
            "province": "甘肃省",
            "city": "庆阳市",
            "district": "庆城县"
        }
    },
    {
        "id": "4669236144587267955",
        "title": "甜水堡服务区公共厕所",
        "address": "甘肃省庆阳市环县G69银百高速与甜水堡服务区交叉口西北420米",
        "tel": "",
        "category": "基础设施:公共设施:公共厕所",
        "type": 0,
        "location": {
            "lat": 37.014418,
            "lng": 106.927206
        },
        "ad_info": {
            "adcode": 621022,
            "province": "甘肃省",
            "city": "庆阳市",
            "district": "环县"
        }
    },
    {
        "id": "14659512270754545173",
        "title": "公共厕所",
        "address": "甘肃省庆阳市庆城县银榕线中国石油加油站(庆城县水务局东北)",
        "tel": "",
        "category": "基础设施:公共设施:公共厕所",
        "type": 0,
        "location": {
            "lat": 35.983227,
            "lng": 107.904318
        },
        "ad_info": {
            "adcode": 621021,
            "province": "甘肃省",
            "city": "庆阳市",
            "district": "庆城县"
        }
    },
    {
        "id": "4484413106353948822",
        "title": "公共厕所",
        "address": "甘肃省庆阳市庆城县驿马镇杨湾村卫生所西北侧60米",
        "tel": "",
        "category": "基础设施:公共设施:公共厕所",
        "type": 0,
        "location": {
            "lat": 35.89016,
            "lng": 107.511491
        },
        "ad_info": {
            "adcode": 621021,
            "province": "甘肃省",
            "city": "庆阳市",
            "district": "庆城县"
        }
    },
    {
        "id": "4799423872849761361",
        "title": "环县服务区公共厕所",
        "address": "甘肃省庆阳市环县银百高速附近",
        "tel": "",
        "category": "基础设施:公共设施:公共厕所",
        "type": 0,
        "location": {
            "lat": 36.613386,
            "lng": 107.25833
        },
        "ad_info": {
            "adcode": 621022,
            "province": "甘肃省",
            "city": "庆阳市",
            "district": "环县"
        }
    },
    {
        "id": "11856442079602528008",
        "title": "庆阳服务区公共厕所",
        "address": "甘肃省庆阳市西峰区彭原镇青兰高速公路庆阳服务区",
        "tel": "",
        "category": "基础设施:公共设施:公共厕所",
        "type": 0,
        "location": {
            "lat": 35.760947,
            "lng": 107.613714
        },
        "ad_info": {
            "adcode": 621002,
            "province": "甘肃省",
            "city": "庆阳市",
            "district": "西峰区"
        }
    },
    {
        "id": "2279341146743004328",
        "title": "正阳国际酒店-洗手间",
        "address": "甘肃省庆阳市西峰区长庆大道27号",
        "tel": "",
        "category": "基础设施:公共设施:公共厕所",
        "type": 0,
        "location": {
            "lat": 35.748452,
            "lng": 107.630125
        },
        "ad_info": {
            "adcode": 621002,
            "province": "甘肃省",
            "city": "庆阳市",
            "district": "西峰区"
        }
    },
    {
        "id": "17273473883574282250",
        "title": "公共厕所",
        "address": "甘肃省庆阳市庆城县G211与文明样板路交叉口东南方向95米左右",
        "tel": "",
        "category": "基础设施:公共设施:公共厕所",
        "type": 0,
        "location": {
            "lat": 35.980947,
            "lng": 107.909929
        },
        "ad_info": {
            "adcode": 621021,
            "province": "甘肃省",
            "city": "庆阳市",
            "district": "庆城县"
        }
    },
    {
        "id": "9471812906236120023",
        "title": "公共厕所管理间",
        "address": "甘肃省庆阳市西峰区华宇路与育才东路交叉口正北方向32米左右",
        "tel": "",
        "category": "基础设施:公共设施:公共厕所",
        "type": 0,
        "location": {
            "lat": 35.724167,
            "lng": 107.647578
        },
        "ad_info": {
            "adcode": 621002,
            "province": "甘肃省",
            "city": "庆阳市",
            "district": "西峰区"
        }
    },
    {
        "id": "7300711948061830586",
        "title": "合水服务区公共厕所",
        "address": "甘肃省庆阳市合水县青兰高速合水服务区",
        "tel": "",
        "category": "基础设施:公共设施:公共厕所",
        "type": 0,
        "location": {
            "lat": 36.089872,
            "lng": 108.594728
        },
        "ad_info": {
            "adcode": 621024,
            "province": "甘肃省",
            "city": "庆阳市",
            "district": "合水县"
        }
    },
    {
        "id": "7284234535865134038",
        "title": "庆阳服务区第一公共厕所",
        "address": "甘肃省庆阳市西峰区青兰高速庆阳服务区",
        "tel": "",
        "category": "基础设施:公共设施:公共厕所",
        "type": 0,
        "location": {
            "lat": 35.761069,
            "lng": 107.611418
        },
        "ad_info": {
            "adcode": 621002,
            "province": "甘肃省",
            "city": "庆阳市",
            "district": "西峰区"
        }
    },
    {
        "id": "14193721771700794697",
        "title": "董志镇冯堡村改厕服务室",
        "address": "甘肃省庆阳市西峰区冯堡村民委员会",
        "tel": "",
        "category": "基础设施:公共设施:公共厕所",
        "type": 0,
        "location": {
            "lat": 35.651872,
            "lng": 107.611531
        },
        "ad_info": {
            "adcode": 621002,
            "province": "甘肃省",
            "city": "庆阳市",
            "district": "西峰区"
        }
    },
    {
        "id": "14301589559945037996",
        "title": "庆阳服务区第二公共厕所",
        "address": "甘肃省庆阳市西峰区庆化大道与西环路交叉口正西方向1048米左右",
        "tel": "",
        "category": "基础设施:公共设施:公共厕所",
        "type": 0,
        "location": {
            "lat": 35.760425,
            "lng": 107.611804
        },
        "ad_info": {
            "adcode": 621002,
            "province": "甘肃省",
            "city": "庆阳市",
            "district": "西峰区"
        }
    },
    {
        "id": "15503534783851614703",
        "title": "庆城西川服务区公共厕所",
        "address": "甘肃省庆阳市庆城县银百高速",
        "tel": "",
        "category": "基础设施:公共设施:公共厕所",
        "type": 0,
        "location": {
            "lat": 36.090776,
            "lng": 107.788324
        },
        "ad_info": {
            "adcode": 621021,
            "province": "甘肃省",
            "city": "庆阳市",
            "district": "庆城县"
        }
    },
    {
        "id": "16654840913993904818",
        "title": "庆城服务区公共厕所",
        "address": "甘肃省庆阳市庆城县银榕线庆城服务区",
        "tel": "",
        "category": "基础设施:公共设施:公共厕所",
        "type": 0,
        "location": {
            "lat": 35.939363,
            "lng": 107.950072
        },
        "ad_info": {
            "adcode": 621021,
            "province": "甘肃省",
            "city": "庆阳市",
            "district": "庆城县"
        }
    },
    {
        "id": "7462256417873400055",
        "title": "庆城西川服务区公共厕所",
        "address": "甘肃省庆阳市庆城县庆城西川服务区西南侧",
        "tel": "",
        "category": "基础设施:公共设施:公共厕所",
        "type": 0,
        "location": {
            "lat": 36.09137,
            "lng": 107.784224
        },
        "ad_info": {
            "adcode": 621021,
            "province": "甘肃省",
            "city": "庆阳市",
            "district": "庆城县"
        }
    },
    {
        "id": "14140043424216766910",
        "title": "公共厕所",
        "address": "甘肃省庆阳市西峰区张三巷与新建巷交叉口正东方向44米左右",
        "tel": "",
        "category": "基础设施:公共设施:公共厕所",
        "type": 0,
        "location": {
            "lat": 35.74049,
            "lng": 107.635806
        },
        "ad_info": {
            "adcode": 621002,
            "province": "甘肃省",
            "city": "庆阳市",
            "district": "西峰区"
        }
    },
    {
        "id": "8593280527857687973",
        "title": "早胜服务区公共厕所",
        "address": "甘肃省庆阳市宁县G69银百高速与早胜服务区交叉口南220米",
        "tel": "",
        "category": "基础设施:公共设施:公共厕所",
        "type": 0,
        "location": {
            "lat": 35.391373,
            "lng": 107.999711
        },
        "ad_info": {
            "adcode": 621026,
            "province": "甘肃省",
            "city": "庆阳市",
            "district": "宁县"
        }
    },
    {
        "id": "5068872924742746326",
        "title": "公共厕所",
        "address": "甘肃省庆阳市镇原县南环路与潜夫街交叉口正南方向50米左右",
        "tel": "",
        "category": "基础设施:公共设施:公共厕所",
        "type": 0,
        "location": {
            "lat": 35.675991,
            "lng": 107.196861
        },
        "ad_info": {
            "adcode": 621027,
            "province": "甘肃省",
            "city": "庆阳市",
            "district": "镇原县"
        }
    },
    {
        "id": "15298877023149574591",
        "title": "公共卫生间",
        "address": "甘肃省庆阳市西峰区荣洋荣公馆东侧60米",
        "tel": "",
        "category": "基础设施:公共设施:公共厕所",
        "type": 0,
        "location": {
            "lat": 35.714309,
            "lng": 107.669892
        },
        "ad_info": {
            "adcode": 621002,
            "province": "甘肃省",
            "city": "庆阳市",
            "district": "西峰区"
        }
    },
    {
        "id": "12732842837047239446",
        "title": "公共厕所",
        "address": "甘肃省庆阳市西峰区翼龙路与长庆大道交叉口正南方向264米左右",
        "tel": "",
        "category": "基础设施:公共设施:公共厕所",
        "type": 0,
        "location": {
            "lat": 35.753665,
            "lng": 107.629994
        },
        "ad_info": {
            "adcode": 621002,
            "province": "甘肃省",
            "city": "庆阳市",
            "district": "西峰区"
        }
    },
    {
        "id": "11852316370497735937",
        "title": "公共厕所",
        "address": "甘肃省庆阳市西峰区北地西路与长庆大道交叉口东北方向236米左右",
        "tel": "",
        "category": "基础设施:公共设施:公共厕所",
        "type": 0,
        "location": {
            "lat": 35.702226,
            "lng": 107.640318
        },
        "ad_info": {
            "adcode": 621002,
            "province": "甘肃省",
            "city": "庆阳市",
            "district": "西峰区"
        }
    },
    {
        "id": "10466053349028314539",
        "title": "公共厕所",
        "address": "甘肃省庆阳市庆城县X016",
        "tel": "",
        "category": "基础设施:公共设施:公共厕所",
        "type": 0,
        "location": {
            "lat": 35.827375,
            "lng": 107.816605
        },
        "ad_info": {
            "adcode": 621021,
            "province": "甘肃省",
            "city": "庆阳市",
            "district": "庆城县"
        }
    },
    {
        "id": "18238804932455028070",
        "title": "华池服务区公共厕所",
        "address": "甘肃省庆阳市华池县X017与Y019交叉口正东方向857米左右",
        "tel": "",
        "category": "基础设施:公共设施:公共厕所",
        "type": 0,
        "location": {
            "lat": 36.275773,
            "lng": 107.907664
        },
        "ad_info": {
            "adcode": 621023,
            "province": "甘肃省",
            "city": "庆阳市",
            "district": "华池县"
        }
    },
    {
        "id": "14240026267187567391",
        "title": "合水西服务区公共厕所",
        "address": "甘肃省庆阳市合水县G69银百高速与合水西服务区交叉口北480米",
        "tel": "",
        "category": "基础设施:公共设施:公共厕所",
        "type": 0,
        "location": {
            "lat": 35.869229,
            "lng": 107.918425
        },
        "ad_info": {
            "adcode": 621024,
            "province": "甘肃省",
            "city": "庆阳市",
            "district": "合水县"
        }
    },
    {
        "id": "16301446932237532139",
        "title": "公共厕所",
        "address": "甘肃省庆阳市华池县林镇学区西北侧150米",
        "tel": "",
        "category": "基础设施:公共设施:公共厕所",
        "type": 0,
        "location": {
            "lat": 36.315187,
            "lng": 108.382481
        },
        "ad_info": {
            "adcode": 621023,
            "province": "甘肃省",
            "city": "庆阳市",
            "district": "华池县"
        }
    },
    {
        "id": "11188233853424681502",
        "title": "公共厕所",
        "address": "甘肃省庆阳市西峰区朔州东路与陇东大道交叉口正南方向474米左右",
        "tel": "",
        "category": "基础设施:公共设施:公共厕所",
        "type": 0,
        "location": {
            "lat": 35.701561,
            "lng": 107.658385
        },
        "ad_info": {
            "adcode": 621002,
            "province": "甘肃省",
            "city": "庆阳市",
            "district": "西峰区"
        }
    },
    {
        "id": "4924922849042194530",
        "title": "公共厕所",
        "address": "甘肃省庆阳市正宁县商业街与西大街交叉口正北方向142米左右",
        "tel": "",
        "category": "基础设施:公共设施:公共厕所",
        "type": 0,
        "location": {
            "lat": 35.492769,
            "lng": 108.360384
        },
        "ad_info": {
            "adcode": 621025,
            "province": "甘肃省",
            "city": "庆阳市",
            "district": "正宁县"
        }
    },
    {
        "id": "4829112346360347993",
        "title": "公共厕所",
        "address": "甘肃省庆阳市西峰区石油东路11号",
        "tel": "",
        "category": "基础设施:公共设施:公共厕所",
        "type": 0,
        "location": {
            "lat": 35.685205,
            "lng": 107.667472
        },
        "ad_info": {
            "adcode": 621002,
            "province": "甘肃省",
            "city": "庆阳市",
            "district": "西峰区"
        }
    },
    {
        "id": "7774085760427714430",
        "title": "宁县服务区公共厕所",
        "address": "甘肃省庆阳市宁县G69银百高速与宁县服务区交叉口西南460米",
        "tel": "",
        "category": "基础设施:公共设施:公共厕所",
        "type": 0,
        "location": {
            "lat": 35.572328,
            "lng": 107.957884
        },
        "ad_info": {
            "adcode": 621026,
            "province": "甘肃省",
            "city": "庆阳市",
            "district": "宁县"
        }
    },
    {
        "id": "1259835216941994439",
        "title": "公共厕所",
        "address": "甘肃省庆阳市宁县宁州大道2号",
        "tel": "",
        "category": "基础设施:公共设施:公共厕所",
        "type": 0,
        "location": {
            "lat": 35.506408,
            "lng": 107.911559
        },
        "ad_info": {
            "adcode": 621026,
            "province": "甘肃省",
            "city": "庆阳市",
            "district": "宁县"
        }
    },
    {
        "id": "633338174437692931",
        "title": "公共厕所",
        "address": "甘肃省庆阳市华池县吴平高速与太华公路交叉口正西方向811米左右",
        "tel": "",
        "category": "基础设施:公共设施:公共厕所",
        "type": 0,
        "location": {
            "lat": 36.408175,
            "lng": 107.988668
        },
        "ad_info": {
            "adcode": 621023,
            "province": "甘肃省",
            "city": "庆阳市",
            "district": "华池县"
        }
    },
    {
        "id": "17390226661784471329",
        "title": "公共卫生间",
        "address": "甘肃省庆阳市镇原县南茹河中路与潜夫步行街交叉口正西方向71米左右",
        "tel": "",
        "category": "基础设施:公共设施:公共厕所",
        "type": 0,
        "location": {
            "lat": 35.673215,
            "lng": 107.195786
        },
        "ad_info": {
            "adcode": 621027,
            "province": "甘肃省",
            "city": "庆阳市",
            "district": "镇原县"
        }
    },
    {
        "id": "7657068412598442875",
        "title": "公共厕所",
        "address": "甘肃省庆阳市宁县马莲路17号",
        "tel": "",
        "category": "基础设施:公共设施:公共厕所",
        "type": 0,
        "location": {
            "lat": 35.508945,
            "lng": 107.917069
        },
        "ad_info": {
            "adcode": 621026,
            "province": "甘肃省",
            "city": "庆阳市",
            "district": "宁县"
        }
    },
    {
        "id": "8779550088684090430",
        "title": "公共厕所",
        "address": "甘肃省庆阳市西峰区兰州路与北京大道交叉口西北方向227米左右",
        "tel": "",
        "category": "基础设施:公共设施:公共厕所",
        "type": 0,
        "location": {
            "lat": 35.722695,
            "lng": 107.659366
        },
        "ad_info": {
            "adcode": 621002,
            "province": "甘肃省",
            "city": "庆阳市",
            "district": "西峰区"
        }
    },
    {
        "id": "5158387048205039948",
        "title": "无障碍公共厕所",
        "address": "甘肃省庆阳市西峰区北地东路与北地西路交叉口正东方向449米左右",
        "tel": "",
        "category": "基础设施:公共设施:公共厕所",
        "type": 0,
        "location": {
            "lat": 35.702445,
            "lng": 107.652079
        },
        "ad_info": {
            "adcode": 621002,
            "province": "甘肃省",
            "city": "庆阳市",
            "district": "西峰区"
        }
    },
    {
        "id": "8033529499631804982",
        "title": "无障碍公共厕所",
        "address": "甘肃省庆阳市西峰区兰州路与北京大道交叉口正东方向221米左右",
        "tel": "",
        "category": "基础设施:公共设施:公共厕所",
        "type": 0,
        "location": {
            "lat": 35.721239,
            "lng": 107.663526
        },
        "ad_info": {
            "adcode": 621002,
            "province": "甘肃省",
            "city": "庆阳市",
            "district": "西峰区"
        }
    },
    {
        "id": "6998014787114468362",
        "title": "公共厕所",
        "address": "甘肃省庆阳市西峰区北京大道与秦直东路交叉口东南方向118米左右",
        "tel": "",
        "category": "基础设施:公共设施:公共厕所",
        "type": 0,
        "location": {
            "lat": 35.718647,
            "lng": 107.661505
        },
        "ad_info": {
            "adcode": 621002,
            "province": "甘肃省",
            "city": "庆阳市",
            "district": "西峰区"
        }
    },
    {
        "id": "17670287541634253364",
        "title": "公共厕所",
        "address": "甘肃省庆阳市西峰区北大街与古象东路交叉口正东方向85米左右",
        "tel": "",
        "category": "基础设施:公共设施:公共厕所",
        "type": 0,
        "location": {
            "lat": 35.749735,
            "lng": 107.638621
        },
        "ad_info": {
            "adcode": 621002,
            "province": "甘肃省",
            "city": "庆阳市",
            "district": "西峰区"
        }
    },
    {
        "id": "17018817116342914404",
        "title": "公共厕所",
        "address": "甘肃省庆阳市庆城县G211与夏熊公路交叉口正东方向508米左右",
        "tel": "",
        "category": "基础设施:公共设施:公共厕所",
        "type": 0,
        "location": {
            "lat": 35.901979,
            "lng": 107.663307
        },
        "ad_info": {
            "adcode": 621021,
            "province": "甘肃省",
            "city": "庆阳市",
            "district": "庆城县"
        }
    },
    {
        "id": "15567251119947119648",
        "title": "公共厕所",
        "address": "甘肃省庆阳市华池县S317与柔东公路交叉口正东方向182米左右",
        "tel": "",
        "category": "基础设施:公共设施:公共厕所",
        "type": 0,
        "location": {
            "lat": 36.458332,
            "lng": 108.006547
        },
        "ad_info": {
            "adcode": 621023,
            "province": "甘肃省",
            "city": "庆阳市",
            "district": "华池县"
        }
    },
    {
        "id": "16508361814691964202",
        "title": "华池服务区公共厕所",
        "address": "甘肃省庆阳市华池县X017与Y019交叉口正东方向604米左右",
        "tel": "",
        "category": "基础设施:公共设施:公共厕所",
        "type": 0,
        "location": {
            "lat": 36.277021,
            "lng": 107.904995
        },
        "ad_info": {
            "adcode": 621023,
            "province": "甘肃省",
            "city": "庆阳市",
            "district": "华池县"
        }
    },
    {
        "id": "17422272287699566092",
        "title": "环县服务区公共厕所",
        "address": "甘肃省庆阳市环县环县服务区西侧",
        "tel": "",
        "category": "基础设施:公共设施:公共厕所",
        "type": 0,
        "location": {
            "lat": 36.612923,
            "lng": 107.255549
        },
        "ad_info": {
            "adcode": 621022,
            "province": "甘肃省",
            "city": "庆阳市",
            "district": "环县"
        }
    },
    {
        "id": "1638822311432423459",
        "title": "合水西服务区公共厕所",
        "address": "甘肃省庆阳市合水县中国石化公航旅集团合水西服务区加油站西侧110米",
        "tel": "",
        "category": "基础设施:公共设施:公共厕所",
        "type": 0,
        "location": {
            "lat": 35.868634,
            "lng": 107.91576
        },
        "ad_info": {
            "adcode": 621024,
            "province": "甘肃省",
            "city": "庆阳市",
            "district": "合水县"
        }
    },
    {
        "id": "13156064099383786012",
        "title": "公共厕所",
        "address": "甘肃省庆阳市环县G211附近",
        "tel": "",
        "category": "基础设施:公共设施:公共厕所",
        "type": 0,
        "location": {
            "lat": 36.514919,
            "lng": 107.37494
        },
        "ad_info": {
            "adcode": 621022,
            "province": "甘肃省",
            "city": "庆阳市",
            "district": "环县"
        }
    },
    {
        "id": "12594675181645266401",
        "title": "思明南路公厕",
        "address": "甘肃省庆阳市宁县轩和佳苑东南(宁州三路西)",
        "tel": "",
        "category": "基础设施:公共设施:公共厕所",
        "type": 0,
        "location": {
            "lat": 35.512233,
            "lng": 107.909719
        },
        "ad_info": {
            "adcode": 621026,
            "province": "甘肃省",
            "city": "庆阳市",
            "district": "宁县"
        }
    },
    {
        "id": "14784042050718116473",
        "title": "职中坡公厕",
        "address": "甘肃省庆阳市宁县宁县职业中等专业学校东南(G211东)",
        "tel": "",
        "category": "基础设施:公共设施:公共厕所",
        "type": 0,
        "location": {
            "lat": 35.510169,
            "lng": 107.923683
        },
        "ad_info": {
            "adcode": 621026,
            "province": "甘肃省",
            "city": "庆阳市",
            "district": "宁县"
        }
    },
    {
        "id": "203530144675744359",
        "title": "公共厕所",
        "address": "甘肃省庆阳市庆城县安宁路与长庆路交叉口西北方向270米左右",
        "tel": "",
        "category": "基础设施:公共设施:公共厕所",
        "type": 0,
        "location": {
            "lat": 36.011021,
            "lng": 107.878795
        },
        "ad_info": {
            "adcode": 621021,
            "province": "甘肃省",
            "city": "庆阳市",
            "district": "庆城县"
        }
    },
    {
        "id": "8074098076913793590",
        "title": "公共厕所",
        "address": "甘肃省庆阳市西峰区庆阳南互通与青兰高速交叉口东北方向510米左右",
        "tel": "",
        "category": "基础设施:公共设施:公共厕所",
        "type": 0,
        "location": {
            "lat": 35.677879,
            "lng": 107.637745
        },
        "ad_info": {
            "adcode": 621002,
            "province": "甘肃省",
            "city": "庆阳市",
            "district": "西峰区"
        }
    },
    {
        "id": "13361993739664771733",
        "title": "卫生厕所服务站",
        "address": "甘肃省庆阳市正宁县人社业务服务窗口(下南村党群服务中心)西侧",
        "tel": "",
        "category": "基础设施:公共设施:公共厕所",
        "type": 0,
        "location": {
            "lat": 35.293445,
            "lng": 108.240335
        },
        "ad_info": {
            "adcode": 621025,
            "province": "甘肃省",
            "city": "庆阳市",
            "district": "正宁县"
        }
    },
    {
        "id": "12014607639044871757",
        "title": "公共厕所",
        "address": "甘肃省庆阳市环县烈士沟巷与环州北路交叉口东北方向93米左右",
        "tel": "",
        "category": "基础设施:公共设施:公共厕所",
        "type": 0,
        "location": {
            "lat": 36.569257,
            "lng": 107.310859
        },
        "ad_info": {
            "adcode": 621022,
            "province": "甘肃省",
            "city": "庆阳市",
            "district": "环县"
        }
    },
    {
        "id": "16812634600493429820",
        "title": "公共厕所",
        "address": "甘肃省庆阳市镇原县三岔中学东南侧170米",
        "tel": "",
        "category": "基础设施:公共设施:公共厕所",
        "type": 0,
        "location": {
            "lat": 36.049567,
            "lng": 107.054677
        },
        "ad_info": {
            "adcode": 621027,
            "province": "甘肃省",
            "city": "庆阳市",
            "district": "镇原县"
        }
    },
    {
        "id": "16572975126440497391",
        "title": "公共厕所",
        "address": "甘肃省庆阳市西峰区董志村众裕队居民小区北侧210米",
        "tel": "",
        "category": "基础设施:公共设施:公共厕所",
        "type": 0,
        "location": {
            "lat": 35.677015,
            "lng": 107.646623
        },
        "ad_info": {
            "adcode": 621002,
            "province": "甘肃省",
            "city": "庆阳市",
            "district": "西峰区"
        }
    },
    {
        "id": "14855834123456145625",
        "title": "公共厕所",
        "address": "甘肃省庆阳市合水县子午大道与永宁东路交叉口正南方向321米左右",
        "tel": "",
        "category": "基础设施:公共设施:公共厕所",
        "type": 0,
        "location": {
            "lat": 35.809376,
            "lng": 108.018386
        },
        "ad_info": {
            "adcode": 621024,
            "province": "甘肃省",
            "city": "庆阳市",
            "district": "合水县"
        }
    },
    {
        "id": "9821471878686812505",
        "title": "早胜服务区公共厕所",
        "address": "甘肃省庆阳市宁县G69银百高速与早胜服务区交叉口东南360米",
        "tel": "",
        "category": "基础设施:公共设施:公共厕所",
        "type": 0,
        "location": {
            "lat": 35.391024,
            "lng": 108.002647
        },
        "ad_info": {
            "adcode": 621026,
            "province": "甘肃省",
            "city": "庆阳市",
            "district": "宁县"
        }
    },
    {
        "id": "9165569667225147080",
        "title": "无障碍公共厕所",
        "address": "甘肃省庆阳市西峰区九龙路与秦霸岭东路交叉口正东方向207米左右",
        "tel": "",
        "category": "基础设施:公共设施:公共厕所",
        "type": 0,
        "location": {
            "lat": 35.722958,
            "lng": 107.65592
        },
        "ad_info": {
            "adcode": 621002,
            "province": "甘肃省",
            "city": "庆阳市",
            "district": "西峰区"
        }
    },
    {
        "id": "14136329208717723488",
        "title": "公共厕所",
        "address": "甘肃省庆阳市镇原县中原初级中学东北侧90米",
        "tel": "",
        "category": "基础设施:公共设施:公共厕所",
        "type": 0,
        "location": {
            "lat": 35.523453,
            "lng": 107.104833
        },
        "ad_info": {
            "adcode": 621027,
            "province": "甘肃省",
            "city": "庆阳市",
            "district": "镇原县"
        }
    },
    {
        "id": "1145239805817383688",
        "title": "无障碍公共厕所",
        "address": "甘肃省庆阳市西峰区华池西路与岐黄大道交叉口正西方向303米左右",
        "tel": "",
        "category": "基础设施:公共设施:公共厕所",
        "type": 0,
        "location": {
            "lat": 35.696957,
            "lng": 107.644893
        },
        "ad_info": {
            "adcode": 621002,
            "province": "甘肃省",
            "city": "庆阳市",
            "district": "西峰区"
        }
    },
    {
        "id": "3437936309151111855",
        "title": "公共厕所",
        "address": "甘肃省庆阳市环县",
        "tel": "",
        "category": "基础设施:公共设施:公共厕所",
        "type": 0,
        "location": {
            "lat": 36.513978,
            "lng": 107.373694
        },
        "ad_info": {
            "adcode": 621022,
            "province": "甘肃省",
            "city": "庆阳市",
            "district": "环县"
        }
    },
    {
        "id": "4848188285145089385",
        "title": "公共卫生间(GS-QY-0326)",
        "address": "甘肃省庆阳市正宁县南环路与长乐路交叉口东南方向30米左右",
        "tel": "",
        "category": "基础设施:公共设施:公共厕所",
        "type": 0,
        "location": {
            "lat": 35.486794,
            "lng": 108.357289
        },
        "ad_info": {
            "adcode": 621025,
            "province": "甘肃省",
            "city": "庆阳市",
            "district": "正宁县"
        }
    },
    {
        "id": "15418155696707815226",
        "title": "公共厕所",
        "address": "甘肃省庆阳市西峰区公刘路与兰州路交叉口正北方向216米左右",
        "tel": "",
        "category": "基础设施:公共设施:公共厕所",
        "type": 0,
        "location": {
            "lat": 35.725065,
            "lng": 107.673576
        },
        "ad_info": {
            "adcode": 621002,
            "province": "甘肃省",
            "city": "庆阳市",
            "district": "西峰区"
        }
    },
    {
        "id": "5578817776544648792",
        "title": "公共厕所",
        "address": "甘肃省庆阳市西峰区弘化西路与长庆大道交叉口西南方向67米左右",
        "tel": "",
        "category": "基础设施:公共设施:公共厕所",
        "type": 0,
        "location": {
            "lat": 35.705329,
            "lng": 107.636774
        },
        "ad_info": {
            "adcode": 621002,
            "province": "甘肃省",
            "city": "庆阳市",
            "district": "西峰区"
        }
    },
    {
        "id": "9020044318956553739",
        "title": "公共厕所",
        "address": "甘肃省庆阳市西峰区朔州东路与陇东大道交叉口正北方向263米左右",
        "tel": "",
        "category": "基础设施:公共设施:公共厕所",
        "type": 0,
        "location": {
            "lat": 35.708086,
            "lng": 107.657503
        },
        "ad_info": {
            "adcode": 621002,
            "province": "甘肃省",
            "city": "庆阳市",
            "district": "西峰区"
        }
    },
    {
        "id": "13917913457498152417",
        "title": "公共厕所",
        "address": "甘肃省庆阳市西峰区北地东路与北地西路交叉口正东方向247米左右",
        "tel": "",
        "category": "基础设施:公共设施:公共厕所",
        "type": 0,
        "location": {
            "lat": 35.702209,
            "lng": 107.649864
        },
        "ad_info": {
            "adcode": 621002,
            "province": "甘肃省",
            "city": "庆阳市",
            "district": "西峰区"
        }
    },
    {
        "id": "14987779257074982232",
        "title": "公共厕所",
        "address": "甘肃省庆阳市镇原县南茹河中路与潜夫步行街交叉口正南方向44米左右",
        "tel": "",
        "category": "基础设施:公共设施:公共厕所",
        "type": 0,
        "location": {
            "lat": 35.673041,
            "lng": 107.196586
        },
        "ad_info": {
            "adcode": 621027,
            "province": "甘肃省",
            "city": "庆阳市",
            "district": "镇原县"
        }
    },
    {
        "id": "821761931143577294",
        "title": "公共厕所",
        "address": "甘肃省庆阳市西峰区宁县东路与陇东大道交叉口西南方向71米左右",
        "tel": "",
        "category": "基础设施:公共设施:公共厕所",
        "type": 0,
        "location": {
            "lat": 35.688434,
            "lng": 107.659686
        },
        "ad_info": {
            "adcode": 621002,
            "province": "甘肃省",
            "city": "庆阳市",
            "district": "西峰区"
        }
    },
    {
        "id": "1763121213090491532",
        "title": "公共卫生间",
        "address": "甘肃省庆阳市西峰区东湖公园",
        "tel": "",
        "category": "基础设施:公共设施:公共厕所",
        "type": 0,
        "location": {
            "lat": 35.736803,
            "lng": 107.655253
        },
        "ad_info": {
            "adcode": 621002,
            "province": "甘肃省",
            "city": "庆阳市",
            "district": "西峰区"
        }
    },
    {
        "id": "1604691862671689540",
        "title": "公共厕所",
        "address": "甘肃省庆阳市西峰区殡仪馆西侧80米",
        "tel": "",
        "category": "基础设施:公共设施:公共厕所",
        "type": 0,
        "location": {
            "lat": 35.752677,
            "lng": 107.659294
        },
        "ad_info": {
            "adcode": 621002,
            "province": "甘肃省",
            "city": "庆阳市",
            "district": "西峰区"
        }
    },
    {
        "id": "11858831837097158635",
        "title": "公共厕所",
        "address": "甘肃省庆阳市环县华强商业步行街与康居路交叉口正东方向47米左右",
        "tel": "",
        "category": "基础设施:公共设施:公共厕所",
        "type": 0,
        "location": {
            "lat": 36.570578,
            "lng": 107.306201
        },
        "ad_info": {
            "adcode": 621022,
            "province": "甘肃省",
            "city": "庆阳市",
            "district": "环县"
        }
    },
    {
        "id": "15413217767513820896",
        "title": "公共厕所",
        "address": "甘肃省庆阳市庆城县G244与S202交叉口正西方向30米",
        "tel": "",
        "category": "基础设施:公共设施:公共厕所",
        "type": 0,
        "location": {
            "lat": 36.152098,
            "lng": 107.912461
        },
        "ad_info": {
            "adcode": 621021,
            "province": "甘肃省",
            "city": "庆阳市",
            "district": "庆城县"
        }
    },
    {
        "id": "9480032749600983880",
        "title": "公共厕所",
        "address": "甘肃省庆阳市西峰区公刘路与兰州路交叉口正东方向129米左右",
        "tel": "",
        "category": "基础设施:公共设施:公共厕所",
        "type": 0,
        "location": {
            "lat": 35.723079,
            "lng": 107.674489
        },
        "ad_info": {
            "adcode": 621002,
            "province": "甘肃省",
            "city": "庆阳市",
            "district": "西峰区"
        }
    },
    {
        "id": "13041996610487212346",
        "title": "公共厕所",
        "address": "甘肃省庆阳市镇原县兴文巷与原州中路交叉口正东方向61米左右",
        "tel": "",
        "category": "基础设施:公共设施:公共厕所",
        "type": 0,
        "location": {
            "lat": 35.677951,
            "lng": 107.198537
        },
        "ad_info": {
            "adcode": 621027,
            "province": "甘肃省",
            "city": "庆阳市",
            "district": "镇原县"
        }
    },
    {
        "id": "7123249950295753553",
        "title": "公共厕所",
        "address": "甘肃省庆阳市华池县202省道西50米",
        "tel": "",
        "category": "基础设施:公共设施:公共厕所",
        "type": 0,
        "location": {
            "lat": 36.360518,
            "lng": 107.913329
        },
        "ad_info": {
            "adcode": 621023,
            "province": "甘肃省",
            "city": "庆阳市",
            "district": "华池县"
        }
    },
    {
        "id": "717018360960687726",
        "title": "公共厕所",
        "address": "甘肃省庆阳市正宁县东大街与北大街交叉口正南方向106米左右",
        "tel": "",
        "category": "基础设施:公共设施:公共厕所",
        "type": 0,
        "location": {
            "lat": 35.490218,
            "lng": 108.362737
        },
        "ad_info": {
            "adcode": 621025,
            "province": "甘肃省",
            "city": "庆阳市",
            "district": "正宁县"
        }
    },
    {
        "id": "8269941748310113379",
        "title": "公共厕所",
        "address": "甘肃省庆阳市西峰区古象西路与庆化大道交叉口东北方向44米左右",
        "tel": "",
        "category": "基础设施:公共设施:公共厕所",
        "type": 0,
        "location": {
            "lat": 35.748646,
            "lng": 107.625145
        },
        "ad_info": {
            "adcode": 621002,
            "province": "甘肃省",
            "city": "庆阳市",
            "district": "西峰区"
        }
    },
    {
        "id": "17362309276767691213",
        "title": "公共厕所",
        "address": "甘肃省庆阳市西峰区北京大道与朔州东路交叉口西南方向398米左右",
        "tel": "",
        "category": "基础设施:公共设施:公共厕所",
        "type": 0,
        "location": {
            "lat": 35.703577,
            "lng": 107.661017
        },
        "ad_info": {
            "adcode": 621002,
            "province": "甘肃省",
            "city": "庆阳市",
            "district": "西峰区"
        }
    },
    {
        "id": "2764020172922252688",
        "title": "公共厕所",
        "address": "甘肃省庆阳市环县银榕线中国石化五里桥加油站",
        "tel": "",
        "category": "基础设施:公共设施:公共厕所",
        "type": 0,
        "location": {
            "lat": 36.275534,
            "lng": 107.536929
        },
        "ad_info": {
            "adcode": 621022,
            "province": "甘肃省",
            "city": "庆阳市",
            "district": "环县"
        }
    },
    {
        "id": "3450192210758286140",
        "title": "公共厕所",
        "address": "甘肃省庆阳市环县文化路与环江大道交叉口正东方向39米左右",
        "tel": "",
        "category": "基础设施:公共设施:公共厕所",
        "type": 0,
        "location": {
            "lat": 36.565001,
            "lng": 107.309366
        },
        "ad_info": {
            "adcode": 621022,
            "province": "甘肃省",
            "city": "庆阳市",
            "district": "环县"
        }
    },
    {
        "id": "15508683283602486142",
        "title": "公共厕所",
        "address": "甘肃省庆阳市西峰区南大街与炮台巷交叉口正东方向73米左右",
        "tel": "",
        "category": "基础设施:公共设施:公共厕所",
        "type": 0,
        "location": {
            "lat": 35.732305,
            "lng": 107.643503
        },
        "ad_info": {
            "adcode": 621002,
            "province": "甘肃省",
            "city": "庆阳市",
            "district": "西峰区"
        }
    },
    {
        "id": "102210041124269046",
        "title": "公共厕所",
        "address": "甘肃省庆阳市合水县人民路与古象西路交叉口东南方向473米左右",
        "tel": "",
        "category": "基础设施:公共设施:公共厕所",
        "type": 0,
        "location": {
            "lat": 35.831148,
            "lng": 108.027371
        },
        "ad_info": {
            "adcode": 621024,
            "province": "甘肃省",
            "city": "庆阳市",
            "district": "合水县"
        }
    },
    {
        "id": "3958995550497648628",
        "title": "公共厕所",
        "address": "甘肃省庆阳市西峰区图书馆肖金镇分馆南侧100米",
        "tel": "",
        "category": "基础设施:公共设施:公共厕所",
        "type": 0,
        "location": {
            "lat": 35.583876,
            "lng": 107.651777
        },
        "ad_info": {
            "adcode": 621002,
            "province": "甘肃省",
            "city": "庆阳市",
            "district": "西峰区"
        }
    },
    {
        "id": "13190511467023532830",
        "title": "公共厕所",
        "address": "甘肃省庆阳市西峰区岐黄大道与弘化西路交叉口正北方向173米左右",
        "tel": "",
        "category": "基础设施:公共设施:公共厕所",
        "type": 0,
        "location": {
            "lat": 35.708313,
            "lng": 107.646396
        },
        "ad_info": {
            "adcode": 621002,
            "province": "甘肃省",
            "city": "庆阳市",
            "district": "西峰区"
        }
    },
    {
        "id": "1477691716140391124",
        "title": "公共厕所",
        "address": "甘肃省庆阳市西峰区安化西路与马莲河大道交叉口西南方向54米左右",
        "tel": "",
        "category": "基础设施:公共设施:公共厕所",
        "type": 0,
        "location": {
            "lat": 35.71057,
            "lng": 107.64057
        },
        "ad_info": {
            "adcode": 621002,
            "province": "甘肃省",
            "city": "庆阳市",
            "district": "西峰区"
        }
    },
    {
        "id": "8563657574432343280",
        "title": "公共厕所",
        "address": "甘肃省庆阳市环县兴隆路与滨河路交叉口东南方向313米左右",
        "tel": "",
        "category": "基础设施:公共设施:公共厕所",
        "type": 0,
        "location": {
            "lat": 36.567393,
            "lng": 107.300586
        },
        "ad_info": {
            "adcode": 621022,
            "province": "甘肃省",
            "city": "庆阳市",
            "district": "环县"
        }
    },
    {
        "id": "12489949259038305268",
        "title": "公共厕所",
        "address": "甘肃省庆阳市西峰区九龙路与康寿路交叉口正东方向182米左右",
        "tel": "",
        "category": "基础设施:公共设施:公共厕所",
        "type": 0,
        "location": {
            "lat": 35.747972,
            "lng": 107.648187
        },
        "ad_info": {
            "adcode": 621002,
            "province": "甘肃省",
            "city": "庆阳市",
            "district": "西峰区"
        }
    },
    {
        "id": "14026846363620147441",
        "title": "公共厕所",
        "address": "甘肃省庆阳市西峰区北大街58号",
        "tel": "",
        "category": "基础设施:公共设施:公共厕所",
        "type": 0,
        "location": {
            "lat": 35.745969,
            "lng": 107.639923
        },
        "ad_info": {
            "adcode": 621002,
            "province": "甘肃省",
            "city": "庆阳市",
            "district": "西峰区"
        }
    },
    {
        "id": "9281167152934368796",
        "title": "显胜文化广场公共厕所2",
        "address": "甘肃省庆阳市西峰区显胜乡显胜村文化广场",
        "tel": "",
        "category": "基础设施:公共设施:公共厕所",
        "type": 0,
        "location": {
            "lat": 35.495045,
            "lng": 107.666915
        },
        "ad_info": {
            "adcode": 621002,
            "province": "甘肃省",
            "city": "庆阳市",
            "district": "西峰区"
        }
    },
    {
        "id": "2283242663897256887",
        "title": "甜水堡服务区公共厕所",
        "address": "甘肃省庆阳市环县甜水堡服务区与G69银百高速交叉口南380米",
        "tel": "",
        "category": "基础设施:公共设施:公共厕所",
        "type": 0,
        "location": {
            "lat": 37.013621,
            "lng": 106.923192
        },
        "ad_info": {
            "adcode": 621022,
            "province": "甘肃省",
            "city": "庆阳市",
            "district": "环县"
        }
    },
    {
        "id": "3048823253134781612",
        "title": "公共厕所",
        "address": "甘肃省庆阳市环县中国石油环县环城加油站西侧",
        "tel": "",
        "category": "基础设施:公共设施:公共厕所",
        "type": 0,
        "location": {
            "lat": 36.541486,
            "lng": 107.33025
        },
        "ad_info": {
            "adcode": 621022,
            "province": "甘肃省",
            "city": "庆阳市",
            "district": "环县"
        }
    },
    {
        "id": "12934823130970426897",
        "title": "公共厕所",
        "address": "甘肃省庆阳市庆城县共和村卫生室东南侧",
        "tel": "",
        "category": "基础设施:公共设施:公共厕所",
        "type": 0,
        "location": {
            "lat": 36.175416,
            "lng": 107.586451
        },
        "ad_info": {
            "adcode": 621021,
            "province": "甘肃省",
            "city": "庆阳市",
            "district": "庆城县"
        }
    },
    {
        "id": "16790891439766813244",
        "title": "公共厕所",
        "address": "甘肃省庆阳市环县G211与南环路交叉口东南方向1301米左右",
        "tel": "",
        "category": "基础设施:公共设施:公共厕所",
        "type": 0,
        "location": {
            "lat": 36.546814,
            "lng": 107.327996
        },
        "ad_info": {
            "adcode": 621022,
            "province": "甘肃省",
            "city": "庆阳市",
            "district": "环县"
        }
    },
    {
        "id": "5784391311475472288",
        "title": "公共厕所",
        "address": "甘肃省庆阳市合水县309国道东50米",
        "tel": "",
        "category": "基础设施:公共设施:公共厕所",
        "type": 0,
        "location": {
            "lat": 35.972701,
            "lng": 108.09661
        },
        "ad_info": {
            "adcode": 621024,
            "province": "甘肃省",
            "city": "庆阳市",
            "district": "合水县"
        }
    },
    {
        "id": "12315253604533541448",
        "title": "公共厕所",
        "address": "甘肃省庆阳市合水县子午大道辅路与西华北街辅路交叉口正南方向87米左右",
        "tel": "",
        "category": "基础设施:公共设施:公共厕所",
        "type": 0,
        "location": {
            "lat": 35.828503,
            "lng": 108.02159
        },
        "ad_info": {
            "adcode": 621024,
            "province": "甘肃省",
            "city": "庆阳市",
            "district": "合水县"
        }
    },
    {
        "id": "999176115216620001",
        "title": "公共厕所",
        "address": "甘肃省庆阳市合水县G211与S318交叉口正南方向103米左右",
        "tel": "",
        "category": "基础设施:公共设施:公共厕所",
        "type": 0,
        "location": {
            "lat": 35.693121,
            "lng": 107.973677
        },
        "ad_info": {
            "adcode": 621024,
            "province": "甘肃省",
            "city": "庆阳市",
            "district": "合水县"
        }
    },
    {
        "id": "15333014035779298724",
        "title": "公共厕所",
        "address": "甘肃省庆阳市环县G211与二车公路交叉口东南方向1084米左右",
        "tel": "",
        "category": "基础设施:公共设施:公共厕所",
        "type": 0,
        "location": {
            "lat": 36.633603,
            "lng": 107.238846
        },
        "ad_info": {
            "adcode": 621022,
            "province": "甘肃省",
            "city": "庆阳市",
            "district": "环县"
        }
    },
    {
        "id": "2685266052210516741",
        "title": "公共厕所",
        "address": "甘肃省庆阳市正宁县南环路与长乐路交叉口东南方向31米左右",
        "tel": "",
        "category": "基础设施:公共设施:公共厕所",
        "type": 0,
        "location": {
            "lat": 35.48684,
            "lng": 108.35735
        },
        "ad_info": {
            "adcode": 621025,
            "province": "甘肃省",
            "city": "庆阳市",
            "district": "正宁县"
        }
    },
    {
        "id": "16749187874414765935",
        "title": "公共厕所",
        "address": "甘肃省庆阳市西峰区安化东路与安化西路交叉口西北方向65米左右",
        "tel": "",
        "category": "基础设施:公共设施:公共厕所",
        "type": 0,
        "location": {
            "lat": 35.711864,
            "lng": 107.644637
        },
        "ad_info": {
            "adcode": 621002,
            "province": "甘肃省",
            "city": "庆阳市",
            "district": "西峰区"
        }
    },
    {
        "id": "3450192210758286140",
        "title": "公共厕所",
        "address": "甘肃省庆阳市环县文化路与环江大道交叉口正东方向39米左右",
        "tel": "",
        "category": "基础设施:公共设施:公共厕所",
        "type": 0,
        "location": {
            "lat": 36.565001,
            "lng": 107.309366
        },
        "ad_info": {
            "adcode": 621022,
            "province": "甘肃省",
            "city": "庆阳市",
            "district": "环县"
        }
    },
    {
        "id": "15508683283602486142",
        "title": "公共厕所",
        "address": "甘肃省庆阳市西峰区南大街与炮台巷交叉口正东方向73米左右",
        "tel": "",
        "category": "基础设施:公共设施:公共厕所",
        "type": 0,
        "location": {
            "lat": 35.732305,
            "lng": 107.643503
        },
        "ad_info": {
            "adcode": 621002,
            "province": "甘肃省",
            "city": "庆阳市",
            "district": "西峰区"
        }
    },
    {
        "id": "102210041124269046",
        "title": "公共厕所",
        "address": "甘肃省庆阳市合水县人民路与古象西路交叉口东南方向473米左右",
        "tel": "",
        "category": "基础设施:公共设施:公共厕所",
        "type": 0,
        "location": {
            "lat": 35.831148,
            "lng": 108.027371
        },
        "ad_info": {
            "adcode": 621024,
            "province": "甘肃省",
            "city": "庆阳市",
            "district": "合水县"
        }
    },
    {
        "id": "3958995550497648628",
        "title": "公共厕所",
        "address": "甘肃省庆阳市西峰区图书馆肖金镇分馆南侧100米",
        "tel": "",
        "category": "基础设施:公共设施:公共厕所",
        "type": 0,
        "location": {
            "lat": 35.583876,
            "lng": 107.651777
        },
        "ad_info": {
            "adcode": 621002,
            "province": "甘肃省",
            "city": "庆阳市",
            "district": "西峰区"
        }
    },
    {
        "id": "13190511467023532830",
        "title": "公共厕所",
        "address": "甘肃省庆阳市西峰区岐黄大道与弘化西路交叉口正北方向173米左右",
        "tel": "",
        "category": "基础设施:公共设施:公共厕所",
        "type": 0,
        "location": {
            "lat": 35.708313,
            "lng": 107.646396
        },
        "ad_info": {
            "adcode": 621002,
            "province": "甘肃省",
            "city": "庆阳市",
            "district": "西峰区"
        }
    },
    {
        "id": "1477691716140391124",
        "title": "公共厕所",
        "address": "甘肃省庆阳市西峰区安化西路与马莲河大道交叉口西南方向54米左右",
        "tel": "",
        "category": "基础设施:公共设施:公共厕所",
        "type": 0,
        "location": {
            "lat": 35.71057,
            "lng": 107.64057
        },
        "ad_info": {
            "adcode": 621002,
            "province": "甘肃省",
            "city": "庆阳市",
            "district": "西峰区"
        }
    },
    {
        "id": "8563657574432343280",
        "title": "公共厕所",
        "address": "甘肃省庆阳市环县兴隆路与滨河路交叉口东南方向313米左右",
        "tel": "",
        "category": "基础设施:公共设施:公共厕所",
        "type": 0,
        "location": {
            "lat": 36.567393,
            "lng": 107.300586
        },
        "ad_info": {
            "adcode": 621022,
            "province": "甘肃省",
            "city": "庆阳市",
            "district": "环县"
        }
    },
    {
        "id": "12489949259038305268",
        "title": "公共厕所",
        "address": "甘肃省庆阳市西峰区九龙路与康寿路交叉口正东方向182米左右",
        "tel": "",
        "category": "基础设施:公共设施:公共厕所",
        "type": 0,
        "location": {
            "lat": 35.747972,
            "lng": 107.648187
        },
        "ad_info": {
            "adcode": 621002,
            "province": "甘肃省",
            "city": "庆阳市",
            "district": "西峰区"
        }
    },
    {
        "id": "14026846363620147441",
        "title": "公共厕所",
        "address": "甘肃省庆阳市西峰区北大街58号",
        "tel": "",
        "category": "基础设施:公共设施:公共厕所",
        "type": 0,
        "location": {
            "lat": 35.745969,
            "lng": 107.639923
        },
        "ad_info": {
            "adcode": 621002,
            "province": "甘肃省",
            "city": "庆阳市",
            "district": "西峰区"
        }
    },
    {
        "id": "9281167152934368796",
        "title": "显胜文化广场公共厕所2",
        "address": "甘肃省庆阳市西峰区显胜乡显胜村文化广场",
        "tel": "",
        "category": "基础设施:公共设施:公共厕所",
        "type": 0,
        "location": {
            "lat": 35.495045,
            "lng": 107.666915
        },
        "ad_info": {
            "adcode": 621002,
            "province": "甘肃省",
            "city": "庆阳市",
            "district": "西峰区"
        }
    },
    {
        "id": "2283242663897256887",
        "title": "甜水堡服务区公共厕所",
        "address": "甘肃省庆阳市环县甜水堡服务区与G69银百高速交叉口南380米",
        "tel": "",
        "category": "基础设施:公共设施:公共厕所",
        "type": 0,
        "location": {
            "lat": 37.013621,
            "lng": 106.923192
        },
        "ad_info": {
            "adcode": 621022,
            "province": "甘肃省",
            "city": "庆阳市",
            "district": "环县"
        }
    },
    {
        "id": "3048823253134781612",
        "title": "公共厕所",
        "address": "甘肃省庆阳市环县中国石油环县环城加油站西侧",
        "tel": "",
        "category": "基础设施:公共设施:公共厕所",
        "type": 0,
        "location": {
            "lat": 36.541486,
            "lng": 107.33025
        },
        "ad_info": {
            "adcode": 621022,
            "province": "甘肃省",
            "city": "庆阳市",
            "district": "环县"
        }
    },
    {
        "id": "12934823130970426897",
        "title": "公共厕所",
        "address": "甘肃省庆阳市庆城县共和村卫生室东南侧",
        "tel": "",
        "category": "基础设施:公共设施:公共厕所",
        "type": 0,
        "location": {
            "lat": 36.175416,
            "lng": 107.586451
        },
        "ad_info": {
            "adcode": 621021,
            "province": "甘肃省",
            "city": "庆阳市",
            "district": "庆城县"
        }
    },
    {
        "id": "16790891439766813244",
        "title": "公共厕所",
        "address": "甘肃省庆阳市环县G211与南环路交叉口东南方向1301米左右",
        "tel": "",
        "category": "基础设施:公共设施:公共厕所",
        "type": 0,
        "location": {
            "lat": 36.546814,
            "lng": 107.327996
        },
        "ad_info": {
            "adcode": 621022,
            "province": "甘肃省",
            "city": "庆阳市",
            "district": "环县"
        }
    },
    {
        "id": "5784391311475472288",
        "title": "公共厕所",
        "address": "甘肃省庆阳市合水县309国道东50米",
        "tel": "",
        "category": "基础设施:公共设施:公共厕所",
        "type": 0,
        "location": {
            "lat": 35.972701,
            "lng": 108.09661
        },
        "ad_info": {
            "adcode": 621024,
            "province": "甘肃省",
            "city": "庆阳市",
            "district": "合水县"
        }
    },
    {
        "id": "12315253604533541448",
        "title": "公共厕所",
        "address": "甘肃省庆阳市合水县子午大道辅路与西华北街辅路交叉口正南方向87米左右",
        "tel": "",
        "category": "基础设施:公共设施:公共厕所",
        "type": 0,
        "location": {
            "lat": 35.828503,
            "lng": 108.02159
        },
        "ad_info": {
            "adcode": 621024,
            "province": "甘肃省",
            "city": "庆阳市",
            "district": "合水县"
        }
    },
    {
        "id": "999176115216620001",
        "title": "公共厕所",
        "address": "甘肃省庆阳市合水县G211与S318交叉口正南方向103米左右",
        "tel": "",
        "category": "基础设施:公共设施:公共厕所",
        "type": 0,
        "location": {
            "lat": 35.693121,
            "lng": 107.973677
        },
        "ad_info": {
            "adcode": 621024,
            "province": "甘肃省",
            "city": "庆阳市",
            "district": "合水县"
        }
    },
    {
        "id": "15333014035779298724",
        "title": "公共厕所",
        "address": "甘肃省庆阳市环县G211与二车公路交叉口东南方向1084米左右",
        "tel": "",
        "category": "基础设施:公共设施:公共厕所",
        "type": 0,
        "location": {
            "lat": 36.633603,
            "lng": 107.238846
        },
        "ad_info": {
            "adcode": 621022,
            "province": "甘肃省",
            "city": "庆阳市",
            "district": "环县"
        }
    },
    {
        "id": "2685266052210516741",
        "title": "公共厕所",
        "address": "甘肃省庆阳市正宁县南环路与长乐路交叉口东南方向31米左右",
        "tel": "",
        "category": "基础设施:公共设施:公共厕所",
        "type": 0,
        "location": {
            "lat": 35.48684,
            "lng": 108.35735
        },
        "ad_info": {
            "adcode": 621025,
            "province": "甘肃省",
            "city": "庆阳市",
            "district": "正宁县"
        }
    },
    {
        "id": "16749187874414765935",
        "title": "公共厕所",
        "address": "甘肃省庆阳市西峰区安化东路与安化西路交叉口西北方向65米左右",
        "tel": "",
        "category": "基础设施:公共设施:公共厕所",
        "type": 0,
        "location": {
            "lat": 35.711864,
            "lng": 107.644637
        },
        "ad_info": {
            "adcode": 621002,
            "province": "甘肃省",
            "city": "庆阳市",
            "district": "西峰区"
        }
    },
    {
        "id": "3450192210758286140",
        "title": "公共厕所",
        "address": "甘肃省庆阳市环县文化路与环江大道交叉口正东方向39米左右",
        "tel": "",
        "category": "基础设施:公共设施:公共厕所",
        "type": 0,
        "location": {
            "lat": 36.565001,
            "lng": 107.309366
        },
        "ad_info": {
            "adcode": 621022,
            "province": "甘肃省",
            "city": "庆阳市",
            "district": "环县"
        }
    },
    {
        "id": "15508683283602486142",
        "title": "公共厕所",
        "address": "甘肃省庆阳市西峰区南大街与炮台巷交叉口正东方向73米左右",
        "tel": "",
        "category": "基础设施:公共设施:公共厕所",
        "type": 0,
        "location": {
            "lat": 35.732305,
            "lng": 107.643503
        },
        "ad_info": {
            "adcode": 621002,
            "province": "甘肃省",
            "city": "庆阳市",
            "district": "西峰区"
        }
    },
    {
        "id": "102210041124269046",
        "title": "公共厕所",
        "address": "甘肃省庆阳市合水县人民路与古象西路交叉口东南方向473米左右",
        "tel": "",
        "category": "基础设施:公共设施:公共厕所",
        "type": 0,
        "location": {
            "lat": 35.831148,
            "lng": 108.027371
        },
        "ad_info": {
            "adcode": 621024,
            "province": "甘肃省",
            "city": "庆阳市",
            "district": "合水县"
        }
    },
    {
        "id": "3958995550497648628",
        "title": "公共厕所",
        "address": "甘肃省庆阳市西峰区图书馆肖金镇分馆南侧100米",
        "tel": "",
        "category": "基础设施:公共设施:公共厕所",
        "type": 0,
        "location": {
            "lat": 35.583876,
            "lng": 107.651777
        },
        "ad_info": {
            "adcode": 621002,
            "province": "甘肃省",
            "city": "庆阳市",
            "district": "西峰区"
        }
    },
    {
        "id": "13190511467023532830",
        "title": "公共厕所",
        "address": "甘肃省庆阳市西峰区岐黄大道与弘化西路交叉口正北方向173米左右",
        "tel": "",
        "category": "基础设施:公共设施:公共厕所",
        "type": 0,
        "location": {
            "lat": 35.708313,
            "lng": 107.646396
        },
        "ad_info": {
            "adcode": 621002,
            "province": "甘肃省",
            "city": "庆阳市",
            "district": "西峰区"
        }
    },
    {
        "id": "1477691716140391124",
        "title": "公共厕所",
        "address": "甘肃省庆阳市西峰区安化西路与马莲河大道交叉口西南方向54米左右",
        "tel": "",
        "category": "基础设施:公共设施:公共厕所",
        "type": 0,
        "location": {
            "lat": 35.71057,
            "lng": 107.64057
        },
        "ad_info": {
            "adcode": 621002,
            "province": "甘肃省",
            "city": "庆阳市",
            "district": "西峰区"
        }
    },
    {
        "id": "8563657574432343280",
        "title": "公共厕所",
        "address": "甘肃省庆阳市环县兴隆路与滨河路交叉口东南方向313米左右",
        "tel": "",
        "category": "基础设施:公共设施:公共厕所",
        "type": 0,
        "location": {
            "lat": 36.567393,
            "lng": 107.300586
        },
        "ad_info": {
            "adcode": 621022,
            "province": "甘肃省",
            "city": "庆阳市",
            "district": "环县"
        }
    },
    {
        "id": "12489949259038305268",
        "title": "公共厕所",
        "address": "甘肃省庆阳市西峰区九龙路与康寿路交叉口正东方向182米左右",
        "tel": "",
        "category": "基础设施:公共设施:公共厕所",
        "type": 0,
        "location": {
            "lat": 35.747972,
            "lng": 107.648187
        },
        "ad_info": {
            "adcode": 621002,
            "province": "甘肃省",
            "city": "庆阳市",
            "district": "西峰区"
        }
    },
    {
        "id": "14026846363620147441",
        "title": "公共厕所",
        "address": "甘肃省庆阳市西峰区北大街58号",
        "tel": "",
        "category": "基础设施:公共设施:公共厕所",
        "type": 0,
        "location": {
            "lat": 35.745969,
            "lng": 107.639923
        },
        "ad_info": {
            "adcode": 621002,
            "province": "甘肃省",
            "city": "庆阳市",
            "district": "西峰区"
        }
    },
    {
        "id": "9281167152934368796",
        "title": "显胜文化广场公共厕所2",
        "address": "甘肃省庆阳市西峰区显胜乡显胜村文化广场",
        "tel": "",
        "category": "基础设施:公共设施:公共厕所",
        "type": 0,
        "location": {
            "lat": 35.495045,
            "lng": 107.666915
        },
        "ad_info": {
            "adcode": 621002,
            "province": "甘肃省",
            "city": "庆阳市",
            "district": "西峰区"
        }
    },
    {
        "id": "2283242663897256887",
        "title": "甜水堡服务区公共厕所",
        "address": "甘肃省庆阳市环县甜水堡服务区与G69银百高速交叉口南380米",
        "tel": "",
        "category": "基础设施:公共设施:公共厕所",
        "type": 0,
        "location": {
            "lat": 37.013621,
            "lng": 106.923192
        },
        "ad_info": {
            "adcode": 621022,
            "province": "甘肃省",
            "city": "庆阳市",
            "district": "环县"
        }
    },
    {
        "id": "3048823253134781612",
        "title": "公共厕所",
        "address": "甘肃省庆阳市环县中国石油环县环城加油站西侧",
        "tel": "",
        "category": "基础设施:公共设施:公共厕所",
        "type": 0,
        "location": {
            "lat": 36.541486,
            "lng": 107.33025
        },
        "ad_info": {
            "adcode": 621022,
            "province": "甘肃省",
            "city": "庆阳市",
            "district": "环县"
        }
    },
    {
        "id": "12934823130970426897",
        "title": "公共厕所",
        "address": "甘肃省庆阳市庆城县共和村卫生室东南侧",
        "tel": "",
        "category": "基础设施:公共设施:公共厕所",
        "type": 0,
        "location": {
            "lat": 36.175416,
            "lng": 107.586451
        },
        "ad_info": {
            "adcode": 621021,
            "province": "甘肃省",
            "city": "庆阳市",
            "district": "庆城县"
        }
    },
    {
        "id": "16790891439766813244",
        "title": "公共厕所",
        "address": "甘肃省庆阳市环县G211与南环路交叉口东南方向1301米左右",
        "tel": "",
        "category": "基础设施:公共设施:公共厕所",
        "type": 0,
        "location": {
            "lat": 36.546814,
            "lng": 107.327996
        },
        "ad_info": {
            "adcode": 621022,
            "province": "甘肃省",
            "city": "庆阳市",
            "district": "环县"
        }
    },
    {
        "id": "5784391311475472288",
        "title": "公共厕所",
        "address": "甘肃省庆阳市合水县309国道东50米",
        "tel": "",
        "category": "基础设施:公共设施:公共厕所",
        "type": 0,
        "location": {
            "lat": 35.972701,
            "lng": 108.09661
        },
        "ad_info": {
            "adcode": 621024,
            "province": "甘肃省",
            "city": "庆阳市",
            "district": "合水县"
        }
    },
    {
        "id": "12315253604533541448",
        "title": "公共厕所",
        "address": "甘肃省庆阳市合水县子午大道辅路与西华北街辅路交叉口正南方向87米左右",
        "tel": "",
        "category": "基础设施:公共设施:公共厕所",
        "type": 0,
        "location": {
            "lat": 35.828503,
            "lng": 108.02159
        },
        "ad_info": {
            "adcode": 621024,
            "province": "甘肃省",
            "city": "庆阳市",
            "district": "合水县"
        }
    },
    {
        "id": "999176115216620001",
        "title": "公共厕所",
        "address": "甘肃省庆阳市合水县G211与S318交叉口正南方向103米左右",
        "tel": "",
        "category": "基础设施:公共设施:公共厕所",
        "type": 0,
        "location": {
            "lat": 35.693121,
            "lng": 107.973677
        },
        "ad_info": {
            "adcode": 621024,
            "province": "甘肃省",
            "city": "庆阳市",
            "district": "合水县"
        }
    },
    {
        "id": "15333014035779298724",
        "title": "公共厕所",
        "address": "甘肃省庆阳市环县G211与二车公路交叉口东南方向1084米左右",
        "tel": "",
        "category": "基础设施:公共设施:公共厕所",
        "type": 0,
        "location": {
            "lat": 36.633603,
            "lng": 107.238846
        },
        "ad_info": {
            "adcode": 621022,
            "province": "甘肃省",
            "city": "庆阳市",
            "district": "环县"
        }
    },
    {
        "id": "2685266052210516741",
        "title": "公共厕所",
        "address": "甘肃省庆阳市正宁县南环路与长乐路交叉口东南方向31米左右",
        "tel": "",
        "category": "基础设施:公共设施:公共厕所",
        "type": 0,
        "location": {
            "lat": 35.48684,
            "lng": 108.35735
        },
        "ad_info": {
            "adcode": 621025,
            "province": "甘肃省",
            "city": "庆阳市",
            "district": "正宁县"
        }
    },
    {
        "id": "16749187874414765935",
        "title": "公共厕所",
        "address": "甘肃省庆阳市西峰区安化东路与安化西路交叉口西北方向65米左右",
        "tel": "",
        "category": "基础设施:公共设施:公共厕所",
        "type": 0,
        "location": {
            "lat": 35.711864,
            "lng": 107.644637
        },
        "ad_info": {
            "adcode": 621002,
            "province": "甘肃省",
            "city": "庆阳市",
            "district": "西峰区"
        }
    }
]