[
    {
        "id": "656275680835242591",
        "title": "公共厕所",
        "address": "陕西省延安市子长市石窑坪小区7号楼",
        "tel": "",
        "category": "基础设施:公共设施:公共厕所",
        "type": 0,
        "location": {
            "lat": 37.14266,
            "lng": 109.683316
        },
        "ad_info": {
            "adcode": 610681,
            "province": "陕西省",
            "city": "延安市",
            "district": "子长市"
        }
    },
    {
        "id": "10044221589877724701",
        "title": "公共厕所",
        "address": "陕西省延安市黄陵县G327与中心街交叉口正东方向196米左右",
        "tel": "",
        "category": "基础设施:公共设施:公共厕所",
        "type": 0,
        "location": {
            "lat": 35.633053,
            "lng": 109.093119
        },
        "ad_info": {
            "adcode": 610632,
            "province": "陕西省",
            "city": "延安市",
            "district": "黄陵县"
        }
    },
    {
        "id": "17144701217771125750",
        "title": "公共厕所",
        "address": "陕西省延安市洛川县光明路与迎宾大道交叉口正西方向1774米左右",
        "tel": "",
        "category": "基础设施:公共设施:公共厕所",
        "type": 0,
        "location": {
            "lat": 35.771437,
            "lng": 109.410981
        },
        "ad_info": {
            "adcode": 610629,
            "province": "陕西省",
            "city": "延安市",
            "district": "洛川县"
        }
    },
    {
        "id": "14903076201973421829",
        "title": "公共厕所",
        "address": "陕西省延安市安塞区真武洞镇包茂高速公路安塞石油宾馆",
        "tel": "",
        "category": "基础设施:公共设施:公共厕所",
        "type": 0,
        "location": {
            "lat": 36.875844,
            "lng": 109.318916
        },
        "ad_info": {
            "adcode": 610603,
            "province": "陕西省",
            "city": "延安市",
            "district": "安塞区"
        }
    },
    {
        "id": "5591940726822179864",
        "title": "公共厕所",
        "address": "陕西省延安市子长市朝阳路与迎宾路交叉口正南方向258米左右",
        "tel": "",
        "category": "基础设施:公共设施:公共厕所",
        "type": 0,
        "location": {
            "lat": 37.142138,
            "lng": 109.692378
        },
        "ad_info": {
            "adcode": 610681,
            "province": "陕西省",
            "city": "延安市",
            "district": "子长市"
        }
    },
    {
        "id": "8041499921625406643",
        "title": "公共卫生间",
        "address": "陕西省延安市洛川县解放路与龙翔北路交叉口正北方向102米左右",
        "tel": "",
        "category": "基础设施:公共设施:公共厕所",
        "type": 0,
        "location": {
            "lat": 35.770984,
            "lng": 109.436826
        },
        "ad_info": {
            "adcode": 610629,
            "province": "陕西省",
            "city": "延安市",
            "district": "洛川县"
        }
    },
    {
        "id": "4876743096738901372",
        "title": "公共厕所",
        "address": "陕西省延安市子长市开元一路与秀延街交叉口正北方向75米左右",
        "tel": "",
        "category": "基础设施:公共设施:公共厕所",
        "type": 0,
        "location": {
            "lat": 37.144964,
            "lng": 109.683474
        },
        "ad_info": {
            "adcode": 610681,
            "province": "陕西省",
            "city": "延安市",
            "district": "子长市"
        }
    },
    {
        "id": "15520074770043549902",
        "title": "公共厕所",
        "address": "陕西省延安市子长市中山街与环城北路交叉口正东方向111米左右",
        "tel": "",
        "category": "基础设施:公共设施:公共厕所",
        "type": 0,
        "location": {
            "lat": 37.139401,
            "lng": 109.67511
        },
        "ad_info": {
            "adcode": 610681,
            "province": "陕西省",
            "city": "延安市",
            "district": "子长市"
        }
    },
    {
        "id": "14511447532818608041",
        "title": "公共厕所",
        "address": "陕西省延安市富县河滨路与自强路交叉口东南方向35米左右",
        "tel": "",
        "category": "基础设施:公共设施:公共厕所",
        "type": 0,
        "location": {
            "lat": 35.992843,
            "lng": 109.380325
        },
        "ad_info": {
            "adcode": 610628,
            "province": "陕西省",
            "city": "延安市",
            "district": "富县"
        }
    },
    {
        "id": "12875428957891366557",
        "title": "公共厕所(丽融广场)",
        "address": "陕西省延安市宝塔区二道街与吉祥巷交叉口西50米丽融广场F4层",
        "tel": "",
        "category": "基础设施:公共设施:公共厕所",
        "type": 0,
        "location": {
            "lat": 36.59486,
            "lng": 109.490417
        },
        "ad_info": {
            "adcode": 610602,
            "province": "陕西省",
            "city": "延安市",
            "district": "宝塔区"
        }
    },
    {
        "id": "4527558262859102432",
        "title": "公共厕所",
        "address": "陕西省延安市吴起县兴庆路与兴民路交叉口西南方向405米左右",
        "tel": "",
        "category": "基础设施:公共设施:公共厕所",
        "type": 0,
        "location": {
            "lat": 36.880903,
            "lng": 108.195755
        },
        "ad_info": {
            "adcode": 610626,
            "province": "陕西省",
            "city": "延安市",
            "district": "吴起县"
        }
    },
    {
        "id": "2348914407173052424",
        "title": "公共厕所",
        "address": "陕西省延安市洛川县振兴路尚苹苑",
        "tel": "",
        "category": "基础设施:公共设施:公共厕所",
        "type": 0,
        "location": {
            "lat": 35.768947,
            "lng": 109.440673
        },
        "ad_info": {
            "adcode": 610629,
            "province": "陕西省",
            "city": "延安市",
            "district": "洛川县"
        }
    },
    {
        "id": "5097479421024221259",
        "title": "公共厕所",
        "address": "陕西省延安市宜川县渭清路185号宜居湾小区1栋铺15号西北方向60米",
        "tel": "",
        "category": "基础设施:公共设施:公共厕所",
        "type": 0,
        "location": {
            "lat": 36.054051,
            "lng": 110.182579
        },
        "ad_info": {
            "adcode": 610630,
            "province": "陕西省",
            "city": "延安市",
            "district": "宜川县"
        }
    },
    {
        "id": "11864452414002670501",
        "title": "公共厕所",
        "address": "陕西省延安市黄陵县高阳路18号",
        "tel": "",
        "category": "基础设施:公共设施:公共厕所",
        "type": 0,
        "location": {
            "lat": 35.579792,
            "lng": 109.263701
        },
        "ad_info": {
            "adcode": 610632,
            "province": "陕西省",
            "city": "延安市",
            "district": "黄陵县"
        }
    },
    {
        "id": "2742594698151359324",
        "title": "公共厕所",
        "address": "陕西省延安市吴起县和顺花园西北侧200米",
        "tel": "",
        "category": "基础设施:公共设施:公共厕所",
        "type": 0,
        "location": {
            "lat": 36.898104,
            "lng": 108.199433
        },
        "ad_info": {
            "adcode": 610626,
            "province": "陕西省",
            "city": "延安市",
            "district": "吴起县"
        }
    },
    {
        "id": "150568308856119963",
        "title": "公共厕所",
        "address": "陕西省延安市子长市冯家屯三市场",
        "tel": "",
        "category": "基础设施:公共设施:公共厕所",
        "type": 0,
        "location": {
            "lat": 37.14587,
            "lng": 109.68566
        },
        "ad_info": {
            "adcode": 610681,
            "province": "陕西省",
            "city": "延安市",
            "district": "子长市"
        }
    },
    {
        "id": "1315484347407935600",
        "title": "公共厕所",
        "address": "陕西省延安市吴起县吴庙路",
        "tel": "",
        "category": "基础设施:公共设施:公共厕所",
        "type": 0,
        "location": {
            "lat": 36.882548,
            "lng": 107.924463
        },
        "ad_info": {
            "adcode": 610626,
            "province": "陕西省",
            "city": "延安市",
            "district": "吴起县"
        }
    },
    {
        "id": "3048633198792056014",
        "title": "公共厕所",
        "address": "陕西省延安市黄陵县文渊街与高阳路交叉口西北方向260米左右",
        "tel": "",
        "category": "基础设施:公共设施:公共厕所",
        "type": 0,
        "location": {
            "lat": 35.5817,
            "lng": 109.258909
        },
        "ad_info": {
            "adcode": 610632,
            "province": "陕西省",
            "city": "延安市",
            "district": "黄陵县"
        }
    },
    {
        "id": "16327620256413421988",
        "title": "公共厕所",
        "address": "陕西省延安市延长县G520与文苑路交叉口东北方向24米左右",
        "tel": "",
        "category": "基础设施:公共设施:公共厕所",
        "type": 0,
        "location": {
            "lat": 36.576731,
            "lng": 110.005555
        },
        "ad_info": {
            "adcode": 610621,
            "province": "陕西省",
            "city": "延安市",
            "district": "延长县"
        }
    },
    {
        "id": "6763379413726870268",
        "title": "公共厕所",
        "address": "陕西省延安市宝塔区永泰路与长青路交叉口西南方向303米左右",
        "tel": "",
        "category": "基础设施:公共设施:公共厕所",
        "type": 0,
        "location": {
            "lat": 36.629189,
            "lng": 109.536916
        },
        "ad_info": {
            "adcode": 610602,
            "province": "陕西省",
            "city": "延安市",
            "district": "宝塔区"
        }
    },
    {
        "id": "7717206867056977368",
        "title": "公共厕所",
        "address": "陕西省延安市宝塔区中心街十字延安旅游大厦",
        "tel": "",
        "category": "基础设施:公共设施:公共厕所",
        "type": 0,
        "location": {
            "lat": 36.596414,
            "lng": 109.488368
        },
        "ad_info": {
            "adcode": 610602,
            "province": "陕西省",
            "city": "延安市",
            "district": "宝塔区"
        }
    },
    {
        "id": "16509302365736135901",
        "title": "公共厕所",
        "address": "陕西省延安市宝塔区枣园一巷与枣园大道交叉口东南方向90米左右",
        "tel": "",
        "category": "基础设施:公共设施:公共厕所",
        "type": 0,
        "location": {
            "lat": 36.618627,
            "lng": 109.450875
        },
        "ad_info": {
            "adcode": 610602,
            "province": "陕西省",
            "city": "延安市",
            "district": "宝塔区"
        }
    },
    {
        "id": "8351842865927230995",
        "title": "公共厕所",
        "address": "陕西省延安市宝塔区轩辕大道36号",
        "tel": "",
        "category": "基础设施:公共设施:公共厕所",
        "type": 0,
        "location": {
            "lat": 36.638871,
            "lng": 109.497519
        },
        "ad_info": {
            "adcode": 610602,
            "province": "陕西省",
            "city": "延安市",
            "district": "宝塔区"
        }
    },
    {
        "id": "7047703664008723082",
        "title": "公共厕所",
        "address": "陕西省延安市洛川县中心街与府前街交叉口东北方向70米左右",
        "tel": "",
        "category": "基础设施:公共设施:公共厕所",
        "type": 0,
        "location": {
            "lat": 35.76189,
            "lng": 109.439659
        },
        "ad_info": {
            "adcode": 610629,
            "province": "陕西省",
            "city": "延安市",
            "district": "洛川县"
        }
    },
    {
        "id": "11475258931525734369",
        "title": "公共厕所",
        "address": "陕西省延安市宝塔区大东门街与延河西路交叉口正西方向101米左右",
        "tel": "",
        "category": "基础设施:公共设施:公共厕所",
        "type": 0,
        "location": {
            "lat": 36.598429,
            "lng": 109.488591
        },
        "ad_info": {
            "adcode": 610602,
            "province": "陕西省",
            "city": "延安市",
            "district": "宝塔区"
        }
    },
    {
        "id": "4715628748721804080",
        "title": "公共厕所",
        "address": "陕西省延安市吴起县洛滨路与长征街交叉口西北方向109米左右",
        "tel": "",
        "category": "基础设施:公共设施:公共厕所",
        "type": 0,
        "location": {
            "lat": 36.921066,
            "lng": 108.180516
        },
        "ad_info": {
            "adcode": 610626,
            "province": "陕西省",
            "city": "延安市",
            "district": "吴起县"
        }
    },
    {
        "id": "15877753204601022870",
        "title": "公共厕所",
        "address": "陕西省延安市安塞区S106与包茂高速交叉口西北方向1524米左右",
        "tel": "",
        "category": "基础设施:公共设施:公共厕所",
        "type": 0,
        "location": {
            "lat": 37.081769,
            "lng": 109.087426
        },
        "ad_info": {
            "adcode": 610603,
            "province": "陕西省",
            "city": "延安市",
            "district": "安塞区"
        }
    },
    {
        "id": "10680312063614824227",
        "title": "公共厕所",
        "address": "陕西省延安市子长市陈家洼南关驾校路口",
        "tel": "",
        "category": "基础设施:公共设施:公共厕所",
        "type": 0,
        "location": {
            "lat": 37.127209,
            "lng": 109.673816
        },
        "ad_info": {
            "adcode": 610681,
            "province": "陕西省",
            "city": "延安市",
            "district": "子长市"
        }
    },
    {
        "id": "2464205273274576336",
        "title": "公共厕所",
        "address": "陕西省延安市宝塔区东一巷与双拥大道辅路交叉口正南方向131米左右",
        "tel": "",
        "category": "基础设施:公共设施:公共厕所",
        "type": 0,
        "location": {
            "lat": 36.601521,
            "lng": 109.501951
        },
        "ad_info": {
            "adcode": 610602,
            "province": "陕西省",
            "city": "延安市",
            "district": "宝塔区"
        }
    },
    {
        "id": "855163435421795103",
        "title": "公共厕所",
        "address": "陕西省延安市子长市子靖线与安定路交叉口正西方向16米左右",
        "tel": "",
        "category": "基础设施:公共设施:公共厕所",
        "type": 0,
        "location": {
            "lat": 37.144971,
            "lng": 109.667547
        },
        "ad_info": {
            "adcode": 610681,
            "province": "陕西省",
            "city": "延安市",
            "district": "子长市"
        }
    },
    {
        "id": "13674128401110081841",
        "title": "公共厕所",
        "address": "陕西省延安市宜川县东大街与北大街交叉口西南方向43米左右",
        "tel": "",
        "category": "基础设施:公共设施:公共厕所",
        "type": 0,
        "location": {
            "lat": 36.047558,
            "lng": 110.172343
        },
        "ad_info": {
            "adcode": 610630,
            "province": "陕西省",
            "city": "延安市",
            "district": "宜川县"
        }
    },
    {
        "id": "7255772639800796171",
        "title": "公共厕所",
        "address": "陕西省延安市洛川县吉祥巷与曙光路交叉口正西方向67米左右",
        "tel": "",
        "category": "基础设施:公共设施:公共厕所",
        "type": 0,
        "location": {
            "lat": 35.763406,
            "lng": 109.434914
        },
        "ad_info": {
            "adcode": 610629,
            "province": "陕西省",
            "city": "延安市",
            "district": "洛川县"
        }
    },
    {
        "id": "12625036976835987647",
        "title": "公共厕所",
        "address": "陕西省延安市宝塔区七里铺大街与圣地大道交叉口正北方向443米左右",
        "tel": "",
        "category": "基础设施:公共设施:公共厕所",
        "type": 0,
        "location": {
            "lat": 36.558855,
            "lng": 109.48119
        },
        "ad_info": {
            "adcode": 610602,
            "province": "陕西省",
            "city": "延安市",
            "district": "宝塔区"
        }
    },
    {
        "id": "9928542568708359546",
        "title": "公共厕所",
        "address": "陕西省延安市志丹县河滨路38-1号",
        "tel": "",
        "category": "基础设施:公共设施:公共厕所",
        "type": 0,
        "location": {
            "lat": 36.830831,
            "lng": 108.760649
        },
        "ad_info": {
            "adcode": 610625,
            "province": "陕西省",
            "city": "延安市",
            "district": "志丹县"
        }
    },
    {
        "id": "2381881194256775389",
        "title": "公共厕所",
        "address": "陕西省延安市安塞区G210与徐张路交叉口东北方向368米左右",
        "tel": "",
        "category": "基础设施:公共设施:公共厕所",
        "type": 0,
        "location": {
            "lat": 36.88691,
            "lng": 109.322658
        },
        "ad_info": {
            "adcode": 610603,
            "province": "陕西省",
            "city": "延安市",
            "district": "安塞区"
        }
    },
    {
        "id": "18409049363042879571",
        "title": "公共厕所",
        "address": "陕西省延安市子长市子安公路南50米",
        "tel": "",
        "category": "基础设施:公共设施:公共厕所",
        "type": 0,
        "location": {
            "lat": 37.076875,
            "lng": 109.442876
        },
        "ad_info": {
            "adcode": 610681,
            "province": "陕西省",
            "city": "延安市",
            "district": "子长市"
        }
    },
    {
        "id": "6247297636969460529",
        "title": "公共厕所",
        "address": "陕西省延安市延长县岳口枢纽与长延高速交叉口西南方向277米左右",
        "tel": "",
        "category": "基础设施:公共设施:公共厕所",
        "type": 0,
        "location": {
            "lat": 36.697683,
            "lng": 109.852268
        },
        "ad_info": {
            "adcode": 610621,
            "province": "陕西省",
            "city": "延安市",
            "district": "延长县"
        }
    },
    {
        "id": "113104372188558863",
        "title": "公共厕所",
        "address": "陕西省延安市志丹县河滨路13号",
        "tel": "",
        "category": "基础设施:公共设施:公共厕所",
        "type": 0,
        "location": {
            "lat": 36.82378,
            "lng": 108.765888
        },
        "ad_info": {
            "adcode": 610625,
            "province": "陕西省",
            "city": "延安市",
            "district": "志丹县"
        }
    },
    {
        "id": "16000296233094617493",
        "title": "公共厕所",
        "address": "陕西省延安市宝塔区中心街与大东门街交叉口正南方向32米左右",
        "tel": "",
        "category": "基础设施:公共设施:公共厕所",
        "type": 0,
        "location": {
            "lat": 36.596285,
            "lng": 109.487239
        },
        "ad_info": {
            "adcode": 610602,
            "province": "陕西省",
            "city": "延安市",
            "district": "宝塔区"
        }
    },
    {
        "id": "7466083396792144292",
        "title": "公共厕所",
        "address": "陕西省延安市子长市冯家屯路与秀延街交叉口正东方向110米左右",
        "tel": "",
        "category": "基础设施:公共设施:公共厕所",
        "type": 0,
        "location": {
            "lat": 37.143676,
            "lng": 109.681617
        },
        "ad_info": {
            "adcode": 610681,
            "province": "陕西省",
            "city": "延安市",
            "district": "子长市"
        }
    },
    {
        "id": "606713053412575739",
        "title": "公共厕所",
        "address": "陕西省延安市吴起县吴庙线与和平路交叉口正东方向501米左右",
        "tel": "",
        "category": "基础设施:公共设施:公共厕所",
        "type": 0,
        "location": {
            "lat": 36.922203,
            "lng": 108.170083
        },
        "ad_info": {
            "adcode": 610626,
            "province": "陕西省",
            "city": "延安市",
            "district": "吴起县"
        }
    },
    {
        "id": "14329883911737176950",
        "title": "公共厕所",
        "address": "陕西省延安市安塞区高家峁村卫生室西南侧200米",
        "tel": "",
        "category": "基础设施:公共设施:公共厕所",
        "type": 0,
        "location": {
            "lat": 36.814435,
            "lng": 109.381533
        },
        "ad_info": {
            "adcode": 610603,
            "province": "陕西省",
            "city": "延安市",
            "district": "安塞区"
        }
    },
    {
        "id": "7747508258763965382",
        "title": "公共厕所",
        "address": "陕西省延安市甘泉县迎宾路340号",
        "tel": "",
        "category": "基础设施:公共设施:公共厕所",
        "type": 0,
        "location": {
            "lat": 36.27126,
            "lng": 109.35164
        },
        "ad_info": {
            "adcode": 610627,
            "province": "陕西省",
            "city": "延安市",
            "district": "甘泉县"
        }
    },
    {
        "id": "9371693577001321943",
        "title": "公共厕所",
        "address": "陕西省延安市志丹县保安街与曙光巷交叉口正东方向50米左右",
        "tel": "",
        "category": "基础设施:公共设施:公共厕所",
        "type": 0,
        "location": {
            "lat": 36.827139,
            "lng": 108.765075
        },
        "ad_info": {
            "adcode": 610625,
            "province": "陕西省",
            "city": "延安市",
            "district": "志丹县"
        }
    },
    {
        "id": "17975234994744055379",
        "title": "公共厕所",
        "address": "陕西省延安市志丹县迎宾街28号",
        "tel": "",
        "category": "基础设施:公共设施:公共厕所",
        "type": 0,
        "location": {
            "lat": 36.796544,
            "lng": 108.776519
        },
        "ad_info": {
            "adcode": 610625,
            "province": "陕西省",
            "city": "延安市",
            "district": "志丹县"
        }
    },
    {
        "id": "11969957486985815500",
        "title": "公共厕所",
        "address": "陕西省延安市宝塔区延河北路与永祥路交叉口正南方向56米左右",
        "tel": "",
        "category": "基础设施:公共设施:公共厕所",
        "type": 0,
        "location": {
            "lat": 36.618243,
            "lng": 109.53264
        },
        "ad_info": {
            "adcode": 610602,
            "province": "陕西省",
            "city": "延安市",
            "district": "宝塔区"
        }
    },
    {
        "id": "12852804576350119493",
        "title": "公共厕所",
        "address": "陕西省延安市宝塔区双拥大道与永福路交叉口正北方向23米左右",
        "tel": "",
        "category": "基础设施:公共设施:公共厕所",
        "type": 0,
        "location": {
            "lat": 36.615465,
            "lng": 109.520961
        },
        "ad_info": {
            "adcode": 610602,
            "province": "陕西省",
            "city": "延安市",
            "district": "宝塔区"
        }
    },
    {
        "id": "16633770520952192388",
        "title": "公共厕所",
        "address": "陕西省延安市宝塔区光明东巷与光明西巷交叉口东南方向133米左右",
        "tel": "",
        "category": "基础设施:公共设施:公共厕所",
        "type": 0,
        "location": {
            "lat": 36.602424,
            "lng": 109.479982
        },
        "ad_info": {
            "adcode": 610602,
            "province": "陕西省",
            "city": "延安市",
            "district": "宝塔区"
        }
    },
    {
        "id": "12164048717599097810",
        "title": "公共厕所",
        "address": "陕西省延安市子长市子安公路与环城西路交叉口正西方向633米左右",
        "tel": "",
        "category": "基础设施:公共设施:公共厕所",
        "type": 0,
        "location": {
            "lat": 37.124207,
            "lng": 109.614486
        },
        "ad_info": {
            "adcode": 610681,
            "province": "陕西省",
            "city": "延安市",
            "district": "子长市"
        }
    },
    {
        "id": "14069506108258458081",
        "title": "公共厕所",
        "address": "陕西省延安市志丹县川旦路与甘志路交叉口东北方向90米左右",
        "tel": "",
        "category": "基础设施:公共设施:公共厕所",
        "type": 0,
        "location": {
            "lat": 36.580262,
            "lng": 108.746101
        },
        "ad_info": {
            "adcode": 610625,
            "province": "陕西省",
            "city": "延安市",
            "district": "志丹县"
        }
    },
    {
        "id": "17388649469396128435",
        "title": "公共厕所",
        "address": "陕西省延安市富县309国道南50米",
        "tel": "",
        "category": "基础设施:公共设施:公共厕所",
        "type": 0,
        "location": {
            "lat": 36.08771,
            "lng": 109.529351
        },
        "ad_info": {
            "adcode": 610628,
            "province": "陕西省",
            "city": "延安市",
            "district": "富县"
        }
    },
    {
        "id": "10792629643305757478",
        "title": "公共厕所",
        "address": "陕西省延安市宝塔区利民巷与双拥大道辅路交叉口正南方向58米左右",
        "tel": "",
        "category": "基础设施:公共设施:公共厕所",
        "type": 0,
        "location": {
            "lat": 36.610298,
            "lng": 109.513404
        },
        "ad_info": {
            "adcode": 610602,
            "province": "陕西省",
            "city": "延安市",
            "district": "宝塔区"
        }
    },
    {
        "id": "13747015158463599085",
        "title": "公共厕所",
        "address": "陕西省延安市安塞区G210与S106交叉口正南方向859米左右",
        "tel": "",
        "category": "基础设施:公共设施:公共厕所",
        "type": 0,
        "location": {
            "lat": 36.948697,
            "lng": 109.293544
        },
        "ad_info": {
            "adcode": 610603,
            "province": "陕西省",
            "city": "延安市",
            "district": "安塞区"
        }
    },
    {
        "id": "3334429035391612992",
        "title": "公共厕所",
        "address": "陕西省延安市宝塔区井家湾小区北侧280米",
        "tel": "",
        "category": "基础设施:公共设施:公共厕所",
        "type": 0,
        "location": {
            "lat": 36.658478,
            "lng": 109.45026
        },
        "ad_info": {
            "adcode": 610602,
            "province": "陕西省",
            "city": "延安市",
            "district": "宝塔区"
        }
    },
    {
        "id": "5992965523947949351",
        "title": "公共厕所",
        "address": "陕西省延安市宝塔区双拥大道与永乐路交叉口正西方向261米左右",
        "tel": "",
        "category": "基础设施:公共设施:公共厕所",
        "type": 0,
        "location": {
            "lat": 36.618681,
            "lng": 109.522723
        },
        "ad_info": {
            "adcode": 610602,
            "province": "陕西省",
            "city": "延安市",
            "district": "宝塔区"
        }
    },
    {
        "id": "12838483334759467626",
        "title": "公共厕所",
        "address": "陕西省延安市延长县中心街与王家川路交叉口东北方向32米左右",
        "tel": "",
        "category": "基础设施:公共设施:公共厕所",
        "type": 0,
        "location": {
            "lat": 36.580114,
            "lng": 110.016577
        },
        "ad_info": {
            "adcode": 610621,
            "province": "陕西省",
            "city": "延安市",
            "district": "延长县"
        }
    },
    {
        "id": "14526322361183057249",
        "title": "公共厕所",
        "address": "陕西省延安市宝塔区尹家沟路国胜宾馆(双拥大道店)",
        "tel": "",
        "category": "基础设施:公共设施:公共厕所",
        "type": 0,
        "location": {
            "lat": 36.609031,
            "lng": 109.508739
        },
        "ad_info": {
            "adcode": 610602,
            "province": "陕西省",
            "city": "延安市",
            "district": "宝塔区"
        }
    },
    {
        "id": "15070686858184537128",
        "title": "公共厕所",
        "address": "陕西省延安市安塞区303省道东50米",
        "tel": "",
        "category": "基础设施:公共设施:公共厕所",
        "type": 0,
        "location": {
            "lat": 36.686788,
            "lng": 109.052695
        },
        "ad_info": {
            "adcode": 610603,
            "province": "陕西省",
            "city": "延安市",
            "district": "安塞区"
        }
    },
    {
        "id": "10414165876801765314",
        "title": "公共厕所",
        "address": "陕西省延安市宝塔区宝塔山路与白坪北路交叉口正西方向96米左右",
        "tel": "",
        "category": "基础设施:公共设施:公共厕所",
        "type": 0,
        "location": {
            "lat": 36.578779,
            "lng": 109.488221
        },
        "ad_info": {
            "adcode": 610602,
            "province": "陕西省",
            "city": "延安市",
            "district": "宝塔区"
        }
    },
    {
        "id": "15486142537954077410",
        "title": "公共厕所",
        "address": "陕西省延安市宝塔区川松路与延河北路交叉口正西方向978米左右",
        "tel": "",
        "category": "基础设施:公共设施:公共厕所",
        "type": 0,
        "location": {
            "lat": 36.642064,
            "lng": 109.561202
        },
        "ad_info": {
            "adcode": 610602,
            "province": "陕西省",
            "city": "延安市",
            "district": "宝塔区"
        }
    },
    {
        "id": "2779591553661430986",
        "title": "公共厕所",
        "address": "陕西省延安市宝塔区G341与枣园八路交叉口正东方向107米左右",
        "tel": "",
        "category": "基础设施:公共设施:公共厕所",
        "type": 0,
        "location": {
            "lat": 36.630993,
            "lng": 109.403897
        },
        "ad_info": {
            "adcode": 610602,
            "province": "陕西省",
            "city": "延安市",
            "district": "宝塔区"
        }
    },
    {
        "id": "5386795776157274226",
        "title": "公共厕所",
        "address": "陕西省延安市黄陵县G210与土五路交叉口正南方向40米左右",
        "tel": "",
        "category": "基础设施:公共设施:公共厕所",
        "type": 0,
        "location": {
            "lat": 35.54184,
            "lng": 109.259667
        },
        "ad_info": {
            "adcode": 610632,
            "province": "陕西省",
            "city": "延安市",
            "district": "黄陵县"
        }
    },
    {
        "id": "6474557463542236881",
        "title": "公共厕所",
        "address": "陕西省延安市宝塔区双拥大道与电厂一路交叉口东南方向35米左右",
        "tel": "",
        "category": "基础设施:公共设施:公共厕所",
        "type": 0,
        "location": {
            "lat": 36.60323,
            "lng": 109.50239
        },
        "ad_info": {
            "adcode": 610602,
            "province": "陕西省",
            "city": "延安市",
            "district": "宝塔区"
        }
    },
    {
        "id": "16448310630923436137",
        "title": "公共厕所",
        "address": "陕西省延安市宝塔区荣泰景苑南侧210米",
        "tel": "",
        "category": "基础设施:公共设施:公共厕所",
        "type": 0,
        "location": {
            "lat": 36.622635,
            "lng": 109.535536
        },
        "ad_info": {
            "adcode": 610602,
            "province": "陕西省",
            "city": "延安市",
            "district": "宝塔区"
        }
    },
    {
        "id": "2802785969386737938",
        "title": "公共厕所",
        "address": "陕西省延安市宝塔区延大路与杨家岭路交叉口东南方向215米左右",
        "tel": "",
        "category": "基础设施:公共设施:公共厕所",
        "type": 0,
        "location": {
            "lat": 36.615543,
            "lng": 109.466209
        },
        "ad_info": {
            "adcode": 610602,
            "province": "陕西省",
            "city": "延安市",
            "district": "宝塔区"
        }
    },
    {
        "id": "1815418375229972066",
        "title": "公共厕所",
        "address": "陕西省延安市宝塔区七里铺大街与三中巷交叉口西北方向163米左右",
        "tel": "",
        "category": "基础设施:公共设施:公共厕所",
        "type": 0,
        "location": {
            "lat": 36.5692,
            "lng": 109.482911
        },
        "ad_info": {
            "adcode": 610602,
            "province": "陕西省",
            "city": "延安市",
            "district": "宝塔区"
        }
    },
    {
        "id": "17462471082131724236",
        "title": "公共厕所",
        "address": "陕西省延安市宝塔区小南河路与王家沟桥交叉口西北方向112米左右",
        "tel": "",
        "category": "基础设施:公共设施:公共厕所",
        "type": 0,
        "location": {
            "lat": 36.542873,
            "lng": 109.468818
        },
        "ad_info": {
            "adcode": 610602,
            "province": "陕西省",
            "city": "延安市",
            "district": "宝塔区"
        }
    },
    {
        "id": "18018153570748331888",
        "title": "公共厕所",
        "address": "陕西省延安市宝塔区枣园二巷与枣园大道交叉口西南方向122米左右",
        "tel": "",
        "category": "基础设施:公共设施:公共厕所",
        "type": 0,
        "location": {
            "lat": 36.622431,
            "lng": 109.433977
        },
        "ad_info": {
            "adcode": 610602,
            "province": "陕西省",
            "city": "延安市",
            "district": "宝塔区"
        }
    },
    {
        "id": "1656583584803838360",
        "title": "公共厕所",
        "address": "陕西省延安市宝塔区西沟路与西环路交叉口东北方向63米左右",
        "tel": "",
        "category": "基础设施:公共设施:公共厕所",
        "type": 0,
        "location": {
            "lat": 36.589591,
            "lng": 109.475881
        },
        "ad_info": {
            "adcode": 610602,
            "province": "陕西省",
            "city": "延安市",
            "district": "宝塔区"
        }
    },
    {
        "id": "9668319283919126100",
        "title": "公共厕所",
        "address": "陕西省延安市宝塔区市场沟路与银行巷交叉口西北方向155米左右",
        "tel": "",
        "category": "基础设施:公共设施:公共厕所",
        "type": 0,
        "location": {
            "lat": 36.584126,
            "lng": 109.481192
        },
        "ad_info": {
            "adcode": 610602,
            "province": "陕西省",
            "city": "延安市",
            "district": "宝塔区"
        }
    },
    {
        "id": "16431778957229306679",
        "title": "公共厕所",
        "address": "陕西省延安市宝塔区宝中路与红化路交叉口西北方向353米左右",
        "tel": "",
        "category": "基础设施:公共设施:公共厕所",
        "type": 0,
        "location": {
            "lat": 36.578112,
            "lng": 109.460774
        },
        "ad_info": {
            "adcode": 610602,
            "province": "陕西省",
            "city": "延安市",
            "district": "宝塔区"
        }
    },
    {
        "id": "5699731455950561634",
        "title": "公共厕所",
        "address": "陕西省延安市宝塔区姚店路与科技四路交叉口正东方向41米左右",
        "tel": "",
        "category": "基础设施:公共设施:公共厕所",
        "type": 0,
        "location": {
            "lat": 36.685546,
            "lng": 109.677147
        },
        "ad_info": {
            "adcode": 610602,
            "province": "陕西省",
            "city": "延安市",
            "district": "宝塔区"
        }
    },
    {
        "id": "11548834338296727688",
        "title": "公共厕所",
        "address": "陕西省延安市宝塔区财校巷与杜甫川北路交叉口北80米右拐3米",
        "tel": "",
        "category": "基础设施:公共设施:公共厕所",
        "type": 0,
        "location": {
            "lat": 36.568333,
            "lng": 109.454492
        },
        "ad_info": {
            "adcode": 610602,
            "province": "陕西省",
            "city": "延安市",
            "district": "宝塔区"
        }
    },
    {
        "id": "6427374433583574854",
        "title": "公共厕所",
        "address": "陕西省延安市宝塔区延安革命纪念馆西停车场",
        "tel": "",
        "category": "基础设施:公共设施:公共厕所",
        "type": 0,
        "location": {
            "lat": 36.610422,
            "lng": 109.476385
        },
        "ad_info": {
            "adcode": 610602,
            "province": "陕西省",
            "city": "延安市",
            "district": "宝塔区"
        }
    },
    {
        "id": "12774560263728234724",
        "title": "公共厕所",
        "address": "陕西省延安市宝塔区二中巷与宝塔山路交叉口西北方向110米左右",
        "tel": "",
        "category": "基础设施:公共设施:公共厕所",
        "type": 0,
        "location": {
            "lat": 36.581981,
            "lng": 109.490119
        },
        "ad_info": {
            "adcode": 610602,
            "province": "陕西省",
            "city": "延安市",
            "district": "宝塔区"
        }
    },
    {
        "id": "14939053594728923763",
        "title": "公共厕所",
        "address": "陕西省延安市宝塔区大东门街与延河西路交叉口西南方向80米左右",
        "tel": "",
        "category": "基础设施:公共设施:公共厕所",
        "type": 0,
        "location": {
            "lat": 36.597904,
            "lng": 109.489236
        },
        "ad_info": {
            "adcode": 610602,
            "province": "陕西省",
            "city": "延安市",
            "district": "宝塔区"
        }
    },
    {
        "id": "18397175911949336228",
        "title": "公共厕所",
        "address": "陕西省延安市宝塔区嘉岭路",
        "tel": "",
        "category": "基础设施:公共设施:公共厕所",
        "type": 0,
        "location": {
            "lat": 36.585596,
            "lng": 109.491956
        },
        "ad_info": {
            "adcode": 610602,
            "province": "陕西省",
            "city": "延安市",
            "district": "宝塔区"
        }
    },
    {
        "id": "7684384284754939262",
        "title": "公共厕所",
        "address": "陕西省延安市宝塔区兴盛桥与南河路交叉口正南方向169米左右",
        "tel": "",
        "category": "基础设施:公共设施:公共厕所",
        "type": 0,
        "location": {
            "lat": 36.590116,
            "lng": 109.491382
        },
        "ad_info": {
            "adcode": 610602,
            "province": "陕西省",
            "city": "延安市",
            "district": "宝塔区"
        }
    },
    {
        "id": "1306054439228682979",
        "title": "公共厕所",
        "address": "陕西省延安市宝塔区延河东路与延河大桥交叉口西北方向59米左右",
        "tel": "",
        "category": "基础设施:公共设施:公共厕所",
        "type": 0,
        "location": {
            "lat": 36.598782,
            "lng": 109.49154
        },
        "ad_info": {
            "adcode": 610602,
            "province": "陕西省",
            "city": "延安市",
            "district": "宝塔区"
        }
    },
    {
        "id": "11160510656695429041",
        "title": "公共厕所",
        "address": "陕西省延安市宝塔区延安临镇油站西北侧230米",
        "tel": "",
        "category": "基础设施:公共设施:公共厕所",
        "type": 0,
        "location": {
            "lat": 36.346079,
            "lng": 109.983522
        },
        "ad_info": {
            "adcode": 610602,
            "province": "陕西省",
            "city": "延安市",
            "district": "宝塔区"
        }
    },
    {
        "id": "15011504692902814648",
        "title": "公共厕所",
        "address": "陕西省延安市宝塔区后碾庄村附近",
        "tel": "",
        "category": "基础设施:公共设施:公共厕所",
        "type": 0,
        "location": {
            "lat": 36.528614,
            "lng": 109.374266
        },
        "ad_info": {
            "adcode": 610602,
            "province": "陕西省",
            "city": "延安市",
            "district": "宝塔区"
        }
    },
    {
        "id": "1687119413073104620",
        "title": "公共厕所",
        "address": "陕西省延安市宝塔区万花山路与文昌路交叉口正西方向407米左右",
        "tel": "",
        "category": "基础设施:公共设施:公共厕所",
        "type": 0,
        "location": {
            "lat": 36.570265,
            "lng": 109.42815
        },
        "ad_info": {
            "adcode": 610602,
            "province": "陕西省",
            "city": "延安市",
            "district": "宝塔区"
        }
    },
    {
        "id": "3963876295610385444",
        "title": "公共厕所",
        "address": "陕西省延安市宝塔区延河南路与裕丰大桥交叉口西南方向36米左右",
        "tel": "",
        "category": "基础设施:公共设施:公共厕所",
        "type": 0,
        "location": {
            "lat": 36.60447,
            "lng": 109.512492
        },
        "ad_info": {
            "adcode": 610602,
            "province": "陕西省",
            "city": "延安市",
            "district": "宝塔区"
        }
    },
    {
        "id": "3284379165913687946",
        "title": "公共厕所",
        "address": "陕西省延安市宝塔区S306",
        "tel": "",
        "category": "基础设施:公共设施:公共厕所",
        "type": 0,
        "location": {
            "lat": 36.370678,
            "lng": 109.756056
        },
        "ad_info": {
            "adcode": 610602,
            "province": "陕西省",
            "city": "延安市",
            "district": "宝塔区"
        }
    },
    {
        "id": "4609524157935496791",
        "title": "公共厕所",
        "address": "陕西省延安市延川县文化巷与秀延北路交叉口西北方向155米左右",
        "tel": "",
        "category": "基础设施:公共设施:公共厕所",
        "type": 0,
        "location": {
            "lat": 36.881473,
            "lng": 110.190816
        },
        "ad_info": {
            "adcode": 610622,
            "province": "陕西省",
            "city": "延安市",
            "district": "延川县"
        }
    },
    {
        "id": "10323718548436031646",
        "title": "公共厕所",
        "address": "陕西省延安市宝塔区宝塔山路与宝塔桥交叉口东北方向89米左右",
        "tel": "",
        "category": "基础设施:公共设施:公共厕所",
        "type": 0,
        "location": {
            "lat": 36.595729,
            "lng": 109.493796
        },
        "ad_info": {
            "adcode": 610602,
            "province": "陕西省",
            "city": "延安市",
            "district": "宝塔区"
        }
    },
    {
        "id": "5406922458604418148",
        "title": "公共厕所",
        "address": "陕西省延安市宝塔区G210与金延安路交叉口东南方向290米左右",
        "tel": "",
        "category": "基础设施:公共设施:公共厕所",
        "type": 0,
        "location": {
            "lat": 36.630224,
            "lng": 109.45642
        },
        "ad_info": {
            "adcode": 610602,
            "province": "陕西省",
            "city": "延安市",
            "district": "宝塔区"
        }
    },
    {
        "id": "16333831665935738593",
        "title": "公共厕所",
        "address": "陕西省延安市宝塔区万花山路与石万路交叉口西南方向207米左右",
        "tel": "",
        "category": "基础设施:公共设施:公共厕所",
        "type": 0,
        "location": {
            "lat": 36.538423,
            "lng": 109.343582
        },
        "ad_info": {
            "adcode": 610602,
            "province": "陕西省",
            "city": "延安市",
            "district": "宝塔区"
        }
    },
    {
        "id": "17682531815535107637",
        "title": "公共厕所",
        "address": "陕西省延安市宝塔区延安市人民政府东",
        "tel": "0911-3706503",
        "category": "基础设施:公共设施:公共厕所",
        "type": 0,
        "location": {
            "lat": 36.650331,
            "lng": 109.498174
        },
        "ad_info": {
            "adcode": 610602,
            "province": "陕西省",
            "city": "延安市",
            "district": "宝塔区"
        }
    },
    {
        "id": "15168019874234077746",
        "title": "公共厕所",
        "address": "陕西省延安市延川县G210与延甘路交叉口正西方向762米左右",
        "tel": "",
        "category": "基础设施:公共设施:公共厕所",
        "type": 0,
        "location": {
            "lat": 36.846001,
            "lng": 110.012991
        },
        "ad_info": {
            "adcode": 610622,
            "province": "陕西省",
            "city": "延安市",
            "district": "延川县"
        }
    },
    {
        "id": "15545156451971534941",
        "title": "公共厕所",
        "address": "陕西省延安市延川县承平路与永安大桥交叉口西南方向32米左右",
        "tel": "",
        "category": "基础设施:公共设施:公共厕所",
        "type": 0,
        "location": {
            "lat": 37.006308,
            "lng": 109.823177
        },
        "ad_info": {
            "adcode": 610622,
            "province": "陕西省",
            "city": "延安市",
            "district": "延川县"
        }
    },
    {
        "id": "15437088306944876769",
        "title": "公共厕所",
        "address": "陕西省延安市吴起县东新街与紫云巷交叉口正南方向31米左右",
        "tel": "",
        "category": "基础设施:公共设施:公共厕所",
        "type": 0,
        "location": {
            "lat": 36.905888,
            "lng": 108.19828
        },
        "ad_info": {
            "adcode": 610626,
            "province": "陕西省",
            "city": "延安市",
            "district": "吴起县"
        }
    },
    {
        "id": "1748033959919670364",
        "title": "公共厕所",
        "address": "陕西省延安市宝塔区杨家岭南苑A区(上海西路)",
        "tel": "0911-3706503",
        "category": "基础设施:公共设施:公共厕所",
        "type": 0,
        "location": {
            "lat": 36.637874,
            "lng": 109.484239
        },
        "ad_info": {
            "adcode": 610602,
            "province": "陕西省",
            "city": "延安市",
            "district": "宝塔区"
        }
    },
    {
        "id": "5459390846232375633",
        "title": "公共厕所",
        "address": "陕西省延安市富县南教场街与监军台路交叉口西北方向60米左右",
        "tel": "",
        "category": "基础设施:公共设施:公共厕所",
        "type": 0,
        "location": {
            "lat": 35.982411,
            "lng": 109.37044
        },
        "ad_info": {
            "adcode": 610628,
            "province": "陕西省",
            "city": "延安市",
            "district": "富县"
        }
    },
    {
        "id": "9262309997140722365",
        "title": "公共厕所",
        "address": "陕西省延安市宝塔区小南河路与杜甫川南路交叉口正西方向81米左右",
        "tel": "",
        "category": "基础设施:公共设施:公共厕所",
        "type": 0,
        "location": {
            "lat": 36.572664,
            "lng": 109.483211
        },
        "ad_info": {
            "adcode": 610602,
            "province": "陕西省",
            "city": "延安市",
            "district": "宝塔区"
        }
    },
    {
        "id": "1329562850290733625",
        "title": "公共厕所",
        "address": "陕西省延安市宜川县朝阳路与迎宾大道交叉口正南方向390米左右",
        "tel": "",
        "category": "基础设施:公共设施:公共厕所",
        "type": 0,
        "location": {
            "lat": 36.053505,
            "lng": 110.179517
        },
        "ad_info": {
            "adcode": 610630,
            "province": "陕西省",
            "city": "延安市",
            "district": "宜川县"
        }
    },
    {
        "id": "3283508978903156763",
        "title": "公共厕所",
        "address": "陕西省延安市宝塔区创业大街与科技五路交叉口正西方向69米左右",
        "tel": "",
        "category": "基础设施:公共设施:公共厕所",
        "type": 0,
        "location": {
            "lat": 36.686986,
            "lng": 109.684405
        },
        "ad_info": {
            "adcode": 610602,
            "province": "陕西省",
            "city": "延安市",
            "district": "宝塔区"
        }
    },
    {
        "id": "8766518426264887311",
        "title": "公共卫生间",
        "address": "陕西省延安市宝塔区延安益康花园酒店东50米(中环大道)",
        "tel": "0911-3706537",
        "category": "基础设施:公共设施:公共厕所",
        "type": 0,
        "location": {
            "lat": 36.64528,
            "lng": 109.487769
        },
        "ad_info": {
            "adcode": 610602,
            "province": "陕西省",
            "city": "延安市",
            "district": "宝塔区"
        }
    },
    {
        "id": "9821721703990447912",
        "title": "公共厕所",
        "address": "陕西省延安市延川县北大街与龙坪路交叉口西北方向116米左右",
        "tel": "",
        "category": "基础设施:公共设施:公共厕所",
        "type": 0,
        "location": {
            "lat": 36.887333,
            "lng": 110.188151
        },
        "ad_info": {
            "adcode": 610622,
            "province": "陕西省",
            "city": "延安市",
            "district": "延川县"
        }
    },
    {
        "id": "14065765981590556667",
        "title": "公共厕所",
        "address": "陕西省延安市宜川县北窑巷与迎宾大道交叉口正南方向45米左右",
        "tel": "",
        "category": "基础设施:公共设施:公共厕所",
        "type": 0,
        "location": {
            "lat": 36.049909,
            "lng": 110.170339
        },
        "ad_info": {
            "adcode": 610630,
            "province": "陕西省",
            "city": "延安市",
            "district": "宜川县"
        }
    },
    {
        "id": "11589448397690055498",
        "title": "公共厕所",
        "address": "陕西省延安市宝塔区兰家坪小学北侧130米",
        "tel": "",
        "category": "基础设施:公共设施:公共厕所",
        "type": 0,
        "location": {
            "lat": 36.629791,
            "lng": 109.45745
        },
        "ad_info": {
            "adcode": 610602,
            "province": "陕西省",
            "city": "延安市",
            "district": "宝塔区"
        }
    },
    {
        "id": "13297758470122416715",
        "title": "公共厕所",
        "address": "陕西省延安市宝塔区七里铺大街与圣地大道交叉口正南方向68米左右",
        "tel": "",
        "category": "基础设施:公共设施:公共厕所",
        "type": 0,
        "location": {
            "lat": 36.554545,
            "lng": 109.479152
        },
        "ad_info": {
            "adcode": 610602,
            "province": "陕西省",
            "city": "延安市",
            "district": "宝塔区"
        }
    },
    {
        "id": "5025873699232375726",
        "title": "无障碍公共厕所",
        "address": "陕西省延安市黄龙县河滨一巷与河滨大道交叉口东北方向14米左右",
        "tel": "",
        "category": "基础设施:公共设施:公共厕所",
        "type": 0,
        "location": {
            "lat": 35.581283,
            "lng": 109.837741
        },
        "ad_info": {
            "adcode": 610631,
            "province": "陕西省",
            "city": "延安市",
            "district": "黄龙县"
        }
    },
    {
        "id": "2698473930763472269",
        "title": "公共厕所",
        "address": "陕西省延安市延川县河东北街与河东南街交叉口正东方向27米左右",
        "tel": "",
        "category": "基础设施:公共设施:公共厕所",
        "type": 0,
        "location": {
            "lat": 36.880171,
            "lng": 110.194322
        },
        "ad_info": {
            "adcode": 610622,
            "province": "陕西省",
            "city": "延安市",
            "district": "延川县"
        }
    },
    {
        "id": "8473096114453826336",
        "title": "肯德基(美尚城餐厅)-洗手间",
        "address": "陕西省延安市宝塔区二道街新华书店1层",
        "tel": "",
        "category": "基础设施:公共设施:公共厕所",
        "type": 0,
        "location": {
            "lat": 36.59612,
            "lng": 109.489702
        },
        "ad_info": {
            "adcode": 610602,
            "province": "陕西省",
            "city": "延安市",
            "district": "宝塔区"
        }
    },
    {
        "id": "9210880031793517292",
        "title": "公共厕所",
        "address": "陕西省延安市宝塔区瑞金街新区文化公园(东北角)",
        "tel": "0911-3706503",
        "category": "基础设施:公共设施:公共厕所",
        "type": 0,
        "location": {
            "lat": 36.632516,
            "lng": 109.495607
        },
        "ad_info": {
            "adcode": 610602,
            "province": "陕西省",
            "city": "延安市",
            "district": "宝塔区"
        }
    },
    {
        "id": "4786396567957015481",
        "title": "黄陵北服务区第一公共厕所",
        "address": "陕西省延安市黄陵县包茂高速",
        "tel": "",
        "category": "基础设施:公共设施:公共厕所",
        "type": 0,
        "location": {
            "lat": 35.74127,
            "lng": 109.159937
        },
        "ad_info": {
            "adcode": 610632,
            "province": "陕西省",
            "city": "延安市",
            "district": "黄陵县"
        }
    },
    {
        "id": "7308677334481624778",
        "title": "安塞服务区公共厕所",
        "address": "陕西省延安市安塞区包茂高速安塞服务区",
        "tel": "",
        "category": "基础设施:公共设施:公共厕所",
        "type": 0,
        "location": {
            "lat": 37.0915,
            "lng": 109.077035
        },
        "ad_info": {
            "adcode": 610603,
            "province": "陕西省",
            "city": "延安市",
            "district": "安塞区"
        }
    },
    {
        "id": "7890363266540854352",
        "title": "黄陵北服务区第一公共厕所",
        "address": "陕西省延安市黄陵县包茂高速",
        "tel": "",
        "category": "基础设施:公共设施:公共厕所",
        "type": 0,
        "location": {
            "lat": 35.740735,
            "lng": 109.157082
        },
        "ad_info": {
            "adcode": 610632,
            "province": "陕西省",
            "city": "延安市",
            "district": "黄陵县"
        }
    },
    {
        "id": "13379972298114895800",
        "title": "安塞服务区公共厕所",
        "address": "陕西省延安市安塞区包茂高速安塞服务区",
        "tel": "",
        "category": "基础设施:公共设施:公共厕所",
        "type": 0,
        "location": {
            "lat": 37.091524,
            "lng": 109.075531
        },
        "ad_info": {
            "adcode": 610603,
            "province": "陕西省",
            "city": "延安市",
            "district": "安塞区"
        }
    },
    {
        "id": "9367043076670368327",
        "title": "志丹服务区公共厕所",
        "address": "陕西省延安市志丹县G341与任刘路交叉口西南方向252米左右",
        "tel": "",
        "category": "基础设施:公共设施:公共厕所",
        "type": 0,
        "location": {
            "lat": 36.893227,
            "lng": 108.692539
        },
        "ad_info": {
            "adcode": 610625,
            "province": "陕西省",
            "city": "延安市",
            "district": "志丹县"
        }
    },
    {
        "id": "13941968423200992083",
        "title": "志丹服务区第二公共厕所",
        "address": "陕西省延安市志丹县G341与任刘路交叉口正南方向440米左右",
        "tel": "",
        "category": "基础设施:公共设施:公共厕所",
        "type": 0,
        "location": {
            "lat": 36.890991,
            "lng": 108.692913
        },
        "ad_info": {
            "adcode": 610625,
            "province": "陕西省",
            "city": "延安市",
            "district": "志丹县"
        }
    },
    {
        "id": "14962730731823214745",
        "title": "甘泉服务区第一公共厕所",
        "address": "陕西省延安市甘泉县G65W延西高速附近",
        "tel": "",
        "category": "基础设施:公共设施:公共厕所",
        "type": 0,
        "location": {
            "lat": 36.235363,
            "lng": 109.199364
        },
        "ad_info": {
            "adcode": 610627,
            "province": "陕西省",
            "city": "延安市",
            "district": "甘泉县"
        }
    },
    {
        "id": "12680566697818670346",
        "title": "公共厕所",
        "address": "陕西省延安市宝塔区圣地大道与虎头峁桥交叉口正东方向26米左右",
        "tel": "",
        "category": "基础设施:公共设施:公共厕所",
        "type": 0,
        "location": {
            "lat": 36.548619,
            "lng": 109.476414
        },
        "ad_info": {
            "adcode": 610602,
            "province": "陕西省",
            "city": "延安市",
            "district": "宝塔区"
        }
    },
    {
        "id": "15876037044703702139",
        "title": "旅游公共厕所",
        "address": "陕西省延安市宝塔区枣园北路与枣园大道交叉口正西方向88米左右",
        "tel": "",
        "category": "基础设施:公共设施:公共厕所",
        "type": 0,
        "location": {
            "lat": 36.619624,
            "lng": 109.45689
        },
        "ad_info": {
            "adcode": 610602,
            "province": "陕西省",
            "city": "延安市",
            "district": "宝塔区"
        }
    },
    {
        "id": "11013098906857422321",
        "title": "张村驿服务区公共厕所",
        "address": "陕西省延安市富县香黄路西100米",
        "tel": "",
        "category": "基础设施:公共设施:公共厕所",
        "type": 0,
        "location": {
            "lat": 35.914035,
            "lng": 109.084423
        },
        "ad_info": {
            "adcode": 610628,
            "province": "陕西省",
            "city": "延安市",
            "district": "富县"
        }
    },
    {
        "id": "8409003311058230156",
        "title": "延川服务区第一公共厕所",
        "address": "陕西省延安市延川县延川服务区(长延高速公路北)",
        "tel": "",
        "category": "基础设施:公共设施:公共厕所",
        "type": 0,
        "location": {
            "lat": 36.816506,
            "lng": 110.246822
        },
        "ad_info": {
            "adcode": 610622,
            "province": "陕西省",
            "city": "延安市",
            "district": "延川县"
        }
    },
    {
        "id": "18063497195586099117",
        "title": "洛川服务区公共厕所",
        "address": "陕西省延安市洛川县凤栖街道秦咀包茂高速公路洛川服务区",
        "tel": "",
        "category": "基础设施:公共设施:公共厕所",
        "type": 0,
        "location": {
            "lat": 35.752947,
            "lng": 109.376024
        },
        "ad_info": {
            "adcode": 610629,
            "province": "陕西省",
            "city": "延安市",
            "district": "洛川县"
        }
    },
    {
        "id": "18367840548092947542",
        "title": "壶口服务区公共厕所",
        "address": "陕西省延安市宜川县G242与G309交叉口正东方向786米左右",
        "tel": "",
        "category": "基础设施:公共设施:公共厕所",
        "type": 0,
        "location": {
            "lat": 36.062146,
            "lng": 110.203779
        },
        "ad_info": {
            "adcode": 610630,
            "province": "陕西省",
            "city": "延安市",
            "district": "宜川县"
        }
    },
    {
        "id": "4583254894798789122",
        "title": "厢寺川服务区公共厕所",
        "address": "陕西省延安市洛川县青兰高速",
        "tel": "",
        "category": "基础设施:公共设施:公共厕所",
        "type": 0,
        "location": {
            "lat": 35.957577,
            "lng": 109.565699
        },
        "ad_info": {
            "adcode": 610629,
            "province": "陕西省",
            "city": "延安市",
            "district": "洛川县"
        }
    },
    {
        "id": "17089683860516413179",
        "title": "壶口服务区第一公共厕所",
        "address": "陕西省延安市宜川县G242与G309交叉口东南方向211米左右",
        "tel": "",
        "category": "基础设施:公共设施:公共厕所",
        "type": 0,
        "location": {
            "lat": 36.062887,
            "lng": 110.197273
        },
        "ad_info": {
            "adcode": 610630,
            "province": "陕西省",
            "city": "延安市",
            "district": "宜川县"
        }
    },
    {
        "id": "12963006226414539640",
        "title": "公共厕所",
        "address": "陕西省延安市宝塔区延河东路与西沟大桥交叉口东南方向90米左右",
        "tel": "",
        "category": "基础设施:公共设施:公共厕所",
        "type": 0,
        "location": {
            "lat": 36.602123,
            "lng": 109.485924
        },
        "ad_info": {
            "adcode": 610602,
            "province": "陕西省",
            "city": "延安市",
            "district": "宝塔区"
        }
    },
    {
        "id": "791979191920488741",
        "title": "公共厕所",
        "address": "陕西省延安市富县人民街与开元路交叉口东南方向70米左右",
        "tel": "",
        "category": "基础设施:公共设施:公共厕所",
        "type": 0,
        "location": {
            "lat": 35.989603,
            "lng": 109.381081
        },
        "ad_info": {
            "adcode": 610628,
            "province": "陕西省",
            "city": "延安市",
            "district": "富县"
        }
    },
    {
        "id": "15394230673312891808",
        "title": "公共厕所",
        "address": "陕西省延安市宝塔区圣地大道与小南沟路交叉口正北方向61米左右",
        "tel": "",
        "category": "基础设施:公共设施:公共厕所",
        "type": 0,
        "location": {
            "lat": 36.533028,
            "lng": 109.471455
        },
        "ad_info": {
            "adcode": 610602,
            "province": "陕西省",
            "city": "延安市",
            "district": "宝塔区"
        }
    },
    {
        "id": "4849992222439895236",
        "title": "公共卫生间",
        "address": "陕西省延安市富县G309与陵园路交叉口正北方向154米左右",
        "tel": "",
        "category": "基础设施:公共设施:公共厕所",
        "type": 0,
        "location": {
            "lat": 36.001995,
            "lng": 109.392601
        },
        "ad_info": {
            "adcode": 610628,
            "province": "陕西省",
            "city": "延安市",
            "district": "富县"
        }
    },
    {
        "id": "4823505234896125380",
        "title": "公共厕所",
        "address": "陕西省延安市安塞区206省道东50米",
        "tel": "",
        "category": "基础设施:公共设施:公共厕所",
        "type": 0,
        "location": {
            "lat": 36.834522,
            "lng": 109.336966
        },
        "ad_info": {
            "adcode": 610603,
            "province": "陕西省",
            "city": "延安市",
            "district": "安塞区"
        }
    },
    {
        "id": "15535645933394322616",
        "title": "公共厕所",
        "address": "陕西省延安市宝塔区南市街道红化沟隧道慧泽山庄A区旁",
        "tel": "",
        "category": "基础设施:公共设施:公共厕所",
        "type": 0,
        "location": {
            "lat": 36.580697,
            "lng": 109.466199
        },
        "ad_info": {
            "adcode": 610602,
            "province": "陕西省",
            "city": "延安市",
            "district": "宝塔区"
        }
    },
    {
        "id": "6859209186699598234",
        "title": "公共厕所",
        "address": "陕西省延安市宝塔区南河路与礼堂巷交叉口正北方向100米左右",
        "tel": "",
        "category": "基础设施:公共设施:公共厕所",
        "type": 0,
        "location": {
            "lat": 36.588299,
            "lng": 109.491327
        },
        "ad_info": {
            "adcode": 610602,
            "province": "陕西省",
            "city": "延安市",
            "district": "宝塔区"
        }
    },
    {
        "id": "1864690976586403322",
        "title": "公共厕所",
        "address": "陕西省延安市志丹县保安街与光明巷交叉口正南方向84米左右",
        "tel": "",
        "category": "基础设施:公共设施:公共厕所",
        "type": 0,
        "location": {
            "lat": 36.819967,
            "lng": 108.769898
        },
        "ad_info": {
            "adcode": 610625,
            "province": "陕西省",
            "city": "延安市",
            "district": "志丹县"
        }
    },
    {
        "id": "11111681061515633623",
        "title": "公共厕所",
        "address": "陕西省延安市安塞区206省道东50米",
        "tel": "",
        "category": "基础设施:公共设施:公共厕所",
        "type": 0,
        "location": {
            "lat": 37.08694,
            "lng": 109.082095
        },
        "ad_info": {
            "adcode": 610603,
            "province": "陕西省",
            "city": "延安市",
            "district": "安塞区"
        }
    },
    {
        "id": "920882680669751433",
        "title": "公共厕所",
        "address": "陕西省延安市宝塔区市场沟路与银行巷交叉口正北方向14米左右",
        "tel": "",
        "category": "基础设施:公共设施:公共厕所",
        "type": 0,
        "location": {
            "lat": 36.583329,
            "lng": 109.48245
        },
        "ad_info": {
            "adcode": 610602,
            "province": "陕西省",
            "city": "延安市",
            "district": "宝塔区"
        }
    },
    {
        "id": "4368460495226833765",
        "title": "公共厕所",
        "address": "陕西省延安市宜川县S201与渭清路交叉口正南方向24米左右",
        "tel": "",
        "category": "基础设施:公共设施:公共厕所",
        "type": 0,
        "location": {
            "lat": 36.059389,
            "lng": 110.184594
        },
        "ad_info": {
            "adcode": 610630,
            "province": "陕西省",
            "city": "延安市",
            "district": "宜川县"
        }
    },
    {
        "id": "16107778915861652337",
        "title": "公共厕所",
        "address": "陕西省延安市富县人民街城关小学",
        "tel": "",
        "category": "基础设施:公共设施:公共厕所",
        "type": 0,
        "location": {
            "lat": 35.986307,
            "lng": 109.379064
        },
        "ad_info": {
            "adcode": 610628,
            "province": "陕西省",
            "city": "延安市",
            "district": "富县"
        }
    },
    {
        "id": "7905926340763378311",
        "title": "公共厕所",
        "address": "陕西省延安市延长县中心巷与翠屏街交叉口东南方向19米左右",
        "tel": "",
        "category": "基础设施:公共设施:公共厕所",
        "type": 0,
        "location": {
            "lat": 36.577256,
            "lng": 110.011313
        },
        "ad_info": {
            "adcode": 610621,
            "province": "陕西省",
            "city": "延安市",
            "district": "延长县"
        }
    },
    {
        "id": "760966287185041439",
        "title": "公共厕所",
        "address": "陕西省延安市吴起县新华巷与洛滨路交叉口正南方向62米左右",
        "tel": "",
        "category": "基础设施:公共设施:公共厕所",
        "type": 0,
        "location": {
            "lat": 36.912264,
            "lng": 108.187588
        },
        "ad_info": {
            "adcode": 610626,
            "province": "陕西省",
            "city": "延安市",
            "district": "吴起县"
        }
    },
    {
        "id": "7838467878360308175",
        "title": "公共厕所",
        "address": "陕西省延安市宝塔区延安万达小镇东南侧180米",
        "tel": "",
        "category": "基础设施:公共设施:公共厕所",
        "type": 0,
        "location": {
            "lat": 36.566958,
            "lng": 109.517876
        },
        "ad_info": {
            "adcode": 610602,
            "province": "陕西省",
            "city": "延安市",
            "district": "宝塔区"
        }
    },
    {
        "id": "14897418160951214200",
        "title": "公共厕所",
        "address": "陕西省延安市安塞区206省道西50米",
        "tel": "",
        "category": "基础设施:公共设施:公共厕所",
        "type": 0,
        "location": {
            "lat": 36.837822,
            "lng": 109.332702
        },
        "ad_info": {
            "adcode": 610603,
            "province": "陕西省",
            "city": "延安市",
            "district": "安塞区"
        }
    },
    {
        "id": "14400958906392802373",
        "title": "公共厕所",
        "address": "陕西省延安市延长县二巷道与环山路交叉口正东方向13米左右",
        "tel": "",
        "category": "基础设施:公共设施:公共厕所",
        "type": 0,
        "location": {
            "lat": 36.577389,
            "lng": 110.019019
        },
        "ad_info": {
            "adcode": 610621,
            "province": "陕西省",
            "city": "延安市",
            "district": "延长县"
        }
    },
    {
        "id": "3253828245367865401",
        "title": "公共厕所",
        "address": "陕西省延安市宝塔区延安柳苑民宿东北侧110米",
        "tel": "",
        "category": "基础设施:公共设施:公共厕所",
        "type": 0,
        "location": {
            "lat": 36.53319,
            "lng": 109.464163
        },
        "ad_info": {
            "adcode": 610602,
            "province": "陕西省",
            "city": "延安市",
            "district": "宝塔区"
        }
    },
    {
        "id": "5567302295096024274",
        "title": "公共厕所",
        "address": "陕西省延安市宝塔区圣地大道与小南沟路交叉口正东方向60米左右",
        "tel": "",
        "category": "基础设施:公共设施:公共厕所",
        "type": 0,
        "location": {
            "lat": 36.532575,
            "lng": 109.472087
        },
        "ad_info": {
            "adcode": 610602,
            "province": "陕西省",
            "city": "延安市",
            "district": "宝塔区"
        }
    },
    {
        "id": "13340912386775717688",
        "title": "公共厕所",
        "address": "陕西省延安市宝塔区丽景桥与小南河路交叉口西北方向221米左右",
        "tel": "",
        "category": "基础设施:公共设施:公共厕所",
        "type": 0,
        "location": {
            "lat": 36.553676,
            "lng": 109.476081
        },
        "ad_info": {
            "adcode": 610602,
            "province": "陕西省",
            "city": "延安市",
            "district": "宝塔区"
        }
    },
    {
        "id": "1863814514789514350",
        "title": "吴起北服务区公共厕所",
        "address": "陕西省延安市吴起县延长石油吴起北服务区加油站东南侧140米",
        "tel": "",
        "category": "基础设施:公共设施:公共厕所",
        "type": 0,
        "location": {
            "lat": 37.09127,
            "lng": 108.108064
        },
        "ad_info": {
            "adcode": 610626,
            "province": "陕西省",
            "city": "延安市",
            "district": "吴起县"
        }
    },
    {
        "id": "9251652373219200989",
        "title": "公共厕所",
        "address": "陕西省延安市宝塔区延安宾馆家属院西侧130米",
        "tel": "",
        "category": "基础设施:公共设施:公共厕所",
        "type": 0,
        "location": {
            "lat": 36.597162,
            "lng": 109.480738
        },
        "ad_info": {
            "adcode": 610602,
            "province": "陕西省",
            "city": "延安市",
            "district": "宝塔区"
        }
    },
    {
        "id": "1835820929848729559",
        "title": "公共厕所",
        "address": "陕西省延安市宝塔区光明东巷与光明西巷交叉口西南方向288米左右",
        "tel": "",
        "category": "基础设施:公共设施:公共厕所",
        "type": 0,
        "location": {
            "lat": 36.6015,
            "lng": 109.477028
        },
        "ad_info": {
            "adcode": 610602,
            "province": "陕西省",
            "city": "延安市",
            "district": "宝塔区"
        }
    },
    {
        "id": "13677605821496812597",
        "title": "公共厕所",
        "address": "陕西省延安市洛川县凤鸣街与老东街交叉口西南方向36米左右",
        "tel": "",
        "category": "基础设施:公共设施:公共厕所",
        "type": 0,
        "location": {
            "lat": 35.757872,
            "lng": 109.430571
        },
        "ad_info": {
            "adcode": 610629,
            "province": "陕西省",
            "city": "延安市",
            "district": "洛川县"
        }
    },
    {
        "id": "2644092218283148794",
        "title": "公共厕所",
        "address": "陕西省延安市富县沙梁街与河滨路交叉口东南方向93米左右",
        "tel": "",
        "category": "基础设施:公共设施:公共厕所",
        "type": 0,
        "location": {
            "lat": 35.991189,
            "lng": 109.382227
        },
        "ad_info": {
            "adcode": 610628,
            "province": "陕西省",
            "city": "延安市",
            "district": "富县"
        }
    },
    {
        "id": "10443006438473677663",
        "title": "公共厕所",
        "address": "陕西省延安市吴起县新城街与青云路交叉口正西方向22米左右",
        "tel": "",
        "category": "基础设施:公共设施:公共厕所",
        "type": 0,
        "location": {
            "lat": 36.903963,
            "lng": 108.197636
        },
        "ad_info": {
            "adcode": 610626,
            "province": "陕西省",
            "city": "延安市",
            "district": "吴起县"
        }
    },
    {
        "id": "11270912668871061469",
        "title": "公共厕所",
        "address": "陕西省延安市志丹县双拥街29号",
        "tel": "",
        "category": "基础设施:公共设施:公共厕所",
        "type": 0,
        "location": {
            "lat": 36.80476,
            "lng": 108.773546
        },
        "ad_info": {
            "adcode": 610625,
            "province": "陕西省",
            "city": "延安市",
            "district": "志丹县"
        }
    },
    {
        "id": "1626271768828548519",
        "title": "公共厕所",
        "address": "陕西省延安市宝塔区川松路与延河北路交叉口正西方向975米左右",
        "tel": "",
        "category": "基础设施:公共设施:公共厕所",
        "type": 0,
        "location": {
            "lat": 36.64246,
            "lng": 109.561183
        },
        "ad_info": {
            "adcode": 610602,
            "province": "陕西省",
            "city": "延安市",
            "district": "宝塔区"
        }
    },
    {
        "id": "16585333130697249507",
        "title": "公共厕所",
        "address": "陕西省延安市宝塔区南河路延安体育场",
        "tel": "",
        "category": "基础设施:公共设施:公共厕所",
        "type": 0,
        "location": {
            "lat": 36.590153,
            "lng": 109.491856
        },
        "ad_info": {
            "adcode": 610602,
            "province": "陕西省",
            "city": "延安市",
            "district": "宝塔区"
        }
    },
    {
        "id": "17906590012798859331",
        "title": "公共厕所",
        "address": "陕西省延安市宝塔区市场沟路6号",
        "tel": "",
        "category": "基础设施:公共设施:公共厕所",
        "type": 0,
        "location": {
            "lat": 36.583219,
            "lng": 109.48442
        },
        "ad_info": {
            "adcode": 610602,
            "province": "陕西省",
            "city": "延安市",
            "district": "宝塔区"
        }
    },
    {
        "id": "10397618584052436652",
        "title": "公共厕所",
        "address": "陕西省延安市吴起县303省道北50米",
        "tel": "",
        "category": "基础设施:公共设施:公共厕所",
        "type": 0,
        "location": {
            "lat": 37.058152,
            "lng": 108.151581
        },
        "ad_info": {
            "adcode": 610626,
            "province": "陕西省",
            "city": "延安市",
            "district": "吴起县"
        }
    },
    {
        "id": "13691064071975753359",
        "title": "公共厕所",
        "address": "陕西省延安市子长市瓦窑堡镇迎宾路安全生产委员会办公室",
        "tel": "",
        "category": "基础设施:公共设施:公共厕所",
        "type": 0,
        "location": {
            "lat": 37.13676,
            "lng": 109.673614
        },
        "ad_info": {
            "adcode": 610681,
            "province": "陕西省",
            "city": "延安市",
            "district": "子长市"
        }
    },
    {
        "id": "5857624097137256513",
        "title": "公共厕所",
        "address": "陕西省延安市宜川县东大街与渭清路交叉口正北方向211米左右",
        "tel": "",
        "category": "基础设施:公共设施:公共厕所",
        "type": 0,
        "location": {
            "lat": 36.049021,
            "lng": 110.177769
        },
        "ad_info": {
            "adcode": 610630,
            "province": "陕西省",
            "city": "延安市",
            "district": "宜川县"
        }
    },
    {
        "id": "5965011860589642182",
        "title": "公共厕所",
        "address": "陕西省延安市宜川县朝阳路与渭清路交叉口正南方向599米左右",
        "tel": "",
        "category": "基础设施:公共设施:公共厕所",
        "type": 0,
        "location": {
            "lat": 36.051781,
            "lng": 110.181583
        },
        "ad_info": {
            "adcode": 610630,
            "province": "陕西省",
            "city": "延安市",
            "district": "宜川县"
        }
    },
    {
        "id": "2687337945859021492",
        "title": "公共厕所",
        "address": "陕西省延安市宜川县S307与宜集韩路交叉口正北方向622米左右",
        "tel": "",
        "category": "基础设施:公共设施:公共厕所",
        "type": 0,
        "location": {
            "lat": 36.024684,
            "lng": 110.153611
        },
        "ad_info": {
            "adcode": 610630,
            "province": "陕西省",
            "city": "延安市",
            "district": "宜川县"
        }
    },
    {
        "id": "11739499952704481654",
        "title": "公共厕所",
        "address": "陕西省延安市宝塔区广通路与广顺路交叉口西南方向85米左右",
        "tel": "",
        "category": "基础设施:公共设施:公共厕所",
        "type": 0,
        "location": {
            "lat": 36.608267,
            "lng": 109.467754
        },
        "ad_info": {
            "adcode": 610602,
            "province": "陕西省",
            "city": "延安市",
            "district": "宝塔区"
        }
    },
    {
        "id": "17315543981327124084",
        "title": "公共厕所",
        "address": "陕西省延安市宝塔区S205与玉贯路交叉口正南方向901米左右",
        "tel": "",
        "category": "基础设施:公共设施:公共厕所",
        "type": 0,
        "location": {
            "lat": 36.846391,
            "lng": 109.638117
        },
        "ad_info": {
            "adcode": 610602,
            "province": "陕西省",
            "city": "延安市",
            "district": "宝塔区"
        }
    },
    {
        "id": "11396465823126740587",
        "title": "公共厕所",
        "address": "陕西省延安市宝塔区G210与延塞路交叉口正西方向81米左右",
        "tel": "",
        "category": "基础设施:公共设施:公共厕所",
        "type": 0,
        "location": {
            "lat": 36.707927,
            "lng": 109.417506
        },
        "ad_info": {
            "adcode": 610602,
            "province": "陕西省",
            "city": "延安市",
            "district": "宝塔区"
        }
    },
    {
        "id": "9255595259223723232",
        "title": "公共厕所",
        "address": "陕西省延安市安塞区富民街与环城路交叉口东南方向311米左右",
        "tel": "",
        "category": "基础设施:公共设施:公共厕所",
        "type": 0,
        "location": {
            "lat": 36.859526,
            "lng": 109.329771
        },
        "ad_info": {
            "adcode": 610603,
            "province": "陕西省",
            "city": "延安市",
            "district": "安塞区"
        }
    },
    {
        "id": "11423532253486199845",
        "title": "公共厕所",
        "address": "陕西省延安市黄陵县公孙路与北崖路交叉口正西方向172米左右",
        "tel": "",
        "category": "基础设施:公共设施:公共厕所",
        "type": 0,
        "location": {
            "lat": 35.583361,
            "lng": 109.25953
        },
        "ad_info": {
            "adcode": 610632,
            "province": "陕西省",
            "city": "延安市",
            "district": "黄陵县"
        }
    },
    {
        "id": "17873700675196001916",
        "title": "公共厕所",
        "address": "陕西省延安市安塞区G210与徐张路交叉口正北方向1864米左右",
        "tel": "",
        "category": "基础设施:公共设施:公共厕所",
        "type": 0,
        "location": {
            "lat": 36.901596,
            "lng": 109.314471
        },
        "ad_info": {
            "adcode": 610603,
            "province": "陕西省",
            "city": "延安市",
            "district": "安塞区"
        }
    },
    {
        "id": "3034541894939646908",
        "title": "公共厕所",
        "address": "陕西省延安市富县G309与富北西路交叉口正东方向96米左右",
        "tel": "",
        "category": "基础设施:公共设施:公共厕所",
        "type": 0,
        "location": {
            "lat": 35.999572,
            "lng": 109.385996
        },
        "ad_info": {
            "adcode": 610628,
            "province": "陕西省",
            "city": "延安市",
            "district": "富县"
        }
    },
    {
        "id": "13116037370236662117",
        "title": "公共厕所",
        "address": "陕西省延安市宝塔区二庄科路与百合路交叉口东南方向394米左右",
        "tel": "",
        "category": "基础设施:公共设施:公共厕所",
        "type": 0,
        "location": {
            "lat": 36.56088,
            "lng": 109.490326
        },
        "ad_info": {
            "adcode": 610602,
            "province": "陕西省",
            "city": "延安市",
            "district": "宝塔区"
        }
    },
    {
        "id": "277371129398658441",
        "title": "公共厕所",
        "address": "陕西省延安市宜川县渭清路金瀑小区北侧",
        "tel": "",
        "category": "基础设施:公共设施:公共厕所",
        "type": 0,
        "location": {
            "lat": 36.049298,
            "lng": 110.176825
        },
        "ad_info": {
            "adcode": 610630,
            "province": "陕西省",
            "city": "延安市",
            "district": "宜川县"
        }
    },
    {
        "id": "14814458761172835877",
        "title": "公共厕所",
        "address": "陕西省延安市延长县朱家湾安居小区北侧210米",
        "tel": "",
        "category": "基础设施:公共设施:公共厕所",
        "type": 0,
        "location": {
            "lat": 36.576261,
            "lng": 110.033167
        },
        "ad_info": {
            "adcode": 610621,
            "province": "陕西省",
            "city": "延安市",
            "district": "延长县"
        }
    },
    {
        "id": "452641147126203944",
        "title": "公共厕所",
        "address": "陕西省延安市子长市秀延街附近",
        "tel": "",
        "category": "基础设施:公共设施:公共厕所",
        "type": 0,
        "location": {
            "lat": 37.144399,
            "lng": 109.681452
        },
        "ad_info": {
            "adcode": 610681,
            "province": "陕西省",
            "city": "延安市",
            "district": "子长市"
        }
    },
    {
        "id": "13420539191210921281",
        "title": "公共厕所",
        "address": "陕西省延安市黄陵县北二路与河滨路交叉口西北方向1436米左右",
        "tel": "",
        "category": "基础设施:公共设施:公共厕所",
        "type": 0,
        "location": {
            "lat": 35.657071,
            "lng": 109.075748
        },
        "ad_info": {
            "adcode": 610632,
            "province": "陕西省",
            "city": "延安市",
            "district": "黄陵县"
        }
    },
    {
        "id": "8591319530565304167",
        "title": "公共厕所",
        "address": "陕西省延安市子长市中山街与环城东路交叉口正东方向226米左右",
        "tel": "",
        "category": "基础设施:公共设施:公共厕所",
        "type": 0,
        "location": {
            "lat": 37.13441,
            "lng": 109.672757
        },
        "ad_info": {
            "adcode": 610681,
            "province": "陕西省",
            "city": "延安市",
            "district": "子长市"
        }
    },
    {
        "id": "9614326536215809801",
        "title": "公共厕所",
        "address": "陕西省延安市宝塔区太和山-道观西侧240米",
        "tel": "",
        "category": "基础设施:公共设施:公共厕所",
        "type": 0,
        "location": {
            "lat": 36.606978,
            "lng": 109.489282
        },
        "ad_info": {
            "adcode": 610602,
            "province": "陕西省",
            "city": "延安市",
            "district": "宝塔区"
        }
    },
    {
        "id": "17535152807263694311",
        "title": "公共卫生间",
        "address": "陕西省延安市宝塔区七里铺大街与三中巷交叉口正北方向123米左右",
        "tel": "",
        "category": "基础设施:公共设施:公共厕所",
        "type": 0,
        "location": {
            "lat": 36.569459,
            "lng": 109.484774
        },
        "ad_info": {
            "adcode": 610602,
            "province": "陕西省",
            "city": "延安市",
            "district": "宝塔区"
        }
    },
    {
        "id": "15261443799452122570",
        "title": "公共卫生间",
        "address": "陕西省延安市洛川县中心街与凤栖街交叉口正西方向126米左右",
        "tel": "",
        "category": "基础设施:公共设施:公共厕所",
        "type": 0,
        "location": {
            "lat": 35.76594,
            "lng": 109.438404
        },
        "ad_info": {
            "adcode": 610629,
            "province": "陕西省",
            "city": "延安市",
            "district": "洛川县"
        }
    },
    {
        "id": "10282397801577635767",
        "title": "公共厕所",
        "address": "陕西省延安市富县G309与前坬隧道交叉口正东方向850米左右",
        "tel": "",
        "category": "基础设施:公共设施:公共厕所",
        "type": 0,
        "location": {
            "lat": 36.019242,
            "lng": 109.43982
        },
        "ad_info": {
            "adcode": 610628,
            "province": "陕西省",
            "city": "延安市",
            "district": "富县"
        }
    },
    {
        "id": "8565363473706504404",
        "title": "公共厕所",
        "address": "陕西省延安市宝塔区七里铺大街与杜公祠路交叉口西北方向20米左右",
        "tel": "",
        "category": "基础设施:公共设施:公共厕所",
        "type": 0,
        "location": {
            "lat": 36.572269,
            "lng": 109.484786
        },
        "ad_info": {
            "adcode": 610602,
            "province": "陕西省",
            "city": "延安市",
            "district": "宝塔区"
        }
    },
    {
        "id": "13547227720755416783",
        "title": "公共厕所",
        "address": "陕西省延安市洛川县府前街与文化路交叉口东南方向29米左右",
        "tel": "",
        "category": "基础设施:公共设施:公共厕所",
        "type": 0,
        "location": {
            "lat": 35.76154,
            "lng": 109.43245
        },
        "ad_info": {
            "adcode": 610629,
            "province": "陕西省",
            "city": "延安市",
            "district": "洛川县"
        }
    },
    {
        "id": "17769202440179382812",
        "title": "公共厕所",
        "address": "陕西省延安市子长市G210与富源路交叉口东南方向130米左右",
        "tel": "",
        "category": "基础设施:公共设施:公共厕所",
        "type": 0,
        "location": {
            "lat": 37.131934,
            "lng": 109.670683
        },
        "ad_info": {
            "adcode": 610681,
            "province": "陕西省",
            "city": "延安市",
            "district": "子长市"
        }
    },
    {
        "id": "9281513422211696988",
        "title": "延安东服务区公共厕所",
        "address": "陕西省延安市宝塔区延长石油延安东服务区加油站东南侧170米",
        "tel": "",
        "category": "基础设施:公共设施:公共厕所",
        "type": 0,
        "location": {
            "lat": 36.704903,
            "lng": 109.774878
        },
        "ad_info": {
            "adcode": 610602,
            "province": "陕西省",
            "city": "延安市",
            "district": "宝塔区"
        }
    },
    {
        "id": "15115445749530647116",
        "title": "公共厕所",
        "address": "陕西省延安市延川县南大街与平安巷交叉口正东方向25米左右",
        "tel": "",
        "category": "基础设施:公共设施:公共厕所",
        "type": 0,
        "location": {
            "lat": 36.874819,
            "lng": 110.195529
        },
        "ad_info": {
            "adcode": 610622,
            "province": "陕西省",
            "city": "延安市",
            "district": "延川县"
        }
    },
    {
        "id": "10263936237899751198",
        "title": "公共厕所",
        "address": "陕西省延安市富县309国道与G65包茂高速入口交叉口西北50米",
        "tel": "",
        "category": "基础设施:公共设施:公共厕所",
        "type": 0,
        "location": {
            "lat": 36.022173,
            "lng": 109.449859
        },
        "ad_info": {
            "adcode": 610628,
            "province": "陕西省",
            "city": "延安市",
            "district": "富县"
        }
    },
    {
        "id": "9679913625797483696",
        "title": "公共厕所",
        "address": "陕西省延安市宝塔区延河北路与永兴路交叉口西南方向46米左右",
        "tel": "",
        "category": "基础设施:公共设施:公共厕所",
        "type": 0,
        "location": {
            "lat": 36.608711,
            "lng": 109.52022
        },
        "ad_info": {
            "adcode": 610602,
            "province": "陕西省",
            "city": "延安市",
            "district": "宝塔区"
        }
    },
    {
        "id": "14179115074026946417",
        "title": "公共厕所",
        "address": "陕西省延安市宝塔区杜甫川北路与西华巷交叉口西北方向50米左右",
        "tel": "",
        "category": "基础设施:公共设施:公共厕所",
        "type": 0,
        "location": {
            "lat": 36.569494,
            "lng": 109.468273
        },
        "ad_info": {
            "adcode": 610602,
            "province": "陕西省",
            "city": "延安市",
            "district": "宝塔区"
        }
    },
    {
        "id": "8944640881357135039",
        "title": "公共厕所",
        "address": "陕西省延安市延川县G210与马齐路交叉口正东方向1128米左右",
        "tel": "",
        "category": "基础设施:公共设施:公共厕所",
        "type": 0,
        "location": {
            "lat": 36.837247,
            "lng": 109.960975
        },
        "ad_info": {
            "adcode": 610622,
            "province": "陕西省",
            "city": "延安市",
            "district": "延川县"
        }
    },
    {
        "id": "13228965764913850831",
        "title": "公共厕所",
        "address": "陕西省延安市宜川县叠翠路与延壶路交叉口东南方向482米左右",
        "tel": "",
        "category": "基础设施:公共设施:公共厕所",
        "type": 0,
        "location": {
            "lat": 36.273732,
            "lng": 110.147645
        },
        "ad_info": {
            "adcode": 610630,
            "province": "陕西省",
            "city": "延安市",
            "district": "宜川县"
        }
    },
    {
        "id": "8771388036991121871",
        "title": "公共厕所",
        "address": "陕西省延安市吴起县环城路与胜利二巷交叉口东南方向146米左右",
        "tel": "",
        "category": "基础设施:公共设施:公共厕所",
        "type": 0,
        "location": {
            "lat": 36.929761,
            "lng": 108.173779
        },
        "ad_info": {
            "adcode": 610626,
            "province": "陕西省",
            "city": "延安市",
            "district": "吴起县"
        }
    },
    {
        "id": "12867657688314824697",
        "title": "公共厕所",
        "address": "陕西省延安市吴起县洛东一巷与洛源街交叉口西北方向83米左右",
        "tel": "",
        "category": "基础设施:公共设施:公共厕所",
        "type": 0,
        "location": {
            "lat": 36.91046,
            "lng": 108.19107
        },
        "ad_info": {
            "adcode": 610626,
            "province": "陕西省",
            "city": "延安市",
            "district": "吴起县"
        }
    },
    {
        "id": "17342079430507433447",
        "title": "公共厕所",
        "address": "陕西省延安市宝塔区二道街与顺阳南街交叉口正西方向40米左右",
        "tel": "",
        "category": "基础设施:公共设施:公共厕所",
        "type": 0,
        "location": {
            "lat": 36.594495,
            "lng": 109.490825
        },
        "ad_info": {
            "adcode": 610602,
            "province": "陕西省",
            "city": "延安市",
            "district": "宝塔区"
        }
    },
    {
        "id": "14948518733297929967",
        "title": "公共厕所",
        "address": "陕西省延安市洛川县解放路与南门巷交叉口南100米",
        "tel": "",
        "category": "基础设施:公共设施:公共厕所",
        "type": 0,
        "location": {
            "lat": 35.754368,
            "lng": 109.428398
        },
        "ad_info": {
            "adcode": 610629,
            "province": "陕西省",
            "city": "延安市",
            "district": "洛川县"
        }
    },
    {
        "id": "9231732107346311654",
        "title": "公共厕所",
        "address": "陕西省延安市宝塔区南城一品巷与燕沟路交叉口西北方向35米左右",
        "tel": "",
        "category": "基础设施:公共设施:公共厕所",
        "type": 0,
        "location": {
            "lat": 36.537741,
            "lng": 109.494068
        },
        "ad_info": {
            "adcode": 610602,
            "province": "陕西省",
            "city": "延安市",
            "district": "宝塔区"
        }
    },
    {
        "id": "12661202551267040232",
        "title": "公共厕所",
        "address": "陕西省延安市富县广电巷与育英巷交叉口西北方向52米左右",
        "tel": "",
        "category": "基础设施:公共设施:公共厕所",
        "type": 0,
        "location": {
            "lat": 35.987245,
            "lng": 109.380483
        },
        "ad_info": {
            "adcode": 610628,
            "province": "陕西省",
            "city": "延安市",
            "district": "富县"
        }
    },
    {
        "id": "13964805734711892920",
        "title": "公共厕所",
        "address": "陕西省延安市甘泉县康乐路与美水路交叉口正西方向75米左右",
        "tel": "",
        "category": "基础设施:公共设施:公共厕所",
        "type": 0,
        "location": {
            "lat": 36.28034,
            "lng": 109.346288
        },
        "ad_info": {
            "adcode": 610627,
            "province": "陕西省",
            "city": "延安市",
            "district": "甘泉县"
        }
    },
    {
        "id": "9186852349577818907",
        "title": "公共厕所",
        "address": "陕西省延安市洛川县北新巷与解放路交叉口西北方向80米左右",
        "tel": "",
        "category": "基础设施:公共设施:公共厕所",
        "type": 0,
        "location": {
            "lat": 35.768235,
            "lng": 109.432975
        },
        "ad_info": {
            "adcode": 610629,
            "province": "陕西省",
            "city": "延安市",
            "district": "洛川县"
        }
    },
    {
        "id": "2320889630282109082",
        "title": "公共厕所",
        "address": "陕西省延安市延长县",
        "tel": "",
        "category": "基础设施:公共设施:公共厕所",
        "type": 0,
        "location": {
            "lat": 36.706031,
            "lng": 110.1939
        },
        "ad_info": {
            "adcode": 610621,
            "province": "陕西省",
            "city": "延安市",
            "district": "延长县"
        }
    },
    {
        "id": "15795937983459816984",
        "title": "公共厕所",
        "address": "陕西省延安市宝塔区东盛巷盛大国际",
        "tel": "",
        "category": "基础设施:公共设施:公共厕所",
        "type": 0,
        "location": {
            "lat": 36.599979,
            "lng": 109.494826
        },
        "ad_info": {
            "adcode": 610602,
            "province": "陕西省",
            "city": "延安市",
            "district": "宝塔区"
        }
    },
    {
        "id": "15277675881114162012",
        "title": "公共厕所",
        "address": "陕西省延安市宝塔区G341与枣园八路交叉口正东方向249米左右",
        "tel": "",
        "category": "基础设施:公共设施:公共厕所",
        "type": 0,
        "location": {
            "lat": 36.631499,
            "lng": 109.405358
        },
        "ad_info": {
            "adcode": 610602,
            "province": "陕西省",
            "city": "延安市",
            "district": "宝塔区"
        }
    },
    {
        "id": "7262236763285191209",
        "title": "公共厕所",
        "address": "陕西省延安市宝塔区G210与圣地大道交叉口正南方向1351米左右",
        "tel": "",
        "category": "基础设施:公共设施:公共厕所",
        "type": 0,
        "location": {
            "lat": 36.510357,
            "lng": 109.467161
        },
        "ad_info": {
            "adcode": 610602,
            "province": "陕西省",
            "city": "延安市",
            "district": "宝塔区"
        }
    },
    {
        "id": "14330006994943766962",
        "title": "公共厕所",
        "address": "陕西省延安市吴起县旧居路与长征街交叉口东北方向340米左右",
        "tel": "",
        "category": "基础设施:公共设施:公共厕所",
        "type": 0,
        "location": {
            "lat": 36.928223,
            "lng": 108.179348
        },
        "ad_info": {
            "adcode": 610626,
            "province": "陕西省",
            "city": "延安市",
            "district": "吴起县"
        }
    },
    {
        "id": "15223101794443577969",
        "title": "公共厕所",
        "address": "陕西省延安市甘泉县幸福路与甘志路交叉口正西方向946米左右",
        "tel": "",
        "category": "基础设施:公共设施:公共厕所",
        "type": 0,
        "location": {
            "lat": 36.29193,
            "lng": 109.337623
        },
        "ad_info": {
            "adcode": 610627,
            "province": "陕西省",
            "city": "延安市",
            "district": "甘泉县"
        }
    },
    {
        "id": "5036231215129292060",
        "title": "公共厕所",
        "address": "陕西省延安市宝塔区河庄坪镇包茂高速公路老延安窑洞宾馆",
        "tel": "",
        "category": "基础设施:公共设施:公共厕所",
        "type": 0,
        "location": {
            "lat": 36.655486,
            "lng": 109.450878
        },
        "ad_info": {
            "adcode": 610602,
            "province": "陕西省",
            "city": "延安市",
            "district": "宝塔区"
        }
    },
    {
        "id": "4311927159429907706",
        "title": "公共厕所",
        "address": "陕西省延安市延长县西城三巷与迎宾路交叉口西北方向127米左右",
        "tel": "",
        "category": "基础设施:公共设施:公共厕所",
        "type": 0,
        "location": {
            "lat": 36.581151,
            "lng": 109.99954
        },
        "ad_info": {
            "adcode": 610621,
            "province": "陕西省",
            "city": "延安市",
            "district": "延长县"
        }
    },
    {
        "id": "15495859323311938520",
        "title": "公共厕所",
        "address": "陕西省延安市延长县仿古街与环山路交叉口正西方向126米左右",
        "tel": "",
        "category": "基础设施:公共设施:公共厕所",
        "type": 0,
        "location": {
            "lat": 36.57788,
            "lng": 110.016142
        },
        "ad_info": {
            "adcode": 610621,
            "province": "陕西省",
            "city": "延安市",
            "district": "延长县"
        }
    },
    {
        "id": "14179115074026946417",
        "title": "公共厕所",
        "address": "陕西省延安市宝塔区杜甫川北路与西华巷交叉口西北方向50米左右",
        "tel": "",
        "category": "基础设施:公共设施:公共厕所",
        "type": 0,
        "location": {
            "lat": 36.569494,
            "lng": 109.468273
        },
        "ad_info": {
            "adcode": 610602,
            "province": "陕西省",
            "city": "延安市",
            "district": "宝塔区"
        }
    },
    {
        "id": "8944640881357135039",
        "title": "公共厕所",
        "address": "陕西省延安市延川县G210与马齐路交叉口正东方向1128米左右",
        "tel": "",
        "category": "基础设施:公共设施:公共厕所",
        "type": 0,
        "location": {
            "lat": 36.837247,
            "lng": 109.960975
        },
        "ad_info": {
            "adcode": 610622,
            "province": "陕西省",
            "city": "延安市",
            "district": "延川县"
        }
    },
    {
        "id": "13228965764913850831",
        "title": "公共厕所",
        "address": "陕西省延安市宜川县叠翠路与延壶路交叉口东南方向482米左右",
        "tel": "",
        "category": "基础设施:公共设施:公共厕所",
        "type": 0,
        "location": {
            "lat": 36.273732,
            "lng": 110.147645
        },
        "ad_info": {
            "adcode": 610630,
            "province": "陕西省",
            "city": "延安市",
            "district": "宜川县"
        }
    },
    {
        "id": "8771388036991121871",
        "title": "公共厕所",
        "address": "陕西省延安市吴起县环城路与胜利二巷交叉口东南方向146米左右",
        "tel": "",
        "category": "基础设施:公共设施:公共厕所",
        "type": 0,
        "location": {
            "lat": 36.929761,
            "lng": 108.173779
        },
        "ad_info": {
            "adcode": 610626,
            "province": "陕西省",
            "city": "延安市",
            "district": "吴起县"
        }
    },
    {
        "id": "12867657688314824697",
        "title": "公共厕所",
        "address": "陕西省延安市吴起县洛东一巷与洛源街交叉口西北方向83米左右",
        "tel": "",
        "category": "基础设施:公共设施:公共厕所",
        "type": 0,
        "location": {
            "lat": 36.91046,
            "lng": 108.19107
        },
        "ad_info": {
            "adcode": 610626,
            "province": "陕西省",
            "city": "延安市",
            "district": "吴起县"
        }
    },
    {
        "id": "17342079430507433447",
        "title": "公共厕所",
        "address": "陕西省延安市宝塔区二道街与顺阳南街交叉口正西方向40米左右",
        "tel": "",
        "category": "基础设施:公共设施:公共厕所",
        "type": 0,
        "location": {
            "lat": 36.594495,
            "lng": 109.490825
        },
        "ad_info": {
            "adcode": 610602,
            "province": "陕西省",
            "city": "延安市",
            "district": "宝塔区"
        }
    },
    {
        "id": "14948518733297929967",
        "title": "公共厕所",
        "address": "陕西省延安市洛川县解放路与南门巷交叉口南100米",
        "tel": "",
        "category": "基础设施:公共设施:公共厕所",
        "type": 0,
        "location": {
            "lat": 35.754368,
            "lng": 109.428398
        },
        "ad_info": {
            "adcode": 610629,
            "province": "陕西省",
            "city": "延安市",
            "district": "洛川县"
        }
    },
    {
        "id": "9231732107346311654",
        "title": "公共厕所",
        "address": "陕西省延安市宝塔区南城一品巷与燕沟路交叉口西北方向35米左右",
        "tel": "",
        "category": "基础设施:公共设施:公共厕所",
        "type": 0,
        "location": {
            "lat": 36.537741,
            "lng": 109.494068
        },
        "ad_info": {
            "adcode": 610602,
            "province": "陕西省",
            "city": "延安市",
            "district": "宝塔区"
        }
    },
    {
        "id": "12661202551267040232",
        "title": "公共厕所",
        "address": "陕西省延安市富县广电巷与育英巷交叉口西北方向52米左右",
        "tel": "",
        "category": "基础设施:公共设施:公共厕所",
        "type": 0,
        "location": {
            "lat": 35.987245,
            "lng": 109.380483
        },
        "ad_info": {
            "adcode": 610628,
            "province": "陕西省",
            "city": "延安市",
            "district": "富县"
        }
    },
    {
        "id": "13964805734711892920",
        "title": "公共厕所",
        "address": "陕西省延安市甘泉县康乐路与美水路交叉口正西方向75米左右",
        "tel": "",
        "category": "基础设施:公共设施:公共厕所",
        "type": 0,
        "location": {
            "lat": 36.28034,
            "lng": 109.346288
        },
        "ad_info": {
            "adcode": 610627,
            "province": "陕西省",
            "city": "延安市",
            "district": "甘泉县"
        }
    },
    {
        "id": "9186852349577818907",
        "title": "公共厕所",
        "address": "陕西省延安市洛川县北新巷与解放路交叉口西北方向80米左右",
        "tel": "",
        "category": "基础设施:公共设施:公共厕所",
        "type": 0,
        "location": {
            "lat": 35.768235,
            "lng": 109.432975
        },
        "ad_info": {
            "adcode": 610629,
            "province": "陕西省",
            "city": "延安市",
            "district": "洛川县"
        }
    },
    {
        "id": "2320889630282109082",
        "title": "公共厕所",
        "address": "陕西省延安市延长县",
        "tel": "",
        "category": "基础设施:公共设施:公共厕所",
        "type": 0,
        "location": {
            "lat": 36.706031,
            "lng": 110.1939
        },
        "ad_info": {
            "adcode": 610621,
            "province": "陕西省",
            "city": "延安市",
            "district": "延长县"
        }
    },
    {
        "id": "15795937983459816984",
        "title": "公共厕所",
        "address": "陕西省延安市宝塔区东盛巷盛大国际",
        "tel": "",
        "category": "基础设施:公共设施:公共厕所",
        "type": 0,
        "location": {
            "lat": 36.599979,
            "lng": 109.494826
        },
        "ad_info": {
            "adcode": 610602,
            "province": "陕西省",
            "city": "延安市",
            "district": "宝塔区"
        }
    },
    {
        "id": "15277675881114162012",
        "title": "公共厕所",
        "address": "陕西省延安市宝塔区G341与枣园八路交叉口正东方向249米左右",
        "tel": "",
        "category": "基础设施:公共设施:公共厕所",
        "type": 0,
        "location": {
            "lat": 36.631499,
            "lng": 109.405358
        },
        "ad_info": {
            "adcode": 610602,
            "province": "陕西省",
            "city": "延安市",
            "district": "宝塔区"
        }
    },
    {
        "id": "7262236763285191209",
        "title": "公共厕所",
        "address": "陕西省延安市宝塔区G210与圣地大道交叉口正南方向1351米左右",
        "tel": "",
        "category": "基础设施:公共设施:公共厕所",
        "type": 0,
        "location": {
            "lat": 36.510357,
            "lng": 109.467161
        },
        "ad_info": {
            "adcode": 610602,
            "province": "陕西省",
            "city": "延安市",
            "district": "宝塔区"
        }
    },
    {
        "id": "14330006994943766962",
        "title": "公共厕所",
        "address": "陕西省延安市吴起县旧居路与长征街交叉口东北方向340米左右",
        "tel": "",
        "category": "基础设施:公共设施:公共厕所",
        "type": 0,
        "location": {
            "lat": 36.928223,
            "lng": 108.179348
        },
        "ad_info": {
            "adcode": 610626,
            "province": "陕西省",
            "city": "延安市",
            "district": "吴起县"
        }
    },
    {
        "id": "15223101794443577969",
        "title": "公共厕所",
        "address": "陕西省延安市甘泉县幸福路与甘志路交叉口正西方向946米左右",
        "tel": "",
        "category": "基础设施:公共设施:公共厕所",
        "type": 0,
        "location": {
            "lat": 36.29193,
            "lng": 109.337623
        },
        "ad_info": {
            "adcode": 610627,
            "province": "陕西省",
            "city": "延安市",
            "district": "甘泉县"
        }
    },
    {
        "id": "5036231215129292060",
        "title": "公共厕所",
        "address": "陕西省延安市宝塔区河庄坪镇包茂高速公路老延安窑洞宾馆",
        "tel": "",
        "category": "基础设施:公共设施:公共厕所",
        "type": 0,
        "location": {
            "lat": 36.655486,
            "lng": 109.450878
        },
        "ad_info": {
            "adcode": 610602,
            "province": "陕西省",
            "city": "延安市",
            "district": "宝塔区"
        }
    },
    {
        "id": "4311927159429907706",
        "title": "公共厕所",
        "address": "陕西省延安市延长县西城三巷与迎宾路交叉口西北方向127米左右",
        "tel": "",
        "category": "基础设施:公共设施:公共厕所",
        "type": 0,
        "location": {
            "lat": 36.581151,
            "lng": 109.99954
        },
        "ad_info": {
            "adcode": 610621,
            "province": "陕西省",
            "city": "延安市",
            "district": "延长县"
        }
    },
    {
        "id": "15495859323311938520",
        "title": "公共厕所",
        "address": "陕西省延安市延长县仿古街与环山路交叉口正西方向126米左右",
        "tel": "",
        "category": "基础设施:公共设施:公共厕所",
        "type": 0,
        "location": {
            "lat": 36.57788,
            "lng": 110.016142
        },
        "ad_info": {
            "adcode": 610621,
            "province": "陕西省",
            "city": "延安市",
            "district": "延长县"
        }
    },
    {
        "id": "14179115074026946417",
        "title": "公共厕所",
        "address": "陕西省延安市宝塔区杜甫川北路与西华巷交叉口西北方向50米左右",
        "tel": "",
        "category": "基础设施:公共设施:公共厕所",
        "type": 0,
        "location": {
            "lat": 36.569494,
            "lng": 109.468273
        },
        "ad_info": {
            "adcode": 610602,
            "province": "陕西省",
            "city": "延安市",
            "district": "宝塔区"
        }
    },
    {
        "id": "8944640881357135039",
        "title": "公共厕所",
        "address": "陕西省延安市延川县G210与马齐路交叉口正东方向1128米左右",
        "tel": "",
        "category": "基础设施:公共设施:公共厕所",
        "type": 0,
        "location": {
            "lat": 36.837247,
            "lng": 109.960975
        },
        "ad_info": {
            "adcode": 610622,
            "province": "陕西省",
            "city": "延安市",
            "district": "延川县"
        }
    },
    {
        "id": "13228965764913850831",
        "title": "公共厕所",
        "address": "陕西省延安市宜川县叠翠路与延壶路交叉口东南方向482米左右",
        "tel": "",
        "category": "基础设施:公共设施:公共厕所",
        "type": 0,
        "location": {
            "lat": 36.273732,
            "lng": 110.147645
        },
        "ad_info": {
            "adcode": 610630,
            "province": "陕西省",
            "city": "延安市",
            "district": "宜川县"
        }
    },
    {
        "id": "8771388036991121871",
        "title": "公共厕所",
        "address": "陕西省延安市吴起县环城路与胜利二巷交叉口东南方向146米左右",
        "tel": "",
        "category": "基础设施:公共设施:公共厕所",
        "type": 0,
        "location": {
            "lat": 36.929761,
            "lng": 108.173779
        },
        "ad_info": {
            "adcode": 610626,
            "province": "陕西省",
            "city": "延安市",
            "district": "吴起县"
        }
    },
    {
        "id": "12867657688314824697",
        "title": "公共厕所",
        "address": "陕西省延安市吴起县洛东一巷与洛源街交叉口西北方向83米左右",
        "tel": "",
        "category": "基础设施:公共设施:公共厕所",
        "type": 0,
        "location": {
            "lat": 36.91046,
            "lng": 108.19107
        },
        "ad_info": {
            "adcode": 610626,
            "province": "陕西省",
            "city": "延安市",
            "district": "吴起县"
        }
    },