[
    {
        "id": "4928444384901642085",
        "title": "公共厕所",
        "address": "吉林省延边朝鲜族自治州珲春市建设街与靖边路交叉口正北方向27米左右",
        "tel": "",
        "category": "基础设施:公共设施:公共厕所",
        "type": 0,
        "location": {
            "lat": 42.875309,
            "lng": 130.370087
        },
        "ad_info": {
            "adcode": 222404,
            "province": "吉林省",
            "city": "延边朝鲜族自治州",
            "district": "珲春市"
        }
    },
    {
        "id": "14612437169694043903",
        "title": "公共厕所",
        "address": "吉林省延边朝鲜族自治州珲春市迎春街与迎春西街交叉口正南方向15米左右",
        "tel": "",
        "category": "基础设施:公共设施:公共厕所",
        "type": 0,
        "location": {
            "lat": 42.871614,
            "lng": 130.362706
        },
        "ad_info": {
            "adcode": 222404,
            "province": "吉林省",
            "city": "延边朝鲜族自治州",
            "district": "珲春市"
        }
    },
    {
        "id": "8063288918262421329",
        "title": "公共厕所",
        "address": "吉林省延边朝鲜族自治州珲春市友谊胡同与口岸大路交叉口西北方向50米左右",
        "tel": "",
        "category": "基础设施:公共设施:公共厕所",
        "type": 0,
        "location": {
            "lat": 42.862501,
            "lng": 130.352821
        },
        "ad_info": {
            "adcode": 222404,
            "province": "吉林省",
            "city": "延边朝鲜族自治州",
            "district": "珲春市"
        }
    },
    {
        "id": "11809339393896130561",
        "title": "公共卫生间",
        "address": "吉林省延边朝鲜族自治州敦化市S507与沿河路交叉口东南方向145米左右",
        "tel": "",
        "category": "基础设施:公共设施:公共厕所",
        "type": 0,
        "location": {
            "lat": 43.378509,
            "lng": 128.232991
        },
        "ad_info": {
            "adcode": 222403,
            "province": "吉林省",
            "city": "延边朝鲜族自治州",
            "district": "敦化市"
        }
    },
    {
        "id": "2000861077223629688",
        "title": "公共厕所",
        "address": "吉林省延边朝鲜族自治州延吉市参花街与梅花胡同交叉口正西方向133米左右",
        "tel": "",
        "category": "基础设施:公共设施:公共厕所",
        "type": 0,
        "location": {
            "lat": 42.909572,
            "lng": 129.504135
        },
        "ad_info": {
            "adcode": 222401,
            "province": "吉林省",
            "city": "延边朝鲜族自治州",
            "district": "延吉市"
        }
    },
    {
        "id": "6973055817920592117",
        "title": "公共厕所",
        "address": "吉林省延边朝鲜族自治州延吉市丛柳街与南岸胡同交叉口正北方向11米左右",
        "tel": "",
        "category": "基础设施:公共设施:公共厕所",
        "type": 0,
        "location": {
            "lat": 42.899076,
            "lng": 129.50582
        },
        "ad_info": {
            "adcode": 222401,
            "province": "吉林省",
            "city": "延边朝鲜族自治州",
            "district": "延吉市"
        }
    },
    {
        "id": "17459915952654991413",
        "title": "公共厕所",
        "address": "吉林省延边朝鲜族自治州珲春市文化路与渤海大街交叉口西北方向719米左右",
        "tel": "",
        "category": "基础设施:公共设施:公共厕所",
        "type": 0,
        "location": {
            "lat": 42.886628,
            "lng": 130.357912
        },
        "ad_info": {
            "adcode": 222404,
            "province": "吉林省",
            "city": "延边朝鲜族自治州",
            "district": "珲春市"
        }
    },
    {
        "id": "3919068044810484228",
        "title": "公共厕所",
        "address": "吉林省延边朝鲜族自治州珲春市中华路与光明胡同交叉口东北方向203米左右",
        "tel": "",
        "category": "基础设施:公共设施:公共厕所",
        "type": 0,
        "location": {
            "lat": 42.868005,
            "lng": 130.346155
        },
        "ad_info": {
            "adcode": 222404,
            "province": "吉林省",
            "city": "延边朝鲜族自治州",
            "district": "珲春市"
        }
    },
    {
        "id": "1660022148385618880",
        "title": "公共厕所",
        "address": "吉林省延边朝鲜族自治州敦化市老城街与自由路交叉口正东方向155米左右",
        "tel": "",
        "category": "基础设施:公共设施:公共厕所",
        "type": 0,
        "location": {
            "lat": 43.368448,
            "lng": 128.246254
        },
        "ad_info": {
            "adcode": 222403,
            "province": "吉林省",
            "city": "延边朝鲜族自治州",
            "district": "敦化市"
        }
    },
    {
        "id": "18324289650427381474",
        "title": "公共厕所",
        "address": "吉林省延边朝鲜族自治州敦化市长白路华康新村",
        "tel": "",
        "category": "基础设施:公共设施:公共厕所",
        "type": 0,
        "location": {
            "lat": 43.365886,
            "lng": 128.223205
        },
        "ad_info": {
            "adcode": 222403,
            "province": "吉林省",
            "city": "延边朝鲜族自治州",
            "district": "敦化市"
        }
    },
    {
        "id": "3482279587713628716",
        "title": "公共厕所",
        "address": "吉林省延边朝鲜族自治州延吉市参花街与爱丹路交叉口正西方向13米左右",
        "tel": "",
        "category": "基础设施:公共设施:公共厕所",
        "type": 0,
        "location": {
            "lat": 42.913267,
            "lng": 129.504949
        },
        "ad_info": {
            "adcode": 222401,
            "province": "吉林省",
            "city": "延边朝鲜族自治州",
            "district": "延吉市"
        }
    },
    {
        "id": "984987876811392783",
        "title": "公共厕所",
        "address": "吉林省延边朝鲜族自治州图们市口岸大街与国境路交叉口东北方向106米左右",
        "tel": "",
        "category": "基础设施:公共设施:公共厕所",
        "type": 0,
        "location": {
            "lat": 42.961984,
            "lng": 129.855058
        },
        "ad_info": {
            "adcode": 222402,
            "province": "吉林省",
            "city": "延边朝鲜族自治州",
            "district": "图们市"
        }
    },
    {
        "id": "1959849642497610752",
        "title": "公共厕所",
        "address": "吉林省延边朝鲜族自治州敦化市学府街与红星街交叉口西北方向46米左右",
        "tel": "",
        "category": "基础设施:公共设施:公共厕所",
        "type": 0,
        "location": {
            "lat": 43.358097,
            "lng": 128.223105
        },
        "ad_info": {
            "adcode": 222403,
            "province": "吉林省",
            "city": "延边朝鲜族自治州",
            "district": "敦化市"
        }
    },
    {
        "id": "5465709006039660650",
        "title": "公共厕所",
        "address": "吉林省延边朝鲜族自治州安图县东环路与对月胡同交叉口正北方向22米左右",
        "tel": "",
        "category": "基础设施:公共设施:公共厕所",
        "type": 0,
        "location": {
            "lat": 43.108983,
            "lng": 128.925136
        },
        "ad_info": {
            "adcode": 222426,
            "province": "吉林省",
            "city": "延边朝鲜族自治州",
            "district": "安图县"
        }
    },
    {
        "id": "11893838266002410913",
        "title": "公共厕所",
        "address": "吉林省延边朝鲜族自治州延吉市北宁胡同与新北路交叉口正南方向112米左右",
        "tel": "",
        "category": "基础设施:公共设施:公共厕所",
        "type": 0,
        "location": {
            "lat": 42.928123,
            "lng": 129.504932
        },
        "ad_info": {
            "adcode": 222401,
            "province": "吉林省",
            "city": "延边朝鲜族自治州",
            "district": "延吉市"
        }
    },
    {
        "id": "9309648523527025871",
        "title": "公共厕所",
        "address": "吉林省延边朝鲜族自治州龙井市龙井街107号",
        "tel": "",
        "category": "基础设施:公共设施:公共厕所",
        "type": 0,
        "location": {
            "lat": 42.766714,
            "lng": 129.423954
        },
        "ad_info": {
            "adcode": 222405,
            "province": "吉林省",
            "city": "延边朝鲜族自治州",
            "district": "龙井市"
        }
    },
    {
        "id": "7480037182691140428",
        "title": "公共厕所",
        "address": "吉林省延边朝鲜族自治州延吉市公园路与园虹胡同交叉口正北方向135米左右",
        "tel": "",
        "category": "基础设施:公共设施:公共厕所",
        "type": 0,
        "location": {
            "lat": 42.908877,
            "lng": 129.502301
        },
        "ad_info": {
            "adcode": 222401,
            "province": "吉林省",
            "city": "延边朝鲜族自治州",
            "district": "延吉市"
        }
    },
    {
        "id": "12776400401864488829",
        "title": "公共厕所",
        "address": "吉林省延边朝鲜族自治州延吉市向阳胡同与平安胡同交叉口东北方向16米左右",
        "tel": "",
        "category": "基础设施:公共设施:公共厕所",
        "type": 0,
        "location": {
            "lat": 42.910813,
            "lng": 129.525549
        },
        "ad_info": {
            "adcode": 222401,
            "province": "吉林省",
            "city": "延边朝鲜族自治州",
            "district": "延吉市"
        }
    },
    {
        "id": "1577357377892907115",
        "title": "公共厕所",
        "address": "吉林省延边朝鲜族自治州延吉市天池路辅路与金达莱南街交叉口正东方向157米左右",
        "tel": "",
        "category": "基础设施:公共设施:公共厕所",
        "type": 0,
        "location": {
            "lat": 42.893902,
            "lng": 129.478638
        },
        "ad_info": {
            "adcode": 222401,
            "province": "吉林省",
            "city": "延边朝鲜族自治州",
            "district": "延吉市"
        }
    },
    {
        "id": "1556985200020474975",
        "title": "公共厕所",
        "address": "吉林省延边朝鲜族自治州珲春市文化路珲春国际客运站",
        "tel": "",
        "category": "基础设施:公共设施:公共厕所",
        "type": 0,
        "location": {
            "lat": 42.88167,
            "lng": 130.361704
        },
        "ad_info": {
            "adcode": 222404,
            "province": "吉林省",
            "city": "延边朝鲜族自治州",
            "district": "珲春市"
        }
    },
    {
        "id": "11009289657466793587",
        "title": "公共厕所",
        "address": "吉林省延边朝鲜族自治州敦化市长岭胡同光明小区",
        "tel": "",
        "category": "基础设施:公共设施:公共厕所",
        "type": 0,
        "location": {
            "lat": 43.367049,
            "lng": 128.226454
        },
        "ad_info": {
            "adcode": 222403,
            "province": "吉林省",
            "city": "延边朝鲜族自治州",
            "district": "敦化市"
        }
    },
    {
        "id": "2780198490920906005",
        "title": "公共厕所",
        "address": "吉林省延边朝鲜族自治州汪清县校园路与鑫荣街交叉口正东方向242米左右",
        "tel": "",
        "category": "基础设施:公共设施:公共厕所",
        "type": 0,
        "location": {
            "lat": 43.320393,
            "lng": 129.779095
        },
        "ad_info": {
            "adcode": 222424,
            "province": "吉林省",
            "city": "延边朝鲜族自治州",
            "district": "汪清县"
        }
    },
    {
        "id": "14521118764820377403",
        "title": "公共厕所",
        "address": "吉林省延边朝鲜族自治州延吉市延河路与荷花胡同交叉口正东方向129米左右",
        "tel": "",
        "category": "基础设施:公共设施:公共厕所",
        "type": 0,
        "location": {
            "lat": 42.901157,
            "lng": 129.508728
        },
        "ad_info": {
            "adcode": 222401,
            "province": "吉林省",
            "city": "延边朝鲜族自治州",
            "district": "延吉市"
        }
    },
    {
        "id": "3692994530678282926",
        "title": "公共厕所",
        "address": "吉林省延边朝鲜族自治州敦化市翰章大街辅路与龙井路交叉口正西方向83米左右",
        "tel": "",
        "category": "基础设施:公共设施:公共厕所",
        "type": 0,
        "location": {
            "lat": 43.366621,
            "lng": 128.232335
        },
        "ad_info": {
            "adcode": 222403,
            "province": "吉林省",
            "city": "延边朝鲜族自治州",
            "district": "敦化市"
        }
    },
    {
        "id": "2243286331802598682",
        "title": "公共厕所",
        "address": "吉林省延边朝鲜族自治州延吉市园池胡同与园红胡同交叉口正北方向140米左右",
        "tel": "",
        "category": "基础设施:公共设施:公共厕所",
        "type": 0,
        "location": {
            "lat": 42.90286,
            "lng": 129.487143
        },
        "ad_info": {
            "adcode": 222401,
            "province": "吉林省",
            "city": "延边朝鲜族自治州",
            "district": "延吉市"
        }
    },
    {
        "id": "7538626174610842065",
        "title": "公共厕所",
        "address": "吉林省延边朝鲜族自治州敦化市敖东大街与沿河路交叉口正南方向141米左右",
        "tel": "",
        "category": "基础设施:公共设施:公共厕所",
        "type": 0,
        "location": {
            "lat": 43.378319,
            "lng": 128.229919
        },
        "ad_info": {
            "adcode": 222403,
            "province": "吉林省",
            "city": "延边朝鲜族自治州",
            "district": "敦化市"
        }
    },
    {
        "id": "959345881254876869",
        "title": "公共厕所",
        "address": "吉林省延边朝鲜族自治州龙井市迎宾路81号",
        "tel": "",
        "category": "基础设施:公共设施:公共厕所",
        "type": 0,
        "location": {
            "lat": 42.769825,
            "lng": 129.427355
        },
        "ad_info": {
            "adcode": 222405,
            "province": "吉林省",
            "city": "延边朝鲜族自治州",
            "district": "龙井市"
        }
    },
    {
        "id": "17849237043935614526",
        "title": "公共厕所",
        "address": "吉林省延边朝鲜族自治州延吉市天宇生态家园(烟集街东)",
        "tel": "",
        "category": "基础设施:公共设施:公共厕所",
        "type": 0,
        "location": {
            "lat": 42.919038,
            "lng": 129.498415
        },
        "ad_info": {
            "adcode": 222401,
            "province": "吉林省",
            "city": "延边朝鲜族自治州",
            "district": "延吉市"
        }
    },
    {
        "id": "18370658044369521026",
        "title": "公共厕所",
        "address": "吉林省延边朝鲜族自治州珲春市森林山大路与渤海大街交叉口正南方向145米左右",
        "tel": "",
        "category": "基础设施:公共设施:公共厕所",
        "type": 0,
        "location": {
            "lat": 42.881688,
            "lng": 130.368447
        },
        "ad_info": {
            "adcode": 222404,
            "province": "吉林省",
            "city": "延边朝鲜族自治州",
            "district": "珲春市"
        }
    },
    {
        "id": "2848331568907674924",
        "title": "公共厕所",
        "address": "吉林省延边朝鲜族自治州安图县米香胡同与九龙路交叉口东南220米",
        "tel": "",
        "category": "基础设施:公共设施:公共厕所",
        "type": 0,
        "location": {
            "lat": 43.104035,
            "lng": 128.917924
        },
        "ad_info": {
            "adcode": 222426,
            "province": "吉林省",
            "city": "延边朝鲜族自治州",
            "district": "安图县"
        }
    },
    {
        "id": "16784767783600992940",
        "title": "公共厕所",
        "address": "吉林省延边朝鲜族自治州延吉市延吉市林建医院(参花街)",
        "tel": "",
        "category": "基础设施:公共设施:公共厕所",
        "type": 0,
        "location": {
            "lat": 42.915642,
            "lng": 129.504967
        },
        "ad_info": {
            "adcode": 222401,
            "province": "吉林省",
            "city": "延边朝鲜族自治州",
            "district": "延吉市"
        }
    },
    {
        "id": "16380060392892048248",
        "title": "公共厕所",
        "address": "吉林省延边朝鲜族自治州珲春市建海路与西滨河南街交叉口正南方向86米左右",
        "tel": "",
        "category": "基础设施:公共设施:公共厕所",
        "type": 0,
        "location": {
            "lat": 42.865584,
            "lng": 130.372312
        },
        "ad_info": {
            "adcode": 222404,
            "province": "吉林省",
            "city": "延边朝鲜族自治州",
            "district": "珲春市"
        }
    },
    {
        "id": "9061245513934794392",
        "title": "公共厕所",
        "address": "吉林省延边朝鲜族自治州延吉市清水公园西南(龙湖街北)",
        "tel": "",
        "category": "基础设施:公共设施:公共厕所",
        "type": 0,
        "location": {
            "lat": 42.897301,
            "lng": 129.46427
        },
        "ad_info": {
            "adcode": 222401,
            "province": "吉林省",
            "city": "延边朝鲜族自治州",
            "district": "延吉市"
        }
    },
    {
        "id": "2321796890799044443",
        "title": "公共厕所",
        "address": "吉林省延边朝鲜族自治州延吉市延南路与河南街交叉口西南方向46米左右",
        "tel": "",
        "category": "基础设施:公共设施:公共厕所",
        "type": 0,
        "location": {
            "lat": 42.884408,
            "lng": 129.508561
        },
        "ad_info": {
            "adcode": 222401,
            "province": "吉林省",
            "city": "延边朝鲜族自治州",
            "district": "延吉市"
        }
    },
    {
        "id": "14129519245197539674",
        "title": "公共厕所",
        "address": "吉林省延边朝鲜族自治州敦化市X040与南环路交叉口东北方向366米左右",
        "tel": "",
        "category": "基础设施:公共设施:公共厕所",
        "type": 0,
        "location": {
            "lat": 43.353721,
            "lng": 128.215621
        },
        "ad_info": {
            "adcode": 222403,
            "province": "吉林省",
            "city": "延边朝鲜族自治州",
            "district": "敦化市"
        }
    },
    {
        "id": "102501589924054551",
        "title": "公共厕所",
        "address": "吉林省延边朝鲜族自治州延吉市光进街与爱丹路辅路交叉口正北方向52米左右",
        "tel": "",
        "category": "基础设施:公共设施:公共厕所",
        "type": 0,
        "location": {
            "lat": 42.915568,
            "lng": 129.534686
        },
        "ad_info": {
            "adcode": 222401,
            "province": "吉林省",
            "city": "延边朝鲜族自治州",
            "district": "延吉市"
        }
    },
    {
        "id": "5404930793507181300",
        "title": "公共厕所",
        "address": "吉林省延边朝鲜族自治州延吉市团结路与民安胡同交叉口正南方向25米左右",
        "tel": "",
        "category": "基础设施:公共设施:公共厕所",
        "type": 0,
        "location": {
            "lat": 42.908108,
            "lng": 129.507072
        },
        "ad_info": {
            "adcode": 222401,
            "province": "吉林省",
            "city": "延边朝鲜族自治州",
            "district": "延吉市"
        }
    },
    {
        "id": "17851540513810529870",
        "title": "公共厕所",
        "address": "吉林省延边朝鲜族自治州敦化市北环城路与学府街交叉口西北方向98米左右",
        "tel": "",
        "category": "基础设施:公共设施:公共厕所",
        "type": 0,
        "location": {
            "lat": 43.374978,
            "lng": 128.222927
        },
        "ad_info": {
            "adcode": 222403,
            "province": "吉林省",
            "city": "延边朝鲜族自治州",
            "district": "敦化市"
        }
    },
    {
        "id": "14842626962942593874",
        "title": "公共厕所",
        "address": "吉林省延边朝鲜族自治州敦化市敖东大街762号",
        "tel": "",
        "category": "基础设施:公共设施:公共厕所",
        "type": 0,
        "location": {
            "lat": 43.373151,
            "lng": 128.230074
        },
        "ad_info": {
            "adcode": 222403,
            "province": "吉林省",
            "city": "延边朝鲜族自治州",
            "district": "敦化市"
        }
    },
    {
        "id": "5492248214677146167",
        "title": "公共厕所",
        "address": "吉林省延边朝鲜族自治州珲春市友谊街锦绣家园",
        "tel": "",
        "category": "基础设施:公共设施:公共厕所",
        "type": 0,
        "location": {
            "lat": 42.860915,
            "lng": 130.351436
        },
        "ad_info": {
            "adcode": 222404,
            "province": "吉林省",
            "city": "延边朝鲜族自治州",
            "district": "珲春市"
        }
    },
    {
        "id": "3982144604702644921",
        "title": "公共厕所",
        "address": "吉林省延边朝鲜族自治州敦化市军民胡同与北环城路交叉口正北方向432米左右",
        "tel": "",
        "category": "基础设施:公共设施:公共厕所",
        "type": 0,
        "location": {
            "lat": 43.382598,
            "lng": 128.238639
        },
        "ad_info": {
            "adcode": 222403,
            "province": "吉林省",
            "city": "延边朝鲜族自治州",
            "district": "敦化市"
        }
    },
    {
        "id": "17440749315473480368",
        "title": "公共厕所",
        "address": "吉林省延边朝鲜族自治州敦化市新星路与江南大街交叉口正西方向40米左右",
        "tel": "",
        "category": "基础设施:公共设施:公共厕所",
        "type": 0,
        "location": {
            "lat": 43.35391,
            "lng": 128.260755
        },
        "ad_info": {
            "adcode": 222403,
            "province": "吉林省",
            "city": "延边朝鲜族自治州",
            "district": "敦化市"
        }
    },
    {
        "id": "1820366879654265909",
        "title": "公共厕所",
        "address": "吉林省延边朝鲜族自治州敦化市工农胡同与康惠路交叉口正东方向153米左右",
        "tel": "",
        "category": "基础设施:公共设施:公共厕所",
        "type": 0,
        "location": {
            "lat": 43.36337,
            "lng": 128.238195
        },
        "ad_info": {
            "adcode": 222403,
            "province": "吉林省",
            "city": "延边朝鲜族自治州",
            "district": "敦化市"
        }
    },
    {
        "id": "7922880306424635434",
        "title": "公共厕所",
        "address": "吉林省延边朝鲜族自治州敦化市敖东大街与新华路交叉口正南方向72米左右",
        "tel": "",
        "category": "基础设施:公共设施:公共厕所",
        "type": 0,
        "location": {
            "lat": 43.372648,
            "lng": 128.230009
        },
        "ad_info": {
            "adcode": 222403,
            "province": "吉林省",
            "city": "延边朝鲜族自治州",
            "district": "敦化市"
        }
    },
    {
        "id": "7250879119113088518",
        "title": "公共厕所",
        "address": "吉林省延边朝鲜族自治州敦化市G201与G302交叉口东南方向991米左右",
        "tel": "",
        "category": "基础设施:公共设施:公共厕所",
        "type": 0,
        "location": {
            "lat": 43.359911,
            "lng": 128.287289
        },
        "ad_info": {
            "adcode": 222403,
            "province": "吉林省",
            "city": "延边朝鲜族自治州",
            "district": "敦化市"
        }
    },
    {
        "id": "17053250578307325864",
        "title": "公共厕所",
        "address": "吉林省延边朝鲜族自治州延吉市北宁胡同与新北路交叉口正东方向93米左右",
        "tel": "",
        "category": "基础设施:公共设施:公共厕所",
        "type": 0,
        "location": {
            "lat": 42.929412,
            "lng": 129.506026
        },
        "ad_info": {
            "adcode": 222401,
            "province": "吉林省",
            "city": "延边朝鲜族自治州",
            "district": "延吉市"
        }
    },
    {
        "id": "3081130824607567354",
        "title": "公共厕所",
        "address": "吉林省延边朝鲜族自治州敦化市长城路与长江胡同交叉口西北方向91米左右",
        "tel": "",
        "category": "基础设施:公共设施:公共厕所",
        "type": 0,
        "location": {
            "lat": 43.363266,
            "lng": 128.225809
        },
        "ad_info": {
            "adcode": 222403,
            "province": "吉林省",
            "city": "延边朝鲜族自治州",
            "district": "敦化市"
        }
    },
    {
        "id": "12082322591897546813",
        "title": "公共厕所",
        "address": "吉林省延边朝鲜族自治州汪清县团结路与汪清街交叉口东南方向169米左右",
        "tel": "",
        "category": "基础设施:公共设施:公共厕所",
        "type": 0,
        "location": {
            "lat": 43.306401,
            "lng": 129.783447
        },
        "ad_info": {
            "adcode": 222424,
            "province": "吉林省",
            "city": "延边朝鲜族自治州",
            "district": "汪清县"
        }
    },
    {
        "id": "13778121989832760048",
        "title": "公共厕所",
        "address": "吉林省延边朝鲜族自治州安图县安全胡同与新安路交叉口东南方向74米左右",
        "tel": "",
        "category": "基础设施:公共设施:公共厕所",
        "type": 0,
        "location": {
            "lat": 43.107366,
            "lng": 128.917367
        },
        "ad_info": {
            "adcode": 222426,
            "province": "吉林省",
            "city": "延边朝鲜族自治州",
            "district": "安图县"
        }
    },
    {
        "id": "13745237542286875306",
        "title": "公共厕所",
        "address": "吉林省延边朝鲜族自治州龙井市三合路与粮朝线交叉口西南方向151米左右",
        "tel": "",
        "category": "基础设施:公共设施:公共厕所",
        "type": 0,
        "location": {
            "lat": 42.480018,
            "lng": 129.742537
        },
        "ad_info": {
            "adcode": 222405,
            "province": "吉林省",
            "city": "延边朝鲜族自治州",
            "district": "龙井市"
        }
    },
    {
        "id": "11633541742933650064",
        "title": "公共厕所",
        "address": "吉林省延边朝鲜族自治州延吉市G302与延朝路交叉口正东方向49米左右",
        "tel": "",
        "category": "基础设施:公共设施:公共厕所",
        "type": 0,
        "location": {
            "lat": 42.8779,
            "lng": 129.353113
        },
        "ad_info": {
            "adcode": 222401,
            "province": "吉林省",
            "city": "延边朝鲜族自治州",
            "district": "延吉市"
        }
    },
    {
        "id": "15247480145550278637",
        "title": "公共厕所",
        "address": "吉林省延边朝鲜族自治州和龙市广文胡同与文化路交叉口正北方向85米左右",
        "tel": "",
        "category": "基础设施:公共设施:公共厕所",
        "type": 0,
        "location": {
            "lat": 42.54723,
            "lng": 129.00394
        },
        "ad_info": {
            "adcode": 222406,
            "province": "吉林省",
            "city": "延边朝鲜族自治州",
            "district": "和龙市"
        }
    },
    {
        "id": "2860528992889450428",
        "title": "公共厕所",
        "address": "吉林省延边朝鲜族自治州和龙市头福线与富官线交叉口正南方向703米左右",
        "tel": "",
        "category": "基础设施:公共设施:公共厕所",
        "type": 0,
        "location": {
            "lat": 42.56813,
            "lng": 129.14331
        },
        "ad_info": {
            "adcode": 222406,
            "province": "吉林省",
            "city": "延边朝鲜族自治州",
            "district": "和龙市"
        }
    },
    {
        "id": "779914269636669958",
        "title": "公共厕所",
        "address": "吉林省延边朝鲜族自治州安图县国税胡同与龙安路交叉口正西方向132米左右",
        "tel": "",
        "category": "基础设施:公共设施:公共厕所",
        "type": 0,
        "location": {
            "lat": 43.107338,
            "lng": 128.904278
        },
        "ad_info": {
            "adcode": 222426,
            "province": "吉林省",
            "city": "延边朝鲜族自治州",
            "district": "安图县"
        }
    },
    {
        "id": "15588882386941632043",
        "title": "公共厕所",
        "address": "吉林省延边朝鲜族自治州延吉市金达莱南街与长白山西路交叉口东北方向120米左右",
        "tel": "",
        "category": "基础设施:公共设施:公共厕所",
        "type": 0,
        "location": {
            "lat": 42.89257,
            "lng": 129.477996
        },
        "ad_info": {
            "adcode": 222401,
            "province": "吉林省",
            "city": "延边朝鲜族自治州",
            "district": "延吉市"
        }
    },
    {
        "id": "2044165194869501279",
        "title": "公共厕所",
        "address": "吉林省延边朝鲜族自治州延吉市延龙路1245号",
        "tel": "",
        "category": "基础设施:公共设施:公共厕所",
        "type": 0,
        "location": {
            "lat": 42.880464,
            "lng": 129.49797
        },
        "ad_info": {
            "adcode": 222401,
            "province": "吉林省",
            "city": "延边朝鲜族自治州",
            "district": "延吉市"
        }
    },
    {
        "id": "11432556520772593642",
        "title": "公共厕所",
        "address": "吉林省延边朝鲜族自治州敦化市清华路与长白路交叉口正南方向45米左右",
        "tel": "",
        "category": "基础设施:公共设施:公共厕所",
        "type": 0,
        "location": {
            "lat": 43.365903,
            "lng": 128.21759
        },
        "ad_info": {
            "adcode": 222403,
            "province": "吉林省",
            "city": "延边朝鲜族自治州",
            "district": "敦化市"
        }
    },
    {
        "id": "7368112175776437425",
        "title": "公共厕所",
        "address": "吉林省延边朝鲜族自治州敦化市兴旺胡同与鸿滨街交叉口东南方向19米左右",
        "tel": "",
        "category": "基础设施:公共设施:公共厕所",
        "type": 0,
        "location": {
            "lat": 43.362254,
            "lng": 128.208262
        },
        "ad_info": {
            "adcode": 222403,
            "province": "吉林省",
            "city": "延边朝鲜族自治州",
            "district": "敦化市"
        }
    },
    {
        "id": "8024094139542962468",
        "title": "公共厕所",
        "address": "吉林省延边朝鲜族自治州和龙市X184与八东线交叉口东南方向71米左右",
        "tel": "",
        "category": "基础设施:公共设施:公共厕所",
        "type": 0,
        "location": {
            "lat": 42.676626,
            "lng": 129.112348
        },
        "ad_info": {
            "adcode": 222406,
            "province": "吉林省",
            "city": "延边朝鲜族自治州",
            "district": "和龙市"
        }
    },
    {
        "id": "9260737128241190458",
        "title": "公共厕所",
        "address": "吉林省延边朝鲜族自治州和龙市八东线与头福线交叉口正北方向242米左右",
        "tel": "",
        "category": "基础设施:公共设施:公共厕所",
        "type": 0,
        "location": {
            "lat": 42.73521,
            "lng": 129.235531
        },
        "ad_info": {
            "adcode": 222406,
            "province": "吉林省",
            "city": "延边朝鲜族自治州",
            "district": "和龙市"
        }
    },
    {
        "id": "3596379815480718527",
        "title": "公共厕所",
        "address": "吉林省延边朝鲜族自治州敦化市净水路与长安路交叉口正北方向48米左右",
        "tel": "",
        "category": "基础设施:公共设施:公共厕所",
        "type": 0,
        "location": {
            "lat": 43.370553,
            "lng": 128.2203
        },
        "ad_info": {
            "adcode": 222403,
            "province": "吉林省",
            "city": "延边朝鲜族自治州",
            "district": "敦化市"
        }
    },
    {
        "id": "1958898213227085983",
        "title": "公共厕所",
        "address": "吉林省延边朝鲜族自治州汪清县大安路与林东街交叉口东南方向32米左右",
        "tel": "",
        "category": "基础设施:公共设施:公共厕所",
        "type": 0,
        "location": {
            "lat": 43.309683,
            "lng": 129.774505
        },
        "ad_info": {
            "adcode": 222424,
            "province": "吉林省",
            "city": "延边朝鲜族自治州",
            "district": "汪清县"
        }
    },
    {
        "id": "7944149501819716495",
        "title": "公共厕所",
        "address": "吉林省延边朝鲜族自治州和龙市兴民路与秀湖街交叉口正南方向28米左右",
        "tel": "",
        "category": "基础设施:公共设施:公共厕所",
        "type": 0,
        "location": {
            "lat": 42.540291,
            "lng": 129.003195
        },
        "ad_info": {
            "adcode": 222406,
            "province": "吉林省",
            "city": "延边朝鲜族自治州",
            "district": "和龙市"
        }
    },
    {
        "id": "17456674351403038713",
        "title": "公共厕所",
        "address": "吉林省延边朝鲜族自治州龙井市光明路与铁北路交叉口正东方向443米左右",
        "tel": "",
        "category": "基础设施:公共设施:公共厕所",
        "type": 0,
        "location": {
            "lat": 42.780782,
            "lng": 129.440744
        },
        "ad_info": {
            "adcode": 222405,
            "province": "吉林省",
            "city": "延边朝鲜族自治州",
            "district": "龙井市"
        }
    },
    {
        "id": "13244247275529518887",
        "title": "公共厕所",
        "address": "吉林省延边朝鲜族自治州龙井市光荣路与铁北路交叉口正北方向228米左右",
        "tel": "",
        "category": "基础设施:公共设施:公共厕所",
        "type": 0,
        "location": {
            "lat": 42.782504,
            "lng": 129.432913
        },
        "ad_info": {
            "adcode": 222405,
            "province": "吉林省",
            "city": "延边朝鲜族自治州",
            "district": "龙井市"
        }
    },
    {
        "id": "6101176862719613015",
        "title": "公共厕所",
        "address": "吉林省延边朝鲜族自治州安图县新安路与经山路交叉口西南方向156米左右",
        "tel": "",
        "category": "基础设施:公共设施:公共厕所",
        "type": 0,
        "location": {
            "lat": 43.117196,
            "lng": 128.930077
        },
        "ad_info": {
            "adcode": 222426,
            "province": "吉林省",
            "city": "延边朝鲜族自治州",
            "district": "安图县"
        }
    },
    {
        "id": "13750503610387214563",
        "title": "公共厕所",
        "address": "吉林省延边朝鲜族自治州延吉市延南路与龙新胡同交叉口东南方向479米左右",
        "tel": "",
        "category": "基础设施:公共设施:公共厕所",
        "type": 0,
        "location": {
            "lat": 42.879632,
            "lng": 129.507743
        },
        "ad_info": {
            "adcode": 222401,
            "province": "吉林省",
            "city": "延边朝鲜族自治州",
            "district": "延吉市"
        }
    },
    {
        "id": "3995995918511435892",
        "title": "公共厕所",
        "address": "吉林省延边朝鲜族自治州敦化市Y031与Y032交叉口正东方向204米左右",
        "tel": "",
        "category": "基础设施:公共设施:公共厕所",
        "type": 0,
        "location": {
            "lat": 43.249433,
            "lng": 128.142123
        },
        "ad_info": {
            "adcode": 222403,
            "province": "吉林省",
            "city": "延边朝鲜族自治州",
            "district": "敦化市"
        }
    },
    {
        "id": "15779800760738407968",
        "title": "公共厕所",
        "address": "吉林省延边朝鲜族自治州汪清县南星街与大明路交叉口东北方向66米左右",
        "tel": "",
        "category": "基础设施:公共设施:公共厕所",
        "type": 0,
        "location": {
            "lat": 43.308467,
            "lng": 129.769604
        },
        "ad_info": {
            "adcode": 222424,
            "province": "吉林省",
            "city": "延边朝鲜族自治州",
            "district": "汪清县"
        }
    },
    {
        "id": "6050803966521053357",
        "title": "公共厕所",
        "address": "吉林省延边朝鲜族自治州延吉市北环路与太平街交叉口东南方向22米左右",
        "tel": "",
        "category": "基础设施:公共设施:公共厕所",
        "type": 0,
        "location": {
            "lat": 42.924475,
            "lng": 129.521074
        },
        "ad_info": {
            "adcode": 222401,
            "province": "吉林省",
            "city": "延边朝鲜族自治州",
            "district": "延吉市"
        }
    },
    {
        "id": "10029277754267133656",
        "title": "公共厕所",
        "address": "吉林省延边朝鲜族自治州敦化市西环城路与长白路交叉口正西方向130米左右",
        "tel": "",
        "category": "基础设施:公共设施:公共厕所",
        "type": 0,
        "location": {
            "lat": 43.366114,
            "lng": 128.213014
        },
        "ad_info": {
            "adcode": 222403,
            "province": "吉林省",
            "city": "延边朝鲜族自治州",
            "district": "敦化市"
        }
    },
    {
        "id": "11395653037972542727",
        "title": "公共厕所",
        "address": "吉林省延边朝鲜族自治州安图县顺山中路与龙安路交叉口东北方向237米左右",
        "tel": "",
        "category": "基础设施:公共设施:公共厕所",
        "type": 0,
        "location": {
            "lat": 43.112506,
            "lng": 128.901697
        },
        "ad_info": {
            "adcode": 222426,
            "province": "吉林省",
            "city": "延边朝鲜族自治州",
            "district": "安图县"
        }
    },
    {
        "id": "14430749164319430386",
        "title": "公共厕所",
        "address": "吉林省延边朝鲜族自治州敦化市S507与沿河路交叉口正南方向96米左右",
        "tel": "",
        "category": "基础设施:公共设施:公共厕所",
        "type": 0,
        "location": {
            "lat": 43.378777,
            "lng": 128.2324
        },
        "ad_info": {
            "adcode": 222403,
            "province": "吉林省",
            "city": "延边朝鲜族自治州",
            "district": "敦化市"
        }
    },
    {
        "id": "15263331660065303396",
        "title": "公共厕所",
        "address": "吉林省延边朝鲜族自治州延吉市延南路与长虹胡同交叉口正南方向251米左右",
        "tel": "",
        "category": "基础设施:公共设施:公共厕所",
        "type": 0,
        "location": {
            "lat": 42.88307,
            "lng": 129.5202
        },
        "ad_info": {
            "adcode": 222401,
            "province": "吉林省",
            "city": "延边朝鲜族自治州",
            "district": "延吉市"
        }
    },
    {
        "id": "17976244031026930535",
        "title": "公共厕所",
        "address": "吉林省延边朝鲜族自治州安图县明月广场一桥旁",
        "tel": "",
        "category": "基础设施:公共设施:公共厕所",
        "type": 0,
        "location": {
            "lat": 43.103742,
            "lng": 128.91613
        },
        "ad_info": {
            "adcode": 222426,
            "province": "吉林省",
            "city": "延边朝鲜族自治州",
            "district": "安图县"
        }
    },
    {
        "id": "7036247376118966621",
        "title": "公共厕所",
        "address": "吉林省延边朝鲜族自治州延吉市南兴胡同与延兴胡同交叉口正东方向113米左右",
        "tel": "",
        "category": "基础设施:公共设施:公共厕所",
        "type": 0,
        "location": {
            "lat": 42.890992,
            "lng": 129.512993
        },
        "ad_info": {
            "adcode": 222401,
            "province": "吉林省",
            "city": "延边朝鲜族自治州",
            "district": "延吉市"
        }
    },
    {
        "id": "7485119421204147925",
        "title": "公共厕所",
        "address": "吉林省延边朝鲜族自治州龙井市六道河路与合成胡同交叉口正北方向27米左右",
        "tel": "",
        "category": "基础设施:公共设施:公共厕所",
        "type": 0,
        "location": {
            "lat": 42.76272,
            "lng": 129.43473
        },
        "ad_info": {
            "adcode": 222405,
            "province": "吉林省",
            "city": "延边朝鲜族自治州",
            "district": "龙井市"
        }
    },
    {
        "id": "16231458113894285146",
        "title": "公共厕所",
        "address": "吉林省延边朝鲜族自治州龙井市三莫线与海兰路交叉口西北方向85米左右",
        "tel": "",
        "category": "基础设施:公共设施:公共厕所",
        "type": 0,
        "location": {
            "lat": 42.773074,
            "lng": 129.435466
        },
        "ad_info": {
            "adcode": 222405,
            "province": "吉林省",
            "city": "延边朝鲜族自治州",
            "district": "龙井市"
        }
    },
    {
        "id": "11497549243694486499",
        "title": "公共厕所",
        "address": "吉林省延边朝鲜族自治州龙井市光荣路与铁北路交叉口正东方向57米左右",
        "tel": "",
        "category": "基础设施:公共设施:公共厕所",
        "type": 0,
        "location": {
            "lat": 42.780393,
            "lng": 129.433343
        },
        "ad_info": {
            "adcode": 222405,
            "province": "吉林省",
            "city": "延边朝鲜族自治州",
            "district": "龙井市"
        }
    },
    {
        "id": "1417404136612732190",
        "title": "公共厕所",
        "address": "吉林省延边朝鲜族自治州安图县明安街安图市场西北侧约110米",
        "tel": "",
        "category": "基础设施:公共设施:公共厕所",
        "type": 0,
        "location": {
            "lat": 43.11053,
            "lng": 128.913609
        },
        "ad_info": {
            "adcode": 222426,
            "province": "吉林省",
            "city": "延边朝鲜族自治州",
            "district": "安图县"
        }
    },
    {
        "id": "6977398171903521418",
        "title": "公共厕所",
        "address": "吉林省延边朝鲜族自治州延吉市天池路与白新街交叉口正北方向316米左右",
        "tel": "",
        "category": "基础设施:公共设施:公共厕所",
        "type": 0,
        "location": {
            "lat": 42.897637,
            "lng": 129.482631
        },
        "ad_info": {
            "adcode": 222401,
            "province": "吉林省",
            "city": "延边朝鲜族自治州",
            "district": "延吉市"
        }
    },
    {
        "id": "14408929094687632910",
        "title": "公共厕所",
        "address": "吉林省延边朝鲜族自治州延吉市丹健胡同新兴广场(西侧)",
        "tel": "",
        "category": "基础设施:公共设施:公共厕所",
        "type": 0,
        "location": {
            "lat": 42.913477,
            "lng": 129.506792
        },
        "ad_info": {
            "adcode": 222401,
            "province": "吉林省",
            "city": "延边朝鲜族自治州",
            "district": "延吉市"
        }
    },
    {
        "id": "12296172082703229816",
        "title": "公共厕所",
        "address": "吉林省延边朝鲜族自治州延吉市北青路与柳青街交叉口正南方向29米左右",
        "tel": "",
        "category": "基础设施:公共设施:公共厕所",
        "type": 0,
        "location": {
            "lat": 42.924129,
            "lng": 129.516795
        },
        "ad_info": {
            "adcode": 222401,
            "province": "吉林省",
            "city": "延边朝鲜族自治州",
            "district": "延吉市"
        }
    },
    {
        "id": "10840555223771814891",
        "title": "公共厕所",
        "address": "吉林省延边朝鲜族自治州汪清县南星街与大明路交叉口东南方向598米左右",
        "tel": "",
        "category": "基础设施:公共设施:公共厕所",
        "type": 0,
        "location": {
            "lat": 43.303963,
            "lng": 129.77421
        },
        "ad_info": {
            "adcode": 222424,
            "province": "吉林省",
            "city": "延边朝鲜族自治州",
            "district": "汪清县"
        }
    },
    {
        "id": "3253490988092875222",
        "title": "公共厕所",
        "address": "吉林省延边朝鲜族自治州延吉市G302与G333交叉口正北方向1452米左右",
        "tel": "",
        "category": "基础设施:公共设施:公共厕所",
        "type": 0,
        "location": {
            "lat": 43.042819,
            "lng": 129.562084
        },
        "ad_info": {
            "adcode": 222401,
            "province": "吉林省",
            "city": "延边朝鲜族自治州",
            "district": "延吉市"
        }
    },
    {
        "id": "2574705710305404480",
        "title": "公共厕所",
        "address": "吉林省延边朝鲜族自治州和龙市八东线与民土线交叉口正南方向47米左右",
        "tel": "",
        "category": "基础设施:公共设施:公共厕所",
        "type": 0,
        "location": {
            "lat": 42.667603,
            "lng": 129.113238
        },
        "ad_info": {
            "adcode": 222406,
            "province": "吉林省",
            "city": "延边朝鲜族自治州",
            "district": "和龙市"
        }
    },
    {
        "id": "585166532200269430",
        "title": "公共厕所",
        "address": "吉林省延边朝鲜族自治州和龙市八东线与头福线交叉口正北方向571米左右",
        "tel": "",
        "category": "基础设施:公共设施:公共厕所",
        "type": 0,
        "location": {
            "lat": 42.738302,
            "lng": 129.236804
        },
        "ad_info": {
            "adcode": 222406,
            "province": "吉林省",
            "city": "延边朝鲜族自治州",
            "district": "和龙市"
        }
    },
    {
        "id": "7946909165214082056",
        "title": "公共厕所",
        "address": "吉林省延边朝鲜族自治州延吉市G302与外环路交叉口正北方向208米左右",
        "tel": "",
        "category": "基础设施:公共设施:公共厕所",
        "type": 0,
        "location": {
            "lat": 42.971891,
            "lng": 129.488597
        },
        "ad_info": {
            "adcode": 222401,
            "province": "吉林省",
            "city": "延边朝鲜族自治州",
            "district": "延吉市"
        }
    },
    {
        "id": "10772582111943328127",
        "title": "无障碍公共厕所",
        "address": "吉林省延边朝鲜族自治州珲春市沿河西街与西集胡同交叉口西北方向147米左右",
        "tel": "",
        "category": "基础设施:公共设施:公共厕所",
        "type": 0,
        "location": {
            "lat": 42.86517,
            "lng": 130.35845
        },
        "ad_info": {
            "adcode": 222404,
            "province": "吉林省",
            "city": "延边朝鲜族自治州",
            "district": "珲春市"
        }
    },
    {
        "id": "10349825973837721223",
        "title": "公共厕所",
        "address": "吉林省延边朝鲜族自治州延吉市G302与外环路交叉口正西方向666米左右",
        "tel": "",
        "category": "基础设施:公共设施:公共厕所",
        "type": 0,
        "location": {
            "lat": 42.992395,
            "lng": 129.479667
        },
        "ad_info": {
            "adcode": 222401,
            "province": "吉林省",
            "city": "延边朝鲜族自治州",
            "district": "延吉市"
        }
    },
    {
        "id": "7330220488369202126",
        "title": "公共厕所",
        "address": "吉林省延边朝鲜族自治州延吉市安汪公路与延三公路交叉口东北方向303米左右",
        "tel": "",
        "category": "基础设施:公共设施:公共厕所",
        "type": 0,
        "location": {
            "lat": 43.162501,
            "lng": 129.179873
        },
        "ad_info": {
            "adcode": 222401,
            "province": "吉林省",
            "city": "延边朝鲜族自治州",
            "district": "延吉市"
        }
    },
    {
        "id": "288821099865211643",
        "title": "公共厕所",
        "address": "吉林省延边朝鲜族自治州延吉市延南路与长兴胡同交叉口正南方向230米左右",
        "tel": "",
        "category": "基础设施:公共设施:公共厕所",
        "type": 0,
        "location": {
            "lat": 42.882821,
            "lng": 129.510512
        },
        "ad_info": {
            "adcode": 222401,
            "province": "吉林省",
            "city": "延边朝鲜族自治州",
            "district": "延吉市"
        }
    },
    {
        "id": "10906048485345392575",
        "title": "解放路公共厕所",
        "address": "吉林省延边朝鲜族自治州图们市图们串街与明星路交叉口正南方向68米左右",
        "tel": "",
        "category": "基础设施:公共设施:公共厕所",
        "type": 0,
        "location": {
            "lat": 42.965343,
            "lng": 129.847398
        },
        "ad_info": {
            "adcode": 222402,
            "province": "吉林省",
            "city": "延边朝鲜族自治州",
            "district": "图们市"
        }
    },
    {
        "id": "11823338497660751417",
        "title": "公共厕所",
        "address": "吉林省延边朝鲜族自治州敦化市工业路与康平大街交叉口正西方向184米左右",
        "tel": "",
        "category": "基础设施:公共设施:公共厕所",
        "type": 0,
        "location": {
            "lat": 43.39077,
            "lng": 128.259939
        },
        "ad_info": {
            "adcode": 222403,
            "province": "吉林省",
            "city": "延边朝鲜族自治州",
            "district": "敦化市"
        }
    },
    {
        "id": "12922039026685084224",
        "title": "公共厕所",
        "address": "吉林省延边朝鲜族自治州延吉市同仁胡同与团结路交叉口东北方向45米左右",
        "tel": "",
        "category": "基础设施:公共设施:公共厕所",
        "type": 0,
        "location": {
            "lat": 42.909027,
            "lng": 129.517433
        },
        "ad_info": {
            "adcode": 222401,
            "province": "吉林省",
            "city": "延边朝鲜族自治州",
            "district": "延吉市"
        }
    },
    {
        "id": "8668916873195071510",
        "title": "公共厕所",
        "address": "吉林省延边朝鲜族自治州龙井市文化路558号",
        "tel": "",
        "category": "基础设施:公共设施:公共厕所",
        "type": 0,
        "location": {
            "lat": 42.771442,
            "lng": 129.42064
        },
        "ad_info": {
            "adcode": 222405,
            "province": "吉林省",
            "city": "延边朝鲜族自治州",
            "district": "龙井市"
        }
    },
    {
        "id": "5271337021862419782",
        "title": "公共厕所",
        "address": "吉林省延边朝鲜族自治州珲春市东滨河南街与森林山大路交叉口正东方向59米左右",
        "tel": "",
        "category": "基础设施:公共设施:公共厕所",
        "type": 0,
        "location": {
            "lat": 42.86815,
            "lng": 130.37847
        },
        "ad_info": {
            "adcode": 222404,
            "province": "吉林省",
            "city": "延边朝鲜族自治州",
            "district": "珲春市"
        }
    },
    {
        "id": "5804535171215249636",
        "title": "公共厕所",
        "address": "吉林省延边朝鲜族自治州汪清县汪清镇南岭路妇幼保健院",
        "tel": "",
        "category": "基础设施:公共设施:公共厕所",
        "type": 0,
        "location": {
            "lat": 43.311931,
            "lng": 129.76727
        },
        "ad_info": {
            "adcode": 222424,
            "province": "吉林省",
            "city": "延边朝鲜族自治州",
            "district": "汪清县"
        }
    },
    {
        "id": "7245766632526535271",
        "title": "公共厕所",
        "address": "吉林省延边朝鲜族自治州龙井市吉安街与龙井街交叉口西北方向64米左右",
        "tel": "",
        "category": "基础设施:公共设施:公共厕所",
        "type": 0,
        "location": {
            "lat": 42.775393,
            "lng": 129.430523
        },
        "ad_info": {
            "adcode": 222405,
            "province": "吉林省",
            "city": "延边朝鲜族自治州",
            "district": "龙井市"
        }
    },
    {
        "id": "15124684962758153139",
        "title": "公共厕所",
        "address": "吉林省延边朝鲜族自治州延吉市丹宁胡同22-3号",
        "tel": "",
        "category": "基础设施:公共设施:公共厕所",
        "type": 0,
        "location": {
            "lat": 42.914468,
            "lng": 129.515634
        },
        "ad_info": {
            "adcode": 222401,
            "province": "吉林省",
            "city": "延边朝鲜族自治州",
            "district": "延吉市"
        }
    },
    {
        "id": "14778367336670333754",
        "title": "公共厕所",
        "address": "吉林省延边朝鲜族自治州延吉市延南路与长海胡同交叉口东南方向84米左右",
        "tel": "",
        "category": "基础设施:公共设施:公共厕所",
        "type": 0,
        "location": {
            "lat": 42.881293,
            "lng": 129.501929
        },
        "ad_info": {
            "adcode": 222401,
            "province": "吉林省",
            "city": "延边朝鲜族自治州",
            "district": "延吉市"
        }
    },
    {
        "id": "13756709330388949579",
        "title": "公共厕所",
        "address": "吉林省延边朝鲜族自治州延吉市延南路与长河胡同交叉口正南方向123米左右",
        "tel": "",
        "category": "基础设施:公共设施:公共厕所",
        "type": 0,
        "location": {
            "lat": 42.883959,
            "lng": 129.514507
        },
        "ad_info": {
            "adcode": 222401,
            "province": "吉林省",
            "city": "延边朝鲜族自治州",
            "district": "延吉市"
        }
    },
    {
        "id": "272265852549263042",
        "title": "无障碍公共厕所",
        "address": "吉林省延边朝鲜族自治州延吉市恩会中医诊所东北侧90米",
        "tel": "",
        "category": "基础设施:公共设施:公共厕所",
        "type": 0,
        "location": {
            "lat": 42.89429,
            "lng": 129.460318
        },
        "ad_info": {
            "adcode": 222401,
            "province": "吉林省",
            "city": "延边朝鲜族自治州",
            "district": "延吉市"
        }
    },
    {
        "id": "1014106954401843510",
        "title": "公共厕所",
        "address": "吉林省延边朝鲜族自治州延吉市丹进路与平野胡同交叉口正东方向466米左右",
        "tel": "",
        "category": "基础设施:公共设施:公共厕所",
        "type": 0,
        "location": {
            "lat": 42.920022,
            "lng": 129.542723
        },
        "ad_info": {
            "adcode": 222401,
            "province": "吉林省",
            "city": "延边朝鲜族自治州",
            "district": "延吉市"
        }
    },
    {
        "id": "1548313831405567822",
        "title": "延吉服务区公共厕所",
        "address": "吉林省延边朝鲜族自治州延吉市延龙高速与珲乌高速交叉口正西方向1477米左右",
        "tel": "",
        "category": "基础设施:公共设施:公共厕所",
        "type": 0,
        "location": {
            "lat": 43.014304,
            "lng": 129.275079
        },
        "ad_info": {
            "adcode": 222401,
            "province": "吉林省",
            "city": "延边朝鲜族自治州",
            "district": "延吉市"
        }
    },
    {
        "id": "7117321183137974276",
        "title": "公共厕所",
        "address": "吉林省延边朝鲜族自治州延吉市健康路与新兴街交叉口东南方向33米左右",
        "tel": "",
        "category": "基础设施:公共设施:公共厕所",
        "type": 0,
        "location": {
            "lat": 42.915311,
            "lng": 129.508732
        },
        "ad_info": {
            "adcode": 222401,
            "province": "吉林省",
            "city": "延边朝鲜族自治州",
            "district": "延吉市"
        }
    },
    {
        "id": "8859118474132367186",
        "title": "六鼎山服务区公共厕所",
        "address": "吉林省延边朝鲜族自治州敦化市G11鹤大高速与六鼎山服务区交叉口北500米",
        "tel": "",
        "category": "基础设施:公共设施:公共厕所",
        "type": 0,
        "location": {
            "lat": 43.118993,
            "lng": 128.094997
        },
        "ad_info": {
            "adcode": 222403,
            "province": "吉林省",
            "city": "延边朝鲜族自治州",
            "district": "敦化市"
        }
    },
    {
        "id": "12378058462827918601",
        "title": "图们服务区公共厕所",
        "address": "吉林省延边朝鲜族自治州图们市珲乌高速",
        "tel": "",
        "category": "基础设施:公共设施:公共厕所",
        "type": 0,
        "location": {
            "lat": 43.036144,
            "lng": 129.987217
        },
        "ad_info": {
            "adcode": 222402,
            "province": "吉林省",
            "city": "延边朝鲜族自治州",
            "district": "图们市"
        }
    },
    {
        "id": "12507835326759456893",
        "title": "无障碍公共厕所",
        "address": "吉林省延边朝鲜族自治州延吉市园林胡同与自强路交叉口正西方向100米左右",
        "tel": "",
        "category": "基础设施:公共设施:公共厕所",
        "type": 0,
        "location": {
            "lat": 42.909797,
            "lng": 129.488752
        },
        "ad_info": {
            "adcode": 222401,
            "province": "吉林省",
            "city": "延边朝鲜族自治州",
            "district": "延吉市"
        }
    },
    {
        "id": "6160992199794420160",
        "title": "头道服务区公共厕所",
        "address": "吉林省延边朝鲜族自治州和龙市中化石油吉高能源头道服务区加油站西南侧160米",
        "tel": "",
        "category": "基础设施:公共设施:公共厕所",
        "type": 0,
        "location": {
            "lat": 42.750787,
            "lng": 129.183732
        },
        "ad_info": {
            "adcode": 222406,
            "province": "吉林省",
            "city": "延边朝鲜族自治州",
            "district": "和龙市"
        }
    },
    {
        "id": "7763175289289361336",
        "title": "寒葱岭服务区公共厕所",
        "address": "吉林省延边朝鲜族自治州敦化市鹤大高速寒葱岭服务区",
        "tel": "",
        "category": "基础设施:公共设施:公共厕所",
        "type": 0,
        "location": {
            "lat": 42.774112,
            "lng": 127.850232
        },
        "ad_info": {
            "adcode": 222403,
            "province": "吉林省",
            "city": "延边朝鲜族自治州",
            "district": "敦化市"
        }
    },
    {
        "id": "5730277574846386023",
        "title": "安图服务区公共厕所",
        "address": "吉林省延边朝鲜族自治州敦化市珲乌高速公路",
        "tel": "",
        "category": "基础设施:公共设施:公共厕所",
        "type": 0,
        "location": {
            "lat": 43.31755,
            "lng": 128.74161
        },
        "ad_info": {
            "adcode": 222403,
            "province": "吉林省",
            "city": "延边朝鲜族自治州",
            "district": "敦化市"
        }
    },
    {
        "id": "3967749654899795673",
        "title": "黄泥河服务区公共厕所",
        "address": "吉林省延边朝鲜族自治州敦化市珲乌高速公路黄泥河服务区",
        "tel": "",
        "category": "基础设施:公共设施:公共厕所",
        "type": 0,
        "location": {
            "lat": 43.533435,
            "lng": 127.862675
        },
        "ad_info": {
            "adcode": 222403,
            "province": "吉林省",
            "city": "延边朝鲜族自治州",
            "district": "敦化市"
        }
    },
    {
        "id": "759049431259272922",
        "title": "黄泥河服务区第二公共厕所",
        "address": "吉林省延边朝鲜族自治州敦化市黄泥河服务区与G12珲乌高速交叉口东420米",
        "tel": "",
        "category": "基础设施:公共设施:公共厕所",
        "type": 0,
        "location": {
            "lat": 43.532185,
            "lng": 127.861666
        },
        "ad_info": {
            "adcode": 222403,
            "province": "吉林省",
            "city": "延边朝鲜族自治州",
            "district": "敦化市"
        }
    },
    {
        "id": "13855021071312758958",
        "title": "敦化服务区公共厕所",
        "address": "吉林省延边朝鲜族自治州敦化市G302与敦青县道交叉口东北方向1642米左右",
        "tel": "",
        "category": "基础设施:公共设施:公共厕所",
        "type": 0,
        "location": {
            "lat": 43.433284,
            "lng": 128.239213
        },
        "ad_info": {
            "adcode": 222403,
            "province": "吉林省",
            "city": "延边朝鲜族自治州",
            "district": "敦化市"
        }
    },
    {
        "id": "13466896045645550786",
        "title": "黄泥河服务区第一公共厕所",
        "address": "吉林省延边朝鲜族自治州敦化市珲乌高速黄泥河服务区",
        "tel": "",
        "category": "基础设施:公共设施:公共厕所",
        "type": 0,
        "location": {
            "lat": 43.532212,
            "lng": 127.861018
        },
        "ad_info": {
            "adcode": 222403,
            "province": "吉林省",
            "city": "延边朝鲜族自治州",
            "district": "敦化市"
        }
    },
    {
        "id": "9496830142314539708",
        "title": "延吉服务区公共厕所",
        "address": "吉林省延边朝鲜族自治州延吉市延龙高速与珲乌高速交叉口正西方向1367米左右",
        "tel": "",
        "category": "基础设施:公共设施:公共厕所",
        "type": 0,
        "location": {
            "lat": 43.015211,
            "lng": 129.276684
        },
        "ad_info": {
            "adcode": 222401,
            "province": "吉林省",
            "city": "延边朝鲜族自治州",
            "district": "延吉市"
        }
    },
    {
        "id": "9214744693375436620",
        "title": "敦化服务区公共厕所",
        "address": "吉林省延边朝鲜族自治州敦化市江南镇珲乌高速公路敦化服务区北",
        "tel": "",
        "category": "基础设施:公共设施:公共厕所",
        "type": 0,
        "location": {
            "lat": 43.432795,
            "lng": 128.241073
        },
        "ad_info": {
            "adcode": 222403,
            "province": "吉林省",
            "city": "延边朝鲜族自治州",
            "district": "敦化市"
        }
    },
    {
        "id": "11443402137363973244",
        "title": "无障碍公共厕所",
        "address": "吉林省延边朝鲜族自治州延吉市林海路与白松街交叉口正北方向27米左右",
        "tel": "",
        "category": "基础设施:公共设施:公共厕所",
        "type": 0,
        "location": {
            "lat": 42.897724,
            "lng": 129.490706
        },
        "ad_info": {
            "adcode": 222401,
            "province": "吉林省",
            "city": "延边朝鲜族自治州",
            "district": "延吉市"
        }
    },
    {
        "id": "14747855180139566196",
        "title": "无障碍公共厕所",
        "address": "吉林省延边朝鲜族自治州延吉市新学胡同与青杨街交叉口正西方向173米左右",
        "tel": "",
        "category": "基础设施:公共设施:公共厕所",
        "type": 0,
        "location": {
            "lat": 42.916168,
            "lng": 129.515327
        },
        "ad_info": {
            "adcode": 222401,
            "province": "吉林省",
            "city": "延边朝鲜族自治州",
            "district": "延吉市"
        }
    },
    {
        "id": "727042110510209106",
        "title": "公共厕所",
        "address": "吉林省延边朝鲜族自治州图们市302国道东50米",
        "tel": "",
        "category": "基础设施:公共设施:公共厕所",
        "type": 0,
        "location": {
            "lat": 42.986708,
            "lng": 130.036049
        },
        "ad_info": {
            "adcode": 222402,
            "province": "吉林省",
            "city": "延边朝鲜族自治州",
            "district": "图们市"
        }
    },
    {
        "id": "5675885698402291070",
        "title": "公共厕所",
        "address": "吉林省延边朝鲜族自治州珲春市康平街与森林山大路交叉口正南方向106米左右",
        "tel": "",
        "category": "基础设施:公共设施:公共厕所",
        "type": 0,
        "location": {
            "lat": 42.869878,
            "lng": 130.375155
        },
        "ad_info": {
            "adcode": 222404,
            "province": "吉林省",
            "city": "延边朝鲜族自治州",
            "district": "珲春市"
        }
    },
    {
        "id": "7302316506335646042",
        "title": "金达莱村洗手间",
        "address": "吉林省延边朝鲜族自治州和龙市金达莱村",
        "tel": "",
        "category": "基础设施:公共设施:公共厕所",
        "type": 0,
        "location": {
            "lat": 42.688913,
            "lng": 129.080272
        },
        "ad_info": {
            "adcode": 222406,
            "province": "吉林省",
            "city": "延边朝鲜族自治州",
            "district": "和龙市"
        }
    },
    {
        "id": "7121519174093142136",
        "title": "公共厕所",
        "address": "吉林省延边朝鲜族自治州和龙市金达莱村",
        "tel": "",
        "category": "基础设施:公共设施:公共厕所",
        "type": 0,
        "location": {
            "lat": 42.690322,
            "lng": 129.081024
        },
        "ad_info": {
            "adcode": 222406,
            "province": "吉林省",
            "city": "延边朝鲜族自治州",
            "district": "和龙市"
        }
    },
    {
        "id": "9330238114559175644",
        "title": "公共厕所",
        "address": "吉林省延边朝鲜族自治州安图县G334与S201交叉口东南方向974米左右",
        "tel": "",
        "category": "基础设施:公共设施:公共厕所",
        "type": 0,
        "location": {
            "lat": 42.770061,
            "lng": 128.238028
        },
        "ad_info": {
            "adcode": 222426,
            "province": "吉林省",
            "city": "延边朝鲜族自治州",
            "district": "安图县"
        }
    },
    {
        "id": "3112074658028580754",
        "title": "古洞河服务区公共厕所",
        "address": "吉林省延边朝鲜族自治州和龙市G1221延长高速出口与G1221延长高速入口交叉口北120米",
        "tel": "",
        "category": "基础设施:公共设施:公共厕所",
        "type": 0,
        "location": {
            "lat": 42.604663,
            "lng": 128.672679
        },
        "ad_info": {
            "adcode": 222406,
            "province": "吉林省",
            "city": "延边朝鲜族自治州",
            "district": "和龙市"
        }
    },
    {
        "id": "8396817516436377402",
        "title": "公共厕所",
        "address": "吉林省延边朝鲜族自治州敦化市大石头镇302国道大石头站",
        "tel": "",
        "category": "基础设施:公共设施:公共厕所",
        "type": 0,
        "location": {
            "lat": 43.305431,
            "lng": 128.50205
        },
        "ad_info": {
            "adcode": 222403,
            "province": "吉林省",
            "city": "延边朝鲜族自治州",
            "district": "敦化市"
        }
    },
    {
        "id": "6123587214983975032",
        "title": "公共厕所",
        "address": "吉林省延边朝鲜族自治州敦化市南湖大街与金鼎大街交叉口西南方向51米左右",
        "tel": "",
        "category": "基础设施:公共设施:公共厕所",
        "type": 0,
        "location": {
            "lat": 43.337163,
            "lng": 128.228998
        },
        "ad_info": {
            "adcode": 222403,
            "province": "吉林省",
            "city": "延边朝鲜族自治州",
            "district": "敦化市"
        }
    },
    {
        "id": "438293698962787076",
        "title": "依兰服务区公共厕所",
        "address": "吉林省延边朝鲜族自治州延吉市202省道南50米",
        "tel": "",
        "category": "基础设施:公共设施:公共厕所",
        "type": 0,
        "location": {
            "lat": 43.137181,
            "lng": 129.532396
        },
        "ad_info": {
            "adcode": 222401,
            "province": "吉林省",
            "city": "延边朝鲜族自治州",
            "district": "延吉市"
        }
    },
    {
        "id": "1971545572926590509",
        "title": "公共厕所",
        "address": "吉林省延边朝鲜族自治州安图县和平街15号",
        "tel": "",
        "category": "基础设施:公共设施:公共厕所",
        "type": 0,
        "location": {
            "lat": 42.436328,
            "lng": 128.115634
        },
        "ad_info": {
            "adcode": 222426,
            "province": "吉林省",
            "city": "延边朝鲜族自治州",
            "district": "安图县"
        }
    },
    {
        "id": "2724114163198511495",
        "title": "公共厕所",
        "address": "吉林省延边朝鲜族自治州敦化市清华路与长白路交叉口西北方向306米左右",
        "tel": "",
        "category": "基础设施:公共设施:公共厕所",
        "type": 0,
        "location": {
            "lat": 43.368748,
            "lng": 128.215708
        },
        "ad_info": {
            "adcode": 222403,
            "province": "吉林省",
            "city": "延边朝鲜族自治州",
            "district": "敦化市"
        }
    },
    {
        "id": "12552521488776967524",
        "title": "公共厕所",
        "address": "吉林省延边朝鲜族自治州和龙市G331与图和线交叉口正西方向826米左右",
        "tel": "",
        "category": "基础设施:公共设施:公共厕所",
        "type": 0,
        "location": {
            "lat": 42.095678,
            "lng": 128.987541
        },
        "ad_info": {
            "adcode": 222406,
            "province": "吉林省",
            "city": "延边朝鲜族自治州",
            "district": "和龙市"
        }
    },
    {
        "id": "1602410566375982341",
        "title": "公共厕所",
        "address": "吉林省延边朝鲜族自治州敦化市民胜村附近大石头南站",
        "tel": "",
        "category": "基础设施:公共设施:公共厕所",
        "type": 0,
        "location": {
            "lat": 43.300975,
            "lng": 128.456987
        },
        "ad_info": {
            "adcode": 222403,
            "province": "吉林省",
            "city": "延边朝鲜族自治州",
            "district": "敦化市"
        }
    },
    {
        "id": "11738263509170952394",
        "title": "公共厕所",
        "address": "吉林省延边朝鲜族自治州汪清县校园路110号",
        "tel": "",
        "category": "基础设施:公共设施:公共厕所",
        "type": 0,
        "location": {
            "lat": 43.319551,
            "lng": 129.775461
        },
        "ad_info": {
            "adcode": 222424,
            "province": "吉林省",
            "city": "延边朝鲜族自治州",
            "district": "汪清县"
        }
    },
    {
        "id": "6295638542736821697",
        "title": "公共厕所",
        "address": "吉林省延边朝鲜族自治州龙井市东山街与滨河路交叉口西南方向461米左右",
        "tel": "",
        "category": "基础设施:公共设施:公共厕所",
        "type": 0,
        "location": {
            "lat": 42.760184,
            "lng": 129.420781
        },
        "ad_info": {
            "adcode": 222405,
            "province": "吉林省",
            "city": "延边朝鲜族自治州",
            "district": "龙井市"
        }
    },
    {
        "id": "18080018656931693194",
        "title": "公共厕所",
        "address": "吉林省延边朝鲜族自治州延吉市光华路威远城",
        "tel": "",
        "category": "基础设施:公共设施:公共厕所",
        "type": 0,
        "location": {
            "lat": 42.893192,
            "lng": 129.524045
        },
        "ad_info": {
            "adcode": 222401,
            "province": "吉林省",
            "city": "延边朝鲜族自治州",
            "district": "延吉市"
        }
    },
    {
        "id": "11156343300059731883",
        "title": "公共厕所",
        "address": "吉林省延边朝鲜族自治州延吉市天池路与阿里郎美食街交叉口东北方向25米左右",
        "tel": "",
        "category": "基础设施:公共设施:公共厕所",
        "type": 0,
        "location": {
            "lat": 42.894299,
            "lng": 129.460635
        },
        "ad_info": {
            "adcode": 222401,
            "province": "吉林省",
            "city": "延边朝鲜族自治州",
            "district": "延吉市"
        }
    },
    {
        "id": "1471776556462626487",
        "title": "头道服务区公共厕所",
        "address": "吉林省延边朝鲜族自治州和龙市G1221延长高速与头道服务区交叉口西280米",
        "tel": "",
        "category": "基础设施:公共设施:公共厕所",
        "type": 0,
        "location": {
            "lat": 42.752669,
            "lng": 129.183262
        },
        "ad_info": {
            "adcode": 222406,
            "province": "吉林省",
            "city": "延边朝鲜族自治州",
            "district": "和龙市"
        }
    },
    {
        "id": "5173139830939619452",
        "title": "公共厕所",
        "address": "吉林省延边朝鲜族自治州延吉市丹平路与丹虹街交叉口西南方向129米左右",
        "tel": "",
        "category": "基础设施:公共设施:公共厕所",
        "type": 0,
        "location": {
            "lat": 42.923526,
            "lng": 129.524362
        },
        "ad_info": {
            "adcode": 222401,
            "province": "吉林省",
            "city": "延边朝鲜族自治州",
            "district": "延吉市"
        }
    },
    {
        "id": "82318758639348642",
        "title": "公共厕所",
        "address": "吉林省延边朝鲜族自治州敦化市工农路与老城街交叉口正西方向75米左右",
        "tel": "",
        "category": "基础设施:公共设施:公共厕所",
        "type": 0,
        "location": {
            "lat": 43.36983,
            "lng": 128.242389
        },
        "ad_info": {
            "adcode": 222403,
            "province": "吉林省",
            "city": "延边朝鲜族自治州",
            "district": "敦化市"
        }
    },
    {
        "id": "6906122783215013113",
        "title": "公共厕所",
        "address": "吉林省延边朝鲜族自治州和龙市池秀路与秀湖街交叉口正北方向65米左右",
        "tel": "",
        "category": "基础设施:公共设施:公共厕所",
        "type": 0,
        "location": {
            "lat": 42.539887,
            "lng": 129.003328
        },
        "ad_info": {
            "adcode": 222406,
            "province": "吉林省",
            "city": "延边朝鲜族自治州",
            "district": "和龙市"
        }
    },
    {
        "id": "1874046385580395481",
        "title": "公共厕所",
        "address": "吉林省延边朝鲜族自治州敦化市南湖大街与沿江路交叉口东南方向87米左右",
        "tel": "",
        "category": "基础设施:公共设施:公共厕所",
        "type": 0,
        "location": {
            "lat": 43.341398,
            "lng": 128.230063
        },
        "ad_info": {
            "adcode": 222403,
            "province": "吉林省",
            "city": "延边朝鲜族自治州",
            "district": "敦化市"
        }
    },
    {
        "id": "11514614613798874140",
        "title": "花海风情园无障碍公共厕所",
        "address": "吉林省延边朝鲜族自治州图们市日光山花海民俗风情园东南侧",
        "tel": "",
        "category": "基础设施:公共设施:公共厕所",
        "type": 0,
        "location": {
            "lat": 42.935217,
            "lng": 129.83818
        },
        "ad_info": {
            "adcode": 222402,
            "province": "吉林省",
            "city": "延边朝鲜族自治州",
            "district": "图们市"
        }
    },
    {
        "id": "15583635694861228577",
        "title": "古洞河服务区公共厕所",
        "address": "吉林省延边朝鲜族自治州和龙市仙峰岭服务区与G1221延长高速出口交叉口北100米",
        "tel": "",
        "category": "基础设施:公共设施:公共厕所",
        "type": 0,
        "location": {
            "lat": 42.607846,
            "lng": 128.671855
        },
        "ad_info": {
            "adcode": 222406,
            "province": "吉林省",
            "city": "延边朝鲜族自治州",
            "district": "和龙市"
        }
    },
    {
        "id": "9135796335722504950",
        "title": "公共厕所",
        "address": "吉林省延边朝鲜族自治州珲春市新安路与渤海西大街交叉口东南方向93米左右",
        "tel": "",
        "category": "基础设施:公共设施:公共厕所",
        "type": 0,
        "location": {
            "lat": 42.87765,
            "lng": 130.356702
        },
        "ad_info": {
            "adcode": 222404,
            "province": "吉林省",
            "city": "延边朝鲜族自治州",
            "district": "珲春市"
        }
    },
    {
        "id": "6487640107458440981",
        "title": "公共厕所",
        "address": "吉林省延边朝鲜族自治州珲春市春城路642号",
        "tel": "",
        "category": "基础设施:公共设施:公共厕所",
        "type": 0,
        "location": {
            "lat": 42.867178,
            "lng": 130.3554
        },
        "ad_info": {
            "adcode": 222404,
            "province": "吉林省",
            "city": "延边朝鲜族自治州",
            "district": "珲春市"
        }
    },
    {
        "id": "5858646348125835951",
        "title": "旅游公共厕所",
        "address": "吉林省延边朝鲜族自治州珲春市新安路252号",
        "tel": "",
        "category": "基础设施:公共设施:公共厕所",
        "type": 0,
        "location": {
            "lat": 42.876859,
            "lng": 130.357147
        },
        "ad_info": {
            "adcode": 222404,
            "province": "吉林省",
            "city": "延边朝鲜族自治州",
            "district": "珲春市"
        }
    },
    {
        "id": "12732459647825610453",
        "title": "无障碍公共厕所",
        "address": "吉林省延边朝鲜族自治州延吉市天池路与新丰街交叉口正北方向27米左右",
        "tel": "",
        "category": "基础设施:公共设施:公共厕所",
        "type": 0,
        "location": {
            "lat": 42.895287,
            "lng": 129.484987
        },
        "ad_info": {
            "adcode": 222401,
            "province": "吉林省",
            "city": "延边朝鲜族自治州",
            "district": "延吉市"
        }
    },
    {
        "id": "11200602825045226122",
        "title": "公共厕所",
        "address": "吉林省延边朝鲜族自治州延吉市延南路与长兴胡同交叉口正北方向150米左右",
        "tel": "",
        "category": "基础设施:公共设施:公共厕所",
        "type": 0,
        "location": {
            "lat": 42.886194,
            "lng": 129.510011
        },
        "ad_info": {
            "adcode": 222401,
            "province": "吉林省",
            "city": "延边朝鲜族自治州",
            "district": "延吉市"
        }
    },
    {
        "id": "5119939429858573145",
        "title": "公共厕所",
        "address": "吉林省延边朝鲜族自治州延吉市局子街与白山胡同交叉口西南方向114米左右",
        "tel": "",
        "category": "基础设施:公共设施:公共厕所",
        "type": 0,
        "location": {
            "lat": 42.889792,
            "lng": 129.514512
        },
        "ad_info": {
            "adcode": 222401,
            "province": "吉林省",
            "city": "延边朝鲜族自治州",
            "district": "延吉市"
        }
    },
    {
        "id": "982406182767822160",
        "title": "公共厕所",
        "address": "吉林省延边朝鲜族自治州龙井市兴工胡同与海兰路交叉口正西方向23米左右",
        "tel": "",
        "category": "基础设施:公共设施:公共厕所",
        "type": 0,
        "location": {
            "lat": 42.775457,
            "lng": 129.423428
        },
        "ad_info": {
            "adcode": 222405,
            "province": "吉林省",
            "city": "延边朝鲜族自治州",
            "district": "龙井市"
        }
    },
    {
        "id": "14438070559458136817",
        "title": "公共厕所",
        "address": "吉林省延边朝鲜族自治州珲春市中华路与珲春西街交叉口正西方向203米左右",
        "tel": "",
        "category": "基础设施:公共设施:公共厕所",
        "type": 0,
        "location": {
            "lat": 42.867804,
            "lng": 130.340924
        },
        "ad_info": {
            "adcode": 222404,
            "province": "吉林省",
            "city": "延边朝鲜族自治州",
            "district": "珲春市"
        }
    },
    {
        "id": "9415407423491900921",
        "title": "公共厕所",
        "address": "吉林省延边朝鲜族自治州龙井市本康胡同与民声街交叉口正西方向77米左右",
        "tel": "",
        "category": "基础设施:公共设施:公共厕所",
        "type": 0,
        "location": {
            "lat": 42.772431,
            "lng": 129.42199
        },
        "ad_info": {
            "adcode": 222405,
            "province": "吉林省",
            "city": "延边朝鲜族自治州",
            "district": "龙井市"
        }
    },
    {
        "id": "11090906448606200167",
        "title": "公共厕所",
        "address": "吉林省延边朝鲜族自治州龙井市文化路与长青路交叉口西北方向371米左右",
        "tel": "",
        "category": "基础设施:公共设施:公共厕所",
        "type": 0,
        "location": {
            "lat": 42.705368,
            "lng": 129.761115
        },
        "ad_info": {
            "adcode": 222405,
            "province": "吉林省",
            "city": "延边朝鲜族自治州",
            "district": "龙井市"
        }
    },
    {
        "id": "5206007482220127361",
        "title": "六鼎山服务区公共厕所",
        "address": "吉林省延边朝鲜族自治州敦化市G11鹤大高速与六鼎山服务区交叉口东北400米",
        "tel": "",
        "category": "基础设施:公共设施:公共厕所",
        "type": 0,
        "location": {
            "lat": 43.117875,
            "lng": 128.097067
        },
        "ad_info": {
            "adcode": 222403,
            "province": "吉林省",
            "city": "延边朝鲜族自治州",
            "district": "敦化市"
        }
    },
    {
        "id": "4845120654980923230",
        "title": "公共厕所",
        "address": "吉林省延边朝鲜族自治州龙井市文化路与长青路交叉口西北方向267米左右",
        "tel": "",
        "category": "基础设施:公共设施:公共厕所",
        "type": 0,
        "location": {
            "lat": 42.704681,
            "lng": 129.762014
        },
        "ad_info": {
            "adcode": 222405,
            "province": "吉林省",
            "city": "延边朝鲜族自治州",
            "district": "龙井市"
        }
    },
    {
        "id": "1675644644181954084",
        "title": "无障碍公共厕所",
        "address": "吉林省延边朝鲜族自治州敦化市印刷胡同与工联路交叉口西南方向46米左右",
        "tel": "",
        "category": "基础设施:公共设施:公共厕所",
        "type": 0,
        "location": {
            "lat": 43.365909,
            "lng": 128.230661
        },
        "ad_info": {
            "adcode": 222403,
            "province": "吉林省",
            "city": "延边朝鲜族自治州",
            "district": "敦化市"
        }
    },
    {
        "id": "4822110254701188419",
        "title": "洗手间",
        "address": "吉林省延边朝鲜族自治州安图县长白山北景区集散中心售验票大厅内",
        "tel": "",
        "category": "基础设施:公共设施:公共厕所",
        "type": 0,
        "location": {
            "lat": 42.444792,
            "lng": 128.133158
        },
        "ad_info": {
            "adcode": 222426,
            "province": "吉林省",
            "city": "延边朝鲜族自治州",
            "district": "安图县"
        }
    },
    {
        "id": "15422909940677365666",
        "title": "无障碍公共厕所",
        "address": "吉林省延边朝鲜族自治州延吉市延华胡同与长白山西路交叉口正北方向100米左右",
        "tel": "",
        "category": "基础设施:公共设施:公共厕所",
        "type": 0,
        "location": {
            "lat": 42.895267,
            "lng": 129.516093
        },
        "ad_info": {
            "adcode": 222401,
            "province": "吉林省",
            "city": "延边朝鲜族自治州",
            "district": "延吉市"
        }
    },
    {
        "id": "14015669455318567526",
        "title": "公共厕所",
        "address": "吉林省延边朝鲜族自治州龙井市沿铁路与海兰路交叉口西南方向150米左右",
        "tel": "",
        "category": "基础设施:公共设施:公共厕所",
        "type": 0,
        "location": {
            "lat": 42.775797,
            "lng": 129.420779
        },
        "ad_info": {
            "adcode": 222405,
            "province": "吉林省",
            "city": "延边朝鲜族自治州",
            "district": "龙井市"
        }
    },
    {
        "id": "4007355549300414176",
        "title": "公共厕所",
        "address": "吉林省延边朝鲜族自治州龙井市三合路与丰收路交叉口西北方向161米左右",
        "tel": "",
        "category": "基础设施:公共设施:公共厕所",
        "type": 0,
        "location": {
            "lat": 42.478786,
            "lng": 129.743106
        },
        "ad_info": {
            "adcode": 222405,
            "province": "吉林省",
            "city": "延边朝鲜族自治州",
            "district": "龙井市"
        }
    },
    {
        "id": "9064867295896915352",
        "title": "依兰服务区公共厕所",
        "address": "吉林省延边朝鲜族自治州延吉市汪延高速",
        "tel": "",
        "category": "基础设施:公共设施:公共厕所",
        "type": 0,
        "location": {
            "lat": 43.135304,
            "lng": 129.531846
        },
        "ad_info": {
            "adcode": 222401,
            "province": "吉林省",
            "city": "延边朝鲜族自治州",
            "district": "延吉市"
        }
    },
    {
        "id": "7139497916919415933",
        "title": "口岸大街水冲公共厕所",
        "address": "吉林省延边朝鲜族自治州图们市口岸大街553号",
        "tel": "",
        "category": "基础设施:公共设施:公共厕所",
        "type": 0,
        "location": {
            "lat": 42.972853,
            "lng": 129.845936
        },
        "ad_info": {
            "adcode": 222402,
            "province": "吉林省",
            "city": "延边朝鲜族自治州",
            "district": "图们市"
        }
    },
    {
        "id": "14499764900859407005",
        "title": "公共厕所",
        "address": "吉林省延边朝鲜族自治州延吉市昌盛街与长白山西路交叉口西北方向146米左右",
        "tel": "",
        "category": "基础设施:公共设施:公共厕所",
        "type": 0,
        "location": {
            "lat": 42.89401,
            "lng": 129.492314
        },
        "ad_info": {
            "adcode": 222401,
            "province": "吉林省",
            "city": "延边朝鲜族自治州",
            "district": "延吉市"
        }
    },
    {
        "id": "7651330174358850949",
        "title": "公共厕所",
        "address": "吉林省延边朝鲜族自治州和龙市兴文街与文盛路交叉口正北方向401米左右",
        "tel": "",
        "category": "基础设施:公共设施:公共厕所",
        "type": 0,
        "location": {
            "lat": 42.552002,
            "lng": 129.005878
        },
        "ad_info": {
            "adcode": 222406,
            "province": "吉林省",
            "city": "延边朝鲜族自治州",
            "district": "和龙市"
        }
    },
    {
        "id": "10282703106793941233",
        "title": "老白山服务区公共厕所",
        "address": "吉林省延边朝鲜族自治州敦化市",
        "tel": "",
        "category": "基础设施:公共设施:公共厕所",
        "type": 0,
        "location": {
            "lat": 43.512382,
            "lng": 128.262386
        },
        "ad_info": {
            "adcode": 222403,
            "province": "吉林省",
            "city": "延边朝鲜族自治州",
            "district": "敦化市"
        }
    },
    {
        "id": "4091933381030019437",
        "title": "公共厕所",
        "address": "吉林省延边朝鲜族自治州延吉市铁南路与长安街交叉口正西方向64米左右",
        "tel": "",
        "category": "基础设施:公共设施:公共厕所",
        "type": 0,
        "location": {
            "lat": 42.886233,
            "lng": 129.506763
        },
        "ad_info": {
            "adcode": 222401,
            "province": "吉林省",
            "city": "延边朝鲜族自治州",
            "district": "延吉市"
        }
    },
    {
        "id": "11498273962624229082",
        "title": "公共厕所",
        "address": "吉林省延边朝鲜族自治州敦化市丹江路与华康大街交叉口西南方向180米左右",
        "tel": "",
        "category": "基础设施:公共设施:公共厕所",
        "type": 0,
        "location": {
            "lat": 43.361895,
            "lng": 128.263248
        },
        "ad_info": {
            "adcode": 222403,
            "province": "吉林省",
            "city": "延边朝鲜族自治州",
            "district": "敦化市"
        }
    },
    {
        "id": "7311422964123820365",
        "title": "老白山服务区公共厕所",
        "address": "吉林省延边朝鲜族自治州敦化市鹤大高速",
        "tel": "",
        "category": "基础设施:公共设施:公共厕所",
        "type": 0,
        "location": {
            "lat": 43.512951,
            "lng": 128.26015
        },
        "ad_info": {
            "adcode": 222403,
            "province": "吉林省",
            "city": "延边朝鲜族自治州",
            "district": "敦化市"
        }
    },
    {
        "id": "18445491043278105717",
        "title": "寒葱岭服务区公共厕所",
        "address": "吉林省延边朝鲜族自治州敦化市鹤大高速寒葱岭服务区",
        "tel": "",
        "category": "基础设施:公共设施:公共厕所",
        "type": 0,
        "location": {
            "lat": 42.773563,
            "lng": 127.853115
        },
        "ad_info": {
            "adcode": 222403,
            "province": "吉林省",
            "city": "延边朝鲜族自治州",
            "district": "敦化市"
        }
    },
    {
        "id": "2753146874442635228",
        "title": "公共厕所",
        "address": "吉林省延边朝鲜族自治州延吉市北阳路与局子街交叉口西北方向75米左右",
        "tel": "",
        "category": "基础设施:公共设施:公共厕所",
        "type": 0,
        "location": {
            "lat": 42.923142,
            "lng": 129.511431
        },
        "ad_info": {
            "adcode": 222401,
            "province": "吉林省",
            "city": "延边朝鲜族自治州",
            "district": "延吉市"
        }
    },
    {
        "id": "3498380971143824055",
        "title": "公共厕所",
        "address": "吉林省延边朝鲜族自治州安图县五角枫路与白山街交叉口正西方向211米左右",
        "tel": "",
        "category": "基础设施:公共设施:公共厕所",
        "type": 0,
        "location": {
            "lat": 42.42176,
            "lng": 128.113338
        },
        "ad_info": {
            "adcode": 222426,
            "province": "吉林省",
            "city": "延边朝鲜族自治州",
            "district": "安图县"
        }
    },
    {
        "id": "17387190096842474548",
        "title": "公共厕所",
        "address": "吉林省延边朝鲜族自治州安图县白河大街与美人松路交叉口正东方向244米左右",
        "tel": "",
        "category": "基础设施:公共设施:公共厕所",
        "type": 0,
        "location": {
            "lat": 42.440371,
            "lng": 128.120233
        },
        "ad_info": {
            "adcode": 222426,
            "province": "吉林省",
            "city": "延边朝鲜族自治州",
            "district": "安图县"
        }
    },
    {
        "id": "4742544297902759832",
        "title": "公共厕所",
        "address": "吉林省延边朝鲜族自治州延吉市丹进路与朝阳街交叉口正西方向145米左右",
        "tel": "",
        "category": "基础设施:公共设施:公共厕所",
        "type": 0,
        "location": {
            "lat": 42.920978,
            "lng": 129.52663
        },
        "ad_info": {
            "adcode": 222401,
            "province": "吉林省",
            "city": "延边朝鲜族自治州",
            "district": "延吉市"
        }
    },
    {
        "id": "8801321933552093162",
        "title": "公共厕所",
        "address": "吉林省延边朝鲜族自治州敦化市长安路与净水路交叉口东南方向78米",
        "tel": "",
        "category": "基础设施:公共设施:公共厕所",
        "type": 0,
        "location": {
            "lat": 43.369877,
            "lng": 128.221446
        },
        "ad_info": {
            "adcode": 222403,
            "province": "吉林省",
            "city": "延边朝鲜族自治州",
            "district": "敦化市"
        }
    },
    {
        "id": "10801143672468874855",
        "title": "公共厕所",
        "address": "吉林省延边朝鲜族自治州延吉市长胜胡同延吉市延南小学校东南侧约50米",
        "tel": "",
        "category": "基础设施:公共设施:公共厕所",
        "type": 0,
        "location": {
            "lat": 42.881585,
            "lng": 129.508339
        },
        "ad_info": {
            "adcode": 222401,
            "province": "吉林省",
            "city": "延边朝鲜族自治州",
            "district": "延吉市"
        }
    },
    {
        "id": "10623903401697494663",
        "title": "公共厕所",
        "address": "吉林省延边朝鲜族自治州敦化市永健胡同与海龙胡同交叉口正北方向53米左右",
        "tel": "",
        "category": "基础设施:公共设施:公共厕所",
        "type": 0,
        "location": {
            "lat": 43.371319,
            "lng": 128.227976
        },
        "ad_info": {
            "adcode": 222403,
            "province": "吉林省",
            "city": "延边朝鲜族自治州",
            "district": "敦化市"
        }
    },
    {
        "id": "10717328408007735857",
        "title": "公共厕所",
        "address": "吉林省延边朝鲜族自治州汪清县新民街与清华路交叉口东北方向52米左右",
        "tel": "",
        "category": "基础设施:公共设施:公共厕所",
        "type": 0,
        "location": {
            "lat": 43.318623,
            "lng": 129.764048
        },
        "ad_info": {
            "adcode": 222424,
            "province": "吉林省",
            "city": "延边朝鲜族自治州",
            "district": "汪清县"
        }
    },
    {
        "id": "14660556465502604494",
        "title": "公共厕所",
        "address": "吉林省延边朝鲜族自治州敦化市南环路与学府街交叉口正东方向122米左右",
        "tel": "",
        "category": "基础设施:公共设施:公共厕所",
        "type": 0,
        "location": {
            "lat": 43.354789,
            "lng": 128.226302
        },
        "ad_info": {
            "adcode": 222403,
            "province": "吉林省",
            "city": "延边朝鲜族自治州",
            "district": "敦化市"
        }
    },
    {
        "id": "9537684111947452408",
        "title": "公共厕所",
        "address": "吉林省延边朝鲜族自治州延吉市朝阳街与爱丹路交叉口西北方向115米左右",
        "tel": "",
        "category": "基础设施:公共设施:公共厕所",
        "type": 0,
        "location": {
            "lat": 42.914699,
            "lng": 129.526267
        },
        "ad_info": {
            "adcode": 222401,
            "province": "吉林省",
            "city": "延边朝鲜族自治州",
            "district": "延吉市"
        }
    },
    {
        "id": "9046748970050212545",
        "title": "公共厕所",
        "address": "吉林省延边朝鲜族自治州敦化市工农胡同与康惠路交叉口正东方向68米左右",
        "tel": "",
        "category": "基础设施:公共设施:公共厕所",
        "type": 0,
        "location": {
            "lat": 43.362722,
            "lng": 128.237248
        },
        "ad_info": {
            "adcode": 222403,
            "province": "吉林省",
            "city": "延边朝鲜族自治州",
            "district": "敦化市"
        }
    },
    {
        "id": "12453192813341861918",
        "title": "公共厕所",
        "address": "吉林省延边朝鲜族自治州延吉市昌盛街与铁北路交叉口东北方向163米左右",
        "tel": "",
        "category": "基础设施:公共设施:公共厕所",
        "type": 0,
        "location": {
            "lat": 42.888937,
            "lng": 129.494857
        },
        "ad_info": {
            "adcode": 222401,
            "province": "吉林省",
            "city": "延边朝鲜族自治州",
            "district": "延吉市"
        }
    },
    {
        "id": "16289186100875895875",
        "title": "公共厕所",
        "address": "吉林省延边朝鲜族自治州敦化市大石头亚光湖国家湿地公园南侧250米",
        "tel": "",
        "category": "基础设施:公共设施:公共厕所",
        "type": 0,
        "location": {
            "lat": 43.209256,
            "lng": 128.542773
        },
        "ad_info": {
            "adcode": 222403,
            "province": "吉林省",
            "city": "延边朝鲜族自治州",
            "district": "敦化市"
        }
    },
    {
        "id": "2561921566503987525",
        "title": "公共厕所",
        "address": "吉林省延边朝鲜族自治州汪清县园丁巷与新民街交叉口东南方向110米左右",
        "tel": "",
        "category": "基础设施:公共设施:公共厕所",
        "type": 0,
        "location": {
            "lat": 43.313291,
            "lng": 129.778817
        },
        "ad_info": {
            "adcode": 222424,
            "province": "吉林省",
            "city": "延边朝鲜族自治州",
            "district": "汪清县"
        }
    },
    {
        "id": "5656339815915635521",
        "title": "公共厕所",
        "address": "吉林省延边朝鲜族自治州敦化市江南街与衡山路交叉口正南方向400米左右",
        "tel": "",
        "category": "基础设施:公共设施:公共厕所",
        "type": 0,
        "location": {
            "lat": 43.346255,
            "lng": 128.258857
        },
        "ad_info": {
            "adcode": 222403,
            "province": "吉林省",
            "city": "延边朝鲜族自治州",
            "district": "敦化市"
        }
    },
    {
        "id": "17621951489046588867",
        "title": "公共厕所",
        "address": "吉林省延边朝鲜族自治州安图县202省道西50米",
        "tel": "",
        "category": "基础设施:公共设施:公共厕所",
        "type": 0,
        "location": {
            "lat": 42.506301,
            "lng": 128.631857
        },
        "ad_info": {
            "adcode": 222426,
            "province": "吉林省",
            "city": "延边朝鲜族自治州",
            "district": "安图县"
        }
    },
    {
        "id": "7524679170278200396",
        "title": "公共厕所",
        "address": "吉林省延边朝鲜族自治州敦化市华康大街与新宾路交叉口东北方向55米左右",
        "tel": "",
        "category": "基础设施:公共设施:公共厕所",
        "type": 0,
        "location": {
            "lat": 43.357342,
            "lng": 128.242114
        },
        "ad_info": {
            "adcode": 222403,
            "province": "吉林省",
            "city": "延边朝鲜族自治州",
            "district": "敦化市"
        }
    },
    {
        "id": "17481133279225099448",
        "title": "丹山游园-公共厕所",
        "address": "吉林省延边朝鲜族自治州延吉市新村路丹山游园(西南角)",
        "tel": "",
        "category": "基础设施:公共设施:公共厕所",
        "type": 0,
        "location": {
            "lat": 42.926496,
            "lng": 129.515471
        },
        "ad_info": {
            "adcode": 222401,
            "province": "吉林省",
            "city": "延边朝鲜族自治州",
            "district": "延吉市"
        }
    },
    {
        "id": "12790551434907528564",
        "title": "旅游公共厕所",
        "address": "吉林省延边朝鲜族自治州安图县白丁香路与白山街交叉口正西方向241米左右",
        "tel": "",
        "category": "基础设施:公共设施:公共厕所",
        "type": 0,
        "location": {
            "lat": 42.422842,
            "lng": 128.11286
        },
        "ad_info": {
            "adcode": 222426,
            "province": "吉林省",
            "city": "延边朝鲜族自治州",
            "district": "安图县"
        }
    },
    {
        "id": "9540718522924980785",
        "title": "公共厕所",
        "address": "吉林省延边朝鲜族自治州延吉市兴北胡同与菊花路交叉口东南方向104米左右",
        "tel": "",
        "category": "基础设施:公共设施:公共厕所",
        "type": 0,
        "location": {
            "lat": 42.924232,
            "lng": 129.510015
        },
        "ad_info": {
            "adcode": 222401,
            "province": "吉林省",
            "city": "延边朝鲜族自治州",
            "district": "延吉市"
        }
    },
    {
        "id": "773805664674213768",
        "title": "安图服务区公共厕所",
        "address": "吉林省延边朝鲜族自治州敦化市珲乌高速安图服务区",
        "tel": "",
        "category": "基础设施:公共设施:公共厕所",
        "type": 0,
        "location": {
            "lat": 43.316886,
            "lng": 128.738978
        },
        "ad_info": {
            "adcode": 222403,
            "province": "吉林省",
            "city": "延边朝鲜族自治州",
            "district": "敦化市"
        }
    },
    {
        "id": "13224678157167203928",
        "title": "公共厕所",
        "address": "吉林省延边朝鲜族自治州安图县朝鲜族民俗村旅游服务中心",
        "tel": "",
        "category": "基础设施:公共设施:公共厕所",
        "type": 0,
        "location": {
            "lat": 42.854438,
            "lng": 128.302439
        },
        "ad_info": {
            "adcode": 222426,
            "province": "吉林省",
            "city": "延边朝鲜族自治州",
            "district": "安图县"
        }
    },
    {
        "id": "11855898914321840391",
        "title": "公共厕所",
        "address": "吉林省延边朝鲜族自治州珲春市渤海大街与珲春西街交叉口正南方向432米左右",
        "tel": "",
        "category": "基础设施:公共设施:公共厕所",
        "type": 0,
        "location": {
            "lat": 42.865182,
            "lng": 130.333204
        },
        "ad_info": {
            "adcode": 222404,
            "province": "吉林省",
            "city": "延边朝鲜族自治州",
            "district": "珲春市"
        }
    },
    {
        "id": "15492258104717525771",
        "title": "公共厕所",
        "address": "吉林省延边朝鲜族自治州延吉市太平街与海兰路交叉口正东方向44米左右",
        "tel": "",
        "category": "基础设施:公共设施:公共厕所",
        "type": 0,
        "location": {
            "lat": 42.905388,
            "lng": 129.523249
        },
        "ad_info": {
            "adcode": 222401,
            "province": "吉林省",
            "city": "延边朝鲜族自治州",
            "district": "延吉市"
        }
    },
    {
        "id": "242502596575706932",
        "title": "公共厕所",
        "address": "吉林省延边朝鲜族自治州敦化市丹江路与华康大街交叉口西南方向67米左右",
        "tel": "",
        "category": "基础设施:公共设施:公共厕所",
        "type": 0,
        "location": {
            "lat": 43.362883,
            "lng": 128.263702
        },
        "ad_info": {
            "adcode": 222403,
            "province": "吉林省",
            "city": "延边朝鲜族自治州",
            "district": "敦化市"
        }
    },
    {
        "id": "3068662760280153528",
        "title": "天池服务区公共厕所",
        "address": "吉林省延边朝鲜族自治州安图县中国石油吉高能源天池服务区加油站西北侧80米",
        "tel": "",
        "category": "基础设施:公共设施:公共厕所",
        "type": 0,
        "location": {
            "lat": 42.685497,
            "lng": 128.046362
        },
        "ad_info": {
            "adcode": 222426,
            "province": "吉林省",
            "city": "延边朝鲜族自治州",
            "district": "安图县"
        }
    },
    {
        "id": "17735590141259021590",
        "title": "公共厕所",
        "address": "吉林省延边朝鲜族自治州汪清县南山街与大星路交叉口东南方向392米左右",
        "tel": "",
        "category": "基础设施:公共设施:公共厕所",
        "type": 0,
        "location": {
            "lat": 43.306254,
            "lng": 129.774633
        },
        "ad_info": {
            "adcode": 222424,
            "province": "吉林省",
            "city": "延边朝鲜族自治州",
            "district": "汪清县"
        }
    },
    {
        "id": "1229259047040876862",
        "title": "公共厕所",
        "address": "吉林省延边朝鲜族自治州敦化市工农路与铁路四胡同交叉口西北方向164米左右",
        "tel": "",
        "category": "基础设施:公共设施:公共厕所",
        "type": 0,
        "location": {
            "lat": 43.372168,
            "lng": 128.244556
        },
        "ad_info": {
            "adcode": 222403,
            "province": "吉林省",
            "city": "延边朝鲜族自治州",
            "district": "敦化市"
        }
    },
    {
        "id": "14894490196929111965",
        "title": "公共厕所",
        "address": "吉林省延边朝鲜族自治州龙井市光明路与龙井街交叉口正北方向51米左右",
        "tel": "",
        "category": "基础设施:公共设施:公共厕所",
        "type": 0,
        "location": {
            "lat": 42.779028,
            "lng": 129.431805
        },
        "ad_info": {
            "adcode": 222405,
            "province": "吉林省",
            "city": "延边朝鲜族自治州",
            "district": "龙井市"
        }
    },
    {
        "id": "14443215284535396722",
        "title": "公共厕所",
        "address": "吉林省延边朝鲜族自治州汪清县南山街与汪清街交叉口正北方向357米左右",
        "tel": "",
        "category": "基础设施:公共设施:公共厕所",
        "type": 0,
        "location": {
            "lat": 43.318731,
            "lng": 129.74414
        },
        "ad_info": {
            "adcode": 222424,
            "province": "吉林省",
            "city": "延边朝鲜族自治州",
            "district": "汪清县"
        }
    },
    {
        "id": "9046748970050212545",
        "title": "公共厕所",
        "address": "吉林省延边朝鲜族自治州敦化市工农胡同与康惠路交叉口正东方向68米左右",
        "tel": "",
        "category": "基础设施:公共设施:公共厕所",
        "type": 0,
        "location": {
            "lat": 43.362722,
            "lng": 128.237248
        },
        "ad_info": {
            "adcode": 222403,
            "province": "吉林省",
            "city": "延边朝鲜族自治州",
            "district": "敦化市"
        }
    },
    {
        "id": "12453192813341861918",
        "title": "公共厕所",
        "address": "吉林省延边朝鲜族自治州延吉市昌盛街与铁北路交叉口东北方向163米左右",
        "tel": "",
        "category": "基础设施:公共设施:公共厕所",
        "type": 0,
        "location": {
            "lat": 42.888937,
            "lng": 129.494857
        },
        "ad_info": {
            "adcode": 222401,
            "province": "吉林省",
            "city": "延边朝鲜族自治州",
            "district": "延吉市"
        }
    },
    {
        "id": "16289186100875895875",
        "title": "公共厕所",
        "address": "吉林省延边朝鲜族自治州敦化市大石头亚光湖国家湿地公园南侧250米",
        "tel": "",
        "category": "基础设施:公共设施:公共厕所",
        "type": 0,
        "location": {
            "lat": 43.209256,
            "lng": 128.542773
        },
        "ad_info": {
            "adcode": 222403,
            "province": "吉林省",
            "city": "延边朝鲜族自治州",
            "district": "敦化市"
        }
    },
    {
        "id": "2561921566503987525",
        "title": "公共厕所",
        "address": "吉林省延边朝鲜族自治州汪清县园丁巷与新民街交叉口东南方向110米左右",
        "tel": "",
        "category": "基础设施:公共设施:公共厕所",
        "type": 0,
        "location": {
            "lat": 43.313291,
            "lng": 129.778817
        },
        "ad_info": {
            "adcode": 222424,
            "province": "吉林省",
            "city": "延边朝鲜族自治州",
            "district": "汪清县"
        }
    },
    {
        "id": "5656339815915635521",
        "title": "公共厕所",
        "address": "吉林省延边朝鲜族自治州敦化市江南街与衡山路交叉口正南方向400米左右",
        "tel": "",
        "category": "基础设施:公共设施:公共厕所",
        "type": 0,
        "location": {
            "lat": 43.346255,
            "lng": 128.258857
        },
        "ad_info": {
            "adcode": 222403,
            "province": "吉林省",
            "city": "延边朝鲜族自治州",
            "district": "敦化市"
        }
    },
    {
        "id": "17621951489046588867",
        "title": "公共厕所",
        "address": "吉林省延边朝鲜族自治州安图县202省道西50米",
        "tel": "",
        "category": "基础设施:公共设施:公共厕所",
        "type": 0,
        "location": {
            "lat": 42.506301,
            "lng": 128.631857
        },
        "ad_info": {
            "adcode": 222426,
            "province": "吉林省",
            "city": "延边朝鲜族自治州",
            "district": "安图县"
        }
    },
    {
        "id": "7524679170278200396",
        "title": "公共厕所",
        "address": "吉林省延边朝鲜族自治州敦化市华康大街与新宾路交叉口东北方向55米左右",
        "tel": "",
        "category": "基础设施:公共设施:公共厕所",
        "type": 0,
        "location": {
            "lat": 43.357342,
            "lng": 128.242114
        },
        "ad_info": {
            "adcode": 222403,
            "province": "吉林省",
            "city": "延边朝鲜族自治州",
            "district": "敦化市"
        }
    },
    {
        "id": "17481133279225099448",
        "title": "丹山游园-公共厕所",
        "address": "吉林省延边朝鲜族自治州延吉市新村路丹山游园(西南角)",
        "tel": "",
        "category": "基础设施:公共设施:公共厕所",
        "type": 0,
        "location": {
            "lat": 42.926496,
            "lng": 129.515471
        },
        "ad_info": {
            "adcode": 222401,
            "province": "吉林省",
            "city": "延边朝鲜族自治州",
            "district": "延吉市"
        }
    },
    {
        "id": "12790551434907528564",
        "title": "旅游公共厕所",
        "address": "吉林省延边朝鲜族自治州安图县白丁香路与白山街交叉口正西方向241米左右",
        "tel": "",
        "category": "基础设施:公共设施:公共厕所",
        "type": 0,
        "location": {
            "lat": 42.422842,
            "lng": 128.11286
        },
        "ad_info": {
            "adcode": 222426,
            "province": "吉林省",
            "city": "延边朝鲜族自治州",
            "district": "安图县"
        }
    },
    {
        "id": "9540718522924980785",
        "title": "公共厕所",
        "address": "吉林省延边朝鲜族自治州延吉市兴北胡同与菊花路交叉口东南方向104米左右",
        "tel": "",
        "category": "基础设施:公共设施:公共厕所",
        "type": 0,
        "location": {
            "lat": 42.924232,
            "lng": 129.510015
        },
        "ad_info": {
            "adcode": 222401,
            "province": "吉林省",
            "city": "延边朝鲜族自治州",
            "district": "延吉市"
        }
    },
    {
        "id": "773805664674213768",
        "title": "安图服务区公共厕所",
        "address": "吉林省延边朝鲜族自治州敦化市珲乌高速安图服务区",
        "tel": "",
        "category": "基础设施:公共设施:公共厕所",
        "type": 0,
        "location": {
            "lat": 43.316886,
            "lng": 128.738978
        },
        "ad_info": {
            "adcode": 222403,
            "province": "吉林省",
            "city": "延边朝鲜族自治州",
            "district": "敦化市"
        }
    },
    {
        "id": "13224678157167203928",
        "title": "公共厕所",
        "address": "吉林省延边朝鲜族自治州安图县朝鲜族民俗村旅游服务中心",
        "tel": "",
        "category": "基础设施:公共设施:公共厕所",
        "type": 0,
        "location": {
            "lat": 42.854438,
            "lng": 128.302439
        },
        "ad_info": {
            "adcode": 222426,
            "province": "吉林省",
            "city": "延边朝鲜族自治州",
            "district": "安图县"
        }
    },
    {
        "id": "11855898914321840391",
        "title": "公共厕所",
        "address": "吉林省延边朝鲜族自治州珲春市渤海大街与珲春西街交叉口正南方向432米左右",
        "tel": "",
        "category": "基础设施:公共设施:公共厕所",
        "type": 0,
        "location": {
            "lat": 42.865182,
            "lng": 130.333204
        },
        "ad_info": {
            "adcode": 222404,
            "province": "吉林省",
            "city": "延边朝鲜族自治州",
            "district": "珲春市"
        }
    },
    {
        "id": "15492258104717525771",
        "title": "公共厕所",
        "address": "吉林省延边朝鲜族自治州延吉市太平街与海兰路交叉口正东方向44米左右",
        "tel": "",
        "category": "基础设施:公共设施:公共厕所",
        "type": 0,
        "location": {
            "lat": 42.905388,
            "lng": 129.523249
        },
        "ad_info": {
            "adcode": 222401,
            "province": "吉林省",
            "city": "延边朝鲜族自治州",
            "district": "延吉市"
        }
    },
    {
        "id": "242502596575706932",
        "title": "公共厕所",
        "address": "吉林省延边朝鲜族自治州敦化市丹江路与华康大街交叉口西南方向67米左右",
        "tel": "",
        "category": "基础设施:公共设施:公共厕所",
        "type": 0,
        "location": {
            "lat": 43.362883,
            "lng": 128.263702
        },
        "ad_info": {
            "adcode": 222403,
            "province": "吉林省",
            "city": "延边朝鲜族自治州",
            "district": "敦化市"
        }
    },
    {
        "id": "3068662760280153528",
        "title": "天池服务区公共厕所",
        "address": "吉林省延边朝鲜族自治州安图县中国石油吉高能源天池服务区加油站西北侧80米",
        "tel": "",
        "category": "基础设施:公共设施:公共厕所",
        "type": 0,
        "location": {
            "lat": 42.685497,
            "lng": 128.046362
        },
        "ad_info": {
            "adcode": 222426,
            "province": "吉林省",
            "city": "延边朝鲜族自治州",
            "district": "安图县"
        }
    },
    {
        "id": "17735590141259021590",
        "title": "公共厕所",
        "address": "吉林省延边朝鲜族自治州汪清县南山街与大星路交叉口东南方向392米左右",
        "tel": "",
        "category": "基础设施:公共设施:公共厕所",
        "type": 0,
        "location": {
            "lat": 43.306254,
            "lng": 129.774633
        },
        "ad_info": {
            "adcode": 222424,
            "province": "吉林省",
            "city": "延边朝鲜族自治州",
            "district": "汪清县"
        }
    },
    {
        "id": "1229259047040876862",
        "title": "公共厕所",
        "address": "吉林省延边朝鲜族自治州敦化市工农路与铁路四胡同交叉口西北方向164米左右",
        "tel": "",
        "category": "基础设施:公共设施:公共厕所",
        "type": 0,
        "location": {
            "lat": 43.372168,
            "lng": 128.244556
        },
        "ad_info": {
            "adcode": 222403,
            "province": "吉林省",
            "city": "延边朝鲜族自治州",
            "district": "敦化市"
        }
    },
    {
        "id": "14894490196929111965",
        "title": "公共厕所",
        "address": "吉林省延边朝鲜族自治州龙井市光明路与龙井街交叉口正北方向51米左右",
        "tel": "",
        "category": "基础设施:公共设施:公共厕所",
        "type": 0,
        "location": {
            "lat": 42.779028,
            "lng": 129.431805
        },
        "ad_info": {
            "adcode": 222405,
            "province": "吉林省",
            "city": "延边朝鲜族自治州",
            "district": "龙井市"
        }
    },
    {
        "id": "14443215284535396722",
        "title": "公共厕所",
        "address": "吉林省延边朝鲜族自治州汪清县南山街与汪清街交叉口正北方向357米左右",
        "tel": "",
        "category": "基础设施:公共设施:公共厕所",
        "type": 0,
        "location": {
            "lat": 43.318731,
            "lng": 129.74414
        },
        "ad_info": {
            "adcode": 222424,
            "province": "吉林省",
            "city": "延边朝鲜族自治州",
            "district": "汪清县"
        }
    }
]