[
    {
        "id": "7345029710936230792",
        "title": "公共厕所",
        "address": "湖南省张家界市永定区解放路12号",
        "tel": "",
        "category": "基础设施:公共设施:公共厕所",
        "type": 0,
        "location": {
            "lat": 29.124983,
            "lng": 110.489343
        },
        "ad_info": {
            "adcode": 430802,
            "province": "湖南省",
            "city": "张家界市",
            "district": "永定区"
        }
    },
    {
        "id": "10384109389486187994",
        "title": "公共厕所",
        "address": "湖南省张家界市永定区打鼓台路与永定大道交叉口东南方向81米左右",
        "tel": "",
        "category": "基础设施:公共设施:公共厕所",
        "type": 0,
        "location": {
            "lat": 29.116214,
            "lng": 110.521692
        },
        "ad_info": {
            "adcode": 430802,
            "province": "湖南省",
            "city": "张家界市",
            "district": "永定区"
        }
    },
    {
        "id": "8145070410437766092",
        "title": "公共厕所",
        "address": "湖南省张家界市永定区学院路与武陵山大道辅路交叉口西南方向198米左右",
        "tel": "",
        "category": "基础设施:公共设施:公共厕所",
        "type": 0,
        "location": {
            "lat": 29.144439,
            "lng": 110.455783
        },
        "ad_info": {
            "adcode": 430802,
            "province": "湖南省",
            "city": "张家界市",
            "district": "永定区"
        }
    },
    {
        "id": "4591783280207502497",
        "title": "公共厕所",
        "address": "湖南省张家界市永定区回龙路东苑新村",
        "tel": "",
        "category": "基础设施:公共设施:公共厕所",
        "type": 0,
        "location": {
            "lat": 29.122427,
            "lng": 110.490244
        },
        "ad_info": {
            "adcode": 430802,
            "province": "湖南省",
            "city": "张家界市",
            "district": "永定区"
        }
    },
    {
        "id": "4129192813912120109",
        "title": "公共卫生间",
        "address": "湖南省张家界市永定区古庸路与天子巷交叉口东南方向117米左右",
        "tel": "",
        "category": "基础设施:公共设施:公共厕所",
        "type": 0,
        "location": {
            "lat": 29.132032,
            "lng": 110.4733
        },
        "ad_info": {
            "adcode": 430802,
            "province": "湖南省",
            "city": "张家界市",
            "district": "永定区"
        }
    },
    {
        "id": "4264610463086646606",
        "title": "公共厕所",
        "address": "湖南省张家界市桑植县澧源大市场北侧210米",
        "tel": "",
        "category": "基础设施:公共设施:公共厕所",
        "type": 0,
        "location": {
            "lat": 29.402012,
            "lng": 110.160731
        },
        "ad_info": {
            "adcode": 430822,
            "province": "湖南省",
            "city": "张家界市",
            "district": "桑植县"
        }
    },
    {
        "id": "5494208402008552794",
        "title": "公共厕所",
        "address": "湖南省张家界市永定区X019与Y106交叉口东北方向1405米左右",
        "tel": "",
        "category": "基础设施:公共设施:公共厕所",
        "type": 0,
        "location": {
            "lat": 29.205229,
            "lng": 110.164509
        },
        "ad_info": {
            "adcode": 430802,
            "province": "湖南省",
            "city": "张家界市",
            "district": "永定区"
        }
    },
    {
        "id": "14715386998677541957",
        "title": "公共厕所",
        "address": "湖南省张家界市永定区永定大道时代港湾",
        "tel": "",
        "category": "基础设施:公共设施:公共厕所",
        "type": 0,
        "location": {
            "lat": 29.118127,
            "lng": 110.527182
        },
        "ad_info": {
            "adcode": 430802,
            "province": "湖南省",
            "city": "张家界市",
            "district": "永定区"
        }
    },
    {
        "id": "11283775025005039191",
        "title": "公共厕所",
        "address": "湖南省张家界市永定区回龙路人民广场(西南角)",
        "tel": "",
        "category": "基础设施:公共设施:公共厕所",
        "type": 0,
        "location": {
            "lat": 29.123298,
            "lng": 110.487838
        },
        "ad_info": {
            "adcode": 430802,
            "province": "湖南省",
            "city": "张家界市",
            "district": "永定区"
        }
    },
    {
        "id": "4361705700058895375",
        "title": "洗手间",
        "address": "湖南省张家界市永定区七星山景区湖光山色餐厅生活区厕所",
        "tel": "",
        "category": "基础设施:公共设施:公共厕所",
        "type": 0,
        "location": {
            "lat": 29.02196,
            "lng": 110.444975
        },
        "ad_info": {
            "adcode": 430802,
            "province": "湖南省",
            "city": "张家界市",
            "district": "永定区"
        }
    },
    {
        "id": "2829706059152777161",
        "title": "公共厕所",
        "address": "湖南省张家界市永定区武陵山大道辅路与沙堤大道交叉口西南方向82米左右",
        "tel": "",
        "category": "基础设施:公共设施:公共厕所",
        "type": 0,
        "location": {
            "lat": 29.204191,
            "lng": 110.451102
        },
        "ad_info": {
            "adcode": 430802,
            "province": "湖南省",
            "city": "张家界市",
            "district": "永定区"
        }
    },
    {
        "id": "12841380951935309319",
        "title": "公共厕所",
        "address": "湖南省张家界市永定区七星山神鸡尾景点厕所",
        "tel": "",
        "category": "基础设施:公共设施:公共厕所",
        "type": 0,
        "location": {
            "lat": 29.030736,
            "lng": 110.436403
        },
        "ad_info": {
            "adcode": 430802,
            "province": "湖南省",
            "city": "张家界市",
            "district": "永定区"
        }
    },
    {
        "id": "8105954081412703591",
        "title": "公共厕所",
        "address": "湖南省张家界市永定区七星山景区七星大峡谷",
        "tel": "",
        "category": "基础设施:公共设施:公共厕所",
        "type": 0,
        "location": {
            "lat": 29.012091,
            "lng": 110.433378
        },
        "ad_info": {
            "adcode": 430802,
            "province": "湖南省",
            "city": "张家界市",
            "district": "永定区"
        }
    },
    {
        "id": "6689368292671531250",
        "title": "公共厕所",
        "address": "湖南省张家界市永定区邢大公路",
        "tel": "",
        "category": "基础设施:公共设施:公共厕所",
        "type": 0,
        "location": {
            "lat": 29.02129,
            "lng": 110.466659
        },
        "ad_info": {
            "adcode": 430802,
            "province": "湖南省",
            "city": "张家界市",
            "district": "永定区"
        }
    },
    {
        "id": "6191371276535783988",
        "title": "公共厕所",
        "address": "湖南省张家界市永定区",
        "tel": "",
        "category": "基础设施:公共设施:公共厕所",
        "type": 0,
        "location": {
            "lat": 29.022438,
            "lng": 110.446459
        },
        "ad_info": {
            "adcode": 430802,
            "province": "湖南省",
            "city": "张家界市",
            "district": "永定区"
        }
    },
    {
        "id": "5500055360216139661",
        "title": "公共厕所",
        "address": "湖南省张家界市永定区邢大公路",
        "tel": "",
        "category": "基础设施:公共设施:公共厕所",
        "type": 0,
        "location": {
            "lat": 29.021812,
            "lng": 110.467005
        },
        "ad_info": {
            "adcode": 430802,
            "province": "湖南省",
            "city": "张家界市",
            "district": "永定区"
        }
    },
    {
        "id": "5271465588739868932",
        "title": "公共厕所",
        "address": "湖南省张家界市永定区七星山景区天街小镇台阶旁",
        "tel": "",
        "category": "基础设施:公共设施:公共厕所",
        "type": 0,
        "location": {
            "lat": 29.022094,
            "lng": 110.447444
        },
        "ad_info": {
            "adcode": 430802,
            "province": "湖南省",
            "city": "张家界市",
            "district": "永定区"
        }
    },
    {
        "id": "14536843138017045477",
        "title": "公共厕所",
        "address": "湖南省张家界市永定区农贸路与朝阳路交叉口西北方向109米左右",
        "tel": "",
        "category": "基础设施:公共设施:公共厕所",
        "type": 0,
        "location": {
            "lat": 29.124324,
            "lng": 110.554998
        },
        "ad_info": {
            "adcode": 430802,
            "province": "湖南省",
            "city": "张家界市",
            "district": "永定区"
        }
    },
    {
        "id": "3407909982361834423",
        "title": "公共厕所",
        "address": "湖南省张家界市永定区澧兰中路与澧兰西路交叉口东北方向93米左右",
        "tel": "",
        "category": "基础设施:公共设施:公共厕所",
        "type": 0,
        "location": {
            "lat": 29.116517,
            "lng": 110.482716
        },
        "ad_info": {
            "adcode": 430802,
            "province": "湖南省",
            "city": "张家界市",
            "district": "永定区"
        }
    },
    {
        "id": "757329941485073807",
        "title": "公共厕所",
        "address": "湖南省张家界市永定区官黎路与迎宾路交叉口西南方向331米左右",
        "tel": "",
        "category": "基础设施:公共设施:公共厕所",
        "type": 0,
        "location": {
            "lat": 29.106448,
            "lng": 110.48373
        },
        "ad_info": {
            "adcode": 430802,
            "province": "湖南省",
            "city": "张家界市",
            "district": "永定区"
        }
    },
    {
        "id": "16057203208207741108",
        "title": "公共厕所",
        "address": "湖南省张家界市永定区孟坪路与月亮湾东路交叉口东北方向48米左右",
        "tel": "",
        "category": "基础设施:公共设施:公共厕所",
        "type": 0,
        "location": {
            "lat": 29.127966,
            "lng": 110.456683
        },
        "ad_info": {
            "adcode": 430802,
            "province": "湖南省",
            "city": "张家界市",
            "district": "永定区"
        }
    },
    {
        "id": "8452384824238555306",
        "title": "公共厕所",
        "address": "湖南省张家界市永定区大庸路鲤鱼中心北巷",
        "tel": "",
        "category": "基础设施:公共设施:公共厕所",
        "type": 0,
        "location": {
            "lat": 29.11568,
            "lng": 110.490818
        },
        "ad_info": {
            "adcode": 430802,
            "province": "湖南省",
            "city": "张家界市",
            "district": "永定区"
        }
    },
    {
        "id": "4522817059485320849",
        "title": "公共厕所(桑植县红军体验园红军课堂)",
        "address": "湖南省张家界市桑植县洪家关白族乡红军体验园",
        "tel": "",
        "category": "基础设施:公共设施:公共厕所",
        "type": 0,
        "location": {
            "lat": 29.472987,
            "lng": 110.158205
        },
        "ad_info": {
            "adcode": 430822,
            "province": "湖南省",
            "city": "张家界市",
            "district": "桑植县"
        }
    },
    {
        "id": "6508955329203439110",
        "title": "公共厕所",
        "address": "湖南省张家界市永定区解放路与逸臣广场名品街交叉口东北方向46米左右",
        "tel": "",
        "category": "基础设施:公共设施:公共厕所",
        "type": 0,
        "location": {
            "lat": 29.127275,
            "lng": 110.478773
        },
        "ad_info": {
            "adcode": 430802,
            "province": "湖南省",
            "city": "张家界市",
            "district": "永定区"
        }
    },
    {
        "id": "3933778563219793497",
        "title": "公共厕所",
        "address": "湖南省张家界市永定区子午路大庸桥公园(东侧)",
        "tel": "",
        "category": "基础设施:公共设施:公共厕所",
        "type": 0,
        "location": {
            "lat": 29.132641,
            "lng": 110.459206
        },
        "ad_info": {
            "adcode": 430802,
            "province": "湖南省",
            "city": "张家界市",
            "district": "永定区"
        }
    },
    {
        "id": "15249368611777608785",
        "title": "公共厕所",
        "address": "湖南省张家界市永定区后溶街巷136号",
        "tel": "",
        "category": "基础设施:公共设施:公共厕所",
        "type": 0,
        "location": {
            "lat": 29.132932,
            "lng": 110.47808
        },
        "ad_info": {
            "adcode": 430802,
            "province": "湖南省",
            "city": "张家界市",
            "district": "永定区"
        }
    },
    {
        "id": "17456400722569047430",
        "title": "公共厕所",
        "address": "湖南省张家界市永定区古庸路与城墙街交叉口正北方向7米左右",
        "tel": "",
        "category": "基础设施:公共设施:公共厕所",
        "type": 0,
        "location": {
            "lat": 29.126271,
            "lng": 110.490344
        },
        "ad_info": {
            "adcode": 430802,
            "province": "湖南省",
            "city": "张家界市",
            "district": "永定区"
        }
    },
    {
        "id": "17748874121038096137",
        "title": "公共厕所",
        "address": "湖南省张家界市永定区七星山景区神鸡尾馆轨滑道上站",
        "tel": "",
        "category": "基础设施:公共设施:公共厕所",
        "type": 0,
        "location": {
            "lat": 29.031073,
            "lng": 110.434036
        },
        "ad_info": {
            "adcode": 430802,
            "province": "湖南省",
            "city": "张家界市",
            "district": "永定区"
        }
    },
    {
        "id": "11106653866642881999",
        "title": "公共厕所",
        "address": "湖南省张家界市永定区解放路与迎宾路交叉口正东方向76米左右",
        "tel": "",
        "category": "基础设施:公共设施:公共厕所",
        "type": 0,
        "location": {
            "lat": 29.123964,
            "lng": 110.492034
        },
        "ad_info": {
            "adcode": 430802,
            "province": "湖南省",
            "city": "张家界市",
            "district": "永定区"
        }
    },
    {
        "id": "8033353019799652613",
        "title": "公共厕所",
        "address": "湖南省张家界市永定区",
        "tel": "",
        "category": "基础设施:公共设施:公共厕所",
        "type": 0,
        "location": {
            "lat": 29.023101,
            "lng": 110.447299
        },
        "ad_info": {
            "adcode": 430802,
            "province": "湖南省",
            "city": "张家界市",
            "district": "永定区"
        }
    },
    {
        "id": "7161396735126684215",
        "title": "公共厕所(永定区大庸古城游客中心)",
        "address": "湖南省张家界市永定区滨河路59号",
        "tel": "",
        "category": "基础设施:公共设施:公共厕所",
        "type": 0,
        "location": {
            "lat": 29.119697,
            "lng": 110.487198
        },
        "ad_info": {
            "adcode": 430802,
            "province": "湖南省",
            "city": "张家界市",
            "district": "永定区"
        }
    },
    {
        "id": "11093456429875563966",
        "title": "公共厕所",
        "address": "湖南省张家界市桑植县帅乡中路与建材路交叉口东南方向243米左右",
        "tel": "",
        "category": "基础设施:公共设施:公共厕所",
        "type": 0,
        "location": {
            "lat": 29.40844,
            "lng": 110.195787
        },
        "ad_info": {
            "adcode": 430822,
            "province": "湖南省",
            "city": "张家界市",
            "district": "桑植县"
        }
    },
    {
        "id": "3440714130988781652",
        "title": "公共厕所",
        "address": "湖南省张家界市永定区G352与仙人溪路交叉口正东方向270米左右",
        "tel": "",
        "category": "基础设施:公共设施:公共厕所",
        "type": 0,
        "location": {
            "lat": 29.105459,
            "lng": 110.476892
        },
        "ad_info": {
            "adcode": 430802,
            "province": "湖南省",
            "city": "张家界市",
            "district": "永定区"
        }
    },
    {
        "id": "6904033521373224542",
        "title": "公共厕所",
        "address": "湖南省张家界市永定区永定大道与西溪坪路交叉口东北方向208米左右",
        "tel": "",
        "category": "基础设施:公共设施:公共厕所",
        "type": 0,
        "location": {
            "lat": 29.122255,
            "lng": 110.539326
        },
        "ad_info": {
            "adcode": 430802,
            "province": "湖南省",
            "city": "张家界市",
            "district": "永定区"
        }
    },
    {
        "id": "12924759583095771739",
        "title": "公共厕所",
        "address": "湖南省张家界市永定区武陵山大道辅路与沙堤大道交叉口正南方向114米左右",
        "tel": "",
        "category": "基础设施:公共设施:公共厕所",
        "type": 0,
        "location": {
            "lat": 29.203646,
            "lng": 110.451505
        },
        "ad_info": {
            "adcode": 430802,
            "province": "湖南省",
            "city": "张家界市",
            "district": "永定区"
        }
    },
    {
        "id": "18037985373556672136",
        "title": "公共厕所",
        "address": "湖南省张家界市永定区S306与机场北路交叉口正西方向946米左右",
        "tel": "",
        "category": "基础设施:公共设施:公共厕所",
        "type": 0,
        "location": {
            "lat": 29.115642,
            "lng": 110.438079
        },
        "ad_info": {
            "adcode": 430802,
            "province": "湖南省",
            "city": "张家界市",
            "district": "永定区"
        }
    },
    {
        "id": "8212831827381661450",
        "title": "公共厕所",
        "address": "湖南省张家界市永定区仁康中医院(306省道西)",
        "tel": "",
        "category": "基础设施:公共设施:公共厕所",
        "type": 0,
        "location": {
            "lat": 29.136747,
            "lng": 110.454787
        },
        "ad_info": {
            "adcode": 430802,
            "province": "湖南省",
            "city": "张家界市",
            "district": "永定区"
        }
    },
    {
        "id": "13294840733705179894",
        "title": "公共厕所",
        "address": "湖南省张家界市永定区Y105",
        "tel": "",
        "category": "基础设施:公共设施:公共厕所",
        "type": 0,
        "location": {
            "lat": 29.242247,
            "lng": 110.182917
        },
        "ad_info": {
            "adcode": 430802,
            "province": "湖南省",
            "city": "张家界市",
            "district": "永定区"
        }
    },
    {
        "id": "11801747785174584764",
        "title": "公共厕所",
        "address": "湖南省张家界市永定区和平路与崇文路交叉口正西方向102米左右",
        "tel": "",
        "category": "基础设施:公共设施:公共厕所",
        "type": 0,
        "location": {
            "lat": 29.114305,
            "lng": 110.504765
        },
        "ad_info": {
            "adcode": 430802,
            "province": "湖南省",
            "city": "张家界市",
            "district": "永定区"
        }
    },
    {
        "id": "3810763196601320846",
        "title": "公共厕所",
        "address": "湖南省张家界市永定区永安路与永昌路交叉口正西方向61米左右",
        "tel": "",
        "category": "基础设施:公共设施:公共厕所",
        "type": 0,
        "location": {
            "lat": 29.120762,
            "lng": 110.549533
        },
        "ad_info": {
            "adcode": 430802,
            "province": "湖南省",
            "city": "张家界市",
            "district": "永定区"
        }
    },
    {
        "id": "16604346958047126790",
        "title": "公共厕所",
        "address": "湖南省张家界市桑植县赤溪路与长征路交叉口东北方向196米左右",
        "tel": "",
        "category": "基础设施:公共设施:公共厕所",
        "type": 0,
        "location": {
            "lat": 29.395934,
            "lng": 110.152098
        },
        "ad_info": {
            "adcode": 430822,
            "province": "湖南省",
            "city": "张家界市",
            "district": "桑植县"
        }
    },
    {
        "id": "5597433217115575775",
        "title": "公共厕所",
        "address": "湖南省张家界市永定区曼湾国际东侧110米",
        "tel": "",
        "category": "基础设施:公共设施:公共厕所",
        "type": 0,
        "location": {
            "lat": 29.111115,
            "lng": 110.505125
        },
        "ad_info": {
            "adcode": 430802,
            "province": "湖南省",
            "city": "张家界市",
            "district": "永定区"
        }
    },
    {
        "id": "17629371478299413534",
        "title": "公共厕所",
        "address": "湖南省张家界市永定区和平路与滨河路交叉口东南方向154米左右",
        "tel": "",
        "category": "基础设施:公共设施:公共厕所",
        "type": 0,
        "location": {
            "lat": 29.109427,
            "lng": 110.506551
        },
        "ad_info": {
            "adcode": 430802,
            "province": "湖南省",
            "city": "张家界市",
            "district": "永定区"
        }
    },
    {
        "id": "10052340743799628718",
        "title": "公共厕所(银杏塔茶旅融合基地)",
        "address": "湖南省张家界市桑植县洪家关白族乡银杏塔茶旅融合基地",
        "tel": "",
        "category": "基础设施:公共设施:公共厕所",
        "type": 0,
        "location": {
            "lat": 29.547484,
            "lng": 110.235246
        },
        "ad_info": {
            "adcode": 430822,
            "province": "湖南省",
            "city": "张家界市",
            "district": "桑植县"
        }
    },
    {
        "id": "7658801371832967249",
        "title": "公共厕所(芭茅溪盐税局)",
        "address": "湖南省张家界市桑植县五道水镇芭茅溪村芭茅溪盐税局",
        "tel": "",
        "category": "基础设施:公共设施:公共厕所",
        "type": 0,
        "location": {
            "lat": 29.671169,
            "lng": 110.027555
        },
        "ad_info": {
            "adcode": 430822,
            "province": "湖南省",
            "city": "张家界市",
            "district": "桑植县"
        }
    },
    {
        "id": "6085872683585944703",
        "title": "公共厕所(永定区马头溪景区两河口)",
        "address": "湖南省张家界市永定区X015与Y110交叉口正北方向32米左右",
        "tel": "",
        "category": "基础设施:公共设施:公共厕所",
        "type": 0,
        "location": {
            "lat": 28.954433,
            "lng": 110.830688
        },
        "ad_info": {
            "adcode": 430802,
            "province": "湖南省",
            "city": "张家界市",
            "district": "永定区"
        }
    },
    {
        "id": "10448796434417502189",
        "title": "公共厕所(HUN-ZJ-0868)",
        "address": "湖南省张家界市桑植县思源路与文明东路交叉口西北方向66米左右",
        "tel": "",
        "category": "基础设施:公共设施:公共厕所",
        "type": 0,
        "location": {
            "lat": 29.411458,
            "lng": 110.201924
        },
        "ad_info": {
            "adcode": 430822,
            "province": "湖南省",
            "city": "张家界市",
            "district": "桑植县"
        }
    },
    {
        "id": "18281697160818616725",
        "title": "公共厕所",
        "address": "湖南省张家界市永定区永定大道与西溪坪路交叉口东北方向339米左右",
        "tel": "",
        "category": "基础设施:公共设施:公共厕所",
        "type": 0,
        "location": {
            "lat": 29.122871,
            "lng": 110.540478
        },
        "ad_info": {
            "adcode": 430802,
            "province": "湖南省",
            "city": "张家界市",
            "district": "永定区"
        }
    },
    {
        "id": "5948619977974244861",
        "title": "公共厕所",
        "address": "湖南省张家界市永定区平安路与荷花路交叉口正西方向75米左右",
        "tel": "",
        "category": "基础设施:公共设施:公共厕所",
        "type": 0,
        "location": {
            "lat": 29.104797,
            "lng": 110.449344
        },
        "ad_info": {
            "adcode": 430802,
            "province": "湖南省",
            "city": "张家界市",
            "district": "永定区"
        }
    },
    {
        "id": "704976846208109441",
        "title": "公共厕所",
        "address": "湖南省张家界市永定区子午路与迎宾路交叉口西北方向20米左右",
        "tel": "",
        "category": "基础设施:公共设施:公共厕所",
        "type": 0,
        "location": {
            "lat": 29.130949,
            "lng": 110.492361
        },
        "ad_info": {
            "adcode": 430802,
            "province": "湖南省",
            "city": "张家界市",
            "district": "永定区"
        }
    },
    {
        "id": "7557936581264307746",
        "title": "公共厕所",
        "address": "湖南省张家界市永定区崇文路与街口东巷交叉口正西方向32米左右",
        "tel": "",
        "category": "基础设施:公共设施:公共厕所",
        "type": 0,
        "location": {
            "lat": 29.113309,
            "lng": 110.502352
        },
        "ad_info": {
            "adcode": 430802,
            "province": "湖南省",
            "city": "张家界市",
            "district": "永定区"
        }
    },
    {
        "id": "2921647237171456874",
        "title": "公共厕所",
        "address": "湖南省张家界市永定区侨辉高级中学东北侧150米",
        "tel": "",
        "category": "基础设施:公共设施:公共厕所",
        "type": 0,
        "location": {
            "lat": 29.093524,
            "lng": 110.460977
        },
        "ad_info": {
            "adcode": 430802,
            "province": "湖南省",
            "city": "张家界市",
            "district": "永定区"
        }
    },
    {
        "id": "5857282283068900634",
        "title": "公共厕所",
        "address": "湖南省张家界市永定区澧兰中路与迎宾路交叉口正西方向193米左右",
        "tel": "",
        "category": "基础设施:公共设施:公共厕所",
        "type": 0,
        "location": {
            "lat": 29.11696,
            "lng": 110.485702
        },
        "ad_info": {
            "adcode": 430802,
            "province": "湖南省",
            "city": "张家界市",
            "district": "永定区"
        }
    },
    {
        "id": "515721960018983805",
        "title": "洗手间(永定区地质园3楼)",
        "address": "湖南省张家界市永定区武陵山大道辅路与沙堤大道交叉口西南方向201米左右",
        "tel": "",
        "category": "基础设施:公共设施:公共厕所",
        "type": 0,
        "location": {
            "lat": 29.20309,
            "lng": 110.450703
        },
        "ad_info": {
            "adcode": 430802,
            "province": "湖南省",
            "city": "张家界市",
            "district": "永定区"
        }
    },
    {
        "id": "2122898411236430362",
        "title": "公共厕所(永定区石堰坪景区楼屋组)",
        "address": "湖南省张家界市永定区楼屋客栈东北侧",
        "tel": "",
        "category": "基础设施:公共设施:公共厕所",
        "type": 0,
        "location": {
            "lat": 29.045638,
            "lng": 110.883694
        },
        "ad_info": {
            "adcode": 430802,
            "province": "湖南省",
            "city": "张家界市",
            "district": "永定区"
        }
    },
    {
        "id": "12464929149766567539",
        "title": "公共厕所",
        "address": "湖南省张家界市永定区G352与三邢路交叉口正西方向1910米左右",
        "tel": "",
        "category": "基础设施:公共设施:公共厕所",
        "type": 0,
        "location": {
            "lat": 29.089196,
            "lng": 110.427211
        },
        "ad_info": {
            "adcode": 430802,
            "province": "湖南省",
            "city": "张家界市",
            "district": "永定区"
        }
    },
    {
        "id": "5585866755950336393",
        "title": "公共厕所",
        "address": "湖南省张家界市桑植县和平东路与广场西街交叉口北180米",
        "tel": "",
        "category": "基础设施:公共设施:公共厕所",
        "type": 0,
        "location": {
            "lat": 29.397697,
            "lng": 110.159114
        },
        "ad_info": {
            "adcode": 430822,
            "province": "湖南省",
            "city": "张家界市",
            "district": "桑植县"
        }
    },
    {
        "id": "9885289723480596593",
        "title": "公共厕所(永定区机场大屋岗安置区)",
        "address": "湖南省张家界市永定区机场路200号",
        "tel": "",
        "category": "基础设施:公共设施:公共厕所",
        "type": 0,
        "location": {
            "lat": 29.109854,
            "lng": 110.462653
        },
        "ad_info": {
            "adcode": 430802,
            "province": "湖南省",
            "city": "张家界市",
            "district": "永定区"
        }
    },
    {
        "id": "13994306488685548890",
        "title": "公共厕所",
        "address": "湖南省张家界市桑植县X032九天洞游客中心",
        "tel": "",
        "category": "基础设施:公共设施:公共厕所",
        "type": 0,
        "location": {
            "lat": 29.325415,
            "lng": 110.120093
        },
        "ad_info": {
            "adcode": 430822,
            "province": "湖南省",
            "city": "张家界市",
            "district": "桑植县"
        }
    },
    {
        "id": "12651781431156809402",
        "title": "公共厕所(永定区新桥居委会)",
        "address": "湖南省张家界市永定区S521与张慈线交叉口西南方向1116米左右",
        "tel": "",
        "category": "基础设施:公共设施:公共厕所",
        "type": 0,
        "location": {
            "lat": 29.18877,
            "lng": 110.512227
        },
        "ad_info": {
            "adcode": 430802,
            "province": "湖南省",
            "city": "张家界市",
            "district": "永定区"
        }
    },
    {
        "id": "13052441388022314186",
        "title": "公共厕所(永定区地质园2楼)",
        "address": "湖南省张家界市永定区武陵山大道辅路与沙堤大道交叉口正南方向287米左右",
        "tel": "",
        "category": "基础设施:公共设施:公共厕所",
        "type": 0,
        "location": {
            "lat": 29.202113,
            "lng": 110.451149
        },
        "ad_info": {
            "adcode": 430802,
            "province": "湖南省",
            "city": "张家界市",
            "district": "永定区"
        }
    },
    {
        "id": "10811690621176826719",
        "title": "洗手间(永定区地质园1楼)",
        "address": "湖南省张家界市永定区武陵山大道辅路与沙堤大道交叉口正南方向224米左右",
        "tel": "",
        "category": "基础设施:公共设施:公共厕所",
        "type": 0,
        "location": {
            "lat": 29.202642,
            "lng": 110.451477
        },
        "ad_info": {
            "adcode": 430802,
            "province": "湖南省",
            "city": "张家界市",
            "district": "永定区"
        }
    },
    {
        "id": "4637916528234346764",
        "title": "公共厕所(桑植民歌寨烧烤露营基地)",
        "address": "湖南省张家界市桑植县305省道",
        "tel": "",
        "category": "基础设施:公共设施:公共厕所",
        "type": 0,
        "location": {
            "lat": 29.431846,
            "lng": 110.318817
        },
        "ad_info": {
            "adcode": 430822,
            "province": "湖南省",
            "city": "张家界市",
            "district": "桑植县"
        }
    },
    {
        "id": "14699993795656171719",
        "title": "公共厕所(实竹坪乡村旅游景区白族风情街)",
        "address": "湖南省张家界市桑植县洪家关白族乡实竹坪乡村旅游景区白族风情街",
        "tel": "",
        "category": "基础设施:公共设施:公共厕所",
        "type": 0,
        "location": {
            "lat": 29.518032,
            "lng": 110.23457
        },
        "ad_info": {
            "adcode": 430822,
            "province": "湖南省",
            "city": "张家界市",
            "district": "桑植县"
        }
    },
    {
        "id": "10032497687520415058",
        "title": "公共厕所",
        "address": "湖南省张家界市桑植县X019与X032交叉口正西方向445米左右",
        "tel": "",
        "category": "基础设施:公共设施:公共厕所",
        "type": 0,
        "location": {
            "lat": 29.331876,
            "lng": 110.135549
        },
        "ad_info": {
            "adcode": 430822,
            "province": "湖南省",
            "city": "张家界市",
            "district": "桑植县"
        }
    },
    {
        "id": "13912979825021673179",
        "title": "公共厕所(永定区石堰坪景区村部停车场)",
        "address": "湖南省张家界市永定区石堰坪千年古寨景区东北侧",
        "tel": "",
        "category": "基础设施:公共设施:公共厕所",
        "type": 0,
        "location": {
            "lat": 29.042446,
            "lng": 110.888315
        },
        "ad_info": {
            "adcode": 430802,
            "province": "湖南省",
            "city": "张家界市",
            "district": "永定区"
        }
    },
    {
        "id": "11234090262747412177",
        "title": "公共厕所",
        "address": "湖南省张家界市桑植县G353与S305交叉口正西方向213米左右",
        "tel": "",
        "category": "基础设施:公共设施:公共厕所",
        "type": 0,
        "location": {
            "lat": 29.410602,
            "lng": 110.242036
        },
        "ad_info": {
            "adcode": 430822,
            "province": "湖南省",
            "city": "张家界市",
            "district": "桑植县"
        }
    },
    {
        "id": "16646517104766315833",
        "title": "公共厕所",
        "address": "湖南省张家界市永定区人民路99号",
        "tel": "",
        "category": "基础设施:公共设施:公共厕所",
        "type": 0,
        "location": {
            "lat": 29.125253,
            "lng": 110.4824
        },
        "ad_info": {
            "adcode": 430802,
            "province": "湖南省",
            "city": "张家界市",
            "district": "永定区"
        }
    },
    {
        "id": "8869399335479356109",
        "title": "公共厕所",
        "address": "湖南省张家界市慈利县狮渡溪文化体验园西南侧170米",
        "tel": "",
        "category": "基础设施:公共设施:公共厕所",
        "type": 0,
        "location": {
            "lat": 29.23383,
            "lng": 110.68441
        },
        "ad_info": {
            "adcode": 430821,
            "province": "湖南省",
            "city": "张家界市",
            "district": "慈利县"
        }
    },
    {
        "id": "5338736970243032451",
        "title": "公共厕所",
        "address": "湖南省张家界市武陵源区未央路与白鹭路交叉口正北方向45米左右",
        "tel": "",
        "category": "基础设施:公共设施:公共厕所",
        "type": 0,
        "location": {
            "lat": 29.348749,
            "lng": 110.54845
        },
        "ad_info": {
            "adcode": 430811,
            "province": "湖南省",
            "city": "张家界市",
            "district": "武陵源区"
        }
    },
    {
        "id": "4778025198982830838",
        "title": "天门山索道公共厕所",
        "address": "湖南省张家界市永定区大庸路附近天门山国家森林公园内",
        "tel": "",
        "category": "基础设施:公共设施:公共厕所",
        "type": 0,
        "location": {
            "lat": 29.111762,
            "lng": 110.484169
        },
        "ad_info": {
            "adcode": 430802,
            "province": "湖南省",
            "city": "张家界市",
            "district": "永定区"
        }
    },
    {
        "id": "18009946790508970510",
        "title": "公共厕所(永定区马头溪景区庄屋坪)",
        "address": "湖南省张家界市永定区",
        "tel": "",
        "category": "基础设施:公共设施:公共厕所",
        "type": 0,
        "location": {
            "lat": 28.975075,
            "lng": 110.817835
        },
        "ad_info": {
            "adcode": 430802,
            "province": "湖南省",
            "city": "张家界市",
            "district": "永定区"
        }
    },
    {
        "id": "9398205861606218497",
        "title": "公共厕所",
        "address": "湖南省张家界市慈利县荷花路与零阳中路交叉口正南方向66米左右",
        "tel": "",
        "category": "基础设施:公共设施:公共厕所",
        "type": 0,
        "location": {
            "lat": 29.418445,
            "lng": 111.121644
        },
        "ad_info": {
            "adcode": 430821,
            "province": "湖南省",
            "city": "张家界市",
            "district": "慈利县"
        }
    },
    {
        "id": "13863834961799866350",
        "title": "公共厕所",
        "address": "湖南省张家界市永定区北正路389号",
        "tel": "",
        "category": "基础设施:公共设施:公共厕所",
        "type": 0,
        "location": {
            "lat": 29.131392,
            "lng": 110.485673
        },
        "ad_info": {
            "adcode": 430802,
            "province": "湖南省",
            "city": "张家界市",
            "district": "永定区"
        }
    },
    {
        "id": "2361216398057579137",
        "title": "公共厕所",
        "address": "湖南省张家界市慈利县岩泊渡镇张慈线退兵坡公园",
        "tel": "",
        "category": "基础设施:公共设施:公共厕所",
        "type": 0,
        "location": {
            "lat": 29.35954,
            "lng": 110.933584
        },
        "ad_info": {
            "adcode": 430821,
            "province": "湖南省",
            "city": "张家界市",
            "district": "慈利县"
        }
    },
    {
        "id": "13136687709889221570",
        "title": "公共厕所",
        "address": "湖南省张家界市慈利县华鼎牙科西南侧90米",
        "tel": "",
        "category": "基础设施:公共设施:公共厕所",
        "type": 0,
        "location": {
            "lat": 29.378329,
            "lng": 111.180065
        },
        "ad_info": {
            "adcode": 430821,
            "province": "湖南省",
            "city": "张家界市",
            "district": "慈利县"
        }
    },
    {
        "id": "11517549964371549492",
        "title": "公共厕所",
        "address": "湖南省张家界市永定区仙人溪路与甘溪路交叉口东北方向110米左右",
        "tel": "",
        "category": "基础设施:公共设施:公共厕所",
        "type": 0,
        "location": {
            "lat": 29.1127,
            "lng": 110.47781
        },
        "ad_info": {
            "adcode": 430802,
            "province": "湖南省",
            "city": "张家界市",
            "district": "永定区"
        }
    },
    {
        "id": "18285633929608637884",
        "title": "永定区市委4号院公共厕所",
        "address": "湖南省张家界市永定区且住岗路与孟坪路交叉口正南方向94米左右",
        "tel": "",
        "category": "基础设施:公共设施:公共厕所",
        "type": 0,
        "location": {
            "lat": 29.127745,
            "lng": 110.441327
        },
        "ad_info": {
            "adcode": 430802,
            "province": "湖南省",
            "city": "张家界市",
            "district": "永定区"
        }
    },
    {
        "id": "11334432458578089153",
        "title": "公共厕所",
        "address": "湖南省张家界市慈利县澧阳路与零阳中路交叉口正南方向158米左右",
        "tel": "",
        "category": "基础设施:公共设施:公共厕所",
        "type": 0,
        "location": {
            "lat": 29.417287,
            "lng": 111.11983
        },
        "ad_info": {
            "adcode": 430821,
            "province": "湖南省",
            "city": "张家界市",
            "district": "慈利县"
        }
    },
    {
        "id": "7027583693992824972",
        "title": "公共厕所",
        "address": "湖南省张家界市慈利县S306与S518交叉口正东方向1095米左右",
        "tel": "",
        "category": "基础设施:公共设施:公共厕所",
        "type": 0,
        "location": {
            "lat": 29.438466,
            "lng": 110.929772
        },
        "ad_info": {
            "adcode": 430821,
            "province": "湖南省",
            "city": "张家界市",
            "district": "慈利县"
        }
    },
    {
        "id": "803458871669113611",
        "title": "公共厕所(永定区大庸古城朝天门)",
        "address": "湖南省张家界市永定区南正街116号",
        "tel": "",
        "category": "基础设施:公共设施:公共厕所",
        "type": 0,
        "location": {
            "lat": 29.120696,
            "lng": 110.485778
        },
        "ad_info": {
            "adcode": 430802,
            "province": "湖南省",
            "city": "张家界市",
            "district": "永定区"
        }
    },
    {
        "id": "4570930454447989702",
        "title": "公共厕所(后山)",
        "address": "湖南省张家界市武陵源区黄石寨后山",
        "tel": "",
        "category": "基础设施:公共设施:公共厕所",
        "type": 0,
        "location": {
            "lat": 29.331893,
            "lng": 110.428967
        },
        "ad_info": {
            "adcode": 430811,
            "province": "湖南省",
            "city": "张家界市",
            "district": "武陵源区"
        }
    },
    {
        "id": "14032768301318675052",
        "title": "公共厕所(松涛馆前)",
        "address": "湖南省张家界市武陵源区军地坪武陵源风景名胜区黄石寨景区内",
        "tel": "",
        "category": "基础设施:公共设施:公共厕所",
        "type": 0,
        "location": {
            "lat": 29.331604,
            "lng": 110.4318
        },
        "ad_info": {
            "adcode": 430811,
            "province": "湖南省",
            "city": "张家界市",
            "district": "武陵源区"
        }
    },
    {
        "id": "177298676877130784",
        "title": "公共厕所",
        "address": "湖南省张家界市永定区后溶街巷11号",
        "tel": "",
        "category": "基础设施:公共设施:公共厕所",
        "type": 0,
        "location": {
            "lat": 29.130694,
            "lng": 110.476537
        },
        "ad_info": {
            "adcode": 430802,
            "province": "湖南省",
            "city": "张家界市",
            "district": "永定区"
        }
    },
    {
        "id": "5003036498593062182",
        "title": "公共厕所",
        "address": "湖南省张家界市慈利县S306与慈利西互通交叉口西北方向87米左右",
        "tel": "",
        "category": "基础设施:公共设施:公共厕所",
        "type": 0,
        "location": {
            "lat": 29.41995,
            "lng": 111.095493
        },
        "ad_info": {
            "adcode": 430821,
            "province": "湖南省",
            "city": "张家界市",
            "district": "慈利县"
        }
    },
    {
        "id": "9181130506038801457",
        "title": "公共厕所",
        "address": "湖南省张家界市永定区天崇路与高远路交叉口正北方向136米左右",
        "tel": "",
        "category": "基础设施:公共设施:公共厕所",
        "type": 0,
        "location": {
            "lat": 29.132039,
            "lng": 110.451962
        },
        "ad_info": {
            "adcode": 430802,
            "province": "湖南省",
            "city": "张家界市",
            "district": "永定区"
        }
    },
    {
        "id": "5412042215672135181",
        "title": "公共厕所",
        "address": "湖南省张家界市永定区南庄路南岸晶都",
        "tel": "",
        "category": "基础设施:公共设施:公共厕所",
        "type": 0,
        "location": {
            "lat": 29.126815,
            "lng": 110.467523
        },
        "ad_info": {
            "adcode": 430802,
            "province": "湖南省",
            "city": "张家界市",
            "district": "永定区"
        }
    },
    {
        "id": "14390256763094663548",
        "title": "公共卫生间",
        "address": "湖南省张家界市永定区解放路与逸臣广场名品街交叉口东北方向61米左右",
        "tel": "",
        "category": "基础设施:公共设施:公共厕所",
        "type": 0,
        "location": {
            "lat": 29.127502,
            "lng": 110.478678
        },
        "ad_info": {
            "adcode": 430802,
            "province": "湖南省",
            "city": "张家界市",
            "district": "永定区"
        }
    },
    {
        "id": "11250497995105967898",
        "title": "公共卫生间",
        "address": "湖南省张家界市永定区官黎路与迎宾路交叉口西南方向331米左右",
        "tel": "",
        "category": "基础设施:公共设施:公共厕所",
        "type": 0,
        "location": {
            "lat": 29.10716,
            "lng": 110.483055
        },
        "ad_info": {
            "adcode": 430802,
            "province": "湖南省",
            "city": "张家界市",
            "district": "永定区"
        }
    },
    {
        "id": "5076744580798564186",
        "title": "公共厕所",
        "address": "湖南省张家界市桑植县S305与回龙桥交叉口正东方向21米左右",
        "tel": "",
        "category": "基础设施:公共设施:公共厕所",
        "type": 0,
        "location": {
            "lat": 29.434115,
            "lng": 110.127002
        },
        "ad_info": {
            "adcode": 430822,
            "province": "湖南省",
            "city": "张家界市",
            "district": "桑植县"
        }
    },
    {
        "id": "2553258633611517183",
        "title": "永定区市民族中学公共厕所",
        "address": "湖南省张家界市永定区子午路388号",
        "tel": "",
        "category": "基础设施:公共设施:公共厕所",
        "type": 0,
        "location": {
            "lat": 29.133847,
            "lng": 110.449478
        },
        "ad_info": {
            "adcode": 430802,
            "province": "湖南省",
            "city": "张家界市",
            "district": "永定区"
        }
    },
    {
        "id": "5877787452125103643",
        "title": "公共厕所",
        "address": "湖南省张家界市慈利县兰江西路与滨河路交叉口东南方向18米左右",
        "tel": "",
        "category": "基础设施:公共设施:公共厕所",
        "type": 0,
        "location": {
            "lat": 29.422055,
            "lng": 111.119055
        },
        "ad_info": {
            "adcode": 430821,
            "province": "湖南省",
            "city": "张家界市",
            "district": "慈利县"
        }
    },
    {
        "id": "6381081071572087660",
        "title": "熙城春天公共厕所",
        "address": "湖南省张家界市永定区子午路与桃源巷交叉口西北方向72米左右",
        "tel": "",
        "category": "基础设施:公共设施:公共厕所",
        "type": 0,
        "location": {
            "lat": 29.131348,
            "lng": 110.492056
        },
        "ad_info": {
            "adcode": 430802,
            "province": "湖南省",
            "city": "张家界市",
            "district": "永定区"
        }
    },
    {
        "id": "13221576245425553053",
        "title": "公共厕所",
        "address": "湖南省张家界市慈利县306省道西50米",
        "tel": "",
        "category": "基础设施:公共设施:公共厕所",
        "type": 0,
        "location": {
            "lat": 29.418019,
            "lng": 110.655902
        },
        "ad_info": {
            "adcode": 430821,
            "province": "湖南省",
            "city": "张家界市",
            "district": "慈利县"
        }
    },
    {
        "id": "11569048152485086344",
        "title": "公共厕所",
        "address": "湖南省张家界市慈利县零阳西路中国石化加油站(慈利县城西站)",
        "tel": "",
        "category": "基础设施:公共设施:公共厕所",
        "type": 0,
        "location": {
            "lat": 29.41514,
            "lng": 111.104073
        },
        "ad_info": {
            "adcode": 430821,
            "province": "湖南省",
            "city": "张家界市",
            "district": "慈利县"
        }
    },
    {
        "id": "2329386257076881290",
        "title": "公共厕所",
        "address": "湖南省张家界市慈利县304省道南50米",
        "tel": "",
        "category": "基础设施:公共设施:公共厕所",
        "type": 0,
        "location": {
            "lat": 29.503128,
            "lng": 111.200352
        },
        "ad_info": {
            "adcode": 430821,
            "province": "湖南省",
            "city": "张家界市",
            "district": "慈利县"
        }
    },
    {
        "id": "7163218125905950029",
        "title": "公共厕所",
        "address": "湖南省张家界市慈利县幸福中路与幸福北路交叉口正西方向190米左右",
        "tel": "",
        "category": "基础设施:公共设施:公共厕所",
        "type": 0,
        "location": {
            "lat": 29.422824,
            "lng": 111.123699
        },
        "ad_info": {
            "adcode": 430821,
            "province": "湖南省",
            "city": "张家界市",
            "district": "慈利县"
        }
    },
    {
        "id": "13960178544399125106",
        "title": "公共厕所",
        "address": "湖南省张家界市慈利县S518中国石化加油站",
        "tel": "",
        "category": "基础设施:公共设施:公共厕所",
        "type": 0,
        "location": {
            "lat": 29.446331,
            "lng": 110.770072
        },
        "ad_info": {
            "adcode": 430821,
            "province": "湖南省",
            "city": "张家界市",
            "district": "慈利县"
        }
    },
    {
        "id": "14460165399105511302",
        "title": "公共厕所",
        "address": "湖南省张家界市永定区永定大道与澧兰东路交叉口正北方向112米左右",
        "tel": "",
        "category": "基础设施:公共设施:公共厕所",
        "type": 0,
        "location": {
            "lat": 29.118179,
            "lng": 110.516181
        },
        "ad_info": {
            "adcode": 430802,
            "province": "湖南省",
            "city": "张家界市",
            "district": "永定区"
        }
    },
    {
        "id": "12601132399152041553",
        "title": "北正街公共厕所",
        "address": "湖南省张家界市永定区北正街与北正街土门巷交叉口正北方向89米左右",
        "tel": "",
        "category": "基础设施:公共设施:公共厕所",
        "type": 0,
        "location": {
            "lat": 29.129112,
            "lng": 110.486673
        },
        "ad_info": {
            "adcode": 430802,
            "province": "湖南省",
            "city": "张家界市",
            "district": "永定区"
        }
    },
    {
        "id": "2304607356678410760",
        "title": "公共厕所",
        "address": "湖南省张家界市慈利县G241与溇水大桥交叉口东北方向639米左右",
        "tel": "",
        "category": "基础设施:公共设施:公共厕所",
        "type": 0,
        "location": {
            "lat": 29.511112,
            "lng": 110.769413
        },
        "ad_info": {
            "adcode": 430821,
            "province": "湖南省",
            "city": "张家界市",
            "district": "慈利县"
        }
    },
    {
        "id": "5324600215502579264",
        "title": "公共厕所",
        "address": "湖南省张家界市慈利县305省道北50米",
        "tel": "",
        "category": "基础设施:公共设施:公共厕所",
        "type": 0,
        "location": {
            "lat": 29.53687,
            "lng": 110.928727
        },
        "ad_info": {
            "adcode": 430821,
            "province": "湖南省",
            "city": "张家界市",
            "district": "慈利县"
        }
    },
    {
        "id": "8622305855480555497",
        "title": "公共厕所",
        "address": "湖南省张家界市永定区教场路35号",
        "tel": "",
        "category": "基础设施:公共设施:公共厕所",
        "type": 0,
        "location": {
            "lat": 29.124277,
            "lng": 110.480354
        },
        "ad_info": {
            "adcode": 430802,
            "province": "湖南省",
            "city": "张家界市",
            "district": "永定区"
        }
    },
    {
        "id": "17432405582178087690",
        "title": "麦当劳-洗手间",
        "address": "湖南省张家界市永定区官黎路与迎宾路交叉口西南方向410米左右",
        "tel": "",
        "category": "基础设施:公共设施:公共厕所",
        "type": 0,
        "location": {
            "lat": 29.105318,
            "lng": 110.484251
        },
        "ad_info": {
            "adcode": 430802,
            "province": "湖南省",
            "city": "张家界市",
            "district": "永定区"
        }
    },
    {
        "id": "5565873213595422469",
        "title": "公共卫生间",
        "address": "湖南省张家界市永定区古庸路911号",
        "tel": "",
        "category": "基础设施:公共设施:公共厕所",
        "type": 0,
        "location": {
            "lat": 29.133428,
            "lng": 110.467097
        },
        "ad_info": {
            "adcode": 430802,
            "province": "湖南省",
            "city": "张家界市",
            "district": "永定区"
        }
    },
    {
        "id": "2337228253369095370",
        "title": "张家界永定服务区公共厕所",
        "address": "湖南省张家界市永定区张南高速与张桑高速交叉口东南方向767米左右",
        "tel": "",
        "category": "基础设施:公共设施:公共厕所",
        "type": 0,
        "location": {
            "lat": 29.332535,
            "lng": 110.290655
        },
        "ad_info": {
            "adcode": 430802,
            "province": "湖南省",
            "city": "张家界市",
            "district": "永定区"
        }
    },
    {
        "id": "10460160310229089364",
        "title": "公共厕所",
        "address": "湖南省张家界市慈利县万福路与古常路交叉口东南方向206米左右",
        "tel": "",
        "category": "基础设施:公共设施:公共厕所",
        "type": 0,
        "location": {
            "lat": 29.421992,
            "lng": 111.157978
        },
        "ad_info": {
            "adcode": 430821,
            "province": "湖南省",
            "city": "张家界市",
            "district": "慈利县"
        }
    },
    {
        "id": "18016679893136786600",
        "title": "公共厕所",
        "address": "湖南省张家界市桑植县S306与帅乡西路交叉口东北方向94米左右",
        "tel": "",
        "category": "基础设施:公共设施:公共厕所",
        "type": 0,
        "location": {
            "lat": 29.397297,
            "lng": 110.147742
        },
        "ad_info": {
            "adcode": 430822,
            "province": "湖南省",
            "city": "张家界市",
            "district": "桑植县"
        }
    },
    {
        "id": "7306819718431564941",
        "title": "张家界永定服务区公共厕所",
        "address": "湖南省张家界市永定区张南高速与张桑高速交叉口东南方向881米左右",
        "tel": "",
        "category": "基础设施:公共设施:公共厕所",
        "type": 0,
        "location": {
            "lat": 29.332746,
            "lng": 110.29255
        },
        "ad_info": {
            "adcode": 430802,
            "province": "湖南省",
            "city": "张家界市",
            "district": "永定区"
        }
    },
    {
        "id": "9693172503717124524",
        "title": "公共厕所",
        "address": "湖南省张家界市永定区思善路与滨河路交叉口正东方向36米左右",
        "tel": "",
        "category": "基础设施:公共设施:公共厕所",
        "type": 0,
        "location": {
            "lat": 29.116868,
            "lng": 110.49322
        },
        "ad_info": {
            "adcode": 430802,
            "province": "湖南省",
            "city": "张家界市",
            "district": "永定区"
        }
    },
    {
        "id": "13307787896786986009",
        "title": "公共厕所",
        "address": "湖南省张家界市永定区野鸡湾1巷2号",
        "tel": "",
        "category": "基础设施:公共设施:公共厕所",
        "type": 0,
        "location": {
            "lat": 29.135077,
            "lng": 110.481137
        },
        "ad_info": {
            "adcode": 430802,
            "province": "湖南省",
            "city": "张家界市",
            "district": "永定区"
        }
    },
    {
        "id": "9186751540684544649",
        "title": "公共厕所",
        "address": "湖南省张家界市永定区子午路504号",
        "tel": "",
        "category": "基础设施:公共设施:公共厕所",
        "type": 0,
        "location": {
            "lat": 29.13445,
            "lng": 110.475589
        },
        "ad_info": {
            "adcode": 430802,
            "province": "湖南省",
            "city": "张家界市",
            "district": "永定区"
        }
    },
    {
        "id": "9713354020889351036",
        "title": "公共厕所",
        "address": "湖南省张家界市永定区永定大道与老院子街交叉口东北方向143米左右",
        "tel": "",
        "category": "基础设施:公共设施:公共厕所",
        "type": 0,
        "location": {
            "lat": 29.117709,
            "lng": 110.523778
        },
        "ad_info": {
            "adcode": 430802,
            "province": "湖南省",
            "city": "张家界市",
            "district": "永定区"
        }
    },
    {
        "id": "6389898700310939222",
        "title": "公共厕所",
        "address": "湖南省张家界市永定区沣滨巷160号",
        "tel": "",
        "category": "基础设施:公共设施:公共厕所",
        "type": 0,
        "location": {
            "lat": 29.130783,
            "lng": 110.48382
        },
        "ad_info": {
            "adcode": 430802,
            "province": "湖南省",
            "city": "张家界市",
            "district": "永定区"
        }
    },
    {
        "id": "16576780138312549737",
        "title": "肯德基(芙蓉餐厅)-洗手间",
        "address": "湖南省张家界市慈利县申鸿华都西南(慈利县人民医院东南)",
        "tel": "",
        "category": "基础设施:公共设施:公共厕所",
        "type": 0,
        "location": {
            "lat": 29.422472,
            "lng": 111.131299
        },
        "ad_info": {
            "adcode": 430821,
            "province": "湖南省",
            "city": "张家界市",
            "district": "慈利县"
        }
    },
    {
        "id": "16226117893629919382",
        "title": "茅岩河服务区第一公共厕所",
        "address": "湖南省张家界市永定区茅岩河服务区与S10张花高速交叉口西300米",
        "tel": "",
        "category": "基础设施:公共设施:公共厕所",
        "type": 0,
        "location": {
            "lat": 29.115704,
            "lng": 110.270331
        },
        "ad_info": {
            "adcode": 430802,
            "province": "湖南省",
            "city": "张家界市",
            "district": "永定区"
        }
    },
    {
        "id": "11845111551492649476",
        "title": "紫霞观景区-公共厕所",
        "address": "湖南省张家界市武陵源区军邸路与武陵路交叉口正南方向318米左右",
        "tel": "",
        "category": "基础设施:公共设施:公共厕所",
        "type": 0,
        "location": {
            "lat": 29.342477,
            "lng": 110.556913
        },
        "ad_info": {
            "adcode": 430811,
            "province": "湖南省",
            "city": "张家界市",
            "district": "武陵源区"
        }
    },
    {
        "id": "16549196268722766684",
        "title": "慈利服务区第二公共厕所",
        "address": "湖南省张家界市慈利县G5513长张高速与慈利服务区交叉口东北220米",
        "tel": "",
        "category": "基础设施:公共设施:公共厕所",
        "type": 0,
        "location": {
            "lat": 29.368416,
            "lng": 110.944882
        },
        "ad_info": {
            "adcode": 430821,
            "province": "湖南省",
            "city": "张家界市",
            "district": "慈利县"
        }
    },
    {
        "id": "2693921284617559767",
        "title": "慈利服务区第一公共厕所",
        "address": "湖南省张家界市慈利县G5513长张高速与慈利服务区交叉口东北180米",
        "tel": "",
        "category": "基础设施:公共设施:公共厕所",
        "type": 0,
        "location": {
            "lat": 29.368298,
            "lng": 110.944255
        },
        "ad_info": {
            "adcode": 430821,
            "province": "湖南省",
            "city": "张家界市",
            "district": "慈利县"
        }
    },
    {
        "id": "4496040620354040843",
        "title": "慈利服务区公共厕所",
        "address": "湖南省张家界市慈利县G5513长张高速与慈利服务区交叉口东140米",
        "tel": "",
        "category": "基础设施:公共设施:公共厕所",
        "type": 0,
        "location": {
            "lat": 29.366961,
            "lng": 110.944547
        },
        "ad_info": {
            "adcode": 430821,
            "province": "湖南省",
            "city": "张家界市",
            "district": "慈利县"
        }
    },
    {
        "id": "17767245144750865174",
        "title": "天门山灵泉院厕所",
        "address": "湖南省张家界市永定区大坪镇天门山国家森林公园-灵泉院天门山国家森林公园(东北角)",
        "tel": "",
        "category": "基础设施:公共设施:公共厕所",
        "type": 0,
        "location": {
            "lat": 29.048096,
            "lng": 110.488711
        },
        "ad_info": {
            "adcode": 430802,
            "province": "湖南省",
            "city": "张家界市",
            "district": "永定区"
        }
    },
    {
        "id": "14640207897222172977",
        "title": "公共厕所",
        "address": "湖南省张家界市慈利县大水泉农家乐山庄西南侧",
        "tel": "",
        "category": "基础设施:公共设施:公共厕所",
        "type": 0,
        "location": {
            "lat": 29.348264,
            "lng": 111.222559
        },
        "ad_info": {
            "adcode": 430821,
            "province": "湖南省",
            "city": "张家界市",
            "district": "慈利县"
        }
    },
    {
        "id": "13609763749158481113",
        "title": "公共厕所",
        "address": "湖南省张家界市慈利县顺丰速运(S305店)北侧280米",
        "tel": "",
        "category": "基础设施:公共设施:公共厕所",
        "type": 0,
        "location": {
            "lat": 29.54667,
            "lng": 111.250726
        },
        "ad_info": {
            "adcode": 430821,
            "province": "湖南省",
            "city": "张家界市",
            "district": "慈利县"
        }
    },
    {
        "id": "13872651604761401864",
        "title": "公共厕所",
        "address": "湖南省张家界市慈利县枞阳路与笔架东路交叉口西南方向102米左右",
        "tel": "",
        "category": "基础设施:公共设施:公共厕所",
        "type": 0,
        "location": {
            "lat": 29.428236,
            "lng": 111.136583
        },
        "ad_info": {
            "adcode": 430821,
            "province": "湖南省",
            "city": "张家界市",
            "district": "慈利县"
        }
    },
    {
        "id": "12004917022316821517",
        "title": "公共厕所",
        "address": "湖南省张家界市慈利县岩泊渡红花加油站东南侧50米",
        "tel": "",
        "category": "基础设施:公共设施:公共厕所",
        "type": 0,
        "location": {
            "lat": 29.372067,
            "lng": 110.97531
        },
        "ad_info": {
            "adcode": 430821,
            "province": "湖南省",
            "city": "张家界市",
            "district": "慈利县"
        }
    },
    {
        "id": "17049487834951934471",
        "title": "公共厕所",
        "address": "湖南省张家界市慈利县笔架西路澧江·水岸人家",
        "tel": "",
        "category": "基础设施:公共设施:公共厕所",
        "type": 0,
        "location": {
            "lat": 29.420927,
            "lng": 111.119896
        },
        "ad_info": {
            "adcode": 430821,
            "province": "湖南省",
            "city": "张家界市",
            "district": "慈利县"
        }
    },
    {
        "id": "14801764095064234445",
        "title": "公共厕所",
        "address": "湖南省张家界市永定区五子坡街与双拥路交叉口东北方向79米左右",
        "tel": "",
        "category": "基础设施:公共设施:公共厕所",
        "type": 0,
        "location": {
            "lat": 29.122231,
            "lng": 110.472056
        },
        "ad_info": {
            "adcode": 430802,
            "province": "湖南省",
            "city": "张家界市",
            "district": "永定区"
        }
    },
    {
        "id": "13134803805258401011",
        "title": "公共卫生间",
        "address": "湖南省张家界市永定区子午路与燕窝塔二巷交叉口东北方向47米左右",
        "tel": "",
        "category": "基础设施:公共设施:公共厕所",
        "type": 0,
        "location": {
            "lat": 29.132965,
            "lng": 110.488882
        },
        "ad_info": {
            "adcode": 430802,
            "province": "湖南省",
            "city": "张家界市",
            "district": "永定区"
        }
    },
    {
        "id": "1103895884634147343",
        "title": "公共厕所",
        "address": "湖南省张家界市永定区永定大道与澧兰东路交叉口正西方向63米左右",
        "tel": "",
        "category": "基础设施:公共设施:公共厕所",
        "type": 0,
        "location": {
            "lat": 29.125008,
            "lng": 110.5317
        },
        "ad_info": {
            "adcode": 430802,
            "province": "湖南省",
            "city": "张家界市",
            "district": "永定区"
        }
    },
    {
        "id": "4454486254869555457",
        "title": "公共厕所",
        "address": "湖南省张家界市永定区天门山国家森林公园狐仙剧场停车场南侧",
        "tel": "",
        "category": "基础设施:公共设施:公共厕所",
        "type": 0,
        "location": {
            "lat": 29.066156,
            "lng": 110.476178
        },
        "ad_info": {
            "adcode": 430802,
            "province": "湖南省",
            "city": "张家界市",
            "district": "永定区"
        }
    },
    {
        "id": "2707733342552506408",
        "title": "公共厕所",
        "address": "湖南省张家界市永定区崇文路与崇文路红沙湾巷交叉口正南方向67米左右",
        "tel": "",
        "category": "基础设施:公共设施:公共厕所",
        "type": 0,
        "location": {
            "lat": 29.117402,
            "lng": 110.49486
        },
        "ad_info": {
            "adcode": 430802,
            "province": "湖南省",
            "city": "张家界市",
            "district": "永定区"
        }
    },
    {
        "id": "13048179386132227681",
        "title": "公共厕所",
        "address": "湖南省张家界市永定区新港路与荷花路交叉口正东方向52米左右",
        "tel": "",
        "category": "基础设施:公共设施:公共厕所",
        "type": 0,
        "location": {
            "lat": 29.106407,
            "lng": 110.450104
        },
        "ad_info": {
            "adcode": 430802,
            "province": "湖南省",
            "city": "张家界市",
            "district": "永定区"
        }
    },
    {
        "id": "2039903452821367787",
        "title": "公共厕所",
        "address": "湖南省张家界市桑植县九天洞加油站北侧",
        "tel": "",
        "category": "基础设施:公共设施:公共厕所",
        "type": 0,
        "location": {
            "lat": 29.344857,
            "lng": 110.085647
        },
        "ad_info": {
            "adcode": 430822,
            "province": "湖南省",
            "city": "张家界市",
            "district": "桑植县"
        }
    },
    {
        "id": "7295117345009458190",
        "title": "公共厕所",
        "address": "湖南省张家界市永定区官黎坪街道崇文路张家界市第一中学",
        "tel": "",
        "category": "基础设施:公共设施:公共厕所",
        "type": 0,
        "location": {
            "lat": 29.11633,
            "lng": 110.497631
        },
        "ad_info": {
            "adcode": 430802,
            "province": "湖南省",
            "city": "张家界市",
            "district": "永定区"
        }
    },
    {
        "id": "349686134965432458",
        "title": "公共厕所(吴家峪门票站)",
        "address": "湖南省张家界市武陵源区吴家峪门票站检票口右侧",
        "tel": "",
        "category": "基础设施:公共设施:公共厕所",
        "type": 0,
        "location": {
            "lat": 29.351619,
            "lng": 110.535556
        },
        "ad_info": {
            "adcode": 430811,
            "province": "湖南省",
            "city": "张家界市",
            "district": "武陵源区"
        }
    },
    {
        "id": "3583605427509221493",
        "title": "张家界西站洗手间",
        "address": "湖南省张家界市永定区张家界西站2层",
        "tel": "",
        "category": "基础设施:公共设施:公共厕所",
        "type": 0,
        "location": {
            "lat": 29.167867,
            "lng": 110.463283
        },
        "ad_info": {
            "adcode": 430802,
            "province": "湖南省",
            "city": "张家界市",
            "district": "永定区"
        }
    },
    {
        "id": "1389214665583873782",
        "title": "公共厕所",
        "address": "湖南省张家界市永定区田家台路与科技大道交叉口西北方向138米左右",
        "tel": "",
        "category": "基础设施:公共设施:公共厕所",
        "type": 0,
        "location": {
            "lat": 29.132533,
            "lng": 110.563575
        },
        "ad_info": {
            "adcode": 430802,
            "province": "湖南省",
            "city": "张家界市",
            "district": "永定区"
        }
    },
    {
        "id": "5130503540627332689",
        "title": "公共厕所",
        "address": "湖南省张家界市永定区官黎路与迎宾路交叉口西南方向333米左右",
        "tel": "",
        "category": "基础设施:公共设施:公共厕所",
        "type": 0,
        "location": {
            "lat": 29.106597,
            "lng": 110.483528
        },
        "ad_info": {
            "adcode": 430802,
            "province": "湖南省",
            "city": "张家界市",
            "district": "永定区"
        }
    },
    {
        "id": "1447103075196505644",
        "title": "张家界京武铂尔曼酒店-洗手间",
        "address": "湖南省张家界市武陵源区香樟路与高云路交叉口正西方向84米左右",
        "tel": "",
        "category": "基础设施:公共设施:公共厕所",
        "type": 0,
        "location": {
            "lat": 29.344002,
            "lng": 110.54134
        },
        "ad_info": {
            "adcode": 430811,
            "province": "湖南省",
            "city": "张家界市",
            "district": "武陵源区"
        }
    },
    {
        "id": "2947308339814565451",
        "title": "公共厕所",
        "address": "湖南省张家界市永定区武陵山大道辅路与武陵源大道交叉口正西方向97米左右",
        "tel": "",
        "category": "基础设施:公共设施:公共厕所",
        "type": 0,
        "location": {
            "lat": 29.157666,
            "lng": 110.462663
        },
        "ad_info": {
            "adcode": 430802,
            "province": "湖南省",
            "city": "张家界市",
            "district": "永定区"
        }
    },
    {
        "id": "14609691978858158153",
        "title": "公共厕所",
        "address": "湖南省张家界市永定区子午路与桃源巷交叉口东北方向258米左右",
        "tel": "",
        "category": "基础设施:公共设施:公共厕所",
        "type": 0,
        "location": {
            "lat": 29.132308,
            "lng": 110.494651
        },
        "ad_info": {
            "adcode": 430802,
            "province": "湖南省",
            "city": "张家界市",
            "district": "永定区"
        }
    },
    {
        "id": "6427447848851975920",
        "title": "公共厕所",
        "address": "湖南省张家界市武陵源区武陵大道107号",
        "tel": "",
        "category": "基础设施:公共设施:公共厕所",
        "type": 0,
        "location": {
            "lat": 29.345251,
            "lng": 110.550972
        },
        "ad_info": {
            "adcode": 430811,
            "province": "湖南省",
            "city": "张家界市",
            "district": "武陵源区"
        }
    },
    {
        "id": "4008617727441527960",
        "title": "公共厕所",
        "address": "湖南省张家界市永定区大长公路与望城山庄巷交叉口正西方向55米左右",
        "tel": "",
        "category": "基础设施:公共设施:公共厕所",
        "type": 0,
        "location": {
            "lat": 29.134319,
            "lng": 110.465876
        },
        "ad_info": {
            "adcode": 430802,
            "province": "湖南省",
            "city": "张家界市",
            "district": "永定区"
        }
    },
    {
        "id": "8856055840102849551",
        "title": "茅岩河服务区公共厕所",
        "address": "湖南省张家界市永定区S10张花高速与茅岩河服务区交叉口西南240米",
        "tel": "",
        "category": "基础设施:公共设施:公共厕所",
        "type": 0,
        "location": {
            "lat": 29.11445,
            "lng": 110.271409
        },
        "ad_info": {
            "adcode": 430802,
            "province": "湖南省",
            "city": "张家界市",
            "district": "永定区"
        }
    },
    {
        "id": "3036870041794042726",
        "title": "公共厕所",
        "address": "湖南省张家界市永定区三坪超市东南侧120米",
        "tel": "",
        "category": "基础设施:公共设施:公共厕所",
        "type": 0,
        "location": {
            "lat": 29.170463,
            "lng": 110.416789
        },
        "ad_info": {
            "adcode": 430802,
            "province": "湖南省",
            "city": "张家界市",
            "district": "永定区"
        }
    },
    {
        "id": "17394334517804344377",
        "title": "公共厕所",
        "address": "湖南省张家界市永定区解放路1号",
        "tel": "",
        "category": "基础设施:公共设施:公共厕所",
        "type": 0,
        "location": {
            "lat": 29.123648,
            "lng": 110.49157
        },
        "ad_info": {
            "adcode": 430802,
            "province": "湖南省",
            "city": "张家界市",
            "district": "永定区"
        }
    },
    {
        "id": "8104541404468177273",
        "title": "公共厕所",
        "address": "湖南省张家界市永定区三邢路与机场路交叉口正东方向61米左右",
        "tel": "",
        "category": "基础设施:公共设施:公共厕所",
        "type": 0,
        "location": {
            "lat": 29.110248,
            "lng": 110.470252
        },
        "ad_info": {
            "adcode": 430802,
            "province": "湖南省",
            "city": "张家界市",
            "district": "永定区"
        }
    },
    {
        "id": "4699705861908263665",
        "title": "公共厕所",
        "address": "湖南省张家界市桑植县丹家坪与创业路交叉口西南方向111米左右",
        "tel": "",
        "category": "基础设施:公共设施:公共厕所",
        "type": 0,
        "location": {
            "lat": 29.413222,
            "lng": 110.209467
        },
        "ad_info": {
            "adcode": 430822,
            "province": "湖南省",
            "city": "张家界市",
            "district": "桑植县"
        }
    },
    {
        "id": "6941384415327756017",
        "title": "公共厕所",
        "address": "湖南省张家界市慈利县古城中路与朝王塌路交叉口正北方向40米左右",
        "tel": "",
        "category": "基础设施:公共设施:公共厕所",
        "type": 0,
        "location": {
            "lat": 29.425002,
            "lng": 111.136071
        },
        "ad_info": {
            "adcode": 430821,
            "province": "湖南省",
            "city": "张家界市",
            "district": "慈利县"
        }
    },
    {
        "id": "1632286371890396462",
        "title": "公共厕所",
        "address": "湖南省张家界市永定区永昌路与澧兰中路交叉口西南方向40米左右",
        "tel": "",
        "category": "基础设施:公共设施:公共厕所",
        "type": 0,
        "location": {
            "lat": 29.10665,
            "lng": 110.502042
        },
        "ad_info": {
            "adcode": 430802,
            "province": "湖南省",
            "city": "张家界市",
            "district": "永定区"
        }
    },
    {
        "id": "6465008780871194263",
        "title": "公共厕所",
        "address": "湖南省张家界市永定区学院路与武陵山大道辅路交叉口正北方向248米左右",
        "tel": "",
        "category": "基础设施:公共设施:公共厕所",
        "type": 0,
        "location": {
            "lat": 29.148076,
            "lng": 110.457115
        },
        "ad_info": {
            "adcode": 430802,
            "province": "湖南省",
            "city": "张家界市",
            "district": "永定区"
        }
    }
]