[
    {
        "id": "6893894713459904467",
        "title": "公共厕所",
        "address": "甘肃省张掖市民乐县新民路瑞泰嘉苑",
        "tel": "",
        "category": "基础设施:公共设施:公共厕所",
        "type": 0,
        "location": {
            "lat": 38.437505,
            "lng": 100.815757
        },
        "ad_info": {
            "adcode": 620722,
            "province": "甘肃省",
            "city": "张掖市",
            "district": "民乐县"
        }
    },
    {
        "id": "14034890342671396684",
        "title": "公共厕所",
        "address": "甘肃省张掖市临泽县七彩丹霞景区北门附近",
        "tel": "",
        "category": "基础设施:公共设施:公共厕所",
        "type": 0,
        "location": {
            "lat": 38.973139,
            "lng": 100.066056
        },
        "ad_info": {
            "adcode": 620723,
            "province": "甘肃省",
            "city": "张掖市",
            "district": "临泽县"
        }
    },
    {
        "id": "5654714992657360160",
        "title": "公共厕所",
        "address": "甘肃省张掖市临泽县中国石油临泽鸭暖加油站西侧200米",
        "tel": "",
        "category": "基础设施:公共设施:公共厕所",
        "type": 0,
        "location": {
            "lat": 39.274965,
            "lng": 100.231507
        },
        "ad_info": {
            "adcode": 620723,
            "province": "甘肃省",
            "city": "张掖市",
            "district": "临泽县"
        }
    },
    {
        "id": "7221057658097772302",
        "title": "公共厕所",
        "address": "甘肃省张掖市民乐县东大街与世纪大道交叉口北80米",
        "tel": "",
        "category": "基础设施:公共设施:公共厕所",
        "type": 0,
        "location": {
            "lat": 38.435993,
            "lng": 100.821632
        },
        "ad_info": {
            "adcode": 620722,
            "province": "甘肃省",
            "city": "张掖市",
            "district": "民乐县"
        }
    },
    {
        "id": "9813254024146034267",
        "title": "公共厕所",
        "address": "甘肃省张掖市民乐县G227(西张线)",
        "tel": "",
        "category": "基础设施:公共设施:公共厕所",
        "type": 0,
        "location": {
            "lat": 38.306261,
            "lng": 100.898878
        },
        "ad_info": {
            "adcode": 620722,
            "province": "甘肃省",
            "city": "张掖市",
            "district": "民乐县"
        }
    },
    {
        "id": "7142912395583388732",
        "title": "公共厕所",
        "address": "甘肃省张掖市民乐县南大街与西大街交叉口正北方向55米左右",
        "tel": "",
        "category": "基础设施:公共设施:公共厕所",
        "type": 0,
        "location": {
            "lat": 38.433409,
            "lng": 100.812406
        },
        "ad_info": {
            "adcode": 620722,
            "province": "甘肃省",
            "city": "张掖市",
            "district": "民乐县"
        }
    },
    {
        "id": "6481812919382462383",
        "title": "公共厕所",
        "address": "甘肃省张掖市肃南裕固族自治县S18与张肃一级公路交叉口正北方向140米左右",
        "tel": "",
        "category": "基础设施:公共设施:公共厕所",
        "type": 0,
        "location": {
            "lat": 38.965309,
            "lng": 99.918884
        },
        "ad_info": {
            "adcode": 620721,
            "province": "甘肃省",
            "city": "张掖市",
            "district": "肃南裕固族自治县"
        }
    },
    {
        "id": "11927791775506290817",
        "title": "公共厕所",
        "address": "甘肃省张掖市肃南裕固族自治县体育巷与祁丰路交叉口西南方向281米左右",
        "tel": "",
        "category": "基础设施:公共设施:公共厕所",
        "type": 0,
        "location": {
            "lat": 38.831379,
            "lng": 99.610794
        },
        "ad_info": {
            "adcode": 620721,
            "province": "甘肃省",
            "city": "张掖市",
            "district": "肃南裕固族自治县"
        }
    },
    {
        "id": "6826934881074225107",
        "title": "公共厕所",
        "address": "甘肃省张掖市临泽县X046与X217交叉口正北方向571米左右",
        "tel": "",
        "category": "基础设施:公共设施:公共厕所",
        "type": 0,
        "location": {
            "lat": 39.290822,
            "lng": 100.196965
        },
        "ad_info": {
            "adcode": 620723,
            "province": "甘肃省",
            "city": "张掖市",
            "district": "临泽县"
        }
    },
    {
        "id": "13711504154901301717",
        "title": "公共厕所",
        "address": "甘肃省张掖市民乐县世纪大道民乐县第四中学",
        "tel": "",
        "category": "基础设施:公共设施:公共厕所",
        "type": 0,
        "location": {
            "lat": 38.442395,
            "lng": 100.819882
        },
        "ad_info": {
            "adcode": 620722,
            "province": "甘肃省",
            "city": "张掖市",
            "district": "民乐县"
        }
    },
    {
        "id": "13619251339645279054",
        "title": "公共厕所",
        "address": "甘肃省张掖市山丹县仁和西路与焉支路交叉口正南方向6米左右",
        "tel": "",
        "category": "基础设施:公共设施:公共厕所",
        "type": 0,
        "location": {
            "lat": 38.788132,
            "lng": 101.077333
        },
        "ad_info": {
            "adcode": 620725,
            "province": "甘肃省",
            "city": "张掖市",
            "district": "山丹县"
        }
    },
    {
        "id": "1366441899425064554",
        "title": "公共厕所",
        "address": "甘肃省张掖市民乐县县府街与解放南路交叉口正南方向37米左右",
        "tel": "",
        "category": "基础设施:公共设施:公共厕所",
        "type": 0,
        "location": {
            "lat": 38.431769,
            "lng": 100.81663
        },
        "ad_info": {
            "adcode": 620722,
            "province": "甘肃省",
            "city": "张掖市",
            "district": "民乐县"
        }
    },
    {
        "id": "1853243352829494358",
        "title": "公共厕所",
        "address": "甘肃省张掖市肃南裕固族自治县",
        "tel": "",
        "category": "基础设施:公共设施:公共厕所",
        "type": 0,
        "location": {
            "lat": 38.803185,
            "lng": 99.8852
        },
        "ad_info": {
            "adcode": 620721,
            "province": "甘肃省",
            "city": "张掖市",
            "district": "肃南裕固族自治县"
        }
    },
    {
        "id": "11099553227597140718",
        "title": "公共厕所",
        "address": "甘肃省张掖市临泽县县府街与滨河东路交叉口正南方向202米左右",
        "tel": "",
        "category": "基础设施:公共设施:公共厕所",
        "type": 0,
        "location": {
            "lat": 39.148882,
            "lng": 100.175118
        },
        "ad_info": {
            "adcode": 620723,
            "province": "甘肃省",
            "city": "张掖市",
            "district": "临泽县"
        }
    },
    {
        "id": "3572636615033492355",
        "title": "公共厕所",
        "address": "甘肃省张掖市民乐县G227与东大街交叉口西南方向81米左右",
        "tel": "",
        "category": "基础设施:公共设施:公共厕所",
        "type": 0,
        "location": {
            "lat": 38.435914,
            "lng": 100.829228
        },
        "ad_info": {
            "adcode": 620722,
            "province": "甘肃省",
            "city": "张掖市",
            "district": "民乐县"
        }
    },
    {
        "id": "1751926121024821727",
        "title": "公共厕所",
        "address": "甘肃省张掖市临泽县健康路与文化路交叉口东北方向18米左右",
        "tel": "",
        "category": "基础设施:公共设施:公共厕所",
        "type": 0,
        "location": {
            "lat": 39.14975,
            "lng": 100.168552
        },
        "ad_info": {
            "adcode": 620723,
            "province": "甘肃省",
            "city": "张掖市",
            "district": "临泽县"
        }
    },
    {
        "id": "14526436936571406772",
        "title": "公共厕所",
        "address": "甘肃省张掖市民乐县福民东路与福民西路交叉口西北方向75米左右",
        "tel": "",
        "category": "基础设施:公共设施:公共厕所",
        "type": 0,
        "location": {
            "lat": 38.445605,
            "lng": 100.810715
        },
        "ad_info": {
            "adcode": 620722,
            "province": "甘肃省",
            "city": "张掖市",
            "district": "民乐县"
        }
    },
    {
        "id": "618291849519266876",
        "title": "公共厕所",
        "address": "甘肃省张掖市高台县东城河路与北环路交叉口正西方向101米左右",
        "tel": "",
        "category": "基础设施:公共设施:公共厕所",
        "type": 0,
        "location": {
            "lat": 39.380794,
            "lng": 99.822225
        },
        "ad_info": {
            "adcode": 620724,
            "province": "甘肃省",
            "city": "张掖市",
            "district": "高台县"
        }
    },
    {
        "id": "3909802173737854424",
        "title": "公共厕所",
        "address": "甘肃省张掖市临泽县天鹅湖西路与广场巷交叉口正东方向22米左右",
        "tel": "",
        "category": "基础设施:公共设施:公共厕所",
        "type": 0,
        "location": {
            "lat": 39.145882,
            "lng": 100.173457
        },
        "ad_info": {
            "adcode": 620723,
            "province": "甘肃省",
            "city": "张掖市",
            "district": "临泽县"
        }
    },
    {
        "id": "3292863249299655114",
        "title": "公共厕所",
        "address": "甘肃省张掖市临泽县县府街与小康路交叉口东南方向47米左右",
        "tel": "",
        "category": "基础设施:公共设施:公共厕所",
        "type": 0,
        "location": {
            "lat": 39.153548,
            "lng": 100.159618
        },
        "ad_info": {
            "adcode": 620723,
            "province": "甘肃省",
            "city": "张掖市",
            "district": "临泽县"
        }
    },
    {
        "id": "7320633141321937496",
        "title": "公共厕所",
        "address": "甘肃省张掖市民乐县世纪大道与北环路交叉口西南方向34米左右",
        "tel": "",
        "category": "基础设施:公共设施:公共厕所",
        "type": 0,
        "location": {
            "lat": 38.440406,
            "lng": 100.819984
        },
        "ad_info": {
            "adcode": 620722,
            "province": "甘肃省",
            "city": "张掖市",
            "district": "民乐县"
        }
    },
    {
        "id": "14434563697576500115",
        "title": "公共厕所",
        "address": "甘肃省张掖市临泽县县府街与迎宾路交叉口西北方向48米左右",
        "tel": "",
        "category": "基础设施:公共设施:公共厕所",
        "type": 0,
        "location": {
            "lat": 39.1521,
            "lng": 100.168681
        },
        "ad_info": {
            "adcode": 620723,
            "province": "甘肃省",
            "city": "张掖市",
            "district": "临泽县"
        }
    },
    {
        "id": "6157903215871838586",
        "title": "公共厕所",
        "address": "甘肃省张掖市肃南裕固族自治县大河路与滨河路交叉口正东方向585米左右",
        "tel": "",
        "category": "基础设施:公共设施:公共厕所",
        "type": 0,
        "location": {
            "lat": 38.838997,
            "lng": 99.62854
        },
        "ad_info": {
            "adcode": 620721,
            "province": "甘肃省",
            "city": "张掖市",
            "district": "肃南裕固族自治县"
        }
    },
    {
        "id": "16899550408929458007",
        "title": "公共厕所",
        "address": "甘肃省张掖市民乐县227国道东50米",
        "tel": "",
        "category": "基础设施:公共设施:公共厕所",
        "type": 0,
        "location": {
            "lat": 38.30364,
            "lng": 100.900006
        },
        "ad_info": {
            "adcode": 620722,
            "province": "甘肃省",
            "city": "张掖市",
            "district": "民乐县"
        }
    },
    {
        "id": "7606314883602862839",
        "title": "公共厕所",
        "address": "甘肃省张掖市临泽县丹霞大道与知行路交叉口正北方向288米左右",
        "tel": "",
        "category": "基础设施:公共设施:公共厕所",
        "type": 0,
        "location": {
            "lat": 39.132674,
            "lng": 100.185303
        },
        "ad_info": {
            "adcode": 620723,
            "province": "甘肃省",
            "city": "张掖市",
            "district": "临泽县"
        }
    },
    {
        "id": "1060697108880523760",
        "title": "公共厕所",
        "address": "甘肃省张掖市临泽县小康路火车站广场",
        "tel": "",
        "category": "基础设施:公共设施:公共厕所",
        "type": 0,
        "location": {
            "lat": 39.155542,
            "lng": 100.159753
        },
        "ad_info": {
            "adcode": 620723,
            "province": "甘肃省",
            "city": "张掖市",
            "district": "临泽县"
        }
    },
    {
        "id": "10656316758409460966",
        "title": "公共厕所",
        "address": "甘肃省张掖市肃南裕固族自治县许三湾村49东南方向90米",
        "tel": "",
        "category": "基础设施:公共设施:公共厕所",
        "type": 0,
        "location": {
            "lat": 39.385655,
            "lng": 99.453801
        },
        "ad_info": {
            "adcode": 620721,
            "province": "甘肃省",
            "city": "张掖市",
            "district": "肃南裕固族自治县"
        }
    },
    {
        "id": "878638372351558191",
        "title": "公共厕所",
        "address": "甘肃省张掖市高台县创业街与西城河路交叉口正北方向158米左右",
        "tel": "",
        "category": "基础设施:公共设施:公共厕所",
        "type": 0,
        "location": {
            "lat": 39.385725,
            "lng": 99.816641
        },
        "ad_info": {
            "adcode": 620724,
            "province": "甘肃省",
            "city": "张掖市",
            "district": "高台县"
        }
    },
    {
        "id": "11993175300355040665",
        "title": "公共厕所",
        "address": "甘肃省张掖市高台县纬一路与高火公路交叉口正北方向211米左右",
        "tel": "",
        "category": "基础设施:公共设施:公共厕所",
        "type": 0,
        "location": {
            "lat": 39.305416,
            "lng": 99.799633
        },
        "ad_info": {
            "adcode": 620724,
            "province": "甘肃省",
            "city": "张掖市",
            "district": "高台县"
        }
    },
    {
        "id": "6252611640916382034",
        "title": "公共厕所",
        "address": "甘肃省张掖市肃南裕固族自治县G569与文革桥交叉口正西方向192米左右",
        "tel": "",
        "category": "基础设施:公共设施:公共厕所",
        "type": 0,
        "location": {
            "lat": 37.889857,
            "lng": 102.121144
        },
        "ad_info": {
            "adcode": 620721,
            "province": "甘肃省",
            "city": "张掖市",
            "district": "肃南裕固族自治县"
        }
    },
    {
        "id": "3216304697677696722",
        "title": "公共厕所",
        "address": "甘肃省张掖市肃南裕固族自治县体育巷与祁丰路交叉口正东方向161米左右",
        "tel": "",
        "category": "基础设施:公共设施:公共厕所",
        "type": 0,
        "location": {
            "lat": 38.833378,
            "lng": 99.614053
        },
        "ad_info": {
            "adcode": 620721,
            "province": "甘肃省",
            "city": "张掖市",
            "district": "肃南裕固族自治县"
        }
    },
    {
        "id": "1271943157645136384",
        "title": "公共厕所",
        "address": "甘肃省张掖市民乐县G227与Y358交叉口正南方向1247米左右",
        "tel": "",
        "category": "基础设施:公共设施:公共厕所",
        "type": 0,
        "location": {
            "lat": 38.195032,
            "lng": 100.934067
        },
        "ad_info": {
            "adcode": 620722,
            "province": "甘肃省",
            "city": "张掖市",
            "district": "民乐县"
        }
    },
    {
        "id": "18029242187783057071",
        "title": "公共厕所",
        "address": "甘肃省张掖市高台县解放路53号",
        "tel": "",
        "category": "基础设施:公共设施:公共厕所",
        "type": 0,
        "location": {
            "lat": 39.370279,
            "lng": 99.816553
        },
        "ad_info": {
            "adcode": 620724,
            "province": "甘肃省",
            "city": "张掖市",
            "district": "高台县"
        }
    },
    {
        "id": "17147749907404427052",
        "title": "公共厕所",
        "address": "甘肃省张掖市高台县三一路与正宣线交叉口东北方向655米左右",
        "tel": "",
        "category": "基础设施:公共设施:公共厕所",
        "type": 0,
        "location": {
            "lat": 39.428125,
            "lng": 99.702653
        },
        "ad_info": {
            "adcode": 620724,
            "province": "甘肃省",
            "city": "张掖市",
            "district": "高台县"
        }
    },
    {
        "id": "18312667572714998353",
        "title": "公共厕所",
        "address": "甘肃省张掖市肃南裕固族自治县211省道东50米",
        "tel": "",
        "category": "基础设施:公共设施:公共厕所",
        "type": 0,
        "location": {
            "lat": 37.874382,
            "lng": 102.06398
        },
        "ad_info": {
            "adcode": 620721,
            "province": "甘肃省",
            "city": "张掖市",
            "district": "肃南裕固族自治县"
        }
    },
    {
        "id": "2161173721046685653",
        "title": "公共厕所",
        "address": "甘肃省张掖市山丹县G307与迎宾西路交叉口正西方向1613米左右",
        "tel": "",
        "category": "基础设施:公共设施:公共厕所",
        "type": 0,
        "location": {
            "lat": 38.803637,
            "lng": 101.060075
        },
        "ad_info": {
            "adcode": 620725,
            "province": "甘肃省",
            "city": "张掖市",
            "district": "山丹县"
        }
    },
    {
        "id": "14682096478252650278",
        "title": "公共厕所(GS-ZY-0938)",
        "address": "甘肃省张掖市山丹县中国石油黄庄加油站东南侧160米",
        "tel": "",
        "category": "基础设施:公共设施:公共厕所",
        "type": 0,
        "location": {
            "lat": 38.636653,
            "lng": 101.134548
        },
        "ad_info": {
            "adcode": 620725,
            "province": "甘肃省",
            "city": "张掖市",
            "district": "山丹县"
        }
    },
    {
        "id": "3574822585289482924",
        "title": "公共厕所",
        "address": "甘肃省张掖市高台县G312与高火公路交叉口东北方向94米左右",
        "tel": "",
        "category": "基础设施:公共设施:公共厕所",
        "type": 0,
        "location": {
            "lat": 39.308595,
            "lng": 99.800437
        },
        "ad_info": {
            "adcode": 620724,
            "province": "甘肃省",
            "city": "张掖市",
            "district": "高台县"
        }
    },
    {
        "id": "8379272093300923317",
        "title": "公共厕所",
        "address": "甘肃省张掖市甘州区临泽北路与临泽南路交叉口东北方向226米左右",
        "tel": "",
        "category": "基础设施:公共设施:公共厕所",
        "type": 0,
        "location": {
            "lat": 38.931667,
            "lng": 100.424773
        },
        "ad_info": {
            "adcode": 620702,
            "province": "甘肃省",
            "city": "张掖市",
            "district": "甘州区"
        }
    },
    {
        "id": "11887022337191249846",
        "title": "公共厕所",
        "address": "甘肃省张掖市高台县北河路高台县城关初级中学",
        "tel": "",
        "category": "基础设施:公共设施:公共厕所",
        "type": 0,
        "location": {
            "lat": 39.381459,
            "lng": 99.824153
        },
        "ad_info": {
            "adcode": 620724,
            "province": "甘肃省",
            "city": "张掖市",
            "district": "高台县"
        }
    },
    {
        "id": "13777749494808576653",
        "title": "公共厕所",
        "address": "甘肃省张掖市高台县221县道",
        "tel": "",
        "category": "基础设施:公共设施:公共厕所",
        "type": 0,
        "location": {
            "lat": 39.597209,
            "lng": 99.634588
        },
        "ad_info": {
            "adcode": 620724,
            "province": "甘肃省",
            "city": "张掖市",
            "district": "高台县"
        }
    },
    {
        "id": "3318026673865604618",
        "title": "公共厕所",
        "address": "甘肃省张掖市高台县县县府西街与西环路交叉口西南方向47米左右",
        "tel": "",
        "category": "基础设施:公共设施:公共厕所",
        "type": 0,
        "location": {
            "lat": 39.379693,
            "lng": 99.806601
        },
        "ad_info": {
            "adcode": 620724,
            "province": "甘肃省",
            "city": "张掖市",
            "district": "高台县"
        }
    },
    {
        "id": "3483007497605862008",
        "title": "公共厕所",
        "address": "甘肃省张掖市高台县解放南路38号",
        "tel": "",
        "category": "基础设施:公共设施:公共厕所",
        "type": 0,
        "location": {
            "lat": 39.368774,
            "lng": 99.815398
        },
        "ad_info": {
            "adcode": 620724,
            "province": "甘肃省",
            "city": "张掖市",
            "district": "高台县"
        }
    },
    {
        "id": "5457813719646839679",
        "title": "公共厕所",
        "address": "甘肃省张掖市甘州区县府南街(南关小学东门)",
        "tel": "",
        "category": "基础设施:公共设施:公共厕所",
        "type": 0,
        "location": {
            "lat": 38.921398,
            "lng": 100.453101
        },
        "ad_info": {
            "adcode": 620702,
            "province": "甘肃省",
            "city": "张掖市",
            "district": "甘州区"
        }
    },
    {
        "id": "11855525408572140137",
        "title": "公共厕所",
        "address": "甘肃省张掖市高台县县县府西街与安居东路交叉口东北方向86米左右",
        "tel": "",
        "category": "基础设施:公共设施:公共厕所",
        "type": 0,
        "location": {
            "lat": 39.379493,
            "lng": 99.812236
        },
        "ad_info": {
            "adcode": 620724,
            "province": "甘肃省",
            "city": "张掖市",
            "district": "高台县"
        }
    },
    {
        "id": "305896678696643785",
        "title": "公共厕所",
        "address": "甘肃省张掖市高台县S301与小寺路交叉口正北方向1921米左右",
        "tel": "",
        "category": "基础设施:公共设施:公共厕所",
        "type": 0,
        "location": {
            "lat": 39.403593,
            "lng": 99.789302
        },
        "ad_info": {
            "adcode": 620724,
            "province": "甘肃省",
            "city": "张掖市",
            "district": "高台县"
        }
    },
    {
        "id": "10705415973387547636",
        "title": "公共厕所",
        "address": "甘肃省张掖市高台县北环路与西城河路交叉口正西方向308米左右",
        "tel": "",
        "category": "基础设施:公共设施:公共厕所",
        "type": 0,
        "location": {
            "lat": 39.383242,
            "lng": 99.812715
        },
        "ad_info": {
            "adcode": 620724,
            "province": "甘肃省",
            "city": "张掖市",
            "district": "高台县"
        }
    },
    {
        "id": "17954120806690411459",
        "title": "公共厕所",
        "address": "甘肃省张掖市高台县县县府西街与西环路交叉口正东方向121米左右",
        "tel": "",
        "category": "基础设施:公共设施:公共厕所",
        "type": 0,
        "location": {
            "lat": 39.380038,
            "lng": 99.80824
        },
        "ad_info": {
            "adcode": 620724,
            "province": "甘肃省",
            "city": "张掖市",
            "district": "高台县"
        }
    },
    {
        "id": "17834723338857621606",
        "title": "公共厕所",
        "address": "甘肃省张掖市山丹县G307与G312交叉口西北方向178米左右",
        "tel": "",
        "category": "基础设施:公共设施:公共厕所",
        "type": 0,
        "location": {
            "lat": 38.824757,
            "lng": 101.055678
        },
        "ad_info": {
            "adcode": 620725,
            "province": "甘肃省",
            "city": "张掖市",
            "district": "山丹县"
        }
    },
    {
        "id": "3389551621418099661",
        "title": "公共厕所",
        "address": "甘肃省张掖市高台县前进路6号",
        "tel": "",
        "category": "基础设施:公共设施:公共厕所",
        "type": 0,
        "location": {
            "lat": 39.375724,
            "lng": 99.818402
        },
        "ad_info": {
            "adcode": 620724,
            "province": "甘肃省",
            "city": "张掖市",
            "district": "高台县"
        }
    },
    {
        "id": "4659023926369242013",
        "title": "公共厕所",
        "address": "甘肃省张掖市高台县东环路与长青街交叉口西北方向19米左右",
        "tel": "",
        "category": "基础设施:公共设施:公共厕所",
        "type": 0,
        "location": {
            "lat": 39.370112,
            "lng": 99.822643
        },
        "ad_info": {
            "adcode": 620724,
            "province": "甘肃省",
            "city": "张掖市",
            "district": "高台县"
        }
    },
    {
        "id": "15630822564207456878",
        "title": "公共厕所",
        "address": "甘肃省张掖市高台县Y372与正宣线交叉口东南方向721米左右",
        "tel": "",
        "category": "基础设施:公共设施:公共厕所",
        "type": 0,
        "location": {
            "lat": 39.37774,
            "lng": 99.731855
        },
        "ad_info": {
            "adcode": 620724,
            "province": "甘肃省",
            "city": "张掖市",
            "district": "高台县"
        }
    },
    {
        "id": "3490828814105135095",
        "title": "公共厕所",
        "address": "甘肃省张掖市高台县东城河路与南城河街交叉口东南方向36米左右",
        "tel": "",
        "category": "基础设施:公共设施:公共厕所",
        "type": 0,
        "location": {
            "lat": 39.372341,
            "lng": 99.820083
        },
        "ad_info": {
            "adcode": 620724,
            "province": "甘肃省",
            "city": "张掖市",
            "district": "高台县"
        }
    },
    {
        "id": "6561998774590017877",
        "title": "公共厕所",
        "address": "甘肃省张掖市高台县田园路与站家渠北路交叉口正北方向305米左右",
        "tel": "",
        "category": "基础设施:公共设施:公共厕所",
        "type": 0,
        "location": {
            "lat": 39.369873,
            "lng": 99.808783
        },
        "ad_info": {
            "adcode": 620724,
            "province": "甘肃省",
            "city": "张掖市",
            "district": "高台县"
        }
    },
    {
        "id": "4294476021645648697",
        "title": "公共厕所",
        "address": "甘肃省张掖市高台县高台县人民西路与安居西路交叉口正西方向130米左右",
        "tel": "",
        "category": "基础设施:公共设施:公共厕所",
        "type": 0,
        "location": {
            "lat": 39.376417,
            "lng": 99.80855
        },
        "ad_info": {
            "adcode": 620724,
            "province": "甘肃省",
            "city": "张掖市",
            "district": "高台县"
        }
    },
    {
        "id": "4517174989340649146",
        "title": "公共厕所",
        "address": "甘肃省张掖市山丹县G307与G312交叉口正西方向392米左右",
        "tel": "",
        "category": "基础设施:公共设施:公共厕所",
        "type": 0,
        "location": {
            "lat": 38.766915,
            "lng": 101.131867
        },
        "ad_info": {
            "adcode": 620725,
            "province": "甘肃省",
            "city": "张掖市",
            "district": "山丹县"
        }
    },
    {
        "id": "17449398757412523161",
        "title": "公共卫生间",
        "address": "甘肃省张掖市甘州区北水桥街与西环路交叉口正东方向166米左右",
        "tel": "",
        "category": "基础设施:公共设施:公共厕所",
        "type": 0,
        "location": {
            "lat": 38.939282,
            "lng": 100.445141
        },
        "ad_info": {
            "adcode": 620702,
            "province": "甘肃省",
            "city": "张掖市",
            "district": "甘州区"
        }
    },
    {
        "id": "12056481301187050666",
        "title": "公共厕所",
        "address": "甘肃省张掖市山丹县皇家马场景区内",
        "tel": "",
        "category": "基础设施:公共设施:公共厕所",
        "type": 0,
        "location": {
            "lat": 38.077722,
            "lng": 101.367017
        },
        "ad_info": {
            "adcode": 620725,
            "province": "甘肃省",
            "city": "张掖市",
            "district": "山丹县"
        }
    },
    {
        "id": "14005972083420335797",
        "title": "公共厕所",
        "address": "甘肃省张掖市高台县三一路与正宣线交叉口东北方向628米左右",
        "tel": "",
        "category": "基础设施:公共设施:公共厕所",
        "type": 0,
        "location": {
            "lat": 39.428013,
            "lng": 99.702356
        },
        "ad_info": {
            "adcode": 620724,
            "province": "甘肃省",
            "city": "张掖市",
            "district": "高台县"
        }
    },
    {
        "id": "5133000436587311305",
        "title": "公共厕所",
        "address": "甘肃省张掖市高台县S301与小寺路交叉口正北方向1866米左右",
        "tel": "",
        "category": "基础设施:公共设施:公共厕所",
        "type": 0,
        "location": {
            "lat": 39.402533,
            "lng": 99.791897
        },
        "ad_info": {
            "adcode": 620724,
            "province": "甘肃省",
            "city": "张掖市",
            "district": "高台县"
        }
    },
    {
        "id": "1710404627168423325",
        "title": "公共厕所",
        "address": "甘肃省张掖市高台县南环路与田园路交叉口正东方向133米左右",
        "tel": "",
        "category": "基础设施:公共设施:公共厕所",
        "type": 0,
        "location": {
            "lat": 39.372939,
            "lng": 99.8105
        },
        "ad_info": {
            "adcode": 620724,
            "province": "甘肃省",
            "city": "张掖市",
            "district": "高台县"
        }
    },
    {
        "id": "17703284413504854350",
        "title": "公共厕所",
        "address": "甘肃省张掖市甘州区流泉嘉苑西南侧340米",
        "tel": "",
        "category": "基础设施:公共设施:公共厕所",
        "type": 0,
        "location": {
            "lat": 38.958358,
            "lng": 100.464894
        },
        "ad_info": {
            "adcode": 620702,
            "province": "甘肃省",
            "city": "张掖市",
            "district": "甘州区"
        }
    },
    {
        "id": "17241087465520928437",
        "title": "公共厕所",
        "address": "甘肃省张掖市甘州区南华街与西二环路交叉口正北方向192米左右",
        "tel": "",
        "category": "基础设施:公共设施:公共厕所",
        "type": 0,
        "location": {
            "lat": 38.93983,
            "lng": 100.433959
        },
        "ad_info": {
            "adcode": 620702,
            "province": "甘肃省",
            "city": "张掖市",
            "district": "甘州区"
        }
    },
    {
        "id": "16166621720196841688",
        "title": "公共厕所",
        "address": "甘肃省张掖市甘州区大佛寺巷与广场巷交叉口西南方向101米左右",
        "tel": "",
        "category": "基础设施:公共设施:公共厕所",
        "type": 0,
        "location": {
            "lat": 38.930878,
            "lng": 100.454265
        },
        "ad_info": {
            "adcode": 620702,
            "province": "甘肃省",
            "city": "张掖市",
            "district": "甘州区"
        }
    },
    {
        "id": "6349471809931970504",
        "title": "公共厕所",
        "address": "甘肃省张掖市甘州区西大街121号",
        "tel": "",
        "category": "基础设施:公共设施:公共厕所",
        "type": 0,
        "location": {
            "lat": 38.938325,
            "lng": 100.451629
        },
        "ad_info": {
            "adcode": 620702,
            "province": "甘肃省",
            "city": "张掖市",
            "district": "甘州区"
        }
    },
    {
        "id": "9679040181636584347",
        "title": "公共厕所",
        "address": "甘肃省张掖市甘州区昭武西路与甘泉西街交叉口正北方向144米左右",
        "tel": "",
        "category": "基础设施:公共设施:公共厕所",
        "type": 0,
        "location": {
            "lat": 38.941454,
            "lng": 100.415292
        },
        "ad_info": {
            "adcode": 620702,
            "province": "甘肃省",
            "city": "张掖市",
            "district": "甘州区"
        }
    },
    {
        "id": "17933956972736008967",
        "title": "公共厕所",
        "address": "甘肃省张掖市甘州区北关二社分支与北环路交叉口正北方向434米左右",
        "tel": "",
        "category": "基础设施:公共设施:公共厕所",
        "type": 0,
        "location": {
            "lat": 38.947961,
            "lng": 100.449672
        },
        "ad_info": {
            "adcode": 620702,
            "province": "甘肃省",
            "city": "张掖市",
            "district": "甘州区"
        }
    },
    {
        "id": "17427877530083290375",
        "title": "公共厕所",
        "address": "甘肃省张掖市甘州区临泽北路与临泽南路交叉口正南方向144米左右",
        "tel": "",
        "category": "基础设施:公共设施:公共厕所",
        "type": 0,
        "location": {
            "lat": 38.924659,
            "lng": 100.428531
        },
        "ad_info": {
            "adcode": 620702,
            "province": "甘肃省",
            "city": "张掖市",
            "district": "甘州区"
        }
    },
    {
        "id": "16911901668201673321",
        "title": "公共厕所",
        "address": "甘肃省张掖市甘州区交通巷与青年东街交叉口正南方向136米左右",
        "tel": "",
        "category": "基础设施:公共设施:公共厕所",
        "type": 0,
        "location": {
            "lat": 38.933264,
            "lng": 100.459352
        },
        "ad_info": {
            "adcode": 620702,
            "province": "甘肃省",
            "city": "张掖市",
            "district": "甘州区"
        }
    },
    {
        "id": "5845977278271499692",
        "title": "公共厕所",
        "address": "甘肃省张掖市甘州区东大街与交通巷交叉口西北方向37米左右",
        "tel": "",
        "category": "基础设施:公共设施:公共厕所",
        "type": 0,
        "location": {
            "lat": 38.937503,
            "lng": 100.458684
        },
        "ad_info": {
            "adcode": 620702,
            "province": "甘肃省",
            "city": "张掖市",
            "district": "甘州区"
        }
    },
    {
        "id": "1442806707695333326",
        "title": "公共厕所",
        "address": "甘肃省张掖市甘州区屋兰路与西二环路交叉口东北方向97米左右",
        "tel": "",
        "category": "基础设施:公共设施:公共厕所",
        "type": 0,
        "location": {
            "lat": 38.954995,
            "lng": 100.436377
        },
        "ad_info": {
            "adcode": 620702,
            "province": "甘肃省",
            "city": "张掖市",
            "district": "甘州区"
        }
    },
    {
        "id": "11772737279507946774",
        "title": "公共厕所",
        "address": "甘肃省张掖市甘州区县府街330号",
        "tel": "",
        "category": "基础设施:公共设施:公共厕所",
        "type": 0,
        "location": {
            "lat": 38.936357,
            "lng": 100.452453
        },
        "ad_info": {
            "adcode": 620702,
            "province": "甘肃省",
            "city": "张掖市",
            "district": "甘州区"
        }
    },
    {
        "id": "6815846074907195365",
        "title": "旅游厕所",
        "address": "甘肃省张掖市肃南裕固族自治县聚仙阁休闲园(Y337店)东侧140米",
        "tel": "",
        "category": "基础设施:公共设施:公共厕所",
        "type": 0,
        "location": {
            "lat": 38.848201,
            "lng": 99.613756
        },
        "ad_info": {
            "adcode": 620721,
            "province": "甘肃省",
            "city": "张掖市",
            "district": "肃南裕固族自治县"
        }
    },
    {
        "id": "3055057944370783644",
        "title": "公共厕所",
        "address": "甘肃省张掖市甘州区西来寺巷与陈家花园巷交叉口西北方向154米左右",
        "tel": "",
        "category": "基础设施:公共设施:公共厕所",
        "type": 0,
        "location": {
            "lat": 38.929304,
            "lng": 100.449727
        },
        "ad_info": {
            "adcode": 620702,
            "province": "甘肃省",
            "city": "张掖市",
            "district": "甘州区"
        }
    },
    {
        "id": "268145469096043369",
        "title": "公共厕所",
        "address": "甘肃省张掖市甘州区西街街道西环路五松园东北(新乐小区旁)",
        "tel": "",
        "category": "基础设施:公共设施:公共厕所",
        "type": 0,
        "location": {
            "lat": 38.935408,
            "lng": 100.442552
        },
        "ad_info": {
            "adcode": 620702,
            "province": "甘肃省",
            "city": "张掖市",
            "district": "甘州区"
        }
    },
    {
        "id": "9789029577835925155",
        "title": "公共厕所",
        "address": "甘肃省张掖市甘州区甘州大道与金城路交叉口东南方向158米左右",
        "tel": "",
        "category": "基础设施:公共设施:公共厕所",
        "type": 0,
        "location": {
            "lat": 38.937177,
            "lng": 100.4746
        },
        "ad_info": {
            "adcode": 620702,
            "province": "甘肃省",
            "city": "张掖市",
            "district": "甘州区"
        }
    },
    {
        "id": "12600889441776774220",
        "title": "扁都口服务区公共厕所",
        "address": "甘肃省张掖市民乐县中国石油扁都口服务区LNG加气站西北侧170米",
        "tel": "",
        "category": "基础设施:公共设施:公共厕所",
        "type": 0,
        "location": {
            "lat": 38.267188,
            "lng": 100.939978
        },
        "ad_info": {
            "adcode": 620722,
            "province": "甘肃省",
            "city": "张掖市",
            "district": "民乐县"
        }
    },
    {
        "id": "2261495637572474788",
        "title": "公共厕所",
        "address": "甘肃省张掖市甘州区丹霞东路301号",
        "tel": "",
        "category": "基础设施:公共设施:公共厕所",
        "type": 0,
        "location": {
            "lat": 38.92351,
            "lng": 100.430081
        },
        "ad_info": {
            "adcode": 620702,
            "province": "甘肃省",
            "city": "张掖市",
            "district": "甘州区"
        }
    },
    {
        "id": "3857839159158144224",
        "title": "公共厕所",
        "address": "甘肃省张掖市甘州区甘州大道与盛和路交叉口西北方向55米左右",
        "tel": "",
        "category": "基础设施:公共设施:公共厕所",
        "type": 0,
        "location": {
            "lat": 38.973261,
            "lng": 100.518127
        },
        "ad_info": {
            "adcode": 620702,
            "province": "甘肃省",
            "city": "张掖市",
            "district": "甘州区"
        }
    },
    {
        "id": "13015170884025915197",
        "title": "公共厕所",
        "address": "甘肃省张掖市甘州区丽都大道与南环路交叉口正南方向76米左右",
        "tel": "",
        "category": "基础设施:公共设施:公共厕所",
        "type": 0,
        "location": {
            "lat": 38.927183,
            "lng": 100.463661
        },
        "ad_info": {
            "adcode": 620702,
            "province": "甘肃省",
            "city": "张掖市",
            "district": "甘州区"
        }
    },
    {
        "id": "8714974992588567362",
        "title": "公共厕所",
        "address": "甘肃省张掖市甘州区东三环路与金秦路交叉口西北方向674米左右",
        "tel": "",
        "category": "基础设施:公共设施:公共厕所",
        "type": 0,
        "location": {
            "lat": 38.939338,
            "lng": 100.502494
        },
        "ad_info": {
            "adcode": 620702,
            "province": "甘肃省",
            "city": "张掖市",
            "district": "甘州区"
        }
    },
    {
        "id": "4249075671356334430",
        "title": "环保卫生厕所",
        "address": "甘肃省张掖市民乐县大悲寺西南侧180米",
        "tel": "",
        "category": "基础设施:公共设施:公共厕所",
        "type": 0,
        "location": {
            "lat": 38.57478,
            "lng": 100.638242
        },
        "ad_info": {
            "adcode": 620722,
            "province": "甘肃省",
            "city": "张掖市",
            "district": "民乐县"
        }
    },
    {
        "id": "1084486058861336175",
        "title": "公共厕所",
        "address": "甘肃省张掖市甘州区北水桥街与明清街交叉口西南方向49米左右",
        "tel": "",
        "category": "基础设施:公共设施:公共厕所",
        "type": 0,
        "location": {
            "lat": 38.938993,
            "lng": 100.451332
        },
        "ad_info": {
            "adcode": 620702,
            "province": "甘肃省",
            "city": "张掖市",
            "district": "甘州区"
        }
    },
    {
        "id": "12335224116432771360",
        "title": "公共厕所",
        "address": "甘肃省张掖市甘州区南城巷与南大街交叉口东北方向137米左右",
        "tel": "",
        "category": "基础设施:公共设施:公共厕所",
        "type": 0,
        "location": {
            "lat": 38.930253,
            "lng": 100.459316
        },
        "ad_info": {
            "adcode": 620702,
            "province": "甘肃省",
            "city": "张掖市",
            "district": "甘州区"
        }
    },
    {
        "id": "12536102921030850348",
        "title": "安博环保移动厕所",
        "address": "甘肃省张掖市临泽县健康路与民主路交叉口西北方向25米左右",
        "tel": "",
        "category": "基础设施:公共设施:公共厕所",
        "type": 0,
        "location": {
            "lat": 39.152095,
            "lng": 100.162148
        },
        "ad_info": {
            "adcode": 620723,
            "province": "甘肃省",
            "city": "张掖市",
            "district": "临泽县"
        }
    },
    {
        "id": "3365841171049185603",
        "title": "公共厕所",
        "address": "甘肃省张掖市甘州区312国道东50米",
        "tel": "",
        "category": "基础设施:公共设施:公共厕所",
        "type": 0,
        "location": {
            "lat": 39.076759,
            "lng": 100.296534
        },
        "ad_info": {
            "adcode": 620702,
            "province": "甘肃省",
            "city": "张掖市",
            "district": "甘州区"
        }
    },
    {
        "id": "8734021125694713539",
        "title": "公共厕所",
        "address": "甘肃省张掖市甘州区饮马桥西路与龙首路交叉口正北方向52米左右",
        "tel": "",
        "category": "基础设施:公共设施:公共厕所",
        "type": 0,
        "location": {
            "lat": 38.9213,
            "lng": 100.446
        },
        "ad_info": {
            "adcode": 620702,
            "province": "甘肃省",
            "city": "张掖市",
            "district": "甘州区"
        }
    },
    {
        "id": "12572624404441501698",
        "title": "公共厕所",
        "address": "甘肃省张掖市甘州区民主西街160号",
        "tel": "",
        "category": "基础设施:公共设施:公共厕所",
        "type": 0,
        "location": {
            "lat": 38.931901,
            "lng": 100.447216
        },
        "ad_info": {
            "adcode": 620702,
            "province": "甘肃省",
            "city": "张掖市",
            "district": "甘州区"
        }
    },
    {
        "id": "7221561127906277135",
        "title": "公共厕所",
        "address": "甘肃省张掖市甘州区昆仑大道与盛和路交叉口西北方向209米左右",
        "tel": "",
        "category": "基础设施:公共设施:公共厕所",
        "type": 0,
        "location": {
            "lat": 38.948744,
            "lng": 100.470542
        },
        "ad_info": {
            "adcode": 620702,
            "province": "甘肃省",
            "city": "张掖市",
            "district": "甘州区"
        }
    },
    {
        "id": "12277369016435012143",
        "title": "公共厕所",
        "address": "甘肃省张掖市甘州区北大街与大衙门街交叉口正西方向41米左右",
        "tel": "",
        "category": "基础设施:公共设施:公共厕所",
        "type": 0,
        "location": {
            "lat": 38.9382,
            "lng": 100.456695
        },
        "ad_info": {
            "adcode": 620702,
            "province": "甘肃省",
            "city": "张掖市",
            "district": "甘州区"
        }
    },
    {
        "id": "8413681964531510771",
        "title": "公共厕所",
        "address": "甘肃省张掖市甘州区税亭街与马神庙街交叉口正西方向122米左右",
        "tel": "",
        "category": "基础设施:公共设施:公共厕所",
        "type": 0,
        "location": {
            "lat": 38.939159,
            "lng": 100.461265
        },
        "ad_info": {
            "adcode": 620702,
            "province": "甘肃省",
            "city": "张掖市",
            "district": "甘州区"
        }
    },
    {
        "id": "3161485165138645111",
        "title": "公共厕所",
        "address": "甘肃省张掖市甘州区Y383与张肃一级公路交叉口西北方向181米左右",
        "tel": "",
        "category": "基础设施:公共设施:公共厕所",
        "type": 0,
        "location": {
            "lat": 38.962304,
            "lng": 100.186605
        },
        "ad_info": {
            "adcode": 620702,
            "province": "甘肃省",
            "city": "张掖市",
            "district": "甘州区"
        }
    },
    {
        "id": "17769406088965087387",
        "title": "公共厕所",
        "address": "甘肃省张掖市甘州区北环路148号",
        "tel": "",
        "category": "基础设施:公共设施:公共厕所",
        "type": 0,
        "location": {
            "lat": 38.946233,
            "lng": 100.4638
        },
        "ad_info": {
            "adcode": 620702,
            "province": "甘肃省",
            "city": "张掖市",
            "district": "甘州区"
        }
    },
    {
        "id": "3326530011610466223",
        "title": "公共卫生间",
        "address": "甘肃省张掖市甘州区张掖臻康园农业科技有限公司西北侧150米",
        "tel": "",
        "category": "基础设施:公共设施:公共厕所",
        "type": 0,
        "location": {
            "lat": 39.053003,
            "lng": 100.422754
        },
        "ad_info": {
            "adcode": 620702,
            "province": "甘肃省",
            "city": "张掖市",
            "district": "甘州区"
        }
    },
    {
        "id": "13934962358081765954",
        "title": "公共厕所",
        "address": "甘肃省张掖市甘州区G312与西二环路交叉口正南方向281米左右",
        "tel": "",
        "category": "基础设施:公共设施:公共厕所",
        "type": 0,
        "location": {
            "lat": 38.961826,
            "lng": 100.439183
        },
        "ad_info": {
            "adcode": 620702,
            "province": "甘肃省",
            "city": "张掖市",
            "district": "甘州区"
        }
    },
    {
        "id": "17204720620793769825",
        "title": "公共厕所",
        "address": "甘肃省张掖市甘州区丰乐北路与金城路交叉口正东方向496米左右",
        "tel": "",
        "category": "基础设施:公共设施:公共厕所",
        "type": 0,
        "location": {
            "lat": 38.938479,
            "lng": 100.482303
        },
        "ad_info": {
            "adcode": 620702,
            "province": "甘肃省",
            "city": "张掖市",
            "district": "甘州区"
        }
    },
    {
        "id": "2563157037094910554",
        "title": "公共厕所",
        "address": "甘肃省张掖市甘州区南环路与张民公路交叉口正南方向467米左右",
        "tel": "",
        "category": "基础设施:公共设施:公共厕所",
        "type": 0,
        "location": {
            "lat": 38.923276,
            "lng": 100.460175
        },
        "ad_info": {
            "adcode": 620702,
            "province": "甘肃省",
            "city": "张掖市",
            "district": "甘州区"
        }
    },
    {
        "id": "3829142973541222889",
        "title": "公共厕所",
        "address": "甘肃省张掖市甘州区丰乐北路与金城路交叉口东南方向295米左右",
        "tel": "",
        "category": "基础设施:公共设施:公共厕所",
        "type": 0,
        "location": {
            "lat": 38.936099,
            "lng": 100.479055
        },
        "ad_info": {
            "adcode": 620702,
            "province": "甘肃省",
            "city": "张掖市",
            "district": "甘州区"
        }
    },
    {
        "id": "3328388649409044639",
        "title": "公共厕所",
        "address": "甘肃省张掖市甘州区北大街与北环路交叉口正南方向117米左右",
        "tel": "",
        "category": "基础设施:公共设施:公共厕所",
        "type": 0,
        "location": {
            "lat": 38.942719,
            "lng": 100.456961
        },
        "ad_info": {
            "adcode": 620702,
            "province": "甘肃省",
            "city": "张掖市",
            "district": "甘州区"
        }
    },
    {
        "id": "14594911327084877224",
        "title": "扁都口服务区公共厕所",
        "address": "甘肃省张掖市民乐县中国石油扁都口服务区加油站东南侧170米",
        "tel": "",
        "category": "基础设施:公共设施:公共厕所",
        "type": 0,
        "location": {
            "lat": 38.267745,
            "lng": 100.942744
        },
        "ad_info": {
            "adcode": 620722,
            "province": "甘肃省",
            "city": "张掖市",
            "district": "民乐县"
        }
    },
    {
        "id": "9390237428361504148",
        "title": "公共厕所",
        "address": "甘肃省张掖市甘州区鑫盛农用车修配中心西南侧280米",
        "tel": "",
        "category": "基础设施:公共设施:公共厕所",
        "type": 0,
        "location": {
            "lat": 39.005799,
            "lng": 100.300797
        },
        "ad_info": {
            "adcode": 620702,
            "province": "甘肃省",
            "city": "张掖市",
            "district": "甘州区"
        }
    },
    {
        "id": "12128715250411960723",
        "title": "公共厕所",
        "address": "甘肃省张掖市甘州区西三环路1167号",
        "tel": "18293626763",
        "category": "基础设施:公共设施:公共厕所",
        "type": 0,
        "location": {
            "lat": 38.953908,
            "lng": 100.375734
        },
        "ad_info": {
            "adcode": 620702,
            "province": "甘肃省",
            "city": "张掖市",
            "district": "甘州区"
        }
    },
    {
        "id": "14442842804856461037",
        "title": "公共厕所",
        "address": "甘肃省张掖市甘州区东大街与文庙巷交叉口正南方向67米左右",
        "tel": "",
        "category": "基础设施:公共设施:公共厕所",
        "type": 0,
        "location": {
            "lat": 38.937332,
            "lng": 100.467157
        },
        "ad_info": {
            "adcode": 620702,
            "province": "甘肃省",
            "city": "张掖市",
            "district": "甘州区"
        }
    },
    {
        "id": "8281704035834398217",
        "title": "公共厕所",
        "address": "甘肃省张掖市甘州区园区路与知行路交叉口西北方向23米左右",
        "tel": "",
        "category": "基础设施:公共设施:公共厕所",
        "type": 0,
        "location": {
            "lat": 39.130041,
            "lng": 100.188407
        },
        "ad_info": {
            "adcode": 620702,
            "province": "甘肃省",
            "city": "张掖市",
            "district": "甘州区"
        }
    },
    {
        "id": "3158019079139239432",
        "title": "高台服务区公共厕所",
        "address": "甘肃省张掖市高台县纬四路与高火公路交叉口东南方向1869米左右",
        "tel": "",
        "category": "基础设施:公共设施:公共厕所",
        "type": 0,
        "location": {
            "lat": 39.279193,
            "lng": 99.811304
        },
        "ad_info": {
            "adcode": 620724,
            "province": "甘肃省",
            "city": "张掖市",
            "district": "高台县"
        }
    },
    {
        "id": "6636816660333593597",
        "title": "公共厕所",
        "address": "甘肃省张掖市甘州区傅家寨嘉苑北侧180米",
        "tel": "",
        "category": "基础设施:公共设施:公共厕所",
        "type": 0,
        "location": {
            "lat": 38.955015,
            "lng": 100.520045
        },
        "ad_info": {
            "adcode": 620702,
            "province": "甘肃省",
            "city": "张掖市",
            "district": "甘州区"
        }
    },
    {
        "id": "775422716429722941",
        "title": "公共厕所",
        "address": "甘肃省张掖市甘州区G312与西二环路交叉口东南方向310米左右",
        "tel": "",
        "category": "基础设施:公共设施:公共厕所",
        "type": 0,
        "location": {
            "lat": 38.96236,
            "lng": 100.441224
        },
        "ad_info": {
            "adcode": 620702,
            "province": "甘肃省",
            "city": "张掖市",
            "district": "甘州区"
        }
    },
    {
        "id": "7454483257471006688",
        "title": "公共厕所",
        "address": "甘肃省张掖市甘州区东大街辅路与东环路辅路交叉口东北方向88米左右",
        "tel": "",
        "category": "基础设施:公共设施:公共厕所",
        "type": 0,
        "location": {
            "lat": 38.938842,
            "lng": 100.469186
        },
        "ad_info": {
            "adcode": 620702,
            "province": "甘肃省",
            "city": "张掖市",
            "district": "甘州区"
        }
    },
    {
        "id": "3240060050042769669",
        "title": "旅游公共厕所",
        "address": "甘肃省张掖市民乐县G227与X201交叉口东南方向477米左右",
        "tel": "",
        "category": "基础设施:公共设施:公共厕所",
        "type": 0,
        "location": {
            "lat": 38.660692,
            "lng": 100.737084
        },
        "ad_info": {
            "adcode": 620722,
            "province": "甘肃省",
            "city": "张掖市",
            "district": "民乐县"
        }
    },
    {
        "id": "12879385814436755819",
        "title": "山丹服务区公共厕所",
        "address": "甘肃省张掖市山丹县清泉镇连霍高速公路山丹服务区西",
        "tel": "",
        "category": "基础设施:公共设施:公共厕所",
        "type": 0,
        "location": {
            "lat": 38.791179,
            "lng": 101.133886
        },
        "ad_info": {
            "adcode": 620725,
            "province": "甘肃省",
            "city": "张掖市",
            "district": "山丹县"
        }
    },
    {
        "id": "3559940705916339529",
        "title": "公共厕所",
        "address": "甘肃省张掖市甘州区G227与沙漠公园路交叉口正西方向759米左右",
        "tel": "",
        "category": "基础设施:公共设施:公共厕所",
        "type": 0,
        "location": {
            "lat": 38.836175,
            "lng": 100.567735
        },
        "ad_info": {
            "adcode": 620702,
            "province": "甘肃省",
            "city": "张掖市",
            "district": "甘州区"
        }
    },
    {
        "id": "4062239632382560238",
        "title": "公共厕所",
        "address": "甘肃省张掖市甘州区中国石油小满加油站南侧240米",
        "tel": "",
        "category": "基础设施:公共设施:公共厕所",
        "type": 0,
        "location": {
            "lat": 38.862684,
            "lng": 100.376858
        },
        "ad_info": {
            "adcode": 620702,
            "province": "甘肃省",
            "city": "张掖市",
            "district": "甘州区"
        }
    },
    {
        "id": "12220486493602424146",
        "title": "公共厕所",
        "address": "甘肃省张掖市甘州区杏林南街与西花园街交叉口西北方向82米左右",
        "tel": "",
        "category": "基础设施:公共设施:公共厕所",
        "type": 0,
        "location": {
            "lat": 38.928309,
            "lng": 100.440926
        },
        "ad_info": {
            "adcode": 620702,
            "province": "甘肃省",
            "city": "张掖市",
            "district": "甘州区"
        }
    },
    {
        "id": "9751285318339110888",
        "title": "公共厕所",
        "address": "甘肃省张掖市甘州区明永镇卫生院东侧170米",
        "tel": "",
        "category": "基础设施:公共设施:公共厕所",
        "type": 0,
        "location": {
            "lat": 39.01298,
            "lng": 100.309949
        },
        "ad_info": {
            "adcode": 620702,
            "province": "甘肃省",
            "city": "张掖市",
            "district": "甘州区"
        }
    },
    {
        "id": "4686465937438509740",
        "title": "长城驿服务区公共厕所",
        "address": "甘肃省张掖市山丹县连霍高速",
        "tel": "",
        "category": "基础设施:公共设施:公共厕所",
        "type": 0,
        "location": {
            "lat": 38.665182,
            "lng": 101.257607
        },
        "ad_info": {
            "adcode": 620725,
            "province": "甘肃省",
            "city": "张掖市",
            "district": "山丹县"
        }
    },
    {
        "id": "1792034045657986548",
        "title": "三一村五社村委会后公共厕",
        "address": "甘肃省张掖市临泽县平川镇三一村",
        "tel": "",
        "category": "基础设施:公共设施:公共厕所",
        "type": 0,
        "location": {
            "lat": 39.352715,
            "lng": 100.076226
        },
        "ad_info": {
            "adcode": 620723,
            "province": "甘肃省",
            "city": "张掖市",
            "district": "临泽县"
        }
    },
    {
        "id": "11562740013968480678",
        "title": "安博公共厕所",
        "address": "甘肃省张掖市甘州区玉关路与高台南路交叉口正东方向173米左右",
        "tel": "",
        "category": "基础设施:公共设施:公共厕所",
        "type": 0,
        "location": {
            "lat": 38.932031,
            "lng": 100.414787
        },
        "ad_info": {
            "adcode": 620702,
            "province": "甘肃省",
            "city": "张掖市",
            "district": "甘州区"
        }
    },
    {
        "id": "15074123554317649025",
        "title": "南华镇南岔村公共厕所",
        "address": "甘肃省张掖市高台县富兴路与幸福路交叉口西南方向48米左右",
        "tel": "",
        "category": "基础设施:公共设施:公共厕所",
        "type": 0,
        "location": {
            "lat": 39.314613,
            "lng": 99.76994
        },
        "ad_info": {
            "adcode": 620724,
            "province": "甘肃省",
            "city": "张掖市",
            "district": "高台县"
        }
    },
    {
        "id": "5058629938211673539",
        "title": "无障碍公共厕所",
        "address": "甘肃省张掖市甘州区金秦路与秦康东路交叉口西400米",
        "tel": "",
        "category": "基础设施:公共设施:公共厕所",
        "type": 0,
        "location": {
            "lat": 38.937875,
            "lng": 100.52377
        },
        "ad_info": {
            "adcode": 620702,
            "province": "甘肃省",
            "city": "张掖市",
            "district": "甘州区"
        }
    },
    {
        "id": "8856757386470495232",
        "title": "安博公共厕所",
        "address": "甘肃省张掖市甘州区甘州大道与盛和路交叉口正东方向594米左右",
        "tel": "",
        "category": "基础设施:公共设施:公共厕所",
        "type": 0,
        "location": {
            "lat": 38.972201,
            "lng": 100.525418
        },
        "ad_info": {
            "adcode": 620702,
            "province": "甘肃省",
            "city": "张掖市",
            "district": "甘州区"
        }
    },
    {
        "id": "1413875885708788708",
        "title": "公共厕所",
        "address": "甘肃省张掖市临泽县丹霞大道与知行路交叉口正北方向260米左右",
        "tel": "",
        "category": "基础设施:公共设施:公共厕所",
        "type": 0,
        "location": {
            "lat": 39.132417,
            "lng": 100.18535
        },
        "ad_info": {
            "adcode": 620723,
            "province": "甘肃省",
            "city": "张掖市",
            "district": "临泽县"
        }
    },
    {
        "id": "16995467806612952543",
        "title": "公共厕所",
        "address": "甘肃省张掖市甘州区商业街与艾黎大道交叉口东南方向216米左右",
        "tel": "",
        "category": "基础设施:公共设施:公共厕所",
        "type": 0,
        "location": {
            "lat": 38.958765,
            "lng": 100.452255
        },
        "ad_info": {
            "adcode": 620702,
            "province": "甘肃省",
            "city": "张掖市",
            "district": "甘州区"
        }
    },
    {
        "id": "1708583047881572114",
        "title": "公共厕所",
        "address": "甘肃省张掖市山丹县仓房街与劳动街交叉口正西方向62米左右",
        "tel": "",
        "category": "基础设施:公共设施:公共厕所",
        "type": 0,
        "location": {
            "lat": 38.785106,
            "lng": 101.088041
        },
        "ad_info": {
            "adcode": 620725,
            "province": "甘肃省",
            "city": "张掖市",
            "district": "山丹县"
        }
    },
    {
        "id": "8293146589381655998",
        "title": "公共厕所",
        "address": "甘肃省张掖市高台县Y911与正宣线交叉口东南方向166米左右",
        "tel": "",
        "category": "基础设施:公共设施:公共厕所",
        "type": 0,
        "location": {
            "lat": 39.415519,
            "lng": 99.686737
        },
        "ad_info": {
            "adcode": 620724,
            "province": "甘肃省",
            "city": "张掖市",
            "district": "高台县"
        }
    },
    {
        "id": "16639190526336202077",
        "title": "公共厕所",
        "address": "甘肃省张掖市临泽县X217",
        "tel": "",
        "category": "基础设施:公共设施:公共厕所",
        "type": 0,
        "location": {
            "lat": 39.273271,
            "lng": 100.236102
        },
        "ad_info": {
            "adcode": 620723,
            "province": "甘肃省",
            "city": "张掖市",
            "district": "临泽县"
        }
    },
    {
        "id": "5181404074688293889",
        "title": "公共厕所",
        "address": "甘肃省张掖市临泽县县府街临泽一中",
        "tel": "",
        "category": "基础设施:公共设施:公共厕所",
        "type": 0,
        "location": {
            "lat": 39.150526,
            "lng": 100.175281
        },
        "ad_info": {
            "adcode": 620723,
            "province": "甘肃省",
            "city": "张掖市",
            "district": "临泽县"
        }
    },
    {
        "id": "725254203548322237",
        "title": "公共厕所",
        "address": "甘肃省张掖市甘州区南二环路与祁连路交叉口东北方向449米左右",
        "tel": "",
        "category": "基础设施:公共设施:公共厕所",
        "type": 0,
        "location": {
            "lat": 38.922097,
            "lng": 100.463998
        },
        "ad_info": {
            "adcode": 620702,
            "province": "甘肃省",
            "city": "张掖市",
            "district": "甘州区"
        }
    },
    {
        "id": "15379708630404881683",
        "title": "公共厕所",
        "address": "甘肃省张掖市高台县文化路与解放北路交叉口正东方向60米左右",
        "tel": "",
        "category": "基础设施:公共设施:公共厕所",
        "type": 0,
        "location": {
            "lat": 39.379632,
            "lng": 99.81959
        },
        "ad_info": {
            "adcode": 620724,
            "province": "甘肃省",
            "city": "张掖市",
            "district": "高台县"
        }
    },
    {
        "id": "6421559250173443240",
        "title": "公共厕所",
        "address": "甘肃省张掖市山丹县位奇路与老军路交叉口正东方向56米左右",
        "tel": "",
        "category": "基础设施:公共设施:公共厕所",
        "type": 0,
        "location": {
            "lat": 38.790868,
            "lng": 101.081275
        },
        "ad_info": {
            "adcode": 620725,
            "province": "甘肃省",
            "city": "张掖市",
            "district": "山丹县"
        }
    },
    {
        "id": "4312050503854074737",
        "title": "公共厕所",
        "address": "甘肃省张掖市山丹县南大街与隍庙街交叉口正西方向19米左右",
        "tel": "",
        "category": "基础设施:公共设施:公共厕所",
        "type": 0,
        "location": {
            "lat": 38.779565,
            "lng": 101.088361
        },
        "ad_info": {
            "adcode": 620725,
            "province": "甘肃省",
            "city": "张掖市",
            "district": "山丹县"
        }
    },
    {
        "id": "18243942449022590585",
        "title": "镇农场公共厕所",
        "address": "甘肃省张掖市高台县G312与X007交叉口东南方向806米左右",
        "tel": "",
        "category": "基础设施:公共设施:公共厕所",
        "type": 0,
        "location": {
            "lat": 39.324512,
            "lng": 99.714429
        },
        "ad_info": {
            "adcode": 620724,
            "province": "甘肃省",
            "city": "张掖市",
            "district": "高台县"
        }
    },
    {
        "id": "15113688587532578586",
        "title": "下天乐停车区公共厕所",
        "address": "甘肃省张掖市民乐县张汶高速",
        "tel": "",
        "category": "基础设施:公共设施:公共厕所",
        "type": 0,
        "location": {
            "lat": 38.514124,
            "lng": 100.745802
        },
        "ad_info": {
            "adcode": 620722,
            "province": "甘肃省",
            "city": "张掖市",
            "district": "民乐县"
        }
    },
    {
        "id": "11920694976885655735",
        "title": "西灰山服务区公共厕所",
        "address": "甘肃省张掖市民乐县西灰山服务区与G0611张汶高速交叉口南460米",
        "tel": "",
        "category": "基础设施:公共设施:公共厕所",
        "type": 0,
        "location": {
            "lat": 38.735453,
            "lng": 100.614639
        },
        "ad_info": {
            "adcode": 620722,
            "province": "甘肃省",
            "city": "张掖市",
            "district": "民乐县"
        }
    },
    {
        "id": "10317186711709313653",
        "title": "公共卫生间",
        "address": "甘肃省张掖市高台县",
        "tel": "",
        "category": "基础设施:公共设施:公共厕所",
        "type": 0,
        "location": {
            "lat": 39.244339,
            "lng": 99.880384
        },
        "ad_info": {
            "adcode": 620724,
            "province": "甘肃省",
            "city": "张掖市",
            "district": "高台县"
        }
    },
    {
        "id": "15799936370849594041",
        "title": "公共厕所",
        "address": "甘肃省张掖市甘州区Z075与南二环路交叉口东南方向75米左右",
        "tel": "",
        "category": "基础设施:公共设施:公共厕所",
        "type": 0,
        "location": {
            "lat": 38.916842,
            "lng": 100.446275
        },
        "ad_info": {
            "adcode": 620702,
            "province": "甘肃省",
            "city": "张掖市",
            "district": "甘州区"
        }
    },
    {
        "id": "10379861706929301457",
        "title": "公共厕所",
        "address": "甘肃省张掖市甘州区嘉信路与锦业路交叉口西北方向136米左右",
        "tel": "",
        "category": "基础设施:公共设施:公共厕所",
        "type": 0,
        "location": {
            "lat": 38.928491,
            "lng": 100.399708
        },
        "ad_info": {
            "adcode": 620702,
            "province": "甘肃省",
            "city": "张掖市",
            "district": "甘州区"
        }
    },
    {
        "id": "14854299415938551502",
        "title": "公共厕所(太安村)",
        "address": "甘肃省张掖市高台县",
        "tel": "",
        "category": "基础设施:公共设施:公共厕所",
        "type": 0,
        "location": {
            "lat": 39.380349,
            "lng": 99.76114
        },
        "ad_info": {
            "adcode": 620724,
            "province": "甘肃省",
            "city": "张掖市",
            "district": "高台县"
        }
    },
    {
        "id": "17982373180135883857",
        "title": "公共厕所",
        "address": "甘肃省张掖市临泽县临泽互通式立交桥与小康路交叉口东北方向147米左右",
        "tel": "",
        "category": "基础设施:公共设施:公共厕所",
        "type": 0,
        "location": {
            "lat": 39.122015,
            "lng": 100.137104
        },
        "ad_info": {
            "adcode": 620723,
            "province": "甘肃省",
            "city": "张掖市",
            "district": "临泽县"
        }
    },
    {
        "id": "1097995553123041991",
        "title": "公共厕所",
        "address": "甘肃省张掖市临泽县盛华文化国际酒店南侧约50米",
        "tel": "",
        "category": "基础设施:公共设施:公共厕所",
        "type": 0,
        "location": {
            "lat": 38.971687,
            "lng": 100.073177
        },
        "ad_info": {
            "adcode": 620723,
            "province": "甘肃省",
            "city": "张掖市",
            "district": "临泽县"
        }
    },
    {
        "id": "18201072337281243336",
        "title": "公共厕所",
        "address": "甘肃省张掖市临泽县天鹅湖路与滨河路交叉口西北方向101米左右",
        "tel": "",
        "category": "基础设施:公共设施:公共厕所",
        "type": 0,
        "location": {
            "lat": 39.143965,
            "lng": 100.175095
        },
        "ad_info": {
            "adcode": 620723,
            "province": "甘肃省",
            "city": "张掖市",
            "district": "临泽县"
        }
    },
    {
        "id": "3675613400172802183",
        "title": "公共厕所",
        "address": "甘肃省张掖市临泽县丹霞大道与知行路交叉口正西方向76米左右",
        "tel": "",
        "category": "基础设施:公共设施:公共厕所",
        "type": 0,
        "location": {
            "lat": 39.129967,
            "lng": 100.1846
        },
        "ad_info": {
            "adcode": 620723,
            "province": "甘肃省",
            "city": "张掖市",
            "district": "临泽县"
        }
    },
    {
        "id": "15612373059926239035",
        "title": "山丹服务区公共厕所",
        "address": "甘肃省张掖市山丹县连霍高速山丹服务区",
        "tel": "",
        "category": "基础设施:公共设施:公共厕所",
        "type": 0,
        "location": {
            "lat": 38.792772,
            "lng": 101.135235
        },
        "ad_info": {
            "adcode": 620725,
            "province": "甘肃省",
            "city": "张掖市",
            "district": "山丹县"
        }
    },
    {
        "id": "12617334192217374842",
        "title": "公共厕所",
        "address": "甘肃省张掖市甘州区中国农业银行金穗惠农服务点东北侧",
        "tel": "",
        "category": "基础设施:公共设施:公共厕所",
        "type": 0,
        "location": {
            "lat": 38.965112,
            "lng": 100.531182
        },
        "ad_info": {
            "adcode": 620702,
            "province": "甘肃省",
            "city": "张掖市",
            "district": "甘州区"
        }
    },
    {
        "id": "11306233495256625358",
        "title": "公共厕所",
        "address": "甘肃省张掖市甘州区Y383与张肃一级公路交叉口正东方向620米左右",
        "tel": "",
        "category": "基础设施:公共设施:公共厕所",
        "type": 0,
        "location": {
            "lat": 38.960364,
            "lng": 100.195446
        },
        "ad_info": {
            "adcode": 620702,
            "province": "甘肃省",
            "city": "张掖市",
            "district": "甘州区"
        }
    },
    {
        "id": "10707217791342593995",
        "title": "公共厕所",
        "address": "甘肃省张掖市民乐县X023与Y354交叉口正北方向47米左右",
        "tel": "",
        "category": "基础设施:公共设施:公共厕所",
        "type": 0,
        "location": {
            "lat": 38.645758,
            "lng": 100.72566
        },
        "ad_info": {
            "adcode": 620722,
            "province": "甘肃省",
            "city": "张掖市",
            "district": "民乐县"
        }
    },
    {
        "id": "730207426989366173",
        "title": "公共厕所",
        "address": "甘肃省张掖市高台县河西红色文化体验景区",
        "tel": "",
        "category": "基础设施:公共设施:公共厕所",
        "type": 0,
        "location": {
            "lat": 39.467107,
            "lng": 99.661953
        },
        "ad_info": {
            "adcode": 620724,
            "province": "甘肃省",
            "city": "张掖市",
            "district": "高台县"
        }
    },
    {
        "id": "16784904608936625849",
        "title": "公共厕所",
        "address": "甘肃省张掖市甘州区中国石油小河加油站西北侧190米",
        "tel": "",
        "category": "基础设施:公共设施:公共厕所",
        "type": 0,
        "location": {
            "lat": 39.129086,
            "lng": 100.207183
        },
        "ad_info": {
            "adcode": 620702,
            "province": "甘肃省",
            "city": "张掖市",
            "district": "甘州区"
        }
    },
    {
        "id": "3866269231338702047",
        "title": "公共厕所",
        "address": "甘肃省张掖市民乐县X213与Y333交叉口正南方向81米左右",
        "tel": "",
        "category": "基础设施:公共设施:公共厕所",
        "type": 0,
        "location": {
            "lat": 38.466778,
            "lng": 100.720313
        },
        "ad_info": {
            "adcode": 620722,
            "province": "甘肃省",
            "city": "张掖市",
            "district": "民乐县"
        }
    },
    {
        "id": "6499307776395685119",
        "title": "公共厕所",
        "address": "甘肃省张掖市民乐县X213与Y333交叉口正南方向55米左右",
        "tel": "",
        "category": "基础设施:公共设施:公共厕所",
        "type": 0,
        "location": {
            "lat": 38.467011,
            "lng": 100.72033
        },
        "ad_info": {
            "adcode": 620722,
            "province": "甘肃省",
            "city": "张掖市",
            "district": "民乐县"
        }
    },
    {
        "id": "925992027622258730",
        "title": "公共厕所",
        "address": "甘肃省张掖市甘州区内环路与腾飞路交叉口西南方向1173米左右",
        "tel": "",
        "category": "基础设施:公共设施:公共厕所",
        "type": 0,
        "location": {
            "lat": 38.913973,
            "lng": 100.391838
        },
        "ad_info": {
            "adcode": 620702,
            "province": "甘肃省",
            "city": "张掖市",
            "district": "甘州区"
        }
    },
    {
        "id": "14887280598748303952",
        "title": "公共厕所",
        "address": "甘肃省张掖市临泽县G312与流沙河路交叉口正北方向641米左右",
        "tel": "",
        "category": "基础设施:公共设施:公共厕所",
        "type": 0,
        "location": {
            "lat": 39.115638,
            "lng": 100.16026
        },
        "ad_info": {
            "adcode": 620723,
            "province": "甘肃省",
            "city": "张掖市",
            "district": "临泽县"
        }
    },
    {
        "id": "6917874651337946567",
        "title": "公共厕所",
        "address": "甘肃省张掖市临泽县",
        "tel": "",
        "category": "基础设施:公共设施:公共厕所",
        "type": 0,
        "location": {
            "lat": 39.267443,
            "lng": 100.244752
        },
        "ad_info": {
            "adcode": 620723,
            "province": "甘肃省",
            "city": "张掖市",
            "district": "临泽县"
        }
    },
    {
        "id": "2257471433652766736",
        "title": "公共厕所",
        "address": "甘肃省张掖市高台县北环路与西环路交叉口正北方向157米左右",
        "tel": "",
        "category": "基础设施:公共设施:公共厕所",
        "type": 0,
        "location": {
            "lat": 39.386387,
            "lng": 99.807541
        },
        "ad_info": {
            "adcode": 620724,
            "province": "甘肃省",
            "city": "张掖市",
            "district": "高台县"
        }
    },
    {
        "id": "7202587498345042431",
        "title": "公共厕所",
        "address": "甘肃省张掖市肃南裕固族自治县S18与X209交叉口正北方向191米左右",
        "tel": "",
        "category": "基础设施:公共设施:公共厕所",
        "type": 0,
        "location": {
            "lat": 38.965375,
            "lng": 99.914742
        },
        "ad_info": {
            "adcode": 620721,
            "province": "甘肃省",
            "city": "张掖市",
            "district": "肃南裕固族自治县"
        }
    },
    {
        "id": "13686144731716005111",
        "title": "公共厕所",
        "address": "甘肃省张掖市山丹县仁和北路与老军路交叉口正南方向88米左右",
        "tel": "",
        "category": "基础设施:公共设施:公共厕所",
        "type": 0,
        "location": {
            "lat": 38.790309,
            "lng": 101.083422
        },
        "ad_info": {
            "adcode": 620725,
            "province": "甘肃省",
            "city": "张掖市",
            "district": "山丹县"
        }
    },
    {
        "id": "1540005234485001888",
        "title": "张掖服务区公共厕所",
        "address": "甘肃省张掖市甘州区连霍高速",
        "tel": "",
        "category": "基础设施:公共设施:公共厕所",
        "type": 0,
        "location": {
            "lat": 38.905931,
            "lng": 100.598454
        },
        "ad_info": {
            "adcode": 620702,
            "province": "甘肃省",
            "city": "张掖市",
            "district": "甘州区"
        }
    },
    {
        "id": "17445344093762745991",
        "title": "环保卫生厕所",
        "address": "甘肃省张掖市甘州区鑫鑫远行汽车配件北侧",
        "tel": "",
        "category": "基础设施:公共设施:公共厕所",
        "type": 0,
        "location": {
            "lat": 39.034397,
            "lng": 100.475563
        },
        "ad_info": {
            "adcode": 620702,
            "province": "甘肃省",
            "city": "张掖市",
            "district": "甘州区"
        }
    },
    {
        "id": "1183769705418571744",
        "title": "下天乐停车区公共厕所",
        "address": "甘肃省张掖市民乐县张汶高速",
        "tel": "",
        "category": "基础设施:公共设施:公共厕所",
        "type": 0,
        "location": {
            "lat": 38.513687,
            "lng": 100.743979
        },
        "ad_info": {
            "adcode": 620722,
            "province": "甘肃省",
            "city": "张掖市",
            "district": "民乐县"
        }
    },
    {
        "id": "1428521590183503023",
        "title": "公共厕所(绿色空间站)",
        "address": "甘肃省张掖市甘州区汀水路与白桦大道交叉口正北方向470米左右",
        "tel": "",
        "category": "基础设施:公共设施:公共厕所",
        "type": 0,
        "location": {
            "lat": 38.948335,
            "lng": 100.364423
        },
        "ad_info": {
            "adcode": 620702,
            "province": "甘肃省",
            "city": "张掖市",
            "district": "甘州区"
        }
    },
    {
        "id": "2373915096452897114",
        "title": "公共厕所",
        "address": "甘肃省张掖市民乐县大泉沟中心小学西侧220米",
        "tel": "",
        "category": "基础设施:公共设施:公共厕所",
        "type": 0,
        "location": {
            "lat": 38.394594,
            "lng": 100.726988
        },
        "ad_info": {
            "adcode": 620722,
            "province": "甘肃省",
            "city": "张掖市",
            "district": "民乐县"
        }
    },
    {
        "id": "5979674558543168224",
        "title": "公共厕所",
        "address": "甘肃省张掖市民乐县世纪大道与东大街交叉口正南方向169米左右",
        "tel": "",
        "category": "基础设施:公共设施:公共厕所",
        "type": 0,
        "location": {
            "lat": 38.433513,
            "lng": 100.822044
        },
        "ad_info": {
            "adcode": 620722,
            "province": "甘肃省",
            "city": "张掖市",
            "district": "民乐县"
        }
    },
    {
        "id": "4337152178455342172",
        "title": "公共厕所",
        "address": "甘肃省张掖市甘州区金张掖大道(南)与金城路交叉口西南80米",
        "tel": "",
        "category": "基础设施:公共设施:公共厕所",
        "type": 0,
        "location": {
            "lat": 38.937899,
            "lng": 100.489659
        },
        "ad_info": {
            "adcode": 620702,
            "province": "甘肃省",
            "city": "张掖市",
            "district": "甘州区"
        }
    },
    {
        "id": "1981675695648270610",
        "title": "无障碍公共厕所",
        "address": "甘肃省张掖市甘州区天瑜农资经营部西南侧",
        "tel": "",
        "category": "基础设施:公共设施:公共厕所",
        "type": 0,
        "location": {
            "lat": 39.044642,
            "lng": 100.244486
        },
        "ad_info": {
            "adcode": 620702,
            "province": "甘肃省",
            "city": "张掖市",
            "district": "甘州区"
        }
    },
    {
        "id": "16438089019073380788",
        "title": "公共厕所",
        "address": "甘肃省张掖市甘州区民乐南路与永固路交叉口正南方向164米左右",
        "tel": "",
        "category": "基础设施:公共设施:公共厕所",
        "type": 0,
        "location": {
            "lat": 38.929305,
            "lng": 100.427448
        },
        "ad_info": {
            "adcode": 620702,
            "province": "甘肃省",
            "city": "张掖市",
            "district": "甘州区"
        }
    },
    {
        "id": "15663607653240408402",
        "title": "安博公共厕所",
        "address": "甘肃省张掖市甘州区晓雪超市西侧100米",
        "tel": "",
        "category": "基础设施:公共设施:公共厕所",
        "type": 0,
        "location": {
            "lat": 38.785124,
            "lng": 100.358832
        },
        "ad_info": {
            "adcode": 620702,
            "province": "甘肃省",
            "city": "张掖市",
            "district": "甘州区"
        }
    },
    {
        "id": "13102007547075423452",
        "title": "公共厕所",
        "address": "甘肃省张掖市甘州区S301与上安路交叉口正西方向173米左右",
        "tel": "",
        "category": "基础设施:公共设施:公共厕所",
        "type": 0,
        "location": {
            "lat": 39.094389,
            "lng": 100.427743
        },
        "ad_info": {
            "adcode": 620702,
            "province": "甘肃省",
            "city": "张掖市",
            "district": "甘州区"
        }
    },
    {
        "id": "9522211446083715928",
        "title": "公共厕所",
        "address": "甘肃省张掖市甘州区滨湖路与艾黎大道交叉口正东方向527米左右",
        "tel": "",
        "category": "基础设施:公共设施:公共厕所",
        "type": 0,
        "location": {
            "lat": 38.961014,
            "lng": 100.443223
        },
        "ad_info": {
            "adcode": 620702,
            "province": "甘肃省",
            "city": "张掖市",
            "district": "甘州区"
        }
    },
    {
        "id": "17721709711905624920",
        "title": "公共厕所",
        "address": "甘肃省张掖市甘州区北大街与大衙门街交叉口东北方向35米左右",
        "tel": "",
        "category": "基础设施:公共设施:公共厕所",
        "type": 0,
        "location": {
            "lat": 38.938338,
            "lng": 100.457433
        },
        "ad_info": {
            "adcode": 620702,
            "province": "甘肃省",
            "city": "张掖市",
            "district": "甘州区"
        }
    },
    {
        "id": "16632998439040276839",
        "title": "公共厕所",
        "address": "甘肃省张掖市甘州区明永乡上崖卫生室东南侧",
        "tel": "",
        "category": "基础设施:公共设施:公共厕所",
        "type": 0,
        "location": {
            "lat": 38.99274,
            "lng": 100.339228
        },
        "ad_info": {
            "adcode": 620702,
            "province": "甘肃省",
            "city": "张掖市",
            "district": "甘州区"
        }
    },
    {
        "id": "16095786477786291640",
        "title": "公共厕所",
        "address": "甘肃省张掖市民乐县圈坡村",
        "tel": "",
        "category": "基础设施:公共设施:公共厕所",
        "type": 0,
        "location": {
            "lat": 38.400798,
            "lng": 100.716041
        },
        "ad_info": {
            "adcode": 620722,
            "province": "甘肃省",
            "city": "张掖市",
            "district": "民乐县"
        }
    },
    {
        "id": "15427308944992511283",
        "title": "一工城村公共卫生间",
        "address": "甘肃省张掖市临泽县平川镇一工城村二社",
        "tel": "",
        "category": "基础设施:公共设施:公共厕所",
        "type": 0,
        "location": {
            "lat": 39.382285,
            "lng": 100.117927
        },
        "ad_info": {
            "adcode": 620723,
            "province": "甘肃省",
            "city": "张掖市",
            "district": "临泽县"
        }
    },
    {
        "id": "4937101900113657617",
        "title": "公共厕所",
        "address": "甘肃省张掖市甘州区玉关路与高台南路交叉口正西方向102米左右",
        "tel": "",
        "category": "基础设施:公共设施:公共厕所",
        "type": 0,
        "location": {
            "lat": 38.932079,
            "lng": 100.411651
        },
        "ad_info": {
            "adcode": 620702,
            "province": "甘肃省",
            "city": "张掖市",
            "district": "甘州区"
        }
    },
    {
        "id": "1274908871920230759",
        "title": "公共厕所",
        "address": "甘肃省张掖市甘州区东环路仁和广场",
        "tel": "",
        "category": "基础设施:公共设施:公共厕所",
        "type": 0,
        "location": {
            "lat": 38.933498,
            "lng": 100.469113
        },
        "ad_info": {
            "adcode": 620702,
            "province": "甘肃省",
            "city": "张掖市",
            "district": "甘州区"
        }
    },
    {
        "id": "7698940513900806857",
        "title": "公共厕所",
        "address": "甘肃省张掖市山丹县位奇路与政通路交叉口东北方向49米左右",
        "tel": "",
        "category": "基础设施:公共设施:公共厕所",
        "type": 0,
        "location": {
            "lat": 38.791504,
            "lng": 101.074902
        },
        "ad_info": {
            "adcode": 620725,
            "province": "甘肃省",
            "city": "张掖市",
            "district": "山丹县"
        }
    },
    {
        "id": "8592335242019992032",
        "title": "公共洗手间",
        "address": "甘肃省张掖市甘州区",
        "tel": "",
        "category": "基础设施:公共设施:公共厕所",
        "type": 0,
        "location": {
            "lat": 39.027395,
            "lng": 100.654153
        },
        "ad_info": {
            "adcode": 620702,
            "province": "甘肃省",
            "city": "张掖市",
            "district": "甘州区"
        }
    },
    {
        "id": "13217199998484404234",
        "title": "公共厕所",
        "address": "甘肃省张掖市甘州区滨湖路与西三环路交叉口正北方向50米左右",
        "tel": "",
        "category": "基础设施:公共设施:公共厕所",
        "type": 0,
        "location": {
            "lat": 38.949968,
            "lng": 100.399363
        },
        "ad_info": {
            "adcode": 620702,
            "province": "甘肃省",
            "city": "张掖市",
            "district": "甘州区"
        }
    },
    {
        "id": "4532195248803534814",
        "title": "公共厕所",
        "address": "甘肃省张掖市高台县奇正步行街与解放南路交叉口正东方向76米左右",
        "tel": "",
        "category": "基础设施:公共设施:公共厕所",
        "type": 0,
        "location": {
            "lat": 39.374128,
            "lng": 99.817559
        },
        "ad_info": {
            "adcode": 620724,
            "province": "甘肃省",
            "city": "张掖市",
            "district": "高台县"
        }
    },
    {
        "id": "7540570586836319469",
        "title": "公共厕所",
        "address": "甘肃省张掖市肃南裕固族自治县巴尔斯圣山景区西北侧",
        "tel": "",
        "category": "基础设施:公共设施:公共厕所",
        "type": 0,
        "location": {
            "lat": 39.004354,
            "lng": 99.416927
        },
        "ad_info": {
            "adcode": 620721,
            "province": "甘肃省",
            "city": "张掖市",
            "district": "肃南裕固族自治县"
        }
    },
    {
        "id": "7730698352136185832",
        "title": "公共厕所",
        "address": "甘肃省张掖市甘州区东升巷与东大街辅路交叉口正南方向86米左右",
        "tel": "",
        "category": "基础设施:公共设施:公共厕所",
        "type": 0,
        "location": {
            "lat": 38.936903,
            "lng": 100.46506
        },
        "ad_info": {
            "adcode": 620702,
            "province": "甘肃省",
            "city": "张掖市",
            "district": "甘州区"
        }
    },
    {
        "id": "12661123545192722625",
        "title": "公共厕所",
        "address": "甘肃省张掖市山丹县Y015(山丹大佛寺北侧约160米)",
        "tel": "",
        "category": "基础设施:公共设施:公共厕所",
        "type": 0,
        "location": {
            "lat": 38.797804,
            "lng": 101.0247
        },
        "ad_info": {
            "adcode": 620725,
            "province": "甘肃省",
            "city": "张掖市",
            "district": "山丹县"
        }
    },
    {
        "id": "12652901602006297456",
        "title": "公共厕所",
        "address": "甘肃省张掖市甘州区北二路与甘州大道交叉口东南方向150米左右",
        "tel": "",
        "category": "基础设施:公共设施:公共厕所",
        "type": 0,
        "location": {
            "lat": 38.946097,
            "lng": 100.486329
        },
        "ad_info": {
            "adcode": 620702,
            "province": "甘肃省",
            "city": "张掖市",
            "district": "甘州区"
        }
    },
    {
        "id": "4442725584156742218",
        "title": "公共厕所",
        "address": "甘肃省张掖市甘州区新乐大型综合超市(甘州市场连锁店)东北",
        "tel": "",
        "category": "基础设施:公共设施:公共厕所",
        "type": 0,
        "location": {
            "lat": 38.933581,
            "lng": 100.460841
        },
        "ad_info": {
            "adcode": 620702,
            "province": "甘肃省",
            "city": "张掖市",
            "district": "甘州区"
        }
    },
    {
        "id": "6022473881933941440",
        "title": "公共厕所",
        "address": "甘肃省张掖市甘州区康乐路辅路与鸿宇北路交叉口正西方向47米左右",
        "tel": "",
        "category": "基础设施:公共设施:公共厕所",
        "type": 0,
        "location": {
            "lat": 38.918649,
            "lng": 100.470917
        },
        "ad_info": {
            "adcode": 620702,
            "province": "甘肃省",
            "city": "张掖市",
            "district": "甘州区"
        }
    },
    {
        "id": "5400176358188227416",
        "title": "公共厕所",
        "address": "甘肃省张掖市甘州区丽都大道与南环路交叉口正南方向100米左右",
        "tel": "",
        "category": "基础设施:公共设施:公共厕所",
        "type": 0,
        "location": {
            "lat": 38.926691,
            "lng": 100.463717
        },
        "ad_info": {
            "adcode": 620702,
            "province": "甘肃省",
            "city": "张掖市",
            "district": "甘州区"
        }
    },
    {
        "id": "6968350938337933853",
        "title": "公共厕所",
        "address": "甘肃省张掖市甘州区民主西街与羊头巷交叉口正北方向109米左右",
        "tel": "",
        "category": "基础设施:公共设施:公共厕所",
        "type": 0,
        "location": {
            "lat": 38.932734,
            "lng": 100.456267
        },
        "ad_info": {
            "adcode": 620702,
            "province": "甘肃省",
            "city": "张掖市",
            "district": "甘州区"
        }
    },
    {
        "id": "5183544583268633542",
        "title": "公共厕所",
        "address": "甘肃省张掖市山丹县东环支路与胜利街交叉口正东方向378米左右",
        "tel": "",
        "category": "基础设施:公共设施:公共厕所",
        "type": 0,
        "location": {
            "lat": 38.780425,
            "lng": 101.100059
        },
        "ad_info": {
            "adcode": 620725,
            "province": "甘肃省",
            "city": "张掖市",
            "district": "山丹县"
        }
    },
    {
        "id": "2317736671201098462",
        "title": "公共厕所",
        "address": "甘肃省张掖市临泽县S301",
        "tel": "",
        "category": "基础设施:公共设施:公共厕所",
        "type": 0,
        "location": {
            "lat": 39.375126,
            "lng": 99.996678
        },
        "ad_info": {
            "adcode": 620723,
            "province": "甘肃省",
            "city": "张掖市",
            "district": "临泽县"
        }
    },
    {
        "id": "7383308770089848258",
        "title": "公共厕所",
        "address": "甘肃省张掖市甘州区G312与康乐路交叉口东南方向490米左右",
        "tel": "",
        "category": "基础设施:公共设施:公共厕所",
        "type": 0,
        "location": {
            "lat": 38.912286,
            "lng": 100.676724
        },
        "ad_info": {
            "adcode": 620702,
            "province": "甘肃省",
            "city": "张掖市",
            "district": "甘州区"
        }
    },
    {
        "id": "10592456659492749655",
        "title": "公共厕所",
        "address": "甘肃省张掖市甘州区丹霞东路与山丹南路交叉口正东方向50米左右",
        "tel": "",
        "category": "基础设施:公共设施:公共厕所",
        "type": 0,
        "location": {
            "lat": 38.924094,
            "lng": 100.434352
        },
        "ad_info": {
            "adcode": 620702,
            "province": "甘肃省",
            "city": "张掖市",
            "district": "甘州区"
        }
    },
    {
        "id": "11363560113552603669",
        "title": "公共厕所",
        "address": "甘肃省张掖市山丹县仁和东路与青年街交叉口正北方向213米左右",
        "tel": "",
        "category": "基础设施:公共设施:公共厕所",
        "type": 0,
        "location": {
            "lat": 38.789726,
            "lng": 101.091598
        },
        "ad_info": {
            "adcode": 620725,
            "province": "甘肃省",
            "city": "张掖市",
            "district": "山丹县"
        }
    },
    {
        "id": "17488044475939953470",
        "title": "公共厕所",
        "address": "甘肃省张掖市甘州区敬侯路与甘州大道交叉口西南方向350米左右",
        "tel": "",
        "category": "基础设施:公共设施:公共厕所",
        "type": 0,
        "location": {
            "lat": 38.963551,
            "lng": 100.507813
        },
        "ad_info": {
            "adcode": 620702,
            "province": "甘肃省",
            "city": "张掖市",
            "district": "甘州区"
        }
    },
    {
        "id": "9351943814073718029",
        "title": "公共厕所",
        "address": "甘肃省张掖市甘州区玉关路辅路与西环路辅路交叉口西南方向141米左右",
        "tel": "",
        "category": "基础设施:公共设施:公共厕所",
        "type": 0,
        "location": {
            "lat": 38.934944,
            "lng": 100.443452
        },
        "ad_info": {
            "adcode": 620702,
            "province": "甘肃省",
            "city": "张掖市",
            "district": "甘州区"
        }
    },
    {
        "id": "12259555345235572276",
        "title": "公共厕所",
        "address": "甘肃省张掖市甘州区东沙湾巷与东环路交叉口正西方向105米左右",
        "tel": "",
        "category": "基础设施:公共设施:公共厕所",
        "type": 0,
        "location": {
            "lat": 38.929116,
            "lng": 100.468642
        },
        "ad_info": {
            "adcode": 620702,
            "province": "甘肃省",
            "city": "张掖市",
            "district": "甘州区"
        }
    },
    {
        "id": "15249881597591194893",
        "title": "公共厕所",
        "address": "甘肃省张掖市高台县",
        "tel": "",
        "category": "基础设施:公共设施:公共厕所",
        "type": 0,
        "location": {
            "lat": 39.341988,
            "lng": 99.565389
        },
        "ad_info": {
            "adcode": 620724,
            "province": "甘肃省",
            "city": "张掖市",
            "district": "高台县"
        }
    },
    {
        "id": "13047232876334712071",
        "title": "公共厕所",
        "address": "甘肃省张掖市临泽县滨河路180号",
        "tel": "",
        "category": "基础设施:公共设施:公共厕所",
        "type": 0,
        "location": {
            "lat": 39.135343,
            "lng": 100.180288
        },
        "ad_info": {
            "adcode": 620723,
            "province": "甘肃省",
            "city": "张掖市",
            "district": "临泽县"
        }
    },
    {
        "id": "2576217079238521323",
        "title": "公共厕所",
        "address": "甘肃省张掖市甘州区西环北路辅路与西环路交叉口正东方向110米左右",
        "tel": "",
        "category": "基础设施:公共设施:公共厕所",
        "type": 0,
        "location": {
            "lat": 38.943656,
            "lng": 100.440098
        },
        "ad_info": {
            "adcode": 620702,
            "province": "甘肃省",
            "city": "张掖市",
            "district": "甘州区"
        }
    },
    {
        "id": "556892568023342612",
        "title": "公共厕所",
        "address": "甘肃省张掖市甘州区南环路与张民公路交叉口西南方向249米左右",
        "tel": "",
        "category": "基础设施:公共设施:公共厕所",
        "type": 0,
        "location": {
            "lat": 38.925324,
            "lng": 100.460262
        },
        "ad_info": {
            "adcode": 620702,
            "province": "甘肃省",
            "city": "张掖市",
            "district": "甘州区"
        }
    },
    {
        "id": "10597049531638828105",
        "title": "公共厕所",
        "address": "甘肃省张掖市甘州区东大街与东环路交叉口正东方向66米左右",
        "tel": "",
        "category": "基础设施:公共设施:公共厕所",
        "type": 0,
        "location": {
            "lat": 38.937917,
            "lng": 100.469278
        },
        "ad_info": {
            "adcode": 620702,
            "province": "甘肃省",
            "city": "张掖市",
            "district": "甘州区"
        }
    },
    {
        "id": "8164147458159745031",
        "title": "公共厕所",
        "address": "甘肃省张掖市肃南裕固族自治县大河路与皇城路交叉口正西方向24米左右",
        "tel": "",
        "category": "基础设施:公共设施:公共厕所",
        "type": 0,
        "location": {
            "lat": 38.840212,
            "lng": 99.619577
        },
        "ad_info": {
            "adcode": 620721,
            "province": "甘肃省",
            "city": "张掖市",
            "district": "肃南裕固族自治县"
        }
    },
    {
        "id": "18081187667795038181",
        "title": "公共厕所",
        "address": "甘肃省张掖市甘州区青年西街216号",
        "tel": "",
        "category": "基础设施:公共设施:公共厕所",
        "type": 0,
        "location": {
            "lat": 38.933794,
            "lng": 100.449803
        },
        "ad_info": {
            "adcode": 620702,
            "province": "甘肃省",
            "city": "张掖市",
            "district": "甘州区"
        }
    },
    {
        "id": "12652901602006297456",
        "title": "公共厕所",
        "address": "甘肃省张掖市甘州区北二路与甘州大道交叉口东南方向150米左右",
        "tel": "",
        "category": "基础设施:公共设施:公共厕所",
        "type": 0,
        "location": {
            "lat": 38.946097,
            "lng": 100.486329
        },
        "ad_info": {
            "adcode": 620702,
            "province": "甘肃省",
            "city": "张掖市",
            "district": "甘州区"
        }
    },
    {
        "id": "4442725584156742218",
        "title": "公共厕所",
        "address": "甘肃省张掖市甘州区新乐大型综合超市(甘州市场连锁店)东北",
        "tel": "",
        "category": "基础设施:公共设施:公共厕所",
        "type": 0,
        "location": {
            "lat": 38.933581,
            "lng": 100.460841
        },
        "ad_info": {
            "adcode": 620702,
            "province": "甘肃省",
            "city": "张掖市",
            "district": "甘州区"
        }
    },
    {
        "id": "6022473881933941440",
        "title": "公共厕所",
        "address": "甘肃省张掖市甘州区康乐路辅路与鸿宇北路交叉口正西方向47米左右",
        "tel": "",
        "category": "基础设施:公共设施:公共厕所",
        "type": 0,
        "location": {
            "lat": 38.918649,
            "lng": 100.470917
        },
        "ad_info": {
            "adcode": 620702,
            "province": "甘肃省",
            "city": "张掖市",
            "district": "甘州区"
        }
    },
    {
        "id": "5400176358188227416",
        "title": "公共厕所",
        "address": "甘肃省张掖市甘州区丽都大道与南环路交叉口正南方向100米左右",
        "tel": "",
        "category": "基础设施:公共设施:公共厕所",
        "type": 0,
        "location": {
            "lat": 38.926691,
            "lng": 100.463717
        },
        "ad_info": {
            "adcode": 620702,
            "province": "甘肃省",
            "city": "张掖市",
            "district": "甘州区"
        }
    },
    {
        "id": "6968350938337933853",
        "title": "公共厕所",
        "address": "甘肃省张掖市甘州区民主西街与羊头巷交叉口正北方向109米左右",
        "tel": "",
        "category": "基础设施:公共设施:公共厕所",
        "type": 0,
        "location": {
            "lat": 38.932734,
            "lng": 100.456267
        },
        "ad_info": {
            "adcode": 620702,
            "province": "甘肃省",
            "city": "张掖市",
            "district": "甘州区"
        }
    },
    {
        "id": "5183544583268633542",
        "title": "公共厕所",
        "address": "甘肃省张掖市山丹县东环支路与胜利街交叉口正东方向378米左右",
        "tel": "",
        "category": "基础设施:公共设施:公共厕所",
        "type": 0,
        "location": {
            "lat": 38.780425,
            "lng": 101.100059
        },
        "ad_info": {
            "adcode": 620725,
            "province": "甘肃省",
            "city": "张掖市",
            "district": "山丹县"
        }
    },
    {
        "id": "2317736671201098462",
        "title": "公共厕所",
        "address": "甘肃省张掖市临泽县S301",
        "tel": "",
        "category": "基础设施:公共设施:公共厕所",
        "type": 0,
        "location": {
            "lat": 39.375126,
            "lng": 99.996678
        },
        "ad_info": {
            "adcode": 620723,
            "province": "甘肃省",
            "city": "张掖市",
            "district": "临泽县"
        }
    },
    {
        "id": "7383308770089848258",
        "title": "公共厕所",
        "address": "甘肃省张掖市甘州区G312与康乐路交叉口东南方向490米左右",
        "tel": "",
        "category": "基础设施:公共设施:公共厕所",
        "type": 0,
        "location": {
            "lat": 38.912286,
            "lng": 100.676724
        },
        "ad_info": {
            "adcode": 620702,
            "province": "甘肃省",
            "city": "张掖市",
            "district": "甘州区"
        }
    },
    {
        "id": "10592456659492749655",
        "title": "公共厕所",
        "address": "甘肃省张掖市甘州区丹霞东路与山丹南路交叉口正东方向50米左右",
        "tel": "",
        "category": "基础设施:公共设施:公共厕所",
        "type": 0,
        "location": {
            "lat": 38.924094,
            "lng": 100.434352
        },
        "ad_info": {
            "adcode": 620702,
            "province": "甘肃省",
            "city": "张掖市",
            "district": "甘州区"
        }
    },
    {
        "id": "11363560113552603669",
        "title": "公共厕所",
        "address": "甘肃省张掖市山丹县仁和东路与青年街交叉口正北方向213米左右",
        "tel": "",
        "category": "基础设施:公共设施:公共厕所",
        "type": 0,
        "location": {
            "lat": 38.789726,
            "lng": 101.091598
        },
        "ad_info": {
            "adcode": 620725,
            "province": "甘肃省",
            "city": "张掖市",
            "district": "山丹县"
        }
    },
    {
        "id": "17488044475939953470",
        "title": "公共厕所",
        "address": "甘肃省张掖市甘州区敬侯路与甘州大道交叉口西南方向350米左右",
        "tel": "",
        "category": "基础设施:公共设施:公共厕所",
        "type": 0,
        "location": {
            "lat": 38.963551,
            "lng": 100.507813
        },
        "ad_info": {
            "adcode": 620702,
            "province": "甘肃省",
            "city": "张掖市",
            "district": "甘州区"
        }
    },
    {
        "id": "9351943814073718029",
        "title": "公共厕所",
        "address": "甘肃省张掖市甘州区玉关路辅路与西环路辅路交叉口西南方向141米左右",
        "tel": "",
        "category": "基础设施:公共设施:公共厕所",
        "type": 0,
        "location": {
            "lat": 38.934944,
            "lng": 100.443452
        },
        "ad_info": {
            "adcode": 620702,
            "province": "甘肃省",
            "city": "张掖市",
            "district": "甘州区"
        }
    },
    {
        "id": "12259555345235572276",
        "title": "公共厕所",
        "address": "甘肃省张掖市甘州区东沙湾巷与东环路交叉口正西方向105米左右",
        "tel": "",
        "category": "基础设施:公共设施:公共厕所",
        "type": 0,
        "location": {
            "lat": 38.929116,
            "lng": 100.468642
        },
        "ad_info": {
            "adcode": 620702,
            "province": "甘肃省",
            "city": "张掖市",
            "district": "甘州区"
        }
    },
    {
        "id": "15249881597591194893",
        "title": "公共厕所",
        "address": "甘肃省张掖市高台县",
        "tel": "",
        "category": "基础设施:公共设施:公共厕所",
        "type": 0,
        "location": {
            "lat": 39.341988,
            "lng": 99.565389
        },
        "ad_info": {
            "adcode": 620724,
            "province": "甘肃省",
            "city": "张掖市",
            "district": "高台县"
        }
    },
    {
        "id": "13047232876334712071",
        "title": "公共厕所",
        "address": "甘肃省张掖市临泽县滨河路180号",
        "tel": "",
        "category": "基础设施:公共设施:公共厕所",
        "type": 0,
        "location": {
            "lat": 39.135343,
            "lng": 100.180288
        },
        "ad_info": {
            "adcode": 620723,
            "province": "甘肃省",
            "city": "张掖市",
            "district": "临泽县"
        }
    },
    {
        "id": "2576217079238521323",
        "title": "公共厕所",
        "address": "甘肃省张掖市甘州区西环北路辅路与西环路交叉口正东方向110米左右",
        "tel": "",
        "category": "基础设施:公共设施:公共厕所",
        "type": 0,
        "location": {
            "lat": 38.943656,
            "lng": 100.440098
        },
        "ad_info": {
            "adcode": 620702,
            "province": "甘肃省",
            "city": "张掖市",
            "district": "甘州区"
        }
    },
    {
        "id": "556892568023342612",
        "title": "公共厕所",
        "address": "甘肃省张掖市甘州区南环路与张民公路交叉口西南方向249米左右",
        "tel": "",
        "category": "基础设施:公共设施:公共厕所",
        "type": 0,
        "location": {
            "lat": 38.925324,
            "lng": 100.460262
        },
        "ad_info": {
            "adcode": 620702,
            "province": "甘肃省",
            "city": "张掖市",
            "district": "甘州区"
        }
    },
    {
        "id": "10597049531638828105",
        "title": "公共厕所",
        "address": "甘肃省张掖市甘州区东大街与东环路交叉口正东方向66米左右",
        "tel": "",
        "category": "基础设施:公共设施:公共厕所",
        "type": 0,
        "location": {
            "lat": 38.937917,
            "lng": 100.469278
        },
        "ad_info": {
            "adcode": 620702,
            "province": "甘肃省",
            "city": "张掖市",
            "district": "甘州区"
        }
    },
    {
        "id": "8164147458159745031",
        "title": "公共厕所",
        "address": "甘肃省张掖市肃南裕固族自治县大河路与皇城路交叉口正西方向24米左右",
        "tel": "",
        "category": "基础设施:公共设施:公共厕所",
        "type": 0,
        "location": {
            "lat": 38.840212,
            "lng": 99.619577
        },
        "ad_info": {
            "adcode": 620721,
            "province": "甘肃省",
            "city": "张掖市",
            "district": "肃南裕固族自治县"
        }
    },
    {
        "id": "18081187667795038181",
        "title": "公共厕所",
        "address": "甘肃省张掖市甘州区青年西街216号",
        "tel": "",
        "category": "基础设施:公共设施:公共厕所",
        "type": 0,
        "location": {
            "lat": 38.933794,
            "lng": 100.449803
        },
        "ad_info": {
            "adcode": 620702,
            "province": "甘肃省",
            "city": "张掖市",
            "district": "甘州区"
        }
    },
    {
        "id": "12652901602006297456",
        "title": "公共厕所",
        "address": "甘肃省张掖市甘州区北二路与甘州大道交叉口东南方向150米左右",
        "tel": "",
        "category": "基础设施:公共设施:公共厕所",
        "type": 0,
        "location": {
            "lat": 38.946097,
            "lng": 100.486329
        },
        "ad_info": {
            "adcode": 620702,
            "province": "甘肃省",
            "city": "张掖市",
            "district": "甘州区"
        }
    },
    {
        "id": "4442725584156742218",
        "title": "公共厕所",
        "address": "甘肃省张掖市甘州区新乐大型综合超市(甘州市场连锁店)东北",
        "tel": "",
        "category": "基础设施:公共设施:公共厕所",
        "type": 0,
        "location": {
            "lat": 38.933581,
            "lng": 100.460841
        },
        "ad_info": {
            "adcode": 620702,
            "province": "甘肃省",
            "city": "张掖市",
            "district": "甘州区"
        }
    },
    {
        "id": "6022473881933941440",
        "title": "公共厕所",
        "address": "甘肃省张掖市甘州区康乐路辅路与鸿宇北路交叉口正西方向47米左右",
        "tel": "",
        "category": "基础设施:公共设施:公共厕所",
        "type": 0,
        "location": {
            "lat": 38.918649,
            "lng": 100.470917
        },
        "ad_info": {
            "adcode": 620702,
            "province": "甘肃省",
            "city": "张掖市",
            "district": "甘州区"
        }
    },
    {
        "id": "5400176358188227416",
        "title": "公共厕所",
        "address": "甘肃省张掖市甘州区丽都大道与南环路交叉口正南方向100米左右",
        "tel": "",
        "category": "基础设施:公共设施:公共厕所",
        "type": 0,
        "location": {
            "lat": 38.926691,
            "lng": 100.463717
        },
        "ad_info": {
            "adcode": 620702,
            "province": "甘肃省",
            "city": "张掖市",
            "district": "甘州区"
        }
    },
    {
        "id": "6968350938337933853",
        "title": "公共厕所",
        "address": "甘肃省张掖市甘州区民主西街与羊头巷交叉口正北方向109米左右",
        "tel": "",
        "category": "基础设施:公共设施:公共厕所",
        "type": 0,
        "location": {
            "lat": 38.932734,
            "lng": 100.456267
        },
        "ad_info": {
            "adcode": 620702,
            "province": "甘肃省",
            "city": "张掖市",
            "district": "甘州区"
        }
    },
    {
        "id": "5183544583268633542",
        "title": "公共厕所",
        "address": "甘肃省张掖市山丹县东环支路与胜利街交叉口正东方向378米左右",
        "tel": "",
        "category": "基础设施:公共设施:公共厕所",
        "type": 0,
        "location": {
            "lat": 38.780425,
            "lng": 101.100059
        },
        "ad_info": {
            "adcode": 620725,
            "province": "甘肃省",
            "city": "张掖市",
            "district": "山丹县"
        }
    },
    {
        "id": "2317736671201098462",
        "title": "公共厕所",
        "address": "甘肃省张掖市临泽县S301",
        "tel": "",
        "category": "基础设施:公共设施:公共厕所",
        "type": 0,
        "location": {
            "lat": 39.375126,
            "lng": 99.996678
        },
        "ad_info": {
            "adcode": 620723,
            "province": "甘肃省",
            "city": "张掖市",
            "district": "临泽县"
        }
    },
    {
        "id": "7383308770089848258",
        "title": "公共厕所",
        "address": "甘肃省张掖市甘州区G312与康乐路交叉口东南方向490米左右",
        "tel": "",
        "category": "基础设施:公共设施:公共厕所",
        "type": 0,
        "location": {
            "lat": 38.912286,
            "lng": 100.676724
        },
        "ad_info": {
            "adcode": 620702,
            "province": "甘肃省",
            "city": "张掖市",
            "district": "甘州区"
        }
    },
    {
        "id": "10592456659492749655",
        "title": "公共厕所",
        "address": "甘肃省张掖市甘州区丹霞东路与山丹南路交叉口正东方向50米左右",
        "tel": "",
        "category": "基础设施:公共设施:公共厕所",
        "type": 0,
        "location": {
            "lat": 38.924094,
            "lng": 100.434352
        },
        "ad_info": {
            "adcode": 620702,
            "province": "甘肃省",
            "city": "张掖市",
            "district": "甘州区"
        }
    },
    {
        "id": "11363560113552603669",
        "title": "公共厕所",
        "address": "甘肃省张掖市山丹县仁和东路与青年街交叉口正北方向213米左右",
        "tel": "",
        "category": "基础设施:公共设施:公共厕所",
        "type": 0,
        "location": {
            "lat": 38.789726,
            "lng": 101.091598
        },
        "ad_info": {
            "adcode": 620725,
            "province": "甘肃省",
            "city": "张掖市",
            "district": "山丹县"
        }
    },
    {
        "id": "17488044475939953470",
        "title": "公共厕所",
        "address": "甘肃省张掖市甘州区敬侯路与甘州大道交叉口西南方向350米左右",
        "tel": "",
        "category": "基础设施:公共设施:公共厕所",
        "type": 0,
        "location": {
            "lat": 38.963551,
            "lng": 100.507813
        },
        "ad_info": {
            "adcode": 620702,
            "province": "甘肃省",
            "city": "张掖市",
            "district": "甘州区"
        }
    },
    {
        "id": "9351943814073718029",
        "title": "公共厕所",
        "address": "甘肃省张掖市甘州区玉关路辅路与西环路辅路交叉口西南方向141米左右",
        "tel": "",
        "category": "基础设施:公共设施:公共厕所",
        "type": 0,
        "location": {
            "lat": 38.934944,
            "lng": 100.443452
        },
        "ad_info": {
            "adcode": 620702,
            "province": "甘肃省",
            "city": "张掖市",
            "district": "甘州区"
        }
    },
    {
        "id": "12259555345235572276",
        "title": "公共厕所",
        "address": "甘肃省张掖市甘州区东沙湾巷与东环路交叉口正西方向105米左右",
        "tel": "",
        "category": "基础设施:公共设施:公共厕所",
        "type": 0,
        "location": {
            "lat": 38.929116,
            "lng": 100.468642
        },
        "ad_info": {
            "adcode": 620702,
            "province": "甘肃省",
            "city": "张掖市",
            "district": "甘州区"
        }
    },
    {
        "id": "15249881597591194893",
        "title": "公共厕所",
        "address": "甘肃省张掖市高台县",
        "tel": "",
        "category": "基础设施:公共设施:公共厕所",
        "type": 0,
        "location": {
            "lat": 39.341988,
            "lng": 99.565389
        },
        "ad_info": {
            "adcode": 620724,
            "province": "甘肃省",
            "city": "张掖市",
            "district": "高台县"
        }
    },
    {
        "id": "13047232876334712071",
        "title": "公共厕所",
        "address": "甘肃省张掖市临泽县滨河路180号",
        "tel": "",
        "category": "基础设施:公共设施:公共厕所",
        "type": 0,
        "location": {
            "lat": 39.135343,
            "lng": 100.180288
        },
        "ad_info": {
            "adcode": 620723,
            "province": "甘肃省",
            "city": "张掖市",
            "district": "临泽县"
        }
    },
    {
        "id": "2576217079238521323",
        "title": "公共厕所",
        "address": "甘肃省张掖市甘州区西环北路辅路与西环路交叉口正东方向110米左右",
        "tel": "",
        "category": "基础设施:公共设施:公共厕所",
        "type": 0,
        "location": {
            "lat": 38.943656,
            "lng": 100.440098
        },
        "ad_info": {
            "adcode": 620702,
            "province": "甘肃省",
            "city": "张掖市",
            "district": "甘州区"
        }
    },
    {
        "id": "556892568023342612",
        "title": "公共厕所",
        "address": "甘肃省张掖市甘州区南环路与张民公路交叉口西南方向249米左右",
        "tel": "",
        "category": "基础设施:公共设施:公共厕所",
        "type": 0,
        "location": {
            "lat": 38.925324,
            "lng": 100.460262
        },
        "ad_info": {
            "adcode": 620702,
            "province": "甘肃省",
            "city": "张掖市",
            "district": "甘州区"
        }
    },
    {
        "id": "10597049531638828105",
        "title": "公共厕所",
        "address": "甘肃省张掖市甘州区东大街与东环路交叉口正东方向66米左右",
        "tel": "",
        "category": "基础设施:公共设施:公共厕所",
        "type": 0,
        "location": {
            "lat": 38.937917,
            "lng": 100.469278
        },
        "ad_info": {
            "adcode": 620702,
            "province": "甘肃省",
            "city": "张掖市",
            "district": "甘州区"
        }
    },
    {
        "id": "8164147458159745031",
        "title": "公共厕所",
        "address": "甘肃省张掖市肃南裕固族自治县大河路与皇城路交叉口正西方向24米左右",
        "tel": "",
        "category": "基础设施:公共设施:公共厕所",
        "type": 0,
        "location": {
            "lat": 38.840212,
            "lng": 99.619577
        },
        "ad_info": {
            "adcode": 620721,
            "province": "甘肃省",
            "city": "张掖市",
            "district": "肃南裕固族自治县"
        }
    },
    {
        "id": "18081187667795038181",
        "title": "公共厕所",
        "address": "甘肃省张掖市甘州区青年西街216号",
        "tel": "",
        "category": "基础设施:公共设施:公共厕所",
        "type": 0,
        "location": {
            "lat": 38.933794,
            "lng": 100.449803
        },
        "ad_info": {
            "adcode": 620702,
            "province": "甘肃省",
            "city": "张掖市",
            "district": "甘州区"
        }
    }
]