[
    {
        "id": "9052406865102213548",
        "title": "公共厕所",
        "address": "云南省德宏傣族景颇族自治州瑞丽市团结路与环城西路交叉口正西方向579米左右",
        "tel": "",
        "category": "基础设施:公共设施:公共厕所",
        "type": 0,
        "location": {
            "lat": 23.996069,
            "lng": 97.841367
        },
        "ad_info": {
            "adcode": 533102,
            "province": "云南省",
            "city": "德宏傣族景颇族自治州",
            "district": "瑞丽市"
        }
    },
    {
        "id": "5955716023648044656",
        "title": "公共厕所",
        "address": "云南省德宏傣族景颇族自治州陇川县利民路与新城路交叉口正西方向78米左右",
        "tel": "",
        "category": "基础设施:公共设施:公共厕所",
        "type": 0,
        "location": {
            "lat": 24.179648,
            "lng": 97.794815
        },
        "ad_info": {
            "adcode": 533124,
            "province": "云南省",
            "city": "德宏傣族景颇族自治州",
            "district": "陇川县"
        }
    },
    {
        "id": "5197682614667307094",
        "title": "公共厕所",
        "address": "云南省德宏傣族景颇族自治州陇川县三象北路118号",
        "tel": "",
        "category": "基础设施:公共设施:公共厕所",
        "type": 0,
        "location": {
            "lat": 24.196104,
            "lng": 97.800202
        },
        "ad_info": {
            "adcode": 533124,
            "province": "云南省",
            "city": "德宏傣族景颇族自治州",
            "district": "陇川县"
        }
    },
    {
        "id": "18024757715705896137",
        "title": "公共厕所",
        "address": "云南省德宏傣族景颇族自治州瑞丽市中渠巷与人民路交叉口正南方向188米左右",
        "tel": "",
        "category": "基础设施:公共设施:公共厕所",
        "type": 0,
        "location": {
            "lat": 23.995912,
            "lng": 97.857247
        },
        "ad_info": {
            "adcode": 533102,
            "province": "云南省",
            "city": "德宏傣族景颇族自治州",
            "district": "瑞丽市"
        }
    },
    {
        "id": "17927357778861604250",
        "title": "公共厕所",
        "address": "云南省德宏傣族景颇族自治州瑞丽市南卯街与姐岗路交叉口正北方向63米左右",
        "tel": "",
        "category": "基础设施:公共设施:公共厕所",
        "type": 0,
        "location": {
            "lat": 24.01414,
            "lng": 97.860229
        },
        "ad_info": {
            "adcode": 533102,
            "province": "云南省",
            "city": "德宏傣族景颇族自治州",
            "district": "瑞丽市"
        }
    },
    {
        "id": "15869055013132917704",
        "title": "公共厕所",
        "address": "云南省德宏傣族景颇族自治州瑞丽市人民路与金泉路交叉口正南方向197米左右",
        "tel": "",
        "category": "基础设施:公共设施:公共厕所",
        "type": 0,
        "location": {
            "lat": 24.000255,
            "lng": 97.854781
        },
        "ad_info": {
            "adcode": 533102,
            "province": "云南省",
            "city": "德宏傣族景颇族自治州",
            "district": "瑞丽市"
        }
    },
    {
        "id": "4475915365673809719",
        "title": "公共厕所",
        "address": "云南省德宏傣族景颇族自治州陇川县S320与景坎一桥交叉口正东方向69米左右",
        "tel": "",
        "category": "基础设施:公共设施:公共厕所",
        "type": 0,
        "location": {
            "lat": 24.244651,
            "lng": 97.874528
        },
        "ad_info": {
            "adcode": 533124,
            "province": "云南省",
            "city": "德宏傣族景颇族自治州",
            "district": "陇川县"
        }
    },
    {
        "id": "3622551893987290135",
        "title": "公共厕所",
        "address": "云南省德宏傣族景颇族自治州瑞丽市瑞江路16号",
        "tel": "",
        "category": "基础设施:公共设施:公共厕所",
        "type": 0,
        "location": {
            "lat": 24.009258,
            "lng": 97.858708
        },
        "ad_info": {
            "adcode": 533102,
            "province": "云南省",
            "city": "德宏傣族景颇族自治州",
            "district": "瑞丽市"
        }
    },
    {
        "id": "4645533310272282495",
        "title": "公共厕所",
        "address": "云南省德宏傣族景颇族自治州梁河县勐底路与振兴路交叉口正东方向123米左右",
        "tel": "",
        "category": "基础设施:公共设施:公共厕所",
        "type": 0,
        "location": {
            "lat": 24.80524,
            "lng": 98.298173
        },
        "ad_info": {
            "adcode": 533122,
            "province": "云南省",
            "city": "德宏傣族景颇族自治州",
            "district": "梁河县"
        }
    },
    {
        "id": "9776364261148439342",
        "title": "公共厕所",
        "address": "云南省德宏傣族景颇族自治州芒市河东路138号",
        "tel": "",
        "category": "基础设施:公共设施:公共厕所",
        "type": 0,
        "location": {
            "lat": 24.443934,
            "lng": 98.600588
        },
        "ad_info": {
            "adcode": 533103,
            "province": "云南省",
            "city": "德宏傣族景颇族自治州",
            "district": "芒市"
        }
    },
    {
        "id": "3840990286857503581",
        "title": "公共厕所",
        "address": "云南省德宏傣族景颇族自治州芒市勇罕街与胞波路交叉口正南方向54米左右",
        "tel": "",
        "category": "基础设施:公共设施:公共厕所",
        "type": 0,
        "location": {
            "lat": 24.434512,
            "lng": 98.584598
        },
        "ad_info": {
            "adcode": 533103,
            "province": "云南省",
            "city": "德宏傣族景颇族自治州",
            "district": "芒市"
        }
    },
    {
        "id": "4561859627996883522",
        "title": "公共厕所",
        "address": "云南省德宏傣族景颇族自治州瑞丽市南卯街与友谊巷交叉口西北方向88米左右",
        "tel": "",
        "category": "基础设施:公共设施:公共厕所",
        "type": 0,
        "location": {
            "lat": 24.011914,
            "lng": 97.853099
        },
        "ad_info": {
            "adcode": 533102,
            "province": "云南省",
            "city": "德宏傣族景颇族自治州",
            "district": "瑞丽市"
        }
    },
    {
        "id": "4544302459100796709",
        "title": "公共厕所",
        "address": "云南省德宏傣族景颇族自治州瑞丽市勐卯镇瑞丽大道等母加油站",
        "tel": "",
        "category": "基础设施:公共设施:公共厕所",
        "type": 0,
        "location": {
            "lat": 24.004913,
            "lng": 97.881166
        },
        "ad_info": {
            "adcode": 533102,
            "province": "云南省",
            "city": "德宏傣族景颇族自治州",
            "district": "瑞丽市"
        }
    },
    {
        "id": "410275856268416712",
        "title": "公共厕所",
        "address": "云南省德宏傣族景颇族自治州梁河县农兴路与文兴巷交叉口西南方向52米左右",
        "tel": "",
        "category": "基础设施:公共设施:公共厕所",
        "type": 0,
        "location": {
            "lat": 24.802762,
            "lng": 98.291918
        },
        "ad_info": {
            "adcode": 533122,
            "province": "云南省",
            "city": "德宏傣族景颇族自治州",
            "district": "梁河县"
        }
    },
    {
        "id": "5677674941829058781",
        "title": "公共厕所",
        "address": "云南省德宏傣族景颇族自治州芒市翡翠路与金孔雀大街交叉口西南方向125米左右",
        "tel": "",
        "category": "基础设施:公共设施:公共厕所",
        "type": 0,
        "location": {
            "lat": 24.437802,
            "lng": 98.565192
        },
        "ad_info": {
            "adcode": 533103,
            "province": "云南省",
            "city": "德宏傣族景颇族自治州",
            "district": "芒市"
        }
    },
    {
        "id": "17862951741761823152",
        "title": "公共厕所",
        "address": "云南省德宏傣族景颇族自治州陇川县一中南路与一中西路交叉口正西方向237米左右",
        "tel": "",
        "category": "基础设施:公共设施:公共厕所",
        "type": 0,
        "location": {
            "lat": 24.182894,
            "lng": 97.786159
        },
        "ad_info": {
            "adcode": 533124,
            "province": "云南省",
            "city": "德宏傣族景颇族自治州",
            "district": "陇川县"
        }
    },
    {
        "id": "1421627045181010530",
        "title": "公共厕所",
        "address": "云南省德宏傣族景颇族自治州芒市南马路与团结大街交叉口正南方向44米左右",
        "tel": "",
        "category": "基础设施:公共设施:公共厕所",
        "type": 0,
        "location": {
            "lat": 24.442804,
            "lng": 98.587071
        },
        "ad_info": {
            "adcode": 533103,
            "province": "云南省",
            "city": "德宏傣族景颇族自治州",
            "district": "芒市"
        }
    },
    {
        "id": "3524238495538891826",
        "title": "公共厕所",
        "address": "云南省德宏傣族景颇族自治州瑞丽市古龙珠宝步行街与边贸街交叉口东南方向12米左右",
        "tel": "",
        "category": "基础设施:公共设施:公共厕所",
        "type": 0,
        "location": {
            "lat": 24.014435,
            "lng": 97.856698
        },
        "ad_info": {
            "adcode": 533102,
            "province": "云南省",
            "city": "德宏傣族景颇族自治州",
            "district": "瑞丽市"
        }
    },
    {
        "id": "2434434209647863185",
        "title": "公共厕所",
        "address": "云南省德宏傣族景颇族自治州瑞丽市瑞丽慈爱眼科医院西北侧180米",
        "tel": "",
        "category": "基础设施:公共设施:公共厕所",
        "type": 0,
        "location": {
            "lat": 24.001558,
            "lng": 97.843311
        },
        "ad_info": {
            "adcode": 533102,
            "province": "云南省",
            "city": "德宏傣族景颇族自治州",
            "district": "瑞丽市"
        }
    },
    {
        "id": "14893087136997506348",
        "title": "公共厕所",
        "address": "云南省德宏傣族景颇族自治州瑞丽市瑞江路与百花巷交叉口正南方向66米左右",
        "tel": "",
        "category": "基础设施:公共设施:公共厕所",
        "type": 0,
        "location": {
            "lat": 23.998147,
            "lng": 97.863239
        },
        "ad_info": {
            "adcode": 533102,
            "province": "云南省",
            "city": "德宏傣族景颇族自治州",
            "district": "瑞丽市"
        }
    },
    {
        "id": "770624159907326626",
        "title": "公共厕所",
        "address": "云南省德宏傣族景颇族自治州芒市芒市大街与遮安路交叉口正南方向110米左右",
        "tel": "",
        "category": "基础设施:公共设施:公共厕所",
        "type": 0,
        "location": {
            "lat": 24.44784,
            "lng": 98.58256
        },
        "ad_info": {
            "adcode": 533103,
            "province": "云南省",
            "city": "德宏傣族景颇族自治州",
            "district": "芒市"
        }
    },
    {
        "id": "6693896102617978239",
        "title": "公共厕所",
        "address": "云南省德宏傣族景颇族自治州芒市至营水路与营水路交叉口东南方向46米左右",
        "tel": "",
        "category": "基础设施:公共设施:公共厕所",
        "type": 0,
        "location": {
            "lat": 24.415933,
            "lng": 98.581393
        },
        "ad_info": {
            "adcode": 533103,
            "province": "云南省",
            "city": "德宏傣族景颇族自治州",
            "district": "芒市"
        }
    },
    {
        "id": "2122662094826537535",
        "title": "公共厕所",
        "address": "云南省德宏傣族景颇族自治州瑞丽市中国石油加油站",
        "tel": "",
        "category": "基础设施:公共设施:公共厕所",
        "type": 0,
        "location": {
            "lat": 23.995478,
            "lng": 97.863432
        },
        "ad_info": {
            "adcode": 533102,
            "province": "云南省",
            "city": "德宏傣族景颇族自治州",
            "district": "瑞丽市"
        }
    },
    {
        "id": "10439245986497055712",
        "title": "公共厕所",
        "address": "云南省德宏傣族景颇族自治州梁河县高速延长线与龙窝大道交叉口正北方向89米左右",
        "tel": "",
        "category": "基础设施:公共设施:公共厕所",
        "type": 0,
        "location": {
            "lat": 24.805434,
            "lng": 98.287887
        },
        "ad_info": {
            "adcode": 533122,
            "province": "云南省",
            "city": "德宏傣族景颇族自治州",
            "district": "梁河县"
        }
    },
    {
        "id": "814834746244475428",
        "title": "公共厕所",
        "address": "云南省德宏傣族景颇族自治州芒市团结大街与斑色路交叉口正南方向38米左右",
        "tel": "",
        "category": "基础设施:公共设施:公共厕所",
        "type": 0,
        "location": {
            "lat": 24.433501,
            "lng": 98.58226
        },
        "ad_info": {
            "adcode": 533103,
            "province": "云南省",
            "city": "德宏傣族景颇族自治州",
            "district": "芒市"
        }
    },
    {
        "id": "4839358708587010735",
        "title": "公共厕所(梁河县遮岛镇龙潭公园)",
        "address": "云南省德宏傣族景颇族自治州梁河县先锋北路38号",
        "tel": "",
        "category": "基础设施:公共设施:公共厕所",
        "type": 0,
        "location": {
            "lat": 24.810196,
            "lng": 98.30103
        },
        "ad_info": {
            "adcode": 533122,
            "province": "云南省",
            "city": "德宏傣族景颇族自治州",
            "district": "梁河县"
        }
    },
    {
        "id": "11402901166246255197",
        "title": "公共厕所",
        "address": "云南省德宏傣族景颇族自治州瑞丽市珠宝街与白井西巷交叉口西南方向37米左右",
        "tel": "",
        "category": "基础设施:公共设施:公共厕所",
        "type": 0,
        "location": {
            "lat": 24.013307,
            "lng": 97.854547
        },
        "ad_info": {
            "adcode": 533102,
            "province": "云南省",
            "city": "德宏傣族景颇族自治州",
            "district": "瑞丽市"
        }
    },
    {
        "id": "12266794879911338022",
        "title": "公共厕所",
        "address": "云南省德宏傣族景颇族自治州盈江县永盛路与雅苑路交叉口正东方向69米左右",
        "tel": "",
        "category": "基础设施:公共设施:公共厕所",
        "type": 0,
        "location": {
            "lat": 24.704198,
            "lng": 97.932718
        },
        "ad_info": {
            "adcode": 533123,
            "province": "云南省",
            "city": "德宏傣族景颇族自治州",
            "district": "盈江县"
        }
    },
    {
        "id": "17499392525323796212",
        "title": "公共厕所",
        "address": "云南省德宏傣族景颇族自治州芒市勇罕街与风情街交叉口正北方向89米左右",
        "tel": "",
        "category": "基础设施:公共设施:公共厕所",
        "type": 0,
        "location": {
            "lat": 24.426556,
            "lng": 98.584776
        },
        "ad_info": {
            "adcode": 533103,
            "province": "云南省",
            "city": "德宏傣族景颇族自治州",
            "district": "芒市"
        }
    },
    {
        "id": "15753493595483902302",
        "title": "公共厕所",
        "address": "云南省德宏傣族景颇族自治州芒市环城东路与科技路交叉口西南方向221米左右",
        "tel": "",
        "category": "基础设施:公共设施:公共厕所",
        "type": 0,
        "location": {
            "lat": 24.437512,
            "lng": 98.600822
        },
        "ad_info": {
            "adcode": 533103,
            "province": "云南省",
            "city": "德宏傣族景颇族自治州",
            "district": "芒市"
        }
    },
    {
        "id": "8780381395611541038",
        "title": "公共厕所(梁河县大礼堂)",
        "address": "云南省德宏傣族景颇族自治州梁河县勐底路9-4号",
        "tel": "",
        "category": "基础设施:公共设施:公共厕所",
        "type": 0,
        "location": {
            "lat": 24.805054,
            "lng": 98.298389
        },
        "ad_info": {
            "adcode": 533122,
            "province": "云南省",
            "city": "德宏傣族景颇族自治州",
            "district": "梁河县"
        }
    },
    {
        "id": "7070680952720692012",
        "title": "公共厕所",
        "address": "云南省德宏傣族景颇族自治州瑞丽市中国石化允门加油站",
        "tel": "",
        "category": "基础设施:公共设施:公共厕所",
        "type": 0,
        "location": {
            "lat": 24.035414,
            "lng": 97.910363
        },
        "ad_info": {
            "adcode": 533102,
            "province": "云南省",
            "city": "德宏傣族景颇族自治州",
            "district": "瑞丽市"
        }
    },
    {
        "id": "16359406146322064523",
        "title": "公共厕所",
        "address": "云南省德宏傣族景颇族自治州瑞丽市建设路36号",
        "tel": "",
        "category": "基础设施:公共设施:公共厕所",
        "type": 0,
        "location": {
            "lat": 24.077793,
            "lng": 98.063352
        },
        "ad_info": {
            "adcode": 533102,
            "province": "云南省",
            "city": "德宏傣族景颇族自治州",
            "district": "瑞丽市"
        }
    },
    {
        "id": "15026851645147323084",
        "title": "公共厕所",
        "address": "云南省德宏傣族景颇族自治州陇川县Y244与章景段交叉口正南方向132米左右",
        "tel": "",
        "category": "基础设施:公共设施:公共厕所",
        "type": 0,
        "location": {
            "lat": 24.216594,
            "lng": 97.846046
        },
        "ad_info": {
            "adcode": 533124,
            "province": "云南省",
            "city": "德宏傣族景颇族自治州",
            "district": "陇川县"
        }
    },
    {
        "id": "4772164454024994240",
        "title": "公共厕所",
        "address": "云南省德宏傣族景颇族自治州芒市团结大街330号",
        "tel": "",
        "category": "基础设施:公共设施:公共厕所",
        "type": 0,
        "location": {
            "lat": 24.421127,
            "lng": 98.5599
        },
        "ad_info": {
            "adcode": 533103,
            "province": "云南省",
            "city": "德宏傣族景颇族自治州",
            "district": "芒市"
        }
    },
    {
        "id": "13989634318248434156",
        "title": "公共厕所",
        "address": "云南省德宏傣族景颇族自治州陇川县X228与军民桥交叉口正西方向996米左右",
        "tel": "",
        "category": "基础设施:公共设施:公共厕所",
        "type": 0,
        "location": {
            "lat": 24.418158,
            "lng": 97.782256
        },
        "ad_info": {
            "adcode": 533124,
            "province": "云南省",
            "city": "德宏傣族景颇族自治州",
            "district": "陇川县"
        }
    },
    {
        "id": "13934635862040504404",
        "title": "公共厕所",
        "address": "云南省德宏傣族景颇族自治州瑞丽市人民路与国门大道交叉口东南方向146米左右",
        "tel": "",
        "category": "基础设施:公共设施:公共厕所",
        "type": 0,
        "location": {
            "lat": 23.98636,
            "lng": 97.867358
        },
        "ad_info": {
            "adcode": 533102,
            "province": "云南省",
            "city": "德宏傣族景颇族自治州",
            "district": "瑞丽市"
        }
    },
    {
        "id": "9891094866349988012",
        "title": "公共厕所",
        "address": "云南省德宏傣族景颇族自治州瑞丽市国防街与正阳路交叉口正北方向349米左右",
        "tel": "",
        "category": "基础设施:公共设施:公共厕所",
        "type": 0,
        "location": {
            "lat": 24.083235,
            "lng": 98.072666
        },
        "ad_info": {
            "adcode": 533102,
            "province": "云南省",
            "city": "德宏傣族景颇族自治州",
            "district": "瑞丽市"
        }
    },
    {
        "id": "18192695978527927598",
        "title": "公共厕所",
        "address": "云南省德宏傣族景颇族自治州陇川县陇川万通汽车城北侧160米",
        "tel": "",
        "category": "基础设施:公共设施:公共厕所",
        "type": 0,
        "location": {
            "lat": 24.159888,
            "lng": 97.795208
        },
        "ad_info": {
            "adcode": 533124,
            "province": "云南省",
            "city": "德宏傣族景颇族自治州",
            "district": "陇川县"
        }
    },
    {
        "id": "9676446764837005304",
        "title": "公共厕所",
        "address": "云南省德宏傣族景颇族自治州芒市新华路与胞波路交叉口西南方向89米左右",
        "tel": "",
        "category": "基础设施:公共设施:公共厕所",
        "type": 0,
        "location": {
            "lat": 24.43938,
            "lng": 98.567557
        },
        "ad_info": {
            "adcode": 533103,
            "province": "云南省",
            "city": "德宏傣族景颇族自治州",
            "district": "芒市"
        }
    },
    {
        "id": "11188723738185825729",
        "title": "公共厕所",
        "address": "云南省德宏傣族景颇族自治州芒市Y156与芒那公路交叉口正东方向106米左右",
        "tel": "",
        "category": "基础设施:公共设施:公共厕所",
        "type": 0,
        "location": {
            "lat": 24.441883,
            "lng": 98.438292
        },
        "ad_info": {
            "adcode": 533103,
            "province": "云南省",
            "city": "德宏傣族景颇族自治州",
            "district": "芒市"
        }
    },
    {
        "id": "4885801547049468768",
        "title": "公共厕所",
        "address": "云南省德宏傣族景颇族自治州瑞丽市户姐段与贺户段交叉口西南方向67米左右",
        "tel": "",
        "category": "基础设施:公共设施:公共厕所",
        "type": 0,
        "location": {
            "lat": 23.950298,
            "lng": 97.729592
        },
        "ad_info": {
            "adcode": 533102,
            "province": "云南省",
            "city": "德宏傣族景颇族自治州",
            "district": "瑞丽市"
        }
    },
    {
        "id": "4394397532861867763",
        "title": "公共厕所",
        "address": "云南省德宏傣族景颇族自治州瑞丽市沪瑞线",
        "tel": "",
        "category": "基础设施:公共设施:公共厕所",
        "type": 0,
        "location": {
            "lat": 24.041295,
            "lng": 97.926665
        },
        "ad_info": {
            "adcode": 533102,
            "province": "云南省",
            "city": "德宏傣族景颇族自治州",
            "district": "瑞丽市"
        }
    },
    {
        "id": "15265882914715947471",
        "title": "公共厕所",
        "address": "云南省德宏傣族景颇族自治州芒市广腊亮街与机场大道交叉口正南方向89米左右",
        "tel": "",
        "category": "基础设施:公共设施:公共厕所",
        "type": 0,
        "location": {
            "lat": 24.421345,
            "lng": 98.564229
        },
        "ad_info": {
            "adcode": 533103,
            "province": "云南省",
            "city": "德宏傣族景颇族自治州",
            "district": "芒市"
        }
    },
    {
        "id": "5100320382007477109",
        "title": "公共厕所",
        "address": "云南省德宏傣族景颇族自治州芒市勐焕路与服务路交叉口东南方向67米左右",
        "tel": "",
        "category": "基础设施:公共设施:公共厕所",
        "type": 0,
        "location": {
            "lat": 24.431819,
            "lng": 98.583085
        },
        "ad_info": {
            "adcode": 533103,
            "province": "云南省",
            "city": "德宏傣族景颇族自治州",
            "district": "芒市"
        }
    },
    {
        "id": "5960174298219310040",
        "title": "公共厕所",
        "address": "云南省德宏傣族景颇族自治州芒市仙池路与勇罕街交叉口西南方向24米左右",
        "tel": "",
        "category": "基础设施:公共设施:公共厕所",
        "type": 0,
        "location": {
            "lat": 24.423711,
            "lng": 98.584286
        },
        "ad_info": {
            "adcode": 533103,
            "province": "云南省",
            "city": "德宏傣族景颇族自治州",
            "district": "芒市"
        }
    },
    {
        "id": "15668440590445375161",
        "title": "公共厕所",
        "address": "云南省德宏傣族景颇族自治州瑞丽市弄沙路德龙国际珠宝城",
        "tel": "",
        "category": "基础设施:公共设施:公共厕所",
        "type": 0,
        "location": {
            "lat": 23.988876,
            "lng": 97.86771
        },
        "ad_info": {
            "adcode": 533102,
            "province": "云南省",
            "city": "德宏傣族景颇族自治州",
            "district": "瑞丽市"
        }
    },
    {
        "id": "8034326171210916232",
        "title": "公共厕所",
        "address": "云南省德宏傣族景颇族自治州梁河县勐底路与龙窝大道交叉口正北方向382米左右",
        "tel": "",
        "category": "基础设施:公共设施:公共厕所",
        "type": 0,
        "location": {
            "lat": 24.812957,
            "lng": 98.294782
        },
        "ad_info": {
            "adcode": 533122,
            "province": "云南省",
            "city": "德宏傣族景颇族自治州",
            "district": "梁河县"
        }
    },
    {
        "id": "11553664057844224745",
        "title": "公厕",
        "address": "云南省德宏傣族景颇族自治州瑞丽市国防街与正阳路交叉口东南方向108米左右",
        "tel": "",
        "category": "基础设施:公共设施:公共厕所",
        "type": 0,
        "location": {
            "lat": 24.07982,
            "lng": 98.07474
        },
        "ad_info": {
            "adcode": 533102,
            "province": "云南省",
            "city": "德宏傣族景颇族自治州",
            "district": "瑞丽市"
        }
    },
    {
        "id": "16565451883117583766",
        "title": "公共厕所",
        "address": "云南省德宏傣族景颇族自治州盈江县商业步行街与花园商业街交叉口正东方向104米左右",
        "tel": "",
        "category": "基础设施:公共设施:公共厕所",
        "type": 0,
        "location": {
            "lat": 24.706169,
            "lng": 97.936083
        },
        "ad_info": {
            "adcode": 533123,
            "province": "云南省",
            "city": "德宏傣族景颇族自治州",
            "district": "盈江县"
        }
    },
    {
        "id": "5183613930585767144",
        "title": "公共厕所",
        "address": "云南省德宏傣族景颇族自治州盈江县诗蜜娃底路与那邦巷交叉口西南方向14米左右",
        "tel": "",
        "category": "基础设施:公共设施:公共厕所",
        "type": 0,
        "location": {
            "lat": 24.710808,
            "lng": 97.935784
        },
        "ad_info": {
            "adcode": 533123,
            "province": "云南省",
            "city": "德宏傣族景颇族自治州",
            "district": "盈江县"
        }
    },
    {
        "id": "14348923048295889486",
        "title": "公共厕所",
        "address": "云南省德宏傣族景颇族自治州芒市人民路与斑色路交叉口正北方向149米左右",
        "tel": "",
        "category": "基础设施:公共设施:公共厕所",
        "type": 0,
        "location": {
            "lat": 24.431726,
            "lng": 98.600207
        },
        "ad_info": {
            "adcode": 533103,
            "province": "云南省",
            "city": "德宏傣族景颇族自治州",
            "district": "芒市"
        }
    },
    {
        "id": "3743839776385535827",
        "title": "公共厕所",
        "address": "云南省德宏傣族景颇族自治州芒市至营水路与营水路交叉口东北方向55米左右",
        "tel": "",
        "category": "基础设施:公共设施:公共厕所",
        "type": 0,
        "location": {
            "lat": 24.416751,
            "lng": 98.581397
        },
        "ad_info": {
            "adcode": 533103,
            "province": "云南省",
            "city": "德宏傣族景颇族自治州",
            "district": "芒市"
        }
    },
    {
        "id": "7553155405337138394",
        "title": "公共厕所",
        "address": "云南省德宏傣族景颇族自治州瑞丽市瑞丽大道与金滇路交叉口西南方向272米左右",
        "tel": "",
        "category": "基础设施:公共设施:公共厕所",
        "type": 0,
        "location": {
            "lat": 24.031945,
            "lng": 97.904697
        },
        "ad_info": {
            "adcode": 533102,
            "province": "云南省",
            "city": "德宏傣族景颇族自治州",
            "district": "瑞丽市"
        }
    },
    {
        "id": "12192979959936967255",
        "title": "公共厕所",
        "address": "云南省德宏傣族景颇族自治州芒市广腊亮街与阿露窝罗路交叉口东北方向171米左右",
        "tel": "",
        "category": "基础设施:公共设施:公共厕所",
        "type": 0,
        "location": {
            "lat": 24.441877,
            "lng": 98.575243
        },
        "ad_info": {
            "adcode": 533103,
            "province": "云南省",
            "city": "德宏傣族景颇族自治州",
            "district": "芒市"
        }
    },
    {
        "id": "5890811606364180674",
        "title": "公共厕所(YN-DH-0303)",
        "address": "云南省德宏傣族景颇族自治州盈江县赏建路与政通西路交叉口西北方向170米左右",
        "tel": "",
        "category": "基础设施:公共设施:公共厕所",
        "type": 0,
        "location": {
            "lat": 24.693815,
            "lng": 97.940359
        },
        "ad_info": {
            "adcode": 533123,
            "province": "云南省",
            "city": "德宏傣族景颇族自治州",
            "district": "盈江县"
        }
    },
    {
        "id": "7735842605292507376",
        "title": "公共厕所",
        "address": "云南省德宏傣族景颇族自治州盈江县阔时路83号",
        "tel": "",
        "category": "基础设施:公共设施:公共厕所",
        "type": 0,
        "location": {
            "lat": 24.70879,
            "lng": 97.937731
        },
        "ad_info": {
            "adcode": 533123,
            "province": "云南省",
            "city": "德宏傣族景颇族自治州",
            "district": "盈江县"
        }
    },
    {
        "id": "945841467148841524",
        "title": "公共厕所",
        "address": "云南省德宏傣族景颇族自治州芒市Y095与芒象线交叉口西北方向55米左右",
        "tel": "",
        "category": "基础设施:公共设施:公共厕所",
        "type": 0,
        "location": {
            "lat": 24.474578,
            "lng": 98.581961
        },
        "ad_info": {
            "adcode": 533103,
            "province": "云南省",
            "city": "德宏傣族景颇族自治州",
            "district": "芒市"
        }
    },
    {
        "id": "11535069257902544631",
        "title": "公共厕所",
        "address": "云南省德宏傣族景颇族自治州瑞丽市畹町名镇广场",
        "tel": "",
        "category": "基础设施:公共设施:公共厕所",
        "type": 0,
        "location": {
            "lat": 24.081268,
            "lng": 98.071518
        },
        "ad_info": {
            "adcode": 533102,
            "province": "云南省",
            "city": "德宏傣族景颇族自治州",
            "district": "瑞丽市"
        }
    },
    {
        "id": "4571936521893807175",
        "title": "公厕",
        "address": "云南省德宏傣族景颇族自治州瑞丽市国防街与正阳路交叉口正东方向130米左右",
        "tel": "",
        "category": "基础设施:公共设施:公共厕所",
        "type": 0,
        "location": {
            "lat": 24.08062,
            "lng": 98.075
        },
        "ad_info": {
            "adcode": 533102,
            "province": "云南省",
            "city": "德宏傣族景颇族自治州",
            "district": "瑞丽市"
        }
    },
    {
        "id": "16629477021086713608",
        "title": "公共厕所",
        "address": "云南省德宏傣族景颇族自治州瑞丽市国防街与民主街交叉口东南方向264米左右",
        "tel": "",
        "category": "基础设施:公共设施:公共厕所",
        "type": 0,
        "location": {
            "lat": 24.077417,
            "lng": 98.074434
        },
        "ad_info": {
            "adcode": 533102,
            "province": "云南省",
            "city": "德宏傣族景颇族自治州",
            "district": "瑞丽市"
        }
    },
    {
        "id": "14231698314267060188",
        "title": "公共厕所",
        "address": "云南省德宏傣族景颇族自治州瑞丽市G320与畹瑞大桥交叉口正南方向50米左右",
        "tel": "",
        "category": "基础设施:公共设施:公共厕所",
        "type": 0,
        "location": {
            "lat": 24.06669,
            "lng": 97.973965
        },
        "ad_info": {
            "adcode": 533102,
            "province": "云南省",
            "city": "德宏傣族景颇族自治州",
            "district": "瑞丽市"
        }
    },
    {
        "id": "7309484494726025404",
        "title": "公共厕所",
        "address": "云南省德宏傣族景颇族自治州芒市团结大街207号附13号",
        "tel": "",
        "category": "基础设施:公共设施:公共厕所",
        "type": 0,
        "location": {
            "lat": 24.421293,
            "lng": 98.563741
        },
        "ad_info": {
            "adcode": 533103,
            "province": "云南省",
            "city": "德宏傣族景颇族自治州",
            "district": "芒市"
        }
    },
    {
        "id": "2228088536405848374",
        "title": "公共厕所",
        "address": "云南省德宏傣族景颇族自治州芒市勇罕街与目瑙纵歌路交叉口西南方向28米左右",
        "tel": "",
        "category": "基础设施:公共设施:公共厕所",
        "type": 0,
        "location": {
            "lat": 24.428493,
            "lng": 98.584369
        },
        "ad_info": {
            "adcode": 533103,
            "province": "云南省",
            "city": "德宏傣族景颇族自治州",
            "district": "芒市"
        }
    },
    {
        "id": "4524186729650077201",
        "title": "公共厕所",
        "address": "云南省德宏傣族景颇族自治州梁河县Y203与南甸路交叉口东北方向229米左右",
        "tel": "",
        "category": "基础设施:公共设施:公共厕所",
        "type": 0,
        "location": {
            "lat": 24.819347,
            "lng": 98.315928
        },
        "ad_info": {
            "adcode": 533122,
            "province": "云南省",
            "city": "德宏傣族景颇族自治州",
            "district": "梁河县"
        }
    },
    {
        "id": "17394188341861672945",
        "title": "公共厕所",
        "address": "云南省德宏傣族景颇族自治州芒市团结小区三巷与建设巷交叉口正南方向75米左右",
        "tel": "",
        "category": "基础设施:公共设施:公共厕所",
        "type": 0,
        "location": {
            "lat": 24.439031,
            "lng": 98.579978
        },
        "ad_info": {
            "adcode": 533103,
            "province": "云南省",
            "city": "德宏傣族景颇族自治州",
            "district": "芒市"
        }
    },
    {
        "id": "14239279027740496805",
        "title": "公共厕所",
        "address": "云南省德宏傣族景颇族自治州芒市勐焕路与团结大街交叉口西北方向105米左右",
        "tel": "",
        "category": "基础设施:公共设施:公共厕所",
        "type": 0,
        "location": {
            "lat": 24.432912,
            "lng": 98.580819
        },
        "ad_info": {
            "adcode": 533103,
            "province": "云南省",
            "city": "德宏傣族景颇族自治州",
            "district": "芒市"
        }
    },
    {
        "id": "12396945980274745863",
        "title": "公共厕所",
        "address": "云南省德宏傣族景颇族自治州芒市G320与机场大道交叉口东北方向1207米左右",
        "tel": "",
        "category": "基础设施:公共设施:公共厕所",
        "type": 0,
        "location": {
            "lat": 24.401302,
            "lng": 98.530321
        },
        "ad_info": {
            "adcode": 533103,
            "province": "云南省",
            "city": "德宏傣族景颇族自治州",
            "district": "芒市"
        }
    },
    {
        "id": "17122965305057621474",
        "title": "公共厕所",
        "address": "云南省德宏傣族景颇族自治州芒市团结大街与德瑞路交叉口东北方向162米左右",
        "tel": "",
        "category": "基础设施:公共设施:公共厕所",
        "type": 0,
        "location": {
            "lat": 24.426129,
            "lng": 98.577983
        },
        "ad_info": {
            "adcode": 533103,
            "province": "云南省",
            "city": "德宏傣族景颇族自治州",
            "district": "芒市"
        }
    },
    {
        "id": "11784258149988424715",
        "title": "公共厕所",
        "address": "云南省德宏傣族景颇族自治州芒市团结小区三巷与建设路交叉口正西方向23米左右",
        "tel": "",
        "category": "基础设施:公共设施:公共厕所",
        "type": 0,
        "location": {
            "lat": 24.436992,
            "lng": 98.578768
        },
        "ad_info": {
            "adcode": 533103,
            "province": "云南省",
            "city": "德宏傣族景颇族自治州",
            "district": "芒市"
        }
    },
    {
        "id": "16430622553581354702",
        "title": "公共厕所",
        "address": "云南省德宏傣族景颇族自治州芒市团结大街与遮安路交叉口东南方向257米左右",
        "tel": "",
        "category": "基础设施:公共设施:公共厕所",
        "type": 0,
        "location": {
            "lat": 24.447952,
            "lng": 98.587876
        },
        "ad_info": {
            "adcode": 533103,
            "province": "云南省",
            "city": "德宏傣族景颇族自治州",
            "district": "芒市"
        }
    },
    {
        "id": "696042813105662758",
        "title": "公共厕所",
        "address": "云南省德宏傣族景颇族自治州芒市风平镇320国道风平顺达加油站",
        "tel": "",
        "category": "基础设施:公共设施:公共厕所",
        "type": 0,
        "location": {
            "lat": 24.398007,
            "lng": 98.522353
        },
        "ad_info": {
            "adcode": 533103,
            "province": "云南省",
            "city": "德宏傣族景颇族自治州",
            "district": "芒市"
        }
    },
    {
        "id": "12905683787686894348",
        "title": "公共厕所",
        "address": "云南省德宏傣族景颇族自治州芒市团结大街与罕相路交叉口正西方向26米左右",
        "tel": "",
        "category": "基础设施:公共设施:公共厕所",
        "type": 0,
        "location": {
            "lat": 24.437408,
            "lng": 98.583735
        },
        "ad_info": {
            "adcode": 533103,
            "province": "云南省",
            "city": "德宏傣族景颇族自治州",
            "district": "芒市"
        }
    },
    {
        "id": "17295471637155437073",
        "title": "公共厕所",
        "address": "云南省德宏傣族景颇族自治州芒市勐焕巷与芒市大街交叉口正南方向50米左右",
        "tel": "",
        "category": "基础设施:公共设施:公共厕所",
        "type": 0,
        "location": {
            "lat": 24.442846,
            "lng": 98.580549
        },
        "ad_info": {
            "adcode": 533103,
            "province": "云南省",
            "city": "德宏傣族景颇族自治州",
            "district": "芒市"
        }
    },
    {
        "id": "8580254143671028523",
        "title": "公共厕所",
        "address": "云南省德宏傣族景颇族自治州芒市Y112与金孔雀大街交叉口西北方向1686米左右",
        "tel": "",
        "category": "基础设施:公共设施:公共厕所",
        "type": 0,
        "location": {
            "lat": 24.451457,
            "lng": 98.55488
        },
        "ad_info": {
            "adcode": 533103,
            "province": "云南省",
            "city": "德宏傣族景颇族自治州",
            "district": "芒市"
        }
    },
    {
        "id": "1391103741917136513",
        "title": "公共厕所",
        "address": "云南省德宏傣族景颇族自治州芒市水月轩西南侧70米",
        "tel": "",
        "category": "基础设施:公共设施:公共厕所",
        "type": 0,
        "location": {
            "lat": 24.406595,
            "lng": 98.596222
        },
        "ad_info": {
            "adcode": 533103,
            "province": "云南省",
            "city": "德宏傣族景颇族自治州",
            "district": "芒市"
        }
    },
    {
        "id": "18287470341659727326",
        "title": "公共厕所",
        "address": "云南省德宏傣族景颇族自治州芒市勐焕路与芒那公路交叉口西北方向1110米左右",
        "tel": "",
        "category": "基础设施:公共设施:公共厕所",
        "type": 0,
        "location": {
            "lat": 24.440287,
            "lng": 98.555177
        },
        "ad_info": {
            "adcode": 533103,
            "province": "云南省",
            "city": "德宏傣族景颇族自治州",
            "district": "芒市"
        }
    },
    {
        "id": "15267372226557752875",
        "title": "公共厕所",
        "address": "云南省德宏傣族景颇族自治州芒市G320与机场大道交叉口东北方向1526米左右",
        "tel": "",
        "category": "基础设施:公共设施:公共厕所",
        "type": 0,
        "location": {
            "lat": 24.403056,
            "lng": 98.532883
        },
        "ad_info": {
            "adcode": 533103,
            "province": "云南省",
            "city": "德宏傣族景颇族自治州",
            "district": "芒市"
        }
    },
    {
        "id": "786014414194010219",
        "title": "公共厕所",
        "address": "云南省德宏傣族景颇族自治州芒市芒罕路与金塔大街交叉口东南方向463米左右",
        "tel": "",
        "category": "基础设施:公共设施:公共厕所",
        "type": 0,
        "location": {
            "lat": 24.427092,
            "lng": 98.595188
        },
        "ad_info": {
            "adcode": 533103,
            "province": "云南省",
            "city": "德宏傣族景颇族自治州",
            "district": "芒市"
        }
    },
    {
        "id": "11739488803684060133",
        "title": "公共厕所",
        "address": "云南省德宏傣族景颇族自治州芒市团结大街与遮喊路交叉口正北方向168米左右",
        "tel": "",
        "category": "基础设施:公共设施:公共厕所",
        "type": 0,
        "location": {
            "lat": 24.451988,
            "lng": 98.586151
        },
        "ad_info": {
            "adcode": 533103,
            "province": "云南省",
            "city": "德宏傣族景颇族自治州",
            "district": "芒市"
        }
    },
    {
        "id": "8525619828475288133",
        "title": "公共厕所",
        "address": "云南省德宏傣族景颇族自治州芒市芒市第六小学南侧200米",
        "tel": "",
        "category": "基础设施:公共设施:公共厕所",
        "type": 0,
        "location": {
            "lat": 24.410141,
            "lng": 98.572823
        },
        "ad_info": {
            "adcode": 533103,
            "province": "云南省",
            "city": "德宏傣族景颇族自治州",
            "district": "芒市"
        }
    },
    {
        "id": "2894923409757617221",
        "title": "公共厕所",
        "address": "云南省德宏傣族景颇族自治州盈江县乡镇综合文化站东北侧230米",
        "tel": "",
        "category": "基础设施:公共设施:公共厕所",
        "type": 0,
        "location": {
            "lat": 24.748133,
            "lng": 97.560113
        },
        "ad_info": {
            "adcode": 533123,
            "province": "云南省",
            "city": "德宏傣族景颇族自治州",
            "district": "盈江县"
        }
    },
    {
        "id": "7913407061809226279",
        "title": "公共厕所(梁河县九保乡囊滚河中石油加油站)",
        "address": "云南省德宏傣族景颇族自治州梁河县G556与龙窝大道交叉口东北方向163米左右",
        "tel": "",
        "category": "基础设施:公共设施:公共厕所",
        "type": 0,
        "location": {
            "lat": 24.81853,
            "lng": 98.306767
        },
        "ad_info": {
            "adcode": 533122,
            "province": "云南省",
            "city": "德宏傣族景颇族自治州",
            "district": "梁河县"
        }
    },
    {
        "id": "1643398221115572465",
        "title": "公共厕所",
        "address": "云南省德宏傣族景颇族自治州芒市芒赛新兴摩托车电动车修理店西南侧120米",
        "tel": "",
        "category": "基础设施:公共设施:公共厕所",
        "type": 0,
        "location": {
            "lat": 24.447476,
            "lng": 98.532014
        },
        "ad_info": {
            "adcode": 533103,
            "province": "云南省",
            "city": "德宏傣族景颇族自治州",
            "district": "芒市"
        }
    },
    {
        "id": "6902782842711952508",
        "title": "公共厕所",
        "address": "云南省德宏傣族景颇族自治州芒市Y110与羊小线交叉口东南方向170米",
        "tel": "",
        "category": "基础设施:公共设施:公共厕所",
        "type": 0,
        "location": {
            "lat": 24.22151,
            "lng": 98.592189
        },
        "ad_info": {
            "adcode": 533103,
            "province": "云南省",
            "city": "德宏傣族景颇族自治州",
            "district": "芒市"
        }
    },
    {
        "id": "6315681201636816315",
        "title": "公共厕所",
        "address": "云南省德宏傣族景颇族自治州瑞丽市瑞丽大道与瑞江路交叉口正西方向52米左右",
        "tel": "",
        "category": "基础设施:公共设施:公共厕所",
        "type": 0,
        "location": {
            "lat": 23.99008,
            "lng": 97.868873
        },
        "ad_info": {
            "adcode": 533102,
            "province": "云南省",
            "city": "德宏傣族景颇族自治州",
            "district": "瑞丽市"
        }
    },
    {
        "id": "14440902614595412756",
        "title": "公共厕所",
        "address": "云南省德宏傣族景颇族自治州瑞丽市翡翠路与边城街交叉口正东方向65米左右",
        "tel": "",
        "category": "基础设施:公共设施:公共厕所",
        "type": 0,
        "location": {
            "lat": 24.006899,
            "lng": 97.847057
        },
        "ad_info": {
            "adcode": 533102,
            "province": "云南省",
            "city": "德宏傣族景颇族自治州",
            "district": "瑞丽市"
        }
    },
    {
        "id": "13025504143652360768",
        "title": "公共厕所(梁河县小厂乡友义村)",
        "address": "云南省德宏傣族景颇族自治州梁河县大小厂线与象塘公路交叉口正东方向748米左右",
        "tel": "",
        "category": "基础设施:公共设施:公共厕所",
        "type": 0,
        "location": {
            "lat": 24.734427,
            "lng": 98.415176
        },
        "ad_info": {
            "adcode": 533122,
            "province": "云南省",
            "city": "德宏傣族景颇族自治州",
            "district": "梁河县"
        }
    },
    {
        "id": "10909670822658584706",
        "title": "公共厕所(梁河县芒东镇中石化)",
        "address": "云南省德宏傣族景颇族自治州梁河县芒东街与芒那公路交叉口正北方向101米左右",
        "tel": "",
        "category": "基础设施:公共设施:公共厕所",
        "type": 0,
        "location": {
            "lat": 24.660071,
            "lng": 98.228613
        },
        "ad_info": {
            "adcode": 533122,
            "province": "云南省",
            "city": "德宏傣族景颇族自治州",
            "district": "梁河县"
        }
    },
    {
        "id": "5914655175243631817",
        "title": "瑞丽江广场公共厕所",
        "address": "云南省德宏傣族景颇族自治州瑞丽市瑞丽江广场内",
        "tel": "",
        "category": "基础设施:公共设施:公共厕所",
        "type": 0,
        "location": {
            "lat": 23.988015,
            "lng": 97.877792
        },
        "ad_info": {
            "adcode": 533102,
            "province": "云南省",
            "city": "德宏傣族景颇族自治州",
            "district": "瑞丽市"
        }
    },
    {
        "id": "8847554422360170364",
        "title": "公共厕所",
        "address": "云南省德宏傣族景颇族自治州盈江县勐腊路48号",
        "tel": "",
        "category": "基础设施:公共设施:公共厕所",
        "type": 0,
        "location": {
            "lat": 24.715114,
            "lng": 97.930384
        },
        "ad_info": {
            "adcode": 533123,
            "province": "云南省",
            "city": "德宏傣族景颇族自治州",
            "district": "盈江县"
        }
    },
    {
        "id": "686521770240123200",
        "title": "公共厕所",
        "address": "云南省德宏傣族景颇族自治州瑞丽市南卯街与民族街交叉口东北方向82米左右",
        "tel": "",
        "category": "基础设施:公共设施:公共厕所",
        "type": 0,
        "location": {
            "lat": 24.010698,
            "lng": 97.851202
        },
        "ad_info": {
            "adcode": 533102,
            "province": "云南省",
            "city": "德宏傣族景颇族自治州",
            "district": "瑞丽市"
        }
    },
    {
        "id": "10347246439181318912",
        "title": "公共厕所",
        "address": "云南省德宏傣族景颇族自治州瑞丽市团结路与瑞柠路交叉口东北方向115米左右",
        "tel": "",
        "category": "基础设施:公共设施:公共厕所",
        "type": 0,
        "location": {
            "lat": 24.007192,
            "lng": 97.867909
        },
        "ad_info": {
            "adcode": 533102,
            "province": "云南省",
            "city": "德宏傣族景颇族自治州",
            "district": "瑞丽市"
        }
    },
    {
        "id": "12030047117049948336",
        "title": "公共厕所",
        "address": "云南省德宏傣族景颇族自治州盈江县允燕大道与盏达西路交叉口正西方向176米左右",
        "tel": "",
        "category": "基础设施:公共设施:公共厕所",
        "type": 0,
        "location": {
            "lat": 24.707879,
            "lng": 97.910646
        },
        "ad_info": {
            "adcode": 533123,
            "province": "云南省",
            "city": "德宏傣族景颇族自治州",
            "district": "盈江县"
        }
    },
    {
        "id": "8511057694267273634",
        "title": "公共厕所",
        "address": "云南省德宏傣族景颇族自治州芒市G320与双新线交叉口正南方向608米左右",
        "tel": "",
        "category": "基础设施:公共设施:公共厕所",
        "type": 0,
        "location": {
            "lat": 24.505533,
            "lng": 98.612861
        },
        "ad_info": {
            "adcode": 533103,
            "province": "云南省",
            "city": "德宏傣族景颇族自治州",
            "district": "芒市"
        }
    },
    {
        "id": "16696910036641930292",
        "title": "公共厕所",
        "address": "云南省德宏傣族景颇族自治州盈江县县农场中学公路",
        "tel": "",
        "category": "基础设施:公共设施:公共厕所",
        "type": 0,
        "location": {
            "lat": 24.713102,
            "lng": 97.947882
        },
        "ad_info": {
            "adcode": 533123,
            "province": "云南省",
            "city": "德宏傣族景颇族自治州",
            "district": "盈江县"
        }
    },
    {
        "id": "10771222618933485617",
        "title": "公共厕所",
        "address": "云南省德宏傣族景颇族自治州芒市人保路与德瑞路交叉口东南方向30米左右",
        "tel": "",
        "category": "基础设施:公共设施:公共厕所",
        "type": 0,
        "location": {
            "lat": 24.426827,
            "lng": 98.576711
        },
        "ad_info": {
            "adcode": 533103,
            "province": "云南省",
            "city": "德宏傣族景颇族自治州",
            "district": "芒市"
        }
    },
    {
        "id": "345182499447733696",
        "title": "公共厕所",
        "address": "云南省德宏傣族景颇族自治州瑞丽市姐岗路与瑞丽大道交叉口正北方向75米左右",
        "tel": "",
        "category": "基础设施:公共设施:公共厕所",
        "type": 0,
        "location": {
            "lat": 23.993681,
            "lng": 97.87275
        },
        "ad_info": {
            "adcode": 533102,
            "province": "云南省",
            "city": "德宏傣族景颇族自治州",
            "district": "瑞丽市"
        }
    },
    {
        "id": "8679238915822077141",
        "title": "公共厕所",
        "address": "云南省德宏傣族景颇族自治州盈江县S233(腾陇公路)",
        "tel": "",
        "category": "基础设施:公共设施:公共厕所",
        "type": 0,
        "location": {
            "lat": 24.697504,
            "lng": 98.025333
        },
        "ad_info": {
            "adcode": 533123,
            "province": "云南省",
            "city": "德宏傣族景颇族自治州",
            "district": "盈江县"
        }
    },
    {
        "id": "16061993698026390066",
        "title": "公共厕所",
        "address": "云南省德宏傣族景颇族自治州盈江县S318与小板桥交叉口正西方向46米左右",
        "tel": "",
        "category": "基础设施:公共设施:公共厕所",
        "type": 0,
        "location": {
            "lat": 24.662875,
            "lng": 97.855759
        },
        "ad_info": {
            "adcode": 533123,
            "province": "云南省",
            "city": "德宏傣族景颇族自治州",
            "district": "盈江县"
        }
    },
    {
        "id": "2418776193848325814",
        "title": "公共厕所",
        "address": "云南省德宏傣族景颇族自治州芒市勐焕路与建安路交叉口正南方向16米左右",
        "tel": "",
        "category": "基础设施:公共设施:公共厕所",
        "type": 0,
        "location": {
            "lat": 24.432294,
            "lng": 98.579242
        },
        "ad_info": {
            "adcode": 533103,
            "province": "云南省",
            "city": "德宏傣族景颇族自治州",
            "district": "芒市"
        }
    },
    {
        "id": "7106167313008203693",
        "title": "国门社区广场旅游公共厕所",
        "address": "云南省德宏傣族景颇族自治州瑞丽市开拓路与恒茂路交叉口正南方向38米左右",
        "tel": "",
        "category": "基础设施:公共设施:公共厕所",
        "type": 0,
        "location": {
            "lat": 23.98008,
            "lng": 97.89067
        },
        "ad_info": {
            "adcode": 533102,
            "province": "云南省",
            "city": "德宏傣族景颇族自治州",
            "district": "瑞丽市"
        }
    },
    {
        "id": "2914492546735154169",
        "title": "公共厕所",
        "address": "云南省德宏傣族景颇族自治州盈江县S233",
        "tel": "",
        "category": "基础设施:公共设施:公共厕所",
        "type": 0,
        "location": {
            "lat": 24.743226,
            "lng": 98.088914
        },
        "ad_info": {
            "adcode": 533123,
            "province": "云南省",
            "city": "德宏傣族景颇族自治州",
            "district": "盈江县"
        }
    },
    {
        "id": "9595841989384038408",
        "title": "姐告口岸-公共厕所",
        "address": "云南省德宏傣族景颇族自治州瑞丽市开拓路与贸海路交叉口西北方向36米左右",
        "tel": "",
        "category": "基础设施:公共设施:公共厕所",
        "type": 0,
        "location": {
            "lat": 23.975138,
            "lng": 97.887866
        },
        "ad_info": {
            "adcode": 533102,
            "province": "云南省",
            "city": "德宏傣族景颇族自治州",
            "district": "瑞丽市"
        }
    },
    {
        "id": "15086560607145454139",
        "title": "公共厕所",
        "address": "云南省德宏傣族景颇族自治州盈江县目瑙纵歌路76-1号",
        "tel": "",
        "category": "基础设施:公共设施:公共厕所",
        "type": 0,
        "location": {
            "lat": 24.710741,
            "lng": 97.92811
        },
        "ad_info": {
            "adcode": 533123,
            "province": "云南省",
            "city": "德宏傣族景颇族自治州",
            "district": "盈江县"
        }
    },
    {
        "id": "3006202776412119479",
        "title": "公共厕所",
        "address": "云南省德宏傣族景颇族自治州芒市团结小区三巷与建设巷交叉口正南方向49米左右",
        "tel": "",
        "category": "基础设施:公共设施:公共厕所",
        "type": 0,
        "location": {
            "lat": 24.439258,
            "lng": 98.580018
        },
        "ad_info": {
            "adcode": 533103,
            "province": "云南省",
            "city": "德宏傣族景颇族自治州",
            "district": "芒市"
        }
    },
    {
        "id": "14934343449449219936",
        "title": "公共厕所",
        "address": "云南省德宏傣族景颇族自治州梁河县先锋路与龙潭公园商业步行街交叉口正北方向78米左右",
        "tel": "",
        "category": "基础设施:公共设施:公共厕所",
        "type": 0,
        "location": {
            "lat": 24.809224,
            "lng": 98.300816
        },
        "ad_info": {
            "adcode": 533122,
            "province": "云南省",
            "city": "德宏傣族景颇族自治州",
            "district": "梁河县"
        }
    },
    {
        "id": "9960552291392722102",
        "title": "公共厕所",
        "address": "云南省德宏傣族景颇族自治州芒市芒市公租房东北侧130米",
        "tel": "",
        "category": "基础设施:公共设施:公共厕所",
        "type": 0,
        "location": {
            "lat": 24.408763,
            "lng": 98.580161
        },
        "ad_info": {
            "adcode": 533103,
            "province": "云南省",
            "city": "德宏傣族景颇族自治州",
            "district": "芒市"
        }
    },
    {
        "id": "9198390170526211606",
        "title": "卫生间",
        "address": "云南省德宏傣族景颇族自治州瑞丽市卯喊路与常青路交叉口东北方向233米左右",
        "tel": "",
        "category": "基础设施:公共设施:公共厕所",
        "type": 0,
        "location": {
            "lat": 24.013573,
            "lng": 97.867208
        },
        "ad_info": {
            "adcode": 533102,
            "province": "云南省",
            "city": "德宏傣族景颇族自治州",
            "district": "瑞丽市"
        }
    },
    {
        "id": "1097983086001877470",
        "title": "姐告口岸-公共厕所",
        "address": "云南省德宏傣族景颇族自治州瑞丽市环姐路与贸海路交叉口正东方向100米左右",
        "tel": "",
        "category": "基础设施:公共设施:公共厕所",
        "type": 0,
        "location": {
            "lat": 23.973907,
            "lng": 97.890846
        },
        "ad_info": {
            "adcode": 533102,
            "province": "云南省",
            "city": "德宏傣族景颇族自治州",
            "district": "瑞丽市"
        }
    },
    {
        "id": "12559768010911349590",
        "title": "旅游停车场公厕",
        "address": "云南省德宏傣族景颇族自治州瑞丽市国防街与民主街交叉口正北方向78米左右",
        "tel": "",
        "category": "基础设施:公共设施:公共厕所",
        "type": 0,
        "location": {
            "lat": 24.08011,
            "lng": 98.07284
        },
        "ad_info": {
            "adcode": 533102,
            "province": "云南省",
            "city": "德宏傣族景颇族自治州",
            "district": "瑞丽市"
        }
    },
    {
        "id": "3409791179865898871",
        "title": "芒市松树寨公共厕所",
        "address": "云南省德宏傣族景颇族自治州芒市环城东路与科技路交叉口西南方向265米左右",
        "tel": "",
        "category": "基础设施:公共设施:公共厕所",
        "type": 0,
        "location": {
            "lat": 24.437282,
            "lng": 98.60045
        },
        "ad_info": {
            "adcode": 533103,
            "province": "云南省",
            "city": "德宏傣族景颇族自治州",
            "district": "芒市"
        }
    },
    {
        "id": "5960929595592182856",
        "title": "芒市造纸厂环岛公共厕所",
        "address": "云南省德宏傣族景颇族自治州芒市团结大街与环城东路交叉口西北方向71米左右",
        "tel": "",
        "category": "基础设施:公共设施:公共厕所",
        "type": 0,
        "location": {
            "lat": 24.455768,
            "lng": 98.586749
        },
        "ad_info": {
            "adcode": 533103,
            "province": "云南省",
            "city": "德宏傣族景颇族自治州",
            "district": "芒市"
        }
    },
    {
        "id": "774508078247671784",
        "title": "旅游公共厕所",
        "address": "云南省德宏傣族景颇族自治州芒市仙池路与环城东路交叉口正西方向481米左右",
        "tel": "",
        "category": "基础设施:公共设施:公共厕所",
        "type": 0,
        "location": {
            "lat": 24.42348,
            "lng": 98.59558
        },
        "ad_info": {
            "adcode": 533103,
            "province": "云南省",
            "city": "德宏傣族景颇族自治州",
            "district": "芒市"
        }
    },
    {
        "id": "5632821051855127105",
        "title": "公共厕所1",
        "address": "云南省德宏傣族景颇族自治州盈江县036县道南50米下瓦邦村中国犀鸟谷景区内",
        "tel": "",
        "category": "基础设施:公共设施:公共厕所",
        "type": 0,
        "location": {
            "lat": 24.4666,
            "lng": 97.57123
        },
        "ad_info": {
            "adcode": 533123,
            "province": "云南省",
            "city": "德宏傣族景颇族自治州",
            "district": "盈江县"
        }
    },
    {
        "id": "12517638790437001442",
        "title": "拉相服务区公共厕所",
        "address": "云南省德宏傣族景颇族自治州芒市G56杭瑞高速与拉相服务区交叉口东南220米",
        "tel": "",
        "category": "基础设施:公共设施:公共厕所",
        "type": 0,
        "location": {
            "lat": 24.197238,
            "lng": 98.178997
        },
        "ad_info": {
            "adcode": 533103,
            "province": "云南省",
            "city": "德宏傣族景颇族自治州",
            "district": "芒市"
        }
    },
    {
        "id": "2389873730407137763",
        "title": "芒市服务区公共厕所",
        "address": "云南省德宏傣族景颇族自治州芒市芒市服务区与G56杭瑞高速交叉口西160米",
        "tel": "",
        "category": "基础设施:公共设施:公共厕所",
        "type": 0,
        "location": {
            "lat": 24.464712,
            "lng": 98.550193
        },
        "ad_info": {
            "adcode": 533103,
            "province": "云南省",
            "city": "德宏傣族景颇族自治州",
            "district": "芒市"
        }
    },
    {
        "id": "11573872889373044940",
        "title": "公共厕所2",
        "address": "云南省德宏傣族景颇族自治州盈江县馨云客栈南侧50米",
        "tel": "",
        "category": "基础设施:公共设施:公共厕所",
        "type": 0,
        "location": {
            "lat": 24.48573,
            "lng": 97.70648
        },
        "ad_info": {
            "adcode": 533123,
            "province": "云南省",
            "city": "德宏傣族景颇族自治州",
            "district": "盈江县"
        }
    },
    {
        "id": "1217704760588474081",
        "title": "拉相服务区公共厕所",
        "address": "云南省德宏傣族景颇族自治州芒市S320与芒瓦大桥交叉口西南方向1249米左右",
        "tel": "",
        "category": "基础设施:公共设施:公共厕所",
        "type": 0,
        "location": {
            "lat": 24.201411,
            "lng": 98.178036
        },
        "ad_info": {
            "adcode": 533103,
            "province": "云南省",
            "city": "德宏傣族景颇族自治州",
            "district": "芒市"
        }
    },
    {
        "id": "10429767109904141104",
        "title": "拉相服务区第二公共厕所",
        "address": "云南省德宏傣族景颇族自治州芒市G56杭瑞高速与拉相服务区交叉口北200米",
        "tel": "",
        "category": "基础设施:公共设施:公共厕所",
        "type": 0,
        "location": {
            "lat": 24.200131,
            "lng": 98.17782
        },
        "ad_info": {
            "adcode": 533103,
            "province": "云南省",
            "city": "德宏傣族景颇族自治州",
            "district": "芒市"
        }
    },
    {
        "id": "3073456432991935652",
        "title": "公共厕所",
        "address": "云南省德宏傣族景颇族自治州芒市南蚌路与南锦路交叉口正东方向138米左右",
        "tel": "",
        "category": "基础设施:公共设施:公共厕所",
        "type": 0,
        "location": {
            "lat": 24.413362,
            "lng": 98.572675
        },
        "ad_info": {
            "adcode": 533103,
            "province": "云南省",
            "city": "德宏傣族景颇族自治州",
            "district": "芒市"
        }
    },
    {
        "id": "8744675367384710022",
        "title": "公共厕所(梁河县曩宋乡腾瑞加油站)",
        "address": "云南省德宏傣族景颇族自治州梁河县易捷便利店(腾瑞加油站)东侧",
        "tel": "",
        "category": "基础设施:公共设施:公共厕所",
        "type": 0,
        "location": {
            "lat": 24.885654,
            "lng": 98.376091
        },
        "ad_info": {
            "adcode": 533122,
            "province": "云南省",
            "city": "德宏傣族景颇族自治州",
            "district": "梁河县"
        }
    },
    {
        "id": "17926160883576722110",
        "title": "城市公共厕所",
        "address": "云南省德宏傣族景颇族自治州盈江县人和巷与棒桑响路交叉口西南方向269米左右",
        "tel": "",
        "category": "基础设施:公共设施:公共厕所",
        "type": 0,
        "location": {
            "lat": 24.699552,
            "lng": 97.939184
        },
        "ad_info": {
            "adcode": 533123,
            "province": "云南省",
            "city": "德宏傣族景颇族自治州",
            "district": "盈江县"
        }
    },
    {
        "id": "14858646776906074228",
        "title": "公共厕所",
        "address": "云南省德宏傣族景颇族自治州芒市南蚌路与营水路交叉口东南方向86米左右",
        "tel": "",
        "category": "基础设施:公共设施:公共厕所",
        "type": 0,
        "location": {
            "lat": 24.421112,
            "lng": 98.579304
        },
        "ad_info": {
            "adcode": 533103,
            "province": "云南省",
            "city": "德宏傣族景颇族自治州",
            "district": "芒市"
        }
    },
    {
        "id": "7626236358258235945",
        "title": "公共厕所",
        "address": "云南省德宏傣族景颇族自治州芒市G320与机场大道交叉口东北方向1184米左右",
        "tel": "",
        "category": "基础设施:公共设施:公共厕所",
        "type": 0,
        "location": {
            "lat": 24.404503,
            "lng": 98.527549
        },
        "ad_info": {
            "adcode": 533103,
            "province": "云南省",
            "city": "德宏傣族景颇族自治州",
            "district": "芒市"
        }
    },
    {
        "id": "14429451478817616847",
        "title": "公共厕所",
        "address": "云南省德宏傣族景颇族自治州盈江县勐腊路与永盛路交叉口正东方向46米左右",
        "tel": "",
        "category": "基础设施:公共设施:公共厕所",
        "type": 0,
        "location": {
            "lat": 24.692127,
            "lng": 97.95756
        },
        "ad_info": {
            "adcode": 533123,
            "province": "云南省",
            "city": "德宏傣族景颇族自治州",
            "district": "盈江县"
        }
    },
    {
        "id": "5157125775210574037",
        "title": "公共厕所",
        "address": "云南省德宏傣族景颇族自治州芒市环城东路64号",
        "tel": "",
        "category": "基础设施:公共设施:公共厕所",
        "type": 0,
        "location": {
            "lat": 24.436012,
            "lng": 98.606782
        },
        "ad_info": {
            "adcode": 533103,
            "province": "云南省",
            "city": "德宏傣族景颇族自治州",
            "district": "芒市"
        }
    },
    {
        "id": "8214094014833113863",
        "title": "公共厕所",
        "address": "云南省德宏傣族景颇族自治州芒市S320与龙江大桥交叉口正东方向1182米左右",
        "tel": "",
        "category": "基础设施:公共设施:公共厕所",
        "type": 0,
        "location": {
            "lat": 24.233384,
            "lng": 98.143774
        },
        "ad_info": {
            "adcode": 533103,
            "province": "云南省",
            "city": "德宏傣族景颇族自治州",
            "district": "芒市"
        }
    },
    {
        "id": "5773019415799433902",
        "title": "洗手间(梁河县曩宋乡关璋示范村)",
        "address": "云南省德宏傣族景颇族自治州梁河县关璋村电子商务服务站西南侧",
        "tel": "",
        "category": "基础设施:公共设施:公共厕所",
        "type": 0,
        "location": {
            "lat": 24.886361,
            "lng": 98.398148
        },
        "ad_info": {
            "adcode": 533122,
            "province": "云南省",
            "city": "德宏傣族景颇族自治州",
            "district": "梁河县"
        }
    },
    {
        "id": "9170852785480709601",
        "title": "公共厕所",
        "address": "云南省德宏傣族景颇族自治州瑞丽市正阳路11号",
        "tel": "",
        "category": "基础设施:公共设施:公共厕所",
        "type": 0,
        "location": {
            "lat": 24.081307,
            "lng": 98.073173
        },
        "ad_info": {
            "adcode": 533102,
            "province": "云南省",
            "city": "德宏傣族景颇族自治州",
            "district": "瑞丽市"
        }
    },
    {
        "id": "7407770368199918856",
        "title": "公共厕所(梁河县河西乡下芒陇村)",
        "address": "云南省德宏傣族景颇族自治州梁河县XN33与龙兴路交叉口东北方向192米左右",
        "tel": "",
        "category": "基础设施:公共设施:公共厕所",
        "type": 0,
        "location": {
            "lat": 24.823385,
            "lng": 98.295641
        },
        "ad_info": {
            "adcode": 533122,
            "province": "云南省",
            "city": "德宏傣族景颇族自治州",
            "district": "梁河县"
        }
    },
    {
        "id": "17080119241609798880",
        "title": "公共厕所(梁河县翁冷公路管理所)",
        "address": "云南省德宏傣族景颇族自治州梁河县X222与梁陇线交叉口正东方向54米左右",
        "tel": "",
        "category": "基础设施:公共设施:公共厕所",
        "type": 0,
        "location": {
            "lat": 24.592851,
            "lng": 98.147138
        },
        "ad_info": {
            "adcode": 533122,
            "province": "云南省",
            "city": "德宏傣族景颇族自治州",
            "district": "梁河县"
        }
    },
    {
        "id": "6795133597522087589",
        "title": "瑞丽停车区公共厕所",
        "address": "云南省德宏傣族景颇族自治州瑞丽市G56杭瑞高速与瑞丽停车区交叉口西120米",
        "tel": "",
        "category": "基础设施:公共设施:公共厕所",
        "type": 0,
        "location": {
            "lat": 24.05382,
            "lng": 97.948676
        },
        "ad_info": {
            "adcode": 533102,
            "province": "云南省",
            "city": "德宏傣族景颇族自治州",
            "district": "瑞丽市"
        }
    },
    {
        "id": "2717065562137939224",
        "title": "公共厕所(梁河县大厂村停车区)",
        "address": "云南省德宏傣族景颇族自治州梁河县大厂街与大小厂线交叉口东南方向81米左右",
        "tel": "",
        "category": "基础设施:公共设施:公共厕所",
        "type": 0,
        "location": {
            "lat": 24.762973,
            "lng": 98.375815
        },
        "ad_info": {
            "adcode": 533122,
            "province": "云南省",
            "city": "德宏傣族景颇族自治州",
            "district": "梁河县"
        }
    },
    {
        "id": "10706690813383498712",
        "title": "公共厕所(梁河县棚户区改造西侧)",
        "address": "云南省德宏傣族景颇族自治州梁河县勐底路与龙窝大道交叉口正东方向264米左右",
        "tel": "",
        "category": "基础设施:公共设施:公共厕所",
        "type": 0,
        "location": {
            "lat": 24.810575,
            "lng": 98.295884
        },
        "ad_info": {
            "adcode": 533122,
            "province": "云南省",
            "city": "德宏傣族景颇族自治州",
            "district": "梁河县"
        }
    },
    {
        "id": "14155834351385173714",
        "title": "公共厕所(梁河翁冷公路服务区)",
        "address": "云南省德宏傣族景颇族自治州梁河县中国石化翁冷加油站东南侧150米",
        "tel": "",
        "category": "基础设施:公共设施:公共厕所",
        "type": 0,
        "location": {
            "lat": 24.592114,
            "lng": 98.1482
        },
        "ad_info": {
            "adcode": 533122,
            "province": "云南省",
            "city": "德宏傣族景颇族自治州",
            "district": "梁河县"
        }
    },
    {
        "id": "589512817295601207",
        "title": "公共厕所(梁河县勐养镇底养竹林)",
        "address": "云南省德宏傣族景颇族自治州梁河县XN74与勐养户养公路交叉口东南方向886米左右",
        "tel": "",
        "category": "基础设施:公共设施:公共厕所",
        "type": 0,
        "location": {
            "lat": 24.584322,
            "lng": 98.300418
        },
        "ad_info": {
            "adcode": 533122,
            "province": "云南省",
            "city": "德宏傣族景颇族自治州",
            "district": "梁河县"
        }
    },
    {
        "id": "1779140477085566798",
        "title": "公共厕所",
        "address": "云南省德宏傣族景颇族自治州陇川县利民路与新城路交叉口正西方向38米左右",
        "tel": "",
        "category": "基础设施:公共设施:公共厕所",
        "type": 0,
        "location": {
            "lat": 24.179741,
            "lng": 97.795227
        },
        "ad_info": {
            "adcode": 533124,
            "province": "云南省",
            "city": "德宏傣族景颇族自治州",
            "district": "陇川县"
        }
    },
    {
        "id": "7267199889940859365",
        "title": "公共厕所",
        "address": "云南省德宏傣族景颇族自治州芒市风平镇界桃村民小组",
        "tel": "",
        "category": "基础设施:公共设施:公共厕所",
        "type": 0,
        "location": {
            "lat": 24.352499,
            "lng": 98.474959
        },
        "ad_info": {
            "adcode": 533103,
            "province": "云南省",
            "city": "德宏傣族景颇族自治州",
            "district": "芒市"
        }
    },
    {
        "id": "6010101257010965004",
        "title": "公共厕所",
        "address": "云南省德宏傣族景颇族自治州陇川县滇缅国际雨林自驾营地内",
        "tel": "",
        "category": "基础设施:公共设施:公共厕所",
        "type": 0,
        "location": {
            "lat": 24.388457,
            "lng": 97.749844
        },
        "ad_info": {
            "adcode": 533124,
            "province": "云南省",
            "city": "德宏傣族景颇族自治州",
            "district": "陇川县"
        }
    },
    {
        "id": "15983671596987026290",
        "title": "公共厕所",
        "address": "云南省德宏傣族景颇族自治州瑞丽市乐城街与卯喊路交叉口正西方向46米左右",
        "tel": "",
        "category": "基础设施:公共设施:公共厕所",
        "type": 0,
        "location": {
            "lat": 24.009085,
            "lng": 97.859704
        },
        "ad_info": {
            "adcode": 533102,
            "province": "云南省",
            "city": "德宏傣族景颇族自治州",
            "district": "瑞丽市"
        }
    },
    {
        "id": "11870089067567837693",
        "title": "户撒服务区公共厕所",
        "address": "云南省德宏傣族景颇族自治州陇川县户撒服务区东北30米",
        "tel": "",
        "category": "基础设施:公共设施:公共厕所",
        "type": 0,
        "location": {
            "lat": 24.510389,
            "lng": 97.93772
        },
        "ad_info": {
            "adcode": 533124,
            "province": "云南省",
            "city": "德宏傣族景颇族自治州",
            "district": "陇川县"
        }
    },
    {
        "id": "17530069560348071102",
        "title": "公共厕所",
        "address": "云南省德宏傣族景颇族自治州瑞丽市警院小区东北侧100米",
        "tel": "",
        "category": "基础设施:公共设施:公共厕所",
        "type": 0,
        "location": {
            "lat": 24.030314,
            "lng": 97.846093
        },
        "ad_info": {
            "adcode": 533102,
            "province": "云南省",
            "city": "德宏傣族景颇族自治州",
            "district": "瑞丽市"
        }
    },
    {
        "id": "10521057001166611563",
        "title": "姐告口岸-公共厕所",
        "address": "云南省德宏傣族景颇族自治州瑞丽市奘罕路与达光路交叉口西南方向62米左右",
        "tel": "",
        "category": "基础设施:公共设施:公共厕所",
        "type": 0,
        "location": {
            "lat": 23.978881,
            "lng": 97.887239
        },
        "ad_info": {
            "adcode": 533102,
            "province": "云南省",
            "city": "德宏傣族景颇族自治州",
            "district": "瑞丽市"
        }
    },
    {
        "id": "836041279886652600",
        "title": "梁河服务区公共厕所",
        "address": "云南省德宏傣族景颇族自治州梁河县梁河服务区东南30米",
        "tel": "",
        "category": "基础设施:公共设施:公共厕所",
        "type": 0,
        "location": {
            "lat": 24.861201,
            "lng": 98.319378
        },
        "ad_info": {
            "adcode": 533122,
            "province": "云南省",
            "city": "德宏傣族景颇族自治州",
            "district": "梁河县"
        }
    },
    {
        "id": "4908487949849742687",
        "title": "公共厕所(九保乡勐宋村孔明庙)",
        "address": "云南省德宏傣族景颇族自治州梁河县沙勐线",
        "tel": "",
        "category": "基础设施:公共设施:公共厕所",
        "type": 0,
        "location": {
            "lat": 24.860541,
            "lng": 98.225487
        },
        "ad_info": {
            "adcode": 533122,
            "province": "云南省",
            "city": "德宏傣族景颇族自治州",
            "district": "梁河县"
        }
    },
    {
        "id": "14891213083039356817",
        "title": "公共厕所(梁河县囊宋乡平山脚)",
        "address": "云南省德宏傣族景颇族自治州梁河县G556与沙河桥交叉口东南方向383米左右",
        "tel": "",
        "category": "基础设施:公共设施:公共厕所",
        "type": 0,
        "location": {
            "lat": 24.856066,
            "lng": 98.353476
        },
        "ad_info": {
            "adcode": 533122,
            "province": "云南省",
            "city": "德宏傣族景颇族自治州",
            "district": "梁河县"
        }
    },
    {
        "id": "10260727416772245227",
        "title": "公共厕所",
        "address": "云南省德宏傣族景颇族自治州瑞丽市G320与瑞丽大道交叉口东北方向246米左右",
        "tel": "",
        "category": "基础设施:公共设施:公共厕所",
        "type": 0,
        "location": {
            "lat": 24.035602,
            "lng": 97.909085
        },
        "ad_info": {
            "adcode": 533102,
            "province": "云南省",
            "city": "德宏傣族景颇族自治州",
            "district": "瑞丽市"
        }
    },
    {
        "id": "1803582176670944411",
        "title": "公共厕所",
        "address": "云南省德宏傣族景颇族自治州芒市南蚌路与风情街交叉口正东方向138米左右",
        "tel": "",
        "category": "基础设施:公共设施:公共厕所",
        "type": 0,
        "location": {
            "lat": 24.426196,
            "lng": 98.582013
        },
        "ad_info": {
            "adcode": 533103,
            "province": "云南省",
            "city": "德宏傣族景颇族自治州",
            "district": "芒市"
        }
    },
    {
        "id": "8047717854784119464",
        "title": "公共厕所",
        "address": "云南省德宏傣族景颇族自治州瑞丽市瑞京路与边贸街交叉口东北方向113米左右",
        "tel": "",
        "category": "基础设施:公共设施:公共厕所",
        "type": 0,
        "location": {
            "lat": 24.015127,
            "lng": 97.858364
        },
        "ad_info": {
            "adcode": 533102,
            "province": "云南省",
            "city": "德宏傣族景颇族自治州",
            "district": "瑞丽市"
        }
    },
    {
        "id": "1795795757365221607",
        "title": "公共厕所",
        "address": "云南省德宏傣族景颇族自治州瑞丽市中缅街A1-55号",
        "tel": "",
        "category": "基础设施:公共设施:公共厕所",
        "type": 0,
        "location": {
            "lat": 23.979951,
            "lng": 97.894191
        },
        "ad_info": {
            "adcode": 533102,
            "province": "云南省",
            "city": "德宏傣族景颇族自治州",
            "district": "瑞丽市"
        }
    },
    {
        "id": "12776647522025873182",
        "title": "公共厕所(梁河县南甸加油站)",
        "address": "云南省德宏傣族景颇族自治州梁河县中国石油加油站(邦线民族文化活动中心北)东南侧100米",
        "tel": "",
        "category": "基础设施:公共设施:公共厕所",
        "type": 0,
        "location": {
            "lat": 24.804779,
            "lng": 98.288795
        },
        "ad_info": {
            "adcode": 533122,
            "province": "云南省",
            "city": "德宏傣族景颇族自治州",
            "district": "梁河县"
        }
    },
    {
        "id": "4173171196178560360",
        "title": "公共厕所",
        "address": "云南省德宏傣族景颇族自治州芒市至营水路与营水路交叉口东南方向282米左右",
        "tel": "",
        "category": "基础设施:公共设施:公共厕所",
        "type": 0,
        "location": {
            "lat": 24.414,
            "lng": 98.582367
        },
        "ad_info": {
            "adcode": 533103,
            "province": "云南省",
            "city": "德宏傣族景颇族自治州",
            "district": "芒市"
        }
    },
    {
        "id": "2256669805608918869",
        "title": "拉相服务区公共厕所",
        "address": "云南省德宏傣族景颇族自治州芒市杭瑞高速拉相服务区",
        "tel": "",
        "category": "基础设施:公共设施:公共厕所",
        "type": 0,
        "location": {
            "lat": 24.201431,
            "lng": 98.177779
        },
        "ad_info": {
            "adcode": 533103,
            "province": "云南省",
            "city": "德宏傣族景颇族自治州",
            "district": "芒市"
        }
    },
    {
        "id": "7090563703495355840",
        "title": "梁河服务区公共厕所",
        "address": "云南省德宏傣族景颇族自治州梁河县Y171与河西线交叉口东南方向563米左右",
        "tel": "",
        "category": "基础设施:公共设施:公共厕所",
        "type": 0,
        "location": {
            "lat": 24.863283,
            "lng": 98.317875
        },
        "ad_info": {
            "adcode": 533122,
            "province": "云南省",
            "city": "德宏傣族景颇族自治州",
            "district": "梁河县"
        }
    },
    {
        "id": "6623431975729539629",
        "title": "公共厕所",
        "address": "云南省德宏傣族景颇族自治州瑞丽市卯喊路与姐岗路交叉口西北方向90米左右",
        "tel": "",
        "category": "基础设施:公共设施:公共厕所",
        "type": 0,
        "location": {
            "lat": 24.010318,
            "lng": 97.861566
        },
        "ad_info": {
            "adcode": 533102,
            "province": "云南省",
            "city": "德宏傣族景颇族自治州",
            "district": "瑞丽市"
        }
    },
    {
        "id": "4244148130370302193",
        "title": "公共厕所(梁河县平山乡罗家宗祠)",
        "address": "云南省德宏傣族景颇族自治州梁河县Y180与平清线交叉口正东方向68米左右",
        "tel": "",
        "category": "基础设施:公共设施:公共厕所",
        "type": 0,
        "location": {
            "lat": 24.886897,
            "lng": 98.503412
        },
        "ad_info": {
            "adcode": 533122,
            "province": "云南省",
            "city": "德宏傣族景颇族自治州",
            "district": "梁河县"
        }
    },
    {
        "id": "12302950746507971065",
        "title": "公共厕所",
        "address": "云南省德宏傣族景颇族自治州瑞丽市交通巷与建设路交叉口正北方向569米左右",
        "tel": "",
        "category": "基础设施:公共设施:公共厕所",
        "type": 0,
        "location": {
            "lat": 24.085274,
            "lng": 98.069672
        },
        "ad_info": {
            "adcode": 533102,
            "province": "云南省",
            "city": "德宏傣族景颇族自治州",
            "district": "瑞丽市"
        }
    },
    {
        "id": "1809465278016648569",
        "title": "公共厕所",
        "address": "云南省德宏傣族景颇族自治州芒市勇罕街与勐焕路交叉口东南方向62米左右",
        "tel": "",
        "category": "基础设施:公共设施:公共厕所",
        "type": 0,
        "location": {
            "lat": 24.431889,
            "lng": 98.585154
        },
        "ad_info": {
            "adcode": 533103,
            "province": "云南省",
            "city": "德宏傣族景颇族自治州",
            "district": "芒市"
        }
    },
    {
        "id": "2803585413736876590",
        "title": "公共厕所(梁河县九保乡九保村)",
        "address": "云南省德宏傣族景颇族自治州梁河县G556与河西线交叉口东南方向178米左右",
        "tel": "",
        "category": "基础设施:公共设施:公共厕所",
        "type": 0,
        "location": {
            "lat": 24.818761,
            "lng": 98.311088
        },
        "ad_info": {
            "adcode": 533122,
            "province": "云南省",
            "city": "德宏傣族景颇族自治州",
            "district": "梁河县"
        }
    },
    {
        "id": "18146257357163955341",
        "title": "公共厕所(梁河县大厂乡回龙寨)",
        "address": "云南省德宏傣族景颇族自治州梁河县大厂街与大小厂线交叉口西北方向1541米左右",
        "tel": "",
        "category": "基础设施:公共设施:公共厕所",
        "type": 0,
        "location": {
            "lat": 24.775322,
            "lng": 98.367217
        },
        "ad_info": {
            "adcode": 533122,
            "province": "云南省",
            "city": "德宏傣族景颇族自治州",
            "district": "梁河县"
        }
    },
    {
        "id": "4330690880946437328",
        "title": "公共厕所",
        "address": "云南省德宏傣族景颇族自治州芒市团结大街162号-附9号",
        "tel": "",
        "category": "基础设施:公共设施:公共厕所",
        "type": 0,
        "location": {
            "lat": 24.426471,
            "lng": 98.579797
        },
        "ad_info": {
            "adcode": 533103,
            "province": "云南省",
            "city": "德宏傣族景颇族自治州",
            "district": "芒市"
        }
    },
    {
        "id": "13680486577585465079",
        "title": "公共厕所",
        "address": "云南省德宏傣族景颇族自治州陇川县X214与Y287交叉口西南方向668米左右",
        "tel": "",
        "category": "基础设施:公共设施:公共厕所",
        "type": 0,
        "location": {
            "lat": 24.28528,
            "lng": 97.919648
        },
        "ad_info": {
            "adcode": 533124,
            "province": "云南省",
            "city": "德宏傣族景颇族自治州",
            "district": "陇川县"
        }
    },
    {
        "id": "8344406505239170249",
        "title": "公共厕所(梁河县曩宋乡关璋示范新村)",
        "address": "云南省德宏傣族景颇族自治州梁河县娥昌民族服饰有限公司西南侧190米",
        "tel": "",
        "category": "基础设施:公共设施:公共厕所",
        "type": 0,
        "location": {
            "lat": 24.885341,
            "lng": 98.397196
        },
        "ad_info": {
            "adcode": 533122,
            "province": "云南省",
            "city": "德宏傣族景颇族自治州",
            "district": "梁河县"
        }
    },
    {
        "id": "2262277725091552023",
        "title": "公共厕所",
        "address": "云南省德宏傣族景颇族自治州芒市允午",
        "tel": "",
        "category": "基础设施:公共设施:公共厕所",
        "type": 0,
        "location": {
            "lat": 24.223895,
            "lng": 98.319895
        },
        "ad_info": {
            "adcode": 533103,
            "province": "云南省",
            "city": "德宏傣族景颇族自治州",
            "district": "芒市"
        }
    },
    {
        "id": "1471847009363706215",
        "title": "公共厕所",
        "address": "云南省德宏傣族景颇族自治州陇川县农垦路与农贸路交叉口正北方向1585米左右",
        "tel": "",
        "category": "基础设施:公共设施:公共厕所",
        "type": 0,
        "location": {
            "lat": 24.301741,
            "lng": 97.843011
        },
        "ad_info": {
            "adcode": 533124,
            "province": "云南省",
            "city": "德宏傣族景颇族自治州",
            "district": "陇川县"
        }
    },
    {
        "id": "632339820315051850",
        "title": "公共厕所",
        "address": "云南省德宏傣族景颇族自治州瑞丽市金泉路与金滇路交叉口西北方向78米左右",
        "tel": "",
        "category": "基础设施:公共设施:公共厕所",
        "type": 0,
        "location": {
            "lat": 24.004725,
            "lng": 97.874653
        },
        "ad_info": {
            "adcode": 533102,
            "province": "云南省",
            "city": "德宏傣族景颇族自治州",
            "district": "瑞丽市"
        }
    },
    {
        "id": "17215764877638689288",
        "title": "公共厕所(梁河县芒东镇罗岗村)",
        "address": "云南省德宏傣族景颇族自治州梁河县罗岗公路",
        "tel": "",
        "category": "基础设施:公共设施:公共厕所",
        "type": 0,
        "location": {
            "lat": 24.614674,
            "lng": 98.166115
        },
        "ad_info": {
            "adcode": 533122,
            "province": "云南省",
            "city": "德宏傣族景颇族自治州",
            "district": "梁河县"
        }
    },
    {
        "id": "281806971499689",
        "title": "公共厕所",
        "address": "云南省德宏傣族景颇族自治州瑞丽市目瑙路与目脑路交叉口西南60米",
        "tel": "",
        "category": "基础设施:公共设施:公共厕所",
        "type": 0,
        "location": {
            "lat": 24.019431,
            "lng": 97.863352
        },
        "ad_info": {
            "adcode": 533102,
            "province": "云南省",
            "city": "德宏傣族景颇族自治州",
            "district": "瑞丽市"
        }
    },
    {
        "id": "1934633611821225409",
        "title": "红光村公共公共厕所",
        "address": "云南省德宏傣族景颇族自治州瑞丽市红光村",
        "tel": "",
        "category": "基础设施:公共设施:公共厕所",
        "type": 0,
        "location": {
            "lat": 24.04259,
            "lng": 97.887575
        },
        "ad_info": {
            "adcode": 533102,
            "province": "云南省",
            "city": "德宏傣族景颇族自治州",
            "district": "瑞丽市"
        }
    },
    {
        "id": "4127406175010818414",
        "title": "公共厕所",
        "address": "云南省德宏傣族景颇族自治州瑞丽市国防街与正阳路交叉口正东方向165米左右",
        "tel": "",
        "category": "基础设施:公共设施:公共厕所",
        "type": 0,
        "location": {
            "lat": 24.080541,
            "lng": 98.075377
        },
        "ad_info": {
            "adcode": 533102,
            "province": "云南省",
            "city": "德宏傣族景颇族自治州",
            "district": "瑞丽市"
        }
    },
    {
        "id": "420996247440272650",
        "title": "公共厕所",
        "address": "云南省德宏傣族景颇族自治州芒市仙池路与环城东路交叉口正南方向1072米左右",
        "tel": "",
        "category": "基础设施:公共设施:公共厕所",
        "type": 0,
        "location": {
            "lat": 24.415278,
            "lng": 98.598307
        },
        "ad_info": {
            "adcode": 533103,
            "province": "云南省",
            "city": "德宏傣族景颇族自治州",
            "district": "芒市"
        }
    },
    {
        "id": "8736237033985409631",
        "title": "公共厕所",
        "address": "云南省德宏傣族景颇族自治州芒市芒市国际机场-百事特商务贵宾厅西南侧120米",
        "tel": "",
        "category": "基础设施:公共设施:公共厕所",
        "type": 0,
        "location": {
            "lat": 24.401214,
            "lng": 98.529716
        },
        "ad_info": {
            "adcode": 533103,
            "province": "云南省",
            "city": "德宏傣族景颇族自治州",
            "district": "芒市"
        }
    },
    {
        "id": "4214492932682592999",
        "title": "公共厕所",
        "address": "云南省德宏傣族景颇族自治州瑞丽市中渠巷与人民路交叉口正南方向176米左右",
        "tel": "",
        "category": "基础设施:公共设施:公共厕所",
        "type": 0,
        "location": {
            "lat": 23.99604,
            "lng": 97.857562
        },
        "ad_info": {
            "adcode": 533102,
            "province": "云南省",
            "city": "德宏傣族景颇族自治州",
            "district": "瑞丽市"
        }
    },
    {
        "id": "13275734197772297972",
        "title": "公共厕所(梁河县帮丐)",
        "address": "云南省德宏傣族景颇族自治州梁河县Y199与帮盖大桥交叉口正东方向222米左右",
        "tel": "",
        "category": "基础设施:公共设施:公共厕所",
        "type": 0,
        "location": {
            "lat": 24.573589,
            "lng": 98.289778
        },
        "ad_info": {
            "adcode": 533122,
            "province": "云南省",
            "city": "德宏傣族景颇族自治州",
            "district": "梁河县"
        }
    },
    {
        "id": "15305080461228339415",
        "title": "陇川服务区公共厕所",
        "address": "云南省德宏傣族景颇族自治州陇川县S90沿边高速与陇川服务区交叉口西南220米",
        "tel": "",
        "category": "基础设施:公共设施:公共厕所",
        "type": 0,
        "location": {
            "lat": 24.214346,
            "lng": 97.872156
        },
        "ad_info": {
            "adcode": 533124,
            "province": "云南省",
            "city": "德宏傣族景颇族自治州",
            "district": "陇川县"
        }
    },
    {
        "id": "17229008027575663998",
        "title": "公共厕所(梁河县九保李根源广场)",
        "address": "云南省德宏傣族景颇族自治州梁河县南甸路与河西线交叉口正北方向92米左右",
        "tel": "",
        "category": "基础设施:公共设施:公共厕所",
        "type": 0,
        "location": {
            "lat": 24.817717,
            "lng": 98.31227
        },
        "ad_info": {
            "adcode": 533122,
            "province": "云南省",
            "city": "德宏傣族景颇族自治州",
            "district": "梁河县"
        }
    },
    {
        "id": "14337892056503004495",
        "title": "公共厕所",
        "address": "云南省德宏傣族景颇族自治州芒市遮放镇户闷村委会芒棒村民小组",
        "tel": "",
        "category": "基础设施:公共设施:公共厕所",
        "type": 0,
        "location": {
            "lat": 24.242369,
            "lng": 98.313999
        },
        "ad_info": {
            "adcode": 533103,
            "province": "云南省",
            "city": "德宏傣族景颇族自治州",
            "district": "芒市"
        }
    },
    {
        "id": "4825014771284121815",
        "title": "公共厕所(梁河县勐养休息站)",
        "address": "云南省德宏傣族景颇族自治州梁河县榕树饭庄北侧",
        "tel": "",
        "category": "基础设施:公共设施:公共厕所",
        "type": 0,
        "location": {
            "lat": 24.533489,
            "lng": 98.271857
        },
        "ad_info": {
            "adcode": 533122,
            "province": "云南省",
            "city": "德宏傣族景颇族自治州",
            "district": "梁河县"
        }
    },
    {
        "id": "12765933798932887542",
        "title": "公共厕所",
        "address": "云南省德宏傣族景颇族自治州梁河县大小厂线与干印线交叉口西北方向1210米左右",
        "tel": "",
        "category": "基础设施:公共设施:公共厕所",
        "type": 0,
        "location": {
            "lat": 24.795731,
            "lng": 98.335878
        },
        "ad_info": {
            "adcode": 533122,
            "province": "云南省",
            "city": "德宏傣族景颇族自治州",
            "district": "梁河县"
        }
    },
    {
        "id": "12600246546941584798",
        "title": "公共厕所",
        "address": "云南省德宏傣族景颇族自治州芒市科技路与象达线交叉口东南方向627米左右",
        "tel": "",
        "category": "基础设施:公共设施:公共厕所",
        "type": 0,
        "location": {
            "lat": 24.437289,
            "lng": 98.609176
        },
        "ad_info": {
            "adcode": 533103,
            "province": "云南省",
            "city": "德宏傣族景颇族自治州",
            "district": "芒市"
        }
    },
    {
        "id": "15796306317706724692",
        "title": "公共厕所",
        "address": "云南省德宏傣族景颇族自治州瑞丽市建设路与民主街交叉口东南方向174米左右",
        "tel": "",
        "category": "基础设施:公共设施:公共厕所",
        "type": 0,
        "location": {
            "lat": 24.076351,
            "lng": 98.061638
        },
        "ad_info": {
            "adcode": 533102,
            "province": "云南省",
            "city": "德宏傣族景颇族自治州",
            "district": "瑞丽市"
        }
    },
    {
        "id": "12428965070909479995",
        "title": "公共厕所",
        "address": "云南省德宏傣族景颇族自治州芒市文蚌街与阔时路交叉口正南方向64米左右",
        "tel": "",
        "category": "基础设施:公共设施:公共厕所",
        "type": 0,
        "location": {
            "lat": 24.442318,
            "lng": 98.576986
        },
        "ad_info": {
            "adcode": 533103,
            "province": "云南省",
            "city": "德宏傣族景颇族自治州",
            "district": "芒市"
        }
    },
    {
        "id": "10023740864556586677",
        "title": "公共厕所(梁河县大厂乡回龙寨活动中心)",
        "address": "云南省德宏傣族景颇族自治州梁河县成顺回龙茶叶加工厂北侧70米",
        "tel": "",
        "category": "基础设施:公共设施:公共厕所",
        "type": 0,
        "location": {
            "lat": 24.774257,
            "lng": 98.369843
        },
        "ad_info": {
            "adcode": 533122,
            "province": "云南省",
            "city": "德宏傣族景颇族自治州",
            "district": "梁河县"
        }
    },
    {
        "id": "12633839023699661817",
        "title": "公共厕所",
        "address": "云南省德宏傣族景颇族自治州瑞丽市姐岗路与瑞丽大道交叉口东北方向89米左右",
        "tel": "",
        "category": "基础设施:公共设施:公共厕所",
        "type": 0,
        "location": {
            "lat": 23.993686,
            "lng": 97.873441
        },
        "ad_info": {
            "adcode": 533102,
            "province": "云南省",
            "city": "德宏傣族景颇族自治州",
            "district": "瑞丽市"
        }
    },
    {
        "id": "10924920151039956436",
        "title": "公共厕所",
        "address": "云南省德宏傣族景颇族自治州瑞丽市利民边民互市交易市场西侧210米",
        "tel": "",
        "category": "基础设施:公共设施:公共厕所",
        "type": 0,
        "location": {
            "lat": 23.983245,
            "lng": 97.872368
        },
        "ad_info": {
            "adcode": 533102,
            "province": "云南省",
            "city": "德宏傣族景颇族自治州",
            "district": "瑞丽市"
        }
    },
    {
        "id": "5003235900776457018",
        "title": "公共厕所",
        "address": "云南省德宏傣族景颇族自治州瑞丽市川味麻辣菜(畹町店)东南侧250米",
        "tel": "",
        "category": "基础设施:公共设施:公共厕所",
        "type": 0,
        "location": {
            "lat": 24.071465,
            "lng": 98.042515
        },
        "ad_info": {
            "adcode": 533102,
            "province": "云南省",
            "city": "德宏傣族景颇族自治州",
            "district": "瑞丽市"
        }
    },
    {
        "id": "16111441852328472555",
        "title": "公共厕所",
        "address": "云南省德宏傣族景颇族自治州盈江县G556与盈江大道交叉口东北方向1881米左右",
        "tel": "",
        "category": "基础设施:公共设施:公共厕所",
        "type": 0,
        "location": {
            "lat": 24.693639,
            "lng": 98.015608
        },
        "ad_info": {
            "adcode": 533123,
            "province": "云南省",
            "city": "德宏傣族景颇族自治州",
            "district": "盈江县"
        }
    },
    {
        "id": "11356483971781020990",
        "title": "公共厕所",
        "address": "云南省德宏傣族景颇族自治州芒市团结大街124号",
        "tel": "",
        "category": "基础设施:公共设施:公共厕所",
        "type": 0,
        "location": {
            "lat": 24.437597,
            "lng": 98.583975
        },
        "ad_info": {
            "adcode": 533103,
            "province": "云南省",
            "city": "德宏傣族景颇族自治州",
            "district": "芒市"
        }
    },
    {
        "id": "10417184803965265701",
        "title": "洗手间(梁河县金塔温泉酒店2号)(不对外开放)",
        "address": "云南省德宏傣族景颇族自治州梁河县勐底路与滨河路交叉口东北方向199米左右",
        "tel": "",
        "category": "基础设施:公共设施:公共厕所",
        "type": 0,
        "location": {
            "lat": 24.812568,
            "lng": 98.292792
        },
        "ad_info": {
            "adcode": 533122,
            "province": "云南省",
            "city": "德宏傣族景颇族自治州",
            "district": "梁河县"
        }
    },
    {
        "id": "12457128541523885124",
        "title": "盈江服务区公共厕所",
        "address": "云南省德宏傣族景颇族自治州盈江县S90沿边高速与盈江服务区交叉口西南120米",
        "tel": "",
        "category": "基础设施:公共设施:公共厕所",
        "type": 0,
        "location": {
            "lat": 24.663702,
            "lng": 97.993901
        },
        "ad_info": {
            "adcode": 533123,
            "province": "云南省",
            "city": "德宏傣族景颇族自治州",
            "district": "盈江县"
        }
    },
    {
        "id": "17755688235613414287",
        "title": "公共厕所",
        "address": "云南省德宏傣族景颇族自治州芒市文蚌街与泰安南路交叉口东南方向72米左右",
        "tel": "",
        "category": "基础设施:公共设施:公共厕所",
        "type": 0,
        "location": {
            "lat": 24.431269,
            "lng": 98.571928
        },
        "ad_info": {
            "adcode": 533103,
            "province": "云南省",
            "city": "德宏傣族景颇族自治州",
            "district": "芒市"
        }
    },
    {
        "id": "10061518680767782427",
        "title": "陇川服务区卫生间",
        "address": "云南省德宏傣族景颇族自治州陇川县S90沿边高速与陇川服务区交叉口南340米",
        "tel": "",
        "category": "基础设施:公共设施:公共厕所",
        "type": 0,
        "location": {
            "lat": 24.212742,
            "lng": 97.873329
        },
        "ad_info": {
            "adcode": 533124,
            "province": "云南省",
            "city": "德宏傣族景颇族自治州",
            "district": "陇川县"
        }
    },
    {
        "id": "6079654713842203619",
        "title": "公共厕所(梁河县遮岛镇弄么村傈僳部落1号)",
        "address": "云南省德宏傣族景颇族自治州梁河县X226与芒那公路交叉口正北方向605米左右",
        "tel": "",
        "category": "基础设施:公共设施:公共厕所",
        "type": 0,
        "location": {
            "lat": 24.794784,
            "lng": 98.27132
        },
        "ad_info": {
            "adcode": 533122,
            "province": "云南省",
            "city": "德宏傣族景颇族自治州",
            "district": "梁河县"
        }
    },
    {
        "id": "16044668459903345709",
        "title": "公共厕所",
        "address": "云南省德宏傣族景颇族自治州瑞丽市X212与国防街交叉口正东方向250米左右",
        "tel": "",
        "category": "基础设施:公共设施:公共厕所",
        "type": 0,
        "location": {
            "lat": 24.08331,
            "lng": 98.081859
        },
        "ad_info": {
            "adcode": 533102,
            "province": "云南省",
            "city": "德宏傣族景颇族自治州",
            "district": "瑞丽市"
        }
    },
    {
        "id": "2584286356507933551",
        "title": "公共厕所",
        "address": "云南省德宏傣族景颇族自治州瑞丽市新建路与瑞京路交叉口正西方向156米左右",
        "tel": "",
        "category": "基础设施:公共设施:公共厕所",
        "type": 0,
        "location": {
            "lat": 24.017361,
            "lng": 97.856632
        },
        "ad_info": {
            "adcode": 533102,
            "province": "云南省",
            "city": "德宏傣族景颇族自治州",
            "district": "瑞丽市"
        }
    },
    {
        "id": "3973279609964780259",
        "title": "公共厕所",
        "address": "云南省德宏傣族景颇族自治州芒市斑色路与金塔大街交叉口西南方向106米左右",
        "tel": "",
        "category": "基础设施:公共设施:公共厕所",
        "type": 0,
        "location": {
            "lat": 24.43111,
            "lng": 98.590976
        },
        "ad_info": {
            "adcode": 533103,
            "province": "云南省",
            "city": "德宏傣族景颇族自治州",
            "district": "芒市"
        }
    },
    {
        "id": "1700682874768834026",
        "title": "公共厕所",
        "address": "云南省德宏傣族景颇族自治州瑞丽市团结路与瑞宏路交叉口正东方向156米左右",
        "tel": "",
        "category": "基础设施:公共设施:公共厕所",
        "type": 0,
        "location": {
            "lat": 24.007896,
            "lng": 97.877908
        },
        "ad_info": {
            "adcode": 533102,
            "province": "云南省",
            "city": "德宏傣族景颇族自治州",
            "district": "瑞丽市"
        }
    },
    {
        "id": "16040630966256377854",
        "title": "公共厕所(梁河县遮岛镇王家井)",
        "address": "云南省德宏傣族景颇族自治州梁河县勐底路与南甸路交叉口西北方向110米左右",
        "tel": "",
        "category": "基础设施:公共设施:公共厕所",
        "type": 0,
        "location": {
            "lat": 24.807771,
            "lng": 98.29527
        },
        "ad_info": {
            "adcode": 533122,
            "province": "云南省",
            "city": "德宏傣族景颇族自治州",
            "district": "梁河县"
        }
    },
    {
        "id": "15171575085218033484",
        "title": "公共厕所",
        "address": "云南省德宏傣族景颇族自治州盈江县Y088与旧城线交叉口东北方向428米左右",
        "tel": "",
        "category": "基础设施:公共设施:公共厕所",
        "type": 0,
        "location": {
            "lat": 24.743606,
            "lng": 98.078443
        },
        "ad_info": {
            "adcode": 533123,
            "province": "云南省",
            "city": "德宏傣族景颇族自治州",
            "district": "盈江县"
        }
    },
    {
        "id": "12600246546941584798",
        "title": "公共厕所",
        "address": "云南省德宏傣族景颇族自治州芒市科技路与象达线交叉口东南方向627米左右",
        "tel": "",
        "category": "基础设施:公共设施:公共厕所",
        "type": 0,
        "location": {
            "lat": 24.437289,
            "lng": 98.609176
        },
        "ad_info": {
            "adcode": 533103,
            "province": "云南省",
            "city": "德宏傣族景颇族自治州",
            "district": "芒市"
        }
    },
    {
        "id": "15796306317706724692",
        "title": "公共厕所",
        "address": "云南省德宏傣族景颇族自治州瑞丽市建设路与民主街交叉口东南方向174米左右",
        "tel": "",
        "category": "基础设施:公共设施:公共厕所",
        "type": 0,
        "location": {
            "lat": 24.076351,
            "lng": 98.061638
        },
        "ad_info": {
            "adcode": 533102,
            "province": "云南省",
            "city": "德宏傣族景颇族自治州",
            "district": "瑞丽市"
        }
    },
    {
        "id": "12428965070909479995",
        "title": "公共厕所",
        "address": "云南省德宏傣族景颇族自治州芒市文蚌街与阔时路交叉口正南方向64米左右",
        "tel": "",
        "category": "基础设施:公共设施:公共厕所",
        "type": 0,
        "location": {
            "lat": 24.442318,
            "lng": 98.576986
        },
        "ad_info": {
            "adcode": 533103,
            "province": "云南省",
            "city": "德宏傣族景颇族自治州",
            "district": "芒市"
        }
    },
    {
        "id": "10023740864556586677",
        "title": "公共厕所(梁河县大厂乡回龙寨活动中心)",
        "address": "云南省德宏傣族景颇族自治州梁河县成顺回龙茶叶加工厂北侧70米",
        "tel": "",
        "category": "基础设施:公共设施:公共厕所",
        "type": 0,
        "location": {
            "lat": 24.774257,
            "lng": 98.369843
        },
        "ad_info": {
            "adcode": 533122,
            "province": "云南省",
            "city": "德宏傣族景颇族自治州",
            "district": "梁河县"
        }
    },
    {
        "id": "12633839023699661817",
        "title": "公共厕所",
        "address": "云南省德宏傣族景颇族自治州瑞丽市姐岗路与瑞丽大道交叉口东北方向89米左右",
        "tel": "",
        "category": "基础设施:公共设施:公共厕所",
        "type": 0,
        "location": {
            "lat": 23.993686,
            "lng": 97.873441
        },
        "ad_info": {
            "adcode": 533102,
            "province": "云南省",
            "city": "德宏傣族景颇族自治州",
            "district": "瑞丽市"
        }
    },
    {
        "id": "10924920151039956436",
        "title": "公共厕所",
        "address": "云南省德宏傣族景颇族自治州瑞丽市利民边民互市交易市场西侧210米",
        "tel": "",
        "category": "基础设施:公共设施:公共厕所",
        "type": 0,
        "location": {
            "lat": 23.983245,
            "lng": 97.872368
        },
        "ad_info": {
            "adcode": 533102,
            "province": "云南省",
            "city": "德宏傣族景颇族自治州",
            "district": "瑞丽市"
        }
    },
    {
        "id": "5003235900776457018",
        "title": "公共厕所",
        "address": "云南省德宏傣族景颇族自治州瑞丽市川味麻辣菜(畹町店)东南侧250米",
        "tel": "",
        "category": "基础设施:公共设施:公共厕所",
        "type": 0,
        "location": {
            "lat": 24.071465,
            "lng": 98.042515
        },
        "ad_info": {
            "adcode": 533102,
            "province": "云南省",
            "city": "德宏傣族景颇族自治州",
            "district": "瑞丽市"
        }
    },
    {
        "id": "16111441852328472555",
        "title": "公共厕所",
        "address": "云南省德宏傣族景颇族自治州盈江县G556与盈江大道交叉口东北方向1881米左右",
        "tel": "",
        "category": "基础设施:公共设施:公共厕所",
        "type": 0,
        "location": {
            "lat": 24.693639,
            "lng": 98.015608
        },
        "ad_info": {
            "adcode": 533123,
            "province": "云南省",
            "city": "德宏傣族景颇族自治州",
            "district": "盈江县"
        }
    },
    {
        "id": "11356483971781020990",
        "title": "公共厕所",
        "address": "云南省德宏傣族景颇族自治州芒市团结大街124号",
        "tel": "",
        "category": "基础设施:公共设施:公共厕所",
        "type": 0,
        "location": {
            "lat": 24.437597,
            "lng": 98.583975
        },
        "ad_info": {
            "adcode": 533103,
            "province": "云南省",
            "city": "德宏傣族景颇族自治州",
            "district": "芒市"
        }
    },
    {
        "id": "10417184803965265701",
        "title": "洗手间(梁河县金塔温泉酒店2号)(不对外开放)",
        "address": "云南省德宏傣族景颇族自治州梁河县勐底路与滨河路交叉口东北方向199米左右",
        "tel": "",
        "category": "基础设施:公共设施:公共厕所",
        "type": 0,
        "location": {
            "lat": 24.812568,
            "lng": 98.292792
        },
        "ad_info": {
            "adcode": 533122,
            "province": "云南省",
            "city": "德宏傣族景颇族自治州",
            "district": "梁河县"
        }
    },
    {
        "id": "12457128541523885124",
        "title": "盈江服务区公共厕所",
        "address": "云南省德宏傣族景颇族自治州盈江县S90沿边高速与盈江服务区交叉口西南120米",
        "tel": "",
        "category": "基础设施:公共设施:公共厕所",
        "type": 0,
        "location": {
            "lat": 24.663702,
            "lng": 97.993901
        },
        "ad_info": {
            "adcode": 533123,
            "province": "云南省",
            "city": "德宏傣族景颇族自治州",
            "district": "盈江县"
        }
    },
    {
        "id": "17755688235613414287",
        "title": "公共厕所",
        "address": "云南省德宏傣族景颇族自治州芒市文蚌街与泰安南路交叉口东南方向72米左右",
        "tel": "",
        "category": "基础设施:公共设施:公共厕所",
        "type": 0,
        "location": {
            "lat": 24.431269,
            "lng": 98.571928
        },
        "ad_info": {
            "adcode": 533103,
            "province": "云南省",
            "city": "德宏傣族景颇族自治州",
            "district": "芒市"
        }
    },
    {
        "id": "10061518680767782427",
        "title": "陇川服务区卫生间",
        "address": "云南省德宏傣族景颇族自治州陇川县S90沿边高速与陇川服务区交叉口南340米",
        "tel": "",
        "category": "基础设施:公共设施:公共厕所",
        "type": 0,
        "location": {
            "lat": 24.212742,
            "lng": 97.873329
        },
        "ad_info": {
            "adcode": 533124,
            "province": "云南省",
            "city": "德宏傣族景颇族自治州",
            "district": "陇川县"
        }
    },
    {
        "id": "6079654713842203619",
        "title": "公共厕所(梁河县遮岛镇弄么村傈僳部落1号)",
        "address": "云南省德宏傣族景颇族自治州梁河县X226与芒那公路交叉口正北方向605米左右",
        "tel": "",
        "category": "基础设施:公共设施:公共厕所",
        "type": 0,
        "location": {
            "lat": 24.794784,
            "lng": 98.27132
        },
        "ad_info": {
            "adcode": 533122,
            "province": "云南省",
            "city": "德宏傣族景颇族自治州",
            "district": "梁河县"
        }
    },
    {
        "id": "16044668459903345709",
        "title": "公共厕所",
        "address": "云南省德宏傣族景颇族自治州瑞丽市X212与国防街交叉口正东方向250米左右",
        "tel": "",
        "category": "基础设施:公共设施:公共厕所",
        "type": 0,
        "location": {
            "lat": 24.08331,
            "lng": 98.081859
        },
        "ad_info": {
            "adcode": 533102,
            "province": "云南省",
            "city": "德宏傣族景颇族自治州",
            "district": "瑞丽市"
        }
    },
    {
        "id": "2584286356507933551",
        "title": "公共厕所",
        "address": "云南省德宏傣族景颇族自治州瑞丽市新建路与瑞京路交叉口正西方向156米左右",
        "tel": "",
        "category": "基础设施:公共设施:公共厕所",
        "type": 0,
        "location": {
            "lat": 24.017361,
            "lng": 97.856632
        },
        "ad_info": {
            "adcode": 533102,
            "province": "云南省",
            "city": "德宏傣族景颇族自治州",
            "district": "瑞丽市"
        }
    },
    {
        "id": "3973279609964780259",
        "title": "公共厕所",
        "address": "云南省德宏傣族景颇族自治州芒市斑色路与金塔大街交叉口西南方向106米左右",
        "tel": "",
        "category": "基础设施:公共设施:公共厕所",
        "type": 0,
        "location": {
            "lat": 24.43111,
            "lng": 98.590976
        },
        "ad_info": {
            "adcode": 533103,
            "province": "云南省",
            "city": "德宏傣族景颇族自治州",
            "district": "芒市"
        }
    },
    {
        "id": "1700682874768834026",
        "title": "公共厕所",
        "address": "云南省德宏傣族景颇族自治州瑞丽市团结路与瑞宏路交叉口正东方向156米左右",
        "tel": "",
        "category": "基础设施:公共设施:公共厕所",
        "type": 0,
        "location": {
            "lat": 24.007896,
            "lng": 97.877908
        },
        "ad_info": {
            "adcode": 533102,
            "province": "云南省",
            "city": "德宏傣族景颇族自治州",
            "district": "瑞丽市"
        }
    },
    {
        "id": "16040630966256377854",
        "title": "公共厕所(梁河县遮岛镇王家井)",
        "address": "云南省德宏傣族景颇族自治州梁河县勐底路与南甸路交叉口西北方向110米左右",
        "tel": "",
        "category": "基础设施:公共设施:公共厕所",
        "type": 0,
        "location": {
            "lat": 24.807771,
            "lng": 98.29527
        },
        "ad_info": {
            "adcode": 533122,
            "province": "云南省",
            "city": "德宏傣族景颇族自治州",
            "district": "梁河县"
        }
    },
    {
        "id": "15171575085218033484",
        "title": "公共厕所",
        "address": "云南省德宏傣族景颇族自治州盈江县Y088与旧城线交叉口东北方向428米左右",
        "tel": "",
        "category": "基础设施:公共设施:公共厕所",
        "type": 0,
        "location": {
            "lat": 24.743606,
            "lng": 98.078443
        },
        "ad_info": {
            "adcode": 533123,
            "province": "云南省",
            "city": "德宏傣族景颇族自治州",
            "district": "盈江县"
        }
    },
    {
        "id": "12600246546941584798",
        "title": "公共厕所",
        "address": "云南省德宏傣族景颇族自治州芒市科技路与象达线交叉口东南方向627米左右",
        "tel": "",
        "category": "基础设施:公共设施:公共厕所",
        "type": 0,
        "location": {
            "lat": 24.437289,
            "lng": 98.609176
        },
        "ad_info": {
            "adcode": 533103,
            "province": "云南省",
            "city": "德宏傣族景颇族自治州",
            "district": "芒市"
        }
    },
    {
        "id": "15796306317706724692",
        "title": "公共厕所",
        "address": "云南省德宏傣族景颇族自治州瑞丽市建设路与民主街交叉口东南方向174米左右",
        "tel": "",
        "category": "基础设施:公共设施:公共厕所",
        "type": 0,
        "location": {
            "lat": 24.076351,
            "lng": 98.061638
        },
        "ad_info": {
            "adcode": 533102,
            "province": "云南省",
            "city": "德宏傣族景颇族自治州",
            "district": "瑞丽市"
        }
    },
    {
        "id": "12428965070909479995",
        "title": "公共厕所",
        "address": "云南省德宏傣族景颇族自治州芒市文蚌街与阔时路交叉口正南方向64米左右",
        "tel": "",
        "category": "基础设施:公共设施:公共厕所",
        "type": 0,
        "location": {
            "lat": 24.442318,
            "lng": 98.576986
        },
        "ad_info": {
            "adcode": 533103,
            "province": "云南省",
            "city": "德宏傣族景颇族自治州",
            "district": "芒市"
        }
    },
    {
        "id": "10023740864556586677",
        "title": "公共厕所(梁河县大厂乡回龙寨活动中心)",
        "address": "云南省德宏傣族景颇族自治州梁河县成顺回龙茶叶加工厂北侧70米",
        "tel": "",
        "category": "基础设施:公共设施:公共厕所",
        "type": 0,
        "location": {
            "lat": 24.774257,
            "lng": 98.369843
        },
        "ad_info": {
            "adcode": 533122,
            "province": "云南省",
            "city": "德宏傣族景颇族自治州",
            "district": "梁河县"
        }
    },
    {
        "id": "12633839023699661817",
        "title": "公共厕所",
        "address": "云南省德宏傣族景颇族自治州瑞丽市姐岗路与瑞丽大道交叉口东北方向89米左右",
        "tel": "",
        "category": "基础设施:公共设施:公共厕所",
        "type": 0,
        "location": {
            "lat": 23.993686,
            "lng": 97.873441
        },
        "ad_info": {
            "adcode": 533102,
            "province": "云南省",
            "city": "德宏傣族景颇族自治州",
            "district": "瑞丽市"
        }
    },
    {
        "id": "10924920151039956436",
        "title": "公共厕所",
        "address": "云南省德宏傣族景颇族自治州瑞丽市利民边民互市交易市场西侧210米",
        "tel": "",
        "category": "基础设施:公共设施:公共厕所",
        "type": 0,
        "location": {
            "lat": 23.983245,
            "lng": 97.872368
        },
        "ad_info": {
            "adcode": 533102,
            "province": "云南省",
            "city": "德宏傣族景颇族自治州",
            "district": "瑞丽市"
        }
    },
    {
        "id": "5003235900776457018",
        "title": "公共厕所",
        "address": "云南省德宏傣族景颇族自治州瑞丽市川味麻辣菜(畹町店)东南侧250米",
        "tel": "",
        "category": "基础设施:公共设施:公共厕所",
        "type": 0,
        "location": {
            "lat": 24.071465,
            "lng": 98.042515
        },
        "ad_info": {
            "adcode": 533102,
            "province": "云南省",
            "city": "德宏傣族景颇族自治州",
            "district": "瑞丽市"
        }
    },
    {
        "id": "16111441852328472555",
        "title": "公共厕所",
        "address": "云南省德宏傣族景颇族自治州盈江县G556与盈江大道交叉口东北方向1881米左右",
        "tel": "",
        "category": "基础设施:公共设施:公共厕所",
        "type": 0,
        "location": {
            "lat": 24.693639,
            "lng": 98.015608
        },
        "ad_info": {
            "adcode": 533123,
            "province": "云南省",
            "city": "德宏傣族景颇族自治州",
            "district": "盈江县"
        }
    },
    {
        "id": "11356483971781020990",
        "title": "公共厕所",
        "address": "云南省德宏傣族景颇族自治州芒市团结大街124号",
        "tel": "",
        "category": "基础设施:公共设施:公共厕所",
        "type": 0,
        "location": {
            "lat": 24.437597,
            "lng": 98.583975
        },
        "ad_info": {
            "adcode": 533103,
            "province": "云南省",
            "city": "德宏傣族景颇族自治州",
            "district": "芒市"
        }
    },
    {
        "id": "10417184803965265701",
        "title": "洗手间(梁河县金塔温泉酒店2号)(不对外开放)",
        "address": "云南省德宏傣族景颇族自治州梁河县勐底路与滨河路交叉口东北方向199米左右",
        "tel": "",
        "category": "基础设施:公共设施:公共厕所",
        "type": 0,
        "location": {
            "lat": 24.812568,
            "lng": 98.292792
        },
        "ad_info": {
            "adcode": 533122,
            "province": "云南省",
            "city": "德宏傣族景颇族自治州",
            "district": "梁河县"
        }
    },
    {
        "id": "12457128541523885124",
        "title": "盈江服务区公共厕所",
        "address": "云南省德宏傣族景颇族自治州盈江县S90沿边高速与盈江服务区交叉口西南120米",
        "tel": "",
        "category": "基础设施:公共设施:公共厕所",
        "type": 0,
        "location": {
            "lat": 24.663702,
            "lng": 97.993901
        },
        "ad_info": {
            "adcode": 533123,
            "province": "云南省",
            "city": "德宏傣族景颇族自治州",
            "district": "盈江县"
        }
    },
    {
        "id": "17755688235613414287",
        "title": "公共厕所",
        "address": "云南省德宏傣族景颇族自治州芒市文蚌街与泰安南路交叉口东南方向72米左右",
        "tel": "",
        "category": "基础设施:公共设施:公共厕所",
        "type": 0,
        "location": {
            "lat": 24.431269,
            "lng": 98.571928
        },
        "ad_info": {
            "adcode": 533103,
            "province": "云南省",
            "city": "德宏傣族景颇族自治州",
            "district": "芒市"
        }
    },
    {
        "id": "10061518680767782427",
        "title": "陇川服务区卫生间",
        "address": "云南省德宏傣族景颇族自治州陇川县S90沿边高速与陇川服务区交叉口南340米",
        "tel": "",
        "category": "基础设施:公共设施:公共厕所",
        "type": 0,
        "location": {
            "lat": 24.212742,
            "lng": 97.873329
        },
        "ad_info": {
            "adcode": 533124,
            "province": "云南省",
            "city": "德宏傣族景颇族自治州",
            "district": "陇川县"
        }
    },
    {
        "id": "6079654713842203619",
        "title": "公共厕所(梁河县遮岛镇弄么村傈僳部落1号)",
        "address": "云南省德宏傣族景颇族自治州梁河县X226与芒那公路交叉口正北方向605米左右",
        "tel": "",
        "category": "基础设施:公共设施:公共厕所",
        "type": 0,
        "location": {
            "lat": 24.794784,
            "lng": 98.27132
        },
        "ad_info": {
            "adcode": 533122,
            "province": "云南省",
            "city": "德宏傣族景颇族自治州",
            "district": "梁河县"
        }
    },
    {
        "id": "16044668459903345709",
        "title": "公共厕所",
        "address": "云南省德宏傣族景颇族自治州瑞丽市X212与国防街交叉口正东方向250米左右",
        "tel": "",
        "category": "基础设施:公共设施:公共厕所",
        "type": 0,
        "location": {
            "lat": 24.08331,
            "lng": 98.081859
        },
        "ad_info": {
            "adcode": 533102,
            "province": "云南省",
            "city": "德宏傣族景颇族自治州",
            "district": "瑞丽市"
        }
    },
    {
        "id": "2584286356507933551",
        "title": "公共厕所",
        "address": "云南省德宏傣族景颇族自治州瑞丽市新建路与瑞京路交叉口正西方向156米左右",
        "tel": "",
        "category": "基础设施:公共设施:公共厕所",
        "type": 0,
        "location": {
            "lat": 24.017361,
            "lng": 97.856632
        },
        "ad_info": {
            "adcode": 533102,
            "province": "云南省",
            "city": "德宏傣族景颇族自治州",
            "district": "瑞丽市"
        }
    },
    {
        "id": "3973279609964780259",
        "title": "公共厕所",
        "address": "云南省德宏傣族景颇族自治州芒市斑色路与金塔大街交叉口西南方向106米左右",
        "tel": "",
        "category": "基础设施:公共设施:公共厕所",
        "type": 0,
        "location": {
            "lat": 24.43111,
            "lng": 98.590976
        },
        "ad_info": {
            "adcode": 533103,
            "province": "云南省",
            "city": "德宏傣族景颇族自治州",
            "district": "芒市"
        }
    },
    {
        "id": "1700682874768834026",
        "title": "公共厕所",
        "address": "云南省德宏傣族景颇族自治州瑞丽市团结路与瑞宏路交叉口正东方向156米左右",
        "tel": "",
        "category": "基础设施:公共设施:公共厕所",
        "type": 0,
        "location": {
            "lat": 24.007896,
            "lng": 97.877908
        },
        "ad_info": {
            "adcode": 533102,
            "province": "云南省",
            "city": "德宏傣族景颇族自治州",
            "district": "瑞丽市"
        }
    },
    {
        "id": "16040630966256377854",
        "title": "公共厕所(梁河县遮岛镇王家井)",
        "address": "云南省德宏傣族景颇族自治州梁河县勐底路与南甸路交叉口西北方向110米左右",
        "tel": "",
        "category": "基础设施:公共设施:公共厕所",
        "type": 0,
        "location": {
            "lat": 24.807771,
            "lng": 98.29527
        },
        "ad_info": {
            "adcode": 533122,
            "province": "云南省",
            "city": "德宏傣族景颇族自治州",
            "district": "梁河县"
        }
    },
    {
        "id": "15171575085218033484",
        "title": "公共厕所",
        "address": "云南省德宏傣族景颇族自治州盈江县Y088与旧城线交叉口东北方向428米左右",
        "tel": "",
        "category": "基础设施:公共设施:公共厕所",
        "type": 0,
        "location": {
            "lat": 24.743606,
            "lng": 98.078443
        },
        "ad_info": {
            "adcode": 533123,
            "province": "云南省",
            "city": "德宏傣族景颇族自治州",
            "district": "盈江县"
        }
    }
]