[
    {
        "id": "4833909238012986058",
        "title": "公共厕所",
        "address": "湖南省怀化市鹤城区嫩溪垅东路与裕丰巷交叉口正东方向212米左右",
        "tel": "",
        "category": "基础设施:公共设施:公共厕所",
        "type": 0,
        "location": {
            "lat": 27.556385,
            "lng": 109.966655
        },
        "ad_info": {
            "adcode": 431202,
            "province": "湖南省",
            "city": "怀化市",
            "district": "鹤城区"
        }
    },
    {
        "id": "3448702718375028554",
        "title": "公共厕所",
        "address": "湖南省怀化市鹤城区凤园东路与金利路交叉口正西方向137米左右",
        "tel": "",
        "category": "基础设施:公共设施:公共厕所",
        "type": 0,
        "location": {
            "lat": 27.534963,
            "lng": 109.952086
        },
        "ad_info": {
            "adcode": 431202,
            "province": "湖南省",
            "city": "怀化市",
            "district": "鹤城区"
        }
    },
    {
        "id": "4149753816614504693",
        "title": "公共厕所",
        "address": "湖南省怀化市鹤城区府星路怀化中心市场",
        "tel": "",
        "category": "基础设施:公共设施:公共厕所",
        "type": 0,
        "location": {
            "lat": 27.548016,
            "lng": 109.965625
        },
        "ad_info": {
            "adcode": 431202,
            "province": "湖南省",
            "city": "怀化市",
            "district": "鹤城区"
        }
    },
    {
        "id": "13453448254501619815",
        "title": "公共厕所",
        "address": "湖南省怀化市鹤城区五溪大道与金海路交叉口西南方向194米左右",
        "tel": "",
        "category": "基础设施:公共设施:公共厕所",
        "type": 0,
        "location": {
            "lat": 27.57641,
            "lng": 110.034652
        },
        "ad_info": {
            "adcode": 431202,
            "province": "湖南省",
            "city": "怀化市",
            "district": "鹤城区"
        }
    },
    {
        "id": "15436223386519368064",
        "title": "公共厕所",
        "address": "湖南省怀化市新晃侗族自治县中山路与山羊坪路交叉口东北方向43米左右",
        "tel": "",
        "category": "基础设施:公共设施:公共厕所",
        "type": 0,
        "location": {
            "lat": 27.357881,
            "lng": 109.177956
        },
        "ad_info": {
            "adcode": 431227,
            "province": "湖南省",
            "city": "怀化市",
            "district": "新晃侗族自治县"
        }
    },
    {
        "id": "8198720172691845786",
        "title": "公共厕所",
        "address": "湖南省怀化市鹤城区人民南路蓝电大厦东北门",
        "tel": "",
        "category": "基础设施:公共设施:公共厕所",
        "type": 0,
        "location": {
            "lat": 27.545562,
            "lng": 109.960302
        },
        "ad_info": {
            "adcode": 431202,
            "province": "湖南省",
            "city": "怀化市",
            "district": "鹤城区"
        }
    },
    {
        "id": "18098767088918131747",
        "title": "公共厕所",
        "address": "湖南省怀化市鹤城区教堂巷与迎丰西路交叉口东北方向150米左右",
        "tel": "",
        "category": "基础设施:公共设施:公共厕所",
        "type": 0,
        "location": {
            "lat": 27.549859,
            "lng": 109.949568
        },
        "ad_info": {
            "adcode": 431202,
            "province": "湖南省",
            "city": "怀化市",
            "district": "鹤城区"
        }
    },
    {
        "id": "4704897194246410141",
        "title": "公共厕所",
        "address": "湖南省怀化市鹤城区人民路与鹤洲北路交叉口西北方向157米左右",
        "tel": "",
        "category": "基础设施:公共设施:公共厕所",
        "type": 0,
        "location": {
            "lat": 27.549971,
            "lng": 109.967528
        },
        "ad_info": {
            "adcode": 431202,
            "province": "湖南省",
            "city": "怀化市",
            "district": "鹤城区"
        }
    },
    {
        "id": "3238310122692015595",
        "title": "公共厕所",
        "address": "湖南省怀化市鹤城区沿河路与环城南路交叉口西北方向127米左右",
        "tel": "",
        "category": "基础设施:公共设施:公共厕所",
        "type": 0,
        "location": {
            "lat": 27.522677,
            "lng": 109.9548
        },
        "ad_info": {
            "adcode": 431202,
            "province": "湖南省",
            "city": "怀化市",
            "district": "鹤城区"
        }
    },
    {
        "id": "12535309491186004484",
        "title": "公共厕所",
        "address": "湖南省怀化市鹤城区滨江路与神龙路交叉口西南方向168米左右",
        "tel": "",
        "category": "基础设施:公共设施:公共厕所",
        "type": 0,
        "location": {
            "lat": 27.529577,
            "lng": 109.957265
        },
        "ad_info": {
            "adcode": 431202,
            "province": "湖南省",
            "city": "怀化市",
            "district": "鹤城区"
        }
    },
    {
        "id": "7918597574466697049",
        "title": "公共厕所",
        "address": "湖南省怀化市靖州苗族侗族自治县新建中路与新建北路交叉口正西方向115米左右",
        "tel": "",
        "category": "基础设施:公共设施:公共厕所",
        "type": 0,
        "location": {
            "lat": 26.5746,
            "lng": 109.6929
        },
        "ad_info": {
            "adcode": 431229,
            "province": "湖南省",
            "city": "怀化市",
            "district": "靖州苗族侗族自治县"
        }
    },
    {
        "id": "17408732661215541822",
        "title": "公共厕所",
        "address": "湖南省怀化市鹤城区四方井巷与嫩溪垅西路交叉口正西方向68米左右",
        "tel": "",
        "category": "基础设施:公共设施:公共厕所",
        "type": 0,
        "location": {
            "lat": 27.556653,
            "lng": 109.960933
        },
        "ad_info": {
            "adcode": 431202,
            "province": "湖南省",
            "city": "怀化市",
            "district": "鹤城区"
        }
    },
    {
        "id": "12988281689105098147",
        "title": "公共厕所",
        "address": "湖南省怀化市鹤城区会展路与环城南路辅路交叉口西南方向172米左右",
        "tel": "",
        "category": "基础设施:公共设施:公共厕所",
        "type": 0,
        "location": {
            "lat": 27.519603,
            "lng": 109.99758
        },
        "ad_info": {
            "adcode": 431202,
            "province": "湖南省",
            "city": "怀化市",
            "district": "鹤城区"
        }
    },
    {
        "id": "7132893995568514469",
        "title": "公共厕所",
        "address": "湖南省怀化市会同县南正街与解放街交叉口正北方向144米左右",
        "tel": "",
        "category": "基础设施:公共设施:公共厕所",
        "type": 0,
        "location": {
            "lat": 26.8713,
            "lng": 109.72179
        },
        "ad_info": {
            "adcode": 431225,
            "province": "湖南省",
            "city": "怀化市",
            "district": "会同县"
        }
    },
    {
        "id": "15376500332164676693",
        "title": "公共厕所",
        "address": "湖南省怀化市鹤城区迎丰中路与银湾巷交叉口东北方向101米左右",
        "tel": "",
        "category": "基础设施:公共设施:公共厕所",
        "type": 0,
        "location": {
            "lat": 27.556932,
            "lng": 110.006004
        },
        "ad_info": {
            "adcode": 431202,
            "province": "湖南省",
            "city": "怀化市",
            "district": "鹤城区"
        }
    },
    {
        "id": "7839936235931780919",
        "title": "公共厕所",
        "address": "湖南省怀化市通道侗族自治县寨上路与杉山街交叉口正北方向48米左右",
        "tel": "",
        "category": "基础设施:公共设施:公共厕所",
        "type": 0,
        "location": {
            "lat": 26.154826,
            "lng": 109.782298
        },
        "ad_info": {
            "adcode": 431230,
            "province": "湖南省",
            "city": "怀化市",
            "district": "通道侗族自治县"
        }
    },
    {
        "id": "1797355028488091968",
        "title": "公共厕所",
        "address": "湖南省怀化市鹤城区人民北路与迎丰中路交叉口东北方向268米左右",
        "tel": "",
        "category": "基础设施:公共设施:公共厕所",
        "type": 0,
        "location": {
            "lat": 27.555996,
            "lng": 109.973805
        },
        "ad_info": {
            "adcode": 431202,
            "province": "湖南省",
            "city": "怀化市",
            "district": "鹤城区"
        }
    },
    {
        "id": "5734123643415597904",
        "title": "公共厕所",
        "address": "湖南省怀化市鹤城区武陵路与茅谷冲巷交叉口东南方向115米左右",
        "tel": "",
        "category": "基础设施:公共设施:公共厕所",
        "type": 0,
        "location": {
            "lat": 27.564433,
            "lng": 109.96778
        },
        "ad_info": {
            "adcode": 431202,
            "province": "湖南省",
            "city": "怀化市",
            "district": "鹤城区"
        }
    },
    {
        "id": "13997632087639768149",
        "title": "公共厕所",
        "address": "湖南省怀化市鹤城区刘塘路与顺天南路交叉口东南方向207米左右",
        "tel": "",
        "category": "基础设施:公共设施:公共厕所",
        "type": 0,
        "location": {
            "lat": 27.527841,
            "lng": 110.008401
        },
        "ad_info": {
            "adcode": 431202,
            "province": "湖南省",
            "city": "怀化市",
            "district": "鹤城区"
        }
    },
    {
        "id": "9886278758340633644",
        "title": "公共厕所",
        "address": "湖南省怀化市靖州苗族侗族自治县梅林西路与永平路交叉口西南方向37米左右",
        "tel": "",
        "category": "基础设施:公共设施:公共厕所",
        "type": 0,
        "location": {
            "lat": 26.570013,
            "lng": 109.67697
        },
        "ad_info": {
            "adcode": 431229,
            "province": "湖南省",
            "city": "怀化市",
            "district": "靖州苗族侗族自治县"
        }
    },
    {
        "id": "18028345050036453640",
        "title": "公共厕所",
        "address": "湖南省怀化市鹤城区花溪路与香洲路交叉口东北方向180米左右",
        "tel": "",
        "category": "基础设施:公共设施:公共厕所",
        "type": 0,
        "location": {
            "lat": 27.54883,
            "lng": 109.99451
        },
        "ad_info": {
            "adcode": 431202,
            "province": "湖南省",
            "city": "怀化市",
            "district": "鹤城区"
        }
    },
    {
        "id": "15210507622994296141",
        "title": "公共厕所",
        "address": "湖南省怀化市鹤城区东盟大道与本业大道交叉口西北方向230米左右",
        "tel": "",
        "category": "基础设施:公共设施:公共厕所",
        "type": 0,
        "location": {
            "lat": 27.514903,
            "lng": 109.968143
        },
        "ad_info": {
            "adcode": 431202,
            "province": "湖南省",
            "city": "怀化市",
            "district": "鹤城区"
        }
    },
    {
        "id": "12632776932209881411",
        "title": "公共厕所",
        "address": "湖南省怀化市会同县坪村镇",
        "tel": "",
        "category": "基础设施:公共设施:公共厕所",
        "type": 0,
        "location": {
            "lat": 26.953448,
            "lng": 109.748851
        },
        "ad_info": {
            "adcode": 431225,
            "province": "湖南省",
            "city": "怀化市",
            "district": "会同县"
        }
    },
    {
        "id": "17055380927954788850",
        "title": "公共厕所",
        "address": "湖南省怀化市新晃侗族自治县晃州东路与晃州西路交叉口正东方向410米左右",
        "tel": "",
        "category": "基础设施:公共设施:公共厕所",
        "type": 0,
        "location": {
            "lat": 27.347234,
            "lng": 109.189657
        },
        "ad_info": {
            "adcode": 431227,
            "province": "湖南省",
            "city": "怀化市",
            "district": "新晃侗族自治县"
        }
    },
    {
        "id": "167792227373293164",
        "title": "公共厕所",
        "address": "湖南省怀化市靖州苗族侗族自治县广场路与永平路交叉口西南方向238米左右",
        "tel": "",
        "category": "基础设施:公共设施:公共厕所",
        "type": 0,
        "location": {
            "lat": 26.578376,
            "lng": 109.675172
        },
        "ad_info": {
            "adcode": 431229,
            "province": "湖南省",
            "city": "怀化市",
            "district": "靖州苗族侗族自治县"
        }
    },
    {
        "id": "3926119069798666910",
        "title": "公共厕所",
        "address": "湖南省怀化市麻阳苗族自治县农场路与长河路交叉口西南方向61米左右",
        "tel": "",
        "category": "基础设施:公共设施:公共厕所",
        "type": 0,
        "location": {
            "lat": 27.861896,
            "lng": 109.817137
        },
        "ad_info": {
            "adcode": 431226,
            "province": "湖南省",
            "city": "怀化市",
            "district": "麻阳苗族自治县"
        }
    },
    {
        "id": "11224071284846859634",
        "title": "公共厕所",
        "address": "湖南省怀化市靖州苗族侗族自治县幸福路与永平路交叉口正西方向252米左右",
        "tel": "",
        "category": "基础设施:公共设施:公共厕所",
        "type": 0,
        "location": {
            "lat": 26.577659,
            "lng": 109.675153
        },
        "ad_info": {
            "adcode": 431229,
            "province": "湖南省",
            "city": "怀化市",
            "district": "靖州苗族侗族自治县"
        }
    },
    {
        "id": "7674546198250286162",
        "title": "公共厕所",
        "address": "湖南省怀化市鹤城区梨园路老街坊(古玩街店)",
        "tel": "",
        "category": "基础设施:公共设施:公共厕所",
        "type": 0,
        "location": {
            "lat": 27.547086,
            "lng": 109.973745
        },
        "ad_info": {
            "adcode": 431202,
            "province": "湖南省",
            "city": "怀化市",
            "district": "鹤城区"
        }
    },
    {
        "id": "9934932355095191900",
        "title": "公共厕所",
        "address": "湖南省怀化市鹤城区黄金坳中学西侧170米",
        "tel": "",
        "category": "基础设施:公共设施:公共厕所",
        "type": 0,
        "location": {
            "lat": 27.642548,
            "lng": 109.955801
        },
        "ad_info": {
            "adcode": 431202,
            "province": "湖南省",
            "city": "怀化市",
            "district": "鹤城区"
        }
    },
    {
        "id": "11272082309929331479",
        "title": "公共厕所",
        "address": "湖南省怀化市辰溪县天怡路与辰州北路交叉口东北方向81米左右",
        "tel": "",
        "category": "基础设施:公共设施:公共厕所",
        "type": 0,
        "location": {
            "lat": 28.012826,
            "lng": 110.201757
        },
        "ad_info": {
            "adcode": 431223,
            "province": "湖南省",
            "city": "怀化市",
            "district": "辰溪县"
        }
    },
    {
        "id": "3538549141766462647",
        "title": "公共厕所",
        "address": "湖南省怀化市鹤城区迎丰东路391号",
        "tel": "",
        "category": "基础设施:公共设施:公共厕所",
        "type": 0,
        "location": {
            "lat": 27.567829,
            "lng": 110.012995
        },
        "ad_info": {
            "adcode": 431202,
            "province": "湖南省",
            "city": "怀化市",
            "district": "鹤城区"
        }
    },
    {
        "id": "11224527819646052779",
        "title": "公共厕所",
        "address": "湖南省怀化市鹤城区城中街道人民南路蓝电大厦东北门",
        "tel": "",
        "category": "基础设施:公共设施:公共厕所",
        "type": 0,
        "location": {
            "lat": 27.545645,
            "lng": 109.961024
        },
        "ad_info": {
            "adcode": 431202,
            "province": "湖南省",
            "city": "怀化市",
            "district": "鹤城区"
        }
    },
    {
        "id": "16578741516294120714",
        "title": "公共厕所",
        "address": "湖南省怀化市辰溪县环城路与辰河路交叉口西南方向21米左右",
        "tel": "",
        "category": "基础设施:公共设施:公共厕所",
        "type": 0,
        "location": {
            "lat": 28.006711,
            "lng": 110.19126
        },
        "ad_info": {
            "adcode": 431223,
            "province": "湖南省",
            "city": "怀化市",
            "district": "辰溪县"
        }
    },
    {
        "id": "1484183472319407412",
        "title": "公共厕所",
        "address": "湖南省怀化市沅陵县迎宾北路与鸳鸯溶北街交叉口正北方向40米左右",
        "tel": "",
        "category": "基础设施:公共设施:公共厕所",
        "type": 0,
        "location": {
            "lat": 28.461776,
            "lng": 110.404974
        },
        "ad_info": {
            "adcode": 431222,
            "province": "湖南省",
            "city": "怀化市",
            "district": "沅陵县"
        }
    },
    {
        "id": "11888706353887563882",
        "title": "公共厕所",
        "address": "湖南省怀化市辰溪县胜利路与辰河路交叉口西南方向50米左右",
        "tel": "",
        "category": "基础设施:公共设施:公共厕所",
        "type": 0,
        "location": {
            "lat": 28.012008,
            "lng": 110.198676
        },
        "ad_info": {
            "adcode": 431223,
            "province": "湖南省",
            "city": "怀化市",
            "district": "辰溪县"
        }
    },
    {
        "id": "3223452829145663214",
        "title": "公共厕所(第三公共厕所)",
        "address": "湖南省怀化市靖州苗族侗族自治县再思路与永平路交叉口西北方向183米左右",
        "tel": "",
        "category": "基础设施:公共设施:公共厕所",
        "type": 0,
        "location": {
            "lat": 26.582805,
            "lng": 109.676452
        },
        "ad_info": {
            "adcode": 431229,
            "province": "湖南省",
            "city": "怀化市",
            "district": "靖州苗族侗族自治县"
        }
    },
    {
        "id": "18054712487827189806",
        "title": "公共厕所",
        "address": "湖南省怀化市靖州苗族侗族自治县X093与体育路交叉口正东方向224米左右",
        "tel": "",
        "category": "基础设施:公共设施:公共厕所",
        "type": 0,
        "location": {
            "lat": 26.577438,
            "lng": 109.674559
        },
        "ad_info": {
            "adcode": 431229,
            "province": "湖南省",
            "city": "怀化市",
            "district": "靖州苗族侗族自治县"
        }
    },
    {
        "id": "2773933044806890109",
        "title": "公共厕所",
        "address": "湖南省怀化市鹤城区凯里亚德酒店(怀化铜锣湾广场店)西南侧160米",
        "tel": "",
        "category": "基础设施:公共设施:公共厕所",
        "type": 0,
        "location": {
            "lat": 27.532249,
            "lng": 109.963785
        },
        "ad_info": {
            "adcode": 431202,
            "province": "湖南省",
            "city": "怀化市",
            "district": "鹤城区"
        }
    },
    {
        "id": "16559098284137126598",
        "title": "公共厕所",
        "address": "湖南省怀化市鹤城区锦溪南路怀化体育中心",
        "tel": "",
        "category": "基础设施:公共设施:公共厕所",
        "type": 0,
        "location": {
            "lat": 27.532614,
            "lng": 110.001612
        },
        "ad_info": {
            "adcode": 431202,
            "province": "湖南省",
            "city": "怀化市",
            "district": "鹤城区"
        }
    },
    {
        "id": "6471809074995517669",
        "title": "公共厕所",
        "address": "湖南省怀化市通道侗族自治县礼雅路与转兵中路交叉口正南方向542米左右",
        "tel": "",
        "category": "基础设施:公共设施:公共厕所",
        "type": 0,
        "location": {
            "lat": 26.153455,
            "lng": 109.791395
        },
        "ad_info": {
            "adcode": 431230,
            "province": "湖南省",
            "city": "怀化市",
            "district": "通道侗族自治县"
        }
    },
    {
        "id": "12101050596519373103",
        "title": "公共厕所",
        "address": "湖南省怀化市麻阳苗族自治县建设南路与桂缘路交叉口正东方向166米左右",
        "tel": "",
        "category": "基础设施:公共设施:公共厕所",
        "type": 0,
        "location": {
            "lat": 27.864192,
            "lng": 109.800201
        },
        "ad_info": {
            "adcode": 431226,
            "province": "湖南省",
            "city": "怀化市",
            "district": "麻阳苗族自治县"
        }
    },
    {
        "id": "7493960416837249358",
        "title": "公共厕所",
        "address": "湖南省怀化市辰溪县北正街与姚家巷交叉口正南方向23米左右",
        "tel": "",
        "category": "基础设施:公共设施:公共厕所",
        "type": 0,
        "location": {
            "lat": 28.006315,
            "lng": 110.186005
        },
        "ad_info": {
            "adcode": 431223,
            "province": "湖南省",
            "city": "怀化市",
            "district": "辰溪县"
        }
    },
    {
        "id": "16721162291683281847",
        "title": "公共厕所",
        "address": "湖南省怀化市芷江侗族自治县和平路与步行街交叉口正南方向150米左右",
        "tel": "",
        "category": "基础设施:公共设施:公共厕所",
        "type": 0,
        "location": {
            "lat": 27.434397,
            "lng": 109.687025
        },
        "ad_info": {
            "adcode": 431228,
            "province": "湖南省",
            "city": "怀化市",
            "district": "芷江侗族自治县"
        }
    },
    {
        "id": "13068626421390366588",
        "title": "公共厕所",
        "address": "湖南省怀化市溆浦县溆水北路与警予西路交叉口西南方向39米左右",
        "tel": "",
        "category": "基础设施:公共设施:公共厕所",
        "type": 0,
        "location": {
            "lat": 27.906115,
            "lng": 110.590558
        },
        "ad_info": {
            "adcode": 431224,
            "province": "湖南省",
            "city": "怀化市",
            "district": "溆浦县"
        }
    },
    {
        "id": "16174875222544910777",
        "title": "公共厕所",
        "address": "湖南省怀化市麻阳苗族自治县G354与X206交叉口正西方向279米左右",
        "tel": "",
        "category": "基础设施:公共设施:公共厕所",
        "type": 0,
        "location": {
            "lat": 27.903344,
            "lng": 110.003157
        },
        "ad_info": {
            "adcode": 431226,
            "province": "湖南省",
            "city": "怀化市",
            "district": "麻阳苗族自治县"
        }
    },
    {
        "id": "18328698021997966377",
        "title": "公共厕所",
        "address": "湖南省怀化市通道侗族自治县城东路与转兵中路交叉口西北方向63米左右",
        "tel": "",
        "category": "基础设施:公共设施:公共厕所",
        "type": 0,
        "location": {
            "lat": 26.163215,
            "lng": 109.788676
        },
        "ad_info": {
            "adcode": 431230,
            "province": "湖南省",
            "city": "怀化市",
            "district": "通道侗族自治县"
        }
    },
    {
        "id": "10025012695917804779",
        "title": "公共厕所",
        "address": "湖南省怀化市靖州苗族侗族自治县广场路与永平路交叉口西南方向184米左右",
        "tel": "",
        "category": "基础设施:公共设施:公共厕所",
        "type": 0,
        "location": {
            "lat": 26.579151,
            "lng": 109.675116
        },
        "ad_info": {
            "adcode": 431229,
            "province": "湖南省",
            "city": "怀化市",
            "district": "靖州苗族侗族自治县"
        }
    },
    {
        "id": "6824936453044312427",
        "title": "洗手间",
        "address": "湖南省怀化市鹤城区人民南路169号怀化飞达商业广场F2",
        "tel": "",
        "category": "基础设施:公共设施:公共厕所",
        "type": 0,
        "location": {
            "lat": 27.546972,
            "lng": 109.965844
        },
        "ad_info": {
            "adcode": 431202,
            "province": "湖南省",
            "city": "怀化市",
            "district": "鹤城区"
        }
    },
    {
        "id": "10745330744089870681",
        "title": "公共厕所(会同县木叶山兔业乡村旅游点)",
        "address": "湖南省怀化市会同县木叶山兔业有限公司西南侧",
        "tel": "",
        "category": "基础设施:公共设施:公共厕所",
        "type": 0,
        "location": {
            "lat": 26.861648,
            "lng": 109.684094
        },
        "ad_info": {
            "adcode": 431225,
            "province": "湖南省",
            "city": "怀化市",
            "district": "会同县"
        }
    },
    {
        "id": "722509355271200673",
        "title": "公共厕所",
        "address": "湖南省怀化市沅陵县辰龙路与酉水大桥交叉口西南方向54米左右",
        "tel": "",
        "category": "基础设施:公共设施:公共厕所",
        "type": 0,
        "location": {
            "lat": 28.452218,
            "lng": 110.387452
        },
        "ad_info": {
            "adcode": 431222,
            "province": "湖南省",
            "city": "怀化市",
            "district": "沅陵县"
        }
    },
    {
        "id": "5939704463593538739",
        "title": "公共厕所",
        "address": "湖南省怀化市沅陵县滨江大道与回龙路交叉口西南方向73米左右",
        "tel": "",
        "category": "基础设施:公共设施:公共厕所",
        "type": 0,
        "location": {
            "lat": 28.45506,
            "lng": 110.410547
        },
        "ad_info": {
            "adcode": 431222,
            "province": "湖南省",
            "city": "怀化市",
            "district": "沅陵县"
        }
    },
    {
        "id": "11129732708165104071",
        "title": "公共厕所",
        "address": "湖南省怀化市溆浦县团结路与迎宾路交叉口西北方向243米左右",
        "tel": "",
        "category": "基础设施:公共设施:公共厕所",
        "type": 0,
        "location": {
            "lat": 27.916849,
            "lng": 110.571625
        },
        "ad_info": {
            "adcode": 431224,
            "province": "湖南省",
            "city": "怀化市",
            "district": "溆浦县"
        }
    },
    {
        "id": "15118251947314037819",
        "title": "公共厕所",
        "address": "湖南省怀化市芷江侗族自治县凯旋路与凯行北路交叉口西北方向121米左右",
        "tel": "",
        "category": "基础设施:公共设施:公共厕所",
        "type": 0,
        "location": {
            "lat": 27.433705,
            "lng": 109.690187
        },
        "ad_info": {
            "adcode": 431228,
            "province": "湖南省",
            "city": "怀化市",
            "district": "芷江侗族自治县"
        }
    },
    {
        "id": "3462291668813999715",
        "title": "洗手间",
        "address": "湖南省怀化市鹤城区人民南路169号怀化飞达商业广场F4",
        "tel": "",
        "category": "基础设施:公共设施:公共厕所",
        "type": 0,
        "location": {
            "lat": 27.546964,
            "lng": 109.965847
        },
        "ad_info": {
            "adcode": 431202,
            "province": "湖南省",
            "city": "怀化市",
            "district": "鹤城区"
        }
    },
    {
        "id": "8119700701039774881",
        "title": "公共厕所",
        "address": "湖南省怀化市新晃侗族自治县晃州东路与晃州西路交叉口正东方向992米左右",
        "tel": "",
        "category": "基础设施:公共设施:公共厕所",
        "type": 0,
        "location": {
            "lat": 27.348115,
            "lng": 109.195692
        },
        "ad_info": {
            "adcode": 431227,
            "province": "湖南省",
            "city": "怀化市",
            "district": "新晃侗族自治县"
        }
    },
    {
        "id": "860263155806785345",
        "title": "公共厕所",
        "address": "湖南省怀化市沅陵县迎宾北路与鸭子尾路交叉口东北方向30米左右",
        "tel": "",
        "category": "基础设施:公共设施:公共厕所",
        "type": 0,
        "location": {
            "lat": 28.459748,
            "lng": 110.40722
        },
        "ad_info": {
            "adcode": 431222,
            "province": "湖南省",
            "city": "怀化市",
            "district": "沅陵县"
        }
    },
    {
        "id": "12385502861161626758",
        "title": "公共厕所",
        "address": "湖南省怀化市鹤城区武陵路与西都巷交叉口西南方向59米左右",
        "tel": "",
        "category": "基础设施:公共设施:公共厕所",
        "type": 0,
        "location": {
            "lat": 27.555623,
            "lng": 109.96251
        },
        "ad_info": {
            "adcode": 431202,
            "province": "湖南省",
            "city": "怀化市",
            "district": "鹤城区"
        }
    },
    {
        "id": "3023975491341269088",
        "title": "公共厕所",
        "address": "湖南省怀化市溆浦县G241与S312交叉口正北方向39米左右",
        "tel": "",
        "category": "基础设施:公共设施:公共厕所",
        "type": 0,
        "location": {
            "lat": 27.416137,
            "lng": 110.478649
        },
        "ad_info": {
            "adcode": 431224,
            "province": "湖南省",
            "city": "怀化市",
            "district": "溆浦县"
        }
    },
    {
        "id": "5006982260465194342",
        "title": "公共厕所",
        "address": "湖南省怀化市鹤城区南环路与环城南路交叉口东北方向66米左右",
        "tel": "",
        "category": "基础设施:公共设施:公共厕所",
        "type": 0,
        "location": {
            "lat": 27.521528,
            "lng": 110.004927
        },
        "ad_info": {
            "adcode": 431202,
            "province": "湖南省",
            "city": "怀化市",
            "district": "鹤城区"
        }
    },
    {
        "id": "3581596016410606358",
        "title": "公共厕所",
        "address": "湖南省怀化市溆浦县S312与Y534交叉口东北方向233米左右",
        "tel": "",
        "category": "基础设施:公共设施:公共厕所",
        "type": 0,
        "location": {
            "lat": 27.403924,
            "lng": 110.521403
        },
        "ad_info": {
            "adcode": 431224,
            "province": "湖南省",
            "city": "怀化市",
            "district": "溆浦县"
        }
    },
    {
        "id": "6262915608118784282",
        "title": "公共厕所",
        "address": "湖南省怀化市鹤城区玉溪路与花溪路交叉口正西方向39米左右",
        "tel": "",
        "category": "基础设施:公共设施:公共厕所",
        "type": 0,
        "location": {
            "lat": 27.547739,
            "lng": 109.986847
        },
        "ad_info": {
            "adcode": 431202,
            "province": "湖南省",
            "city": "怀化市",
            "district": "鹤城区"
        }
    },
    {
        "id": "15805395495618873238",
        "title": "公共厕所",
        "address": "湖南省怀化市芷江侗族自治县步行街与龙津路交叉口东北方向30米左右",
        "tel": "",
        "category": "基础设施:公共设施:公共厕所",
        "type": 0,
        "location": {
            "lat": 27.436125,
            "lng": 109.686474
        },
        "ad_info": {
            "adcode": 431228,
            "province": "湖南省",
            "city": "怀化市",
            "district": "芷江侗族自治县"
        }
    },
    {
        "id": "11482916063693208668",
        "title": "公共厕所",
        "address": "湖南省怀化市中方县杜鹃路2号",
        "tel": "",
        "category": "基础设施:公共设施:公共厕所",
        "type": 0,
        "location": {
            "lat": 27.432649,
            "lng": 109.949432
        },
        "ad_info": {
            "adcode": 431221,
            "province": "湖南省",
            "city": "怀化市",
            "district": "中方县"
        }
    },
    {
        "id": "18286388575843899577",
        "title": "公共厕所",
        "address": "湖南省怀化市中方县滨江中路与玫瑰路交叉口西南方向23米左右",
        "tel": "",
        "category": "基础设施:公共设施:公共厕所",
        "type": 0,
        "location": {
            "lat": 27.437024,
            "lng": 109.939067
        },
        "ad_info": {
            "adcode": 431221,
            "province": "湖南省",
            "city": "怀化市",
            "district": "中方县"
        }
    },
    {
        "id": "5081279000237305054",
        "title": "公共厕所",
        "address": "湖南省怀化市会同县将军北路与将军南路交叉口东南方向153米左右",
        "tel": "",
        "category": "基础设施:公共设施:公共厕所",
        "type": 0,
        "location": {
            "lat": 26.872075,
            "lng": 109.722439
        },
        "ad_info": {
            "adcode": 431225,
            "province": "湖南省",
            "city": "怀化市",
            "district": "会同县"
        }
    },
    {
        "id": "12793164189488123634",
        "title": "公共厕所",
        "address": "湖南省怀化市鹤城区东兴步行街与茶园东路交叉口东南方向118米左右",
        "tel": "",
        "category": "基础设施:公共设施:公共厕所",
        "type": 0,
        "location": {
            "lat": 27.548482,
            "lng": 109.962885
        },
        "ad_info": {
            "adcode": 431202,
            "province": "湖南省",
            "city": "怀化市",
            "district": "鹤城区"
        }
    },
    {
        "id": "12305056628354550253",
        "title": "公共厕所",
        "address": "湖南省怀化市溆浦县思蒙丹霞风景区游客中心",
        "tel": "",
        "category": "基础设施:公共设施:公共厕所",
        "type": 0,
        "location": {
            "lat": 27.832506,
            "lng": 110.517426
        },
        "ad_info": {
            "adcode": 431224,
            "province": "湖南省",
            "city": "怀化市",
            "district": "溆浦县"
        }
    },
    {
        "id": "11081819298110481591",
        "title": "公共厕所",
        "address": "湖南省怀化市中方县桐木镇中国石化桐木加油站旁",
        "tel": "",
        "category": "基础设施:公共设施:公共厕所",
        "type": 0,
        "location": {
            "lat": 27.310023,
            "lng": 109.901842
        },
        "ad_info": {
            "adcode": 431221,
            "province": "湖南省",
            "city": "怀化市",
            "district": "中方县"
        }
    },
    {
        "id": "13640387976553306910",
        "title": "公共厕所",
        "address": "湖南省怀化市鹤城区烂湾巷与红星南路交叉口正南方向412米左右",
        "tel": "",
        "category": "基础设施:公共设施:公共厕所",
        "type": 0,
        "location": {
            "lat": 27.533307,
            "lng": 109.975715
        },
        "ad_info": {
            "adcode": 431202,
            "province": "湖南省",
            "city": "怀化市",
            "district": "鹤城区"
        }
    },
    {
        "id": "9227983696829138932",
        "title": "公共厕所",
        "address": "湖南省怀化市鹤城区黄家山路160号",
        "tel": "",
        "category": "基础设施:公共设施:公共厕所",
        "type": 0,
        "location": {
            "lat": 27.535516,
            "lng": 109.940937
        },
        "ad_info": {
            "adcode": 431202,
            "province": "湖南省",
            "city": "怀化市",
            "district": "鹤城区"
        }
    },
    {
        "id": "13582362321898448821",
        "title": "公共厕所",
        "address": "湖南省怀化市鹤城区锦溪北路与长湾里巷交叉口西北方向105米左右",
        "tel": "",
        "category": "基础设施:公共设施:公共厕所",
        "type": 0,
        "location": {
            "lat": 27.55654,
            "lng": 109.99317
        },
        "ad_info": {
            "adcode": 431202,
            "province": "湖南省",
            "city": "怀化市",
            "district": "鹤城区"
        }
    },
    {
        "id": "14780371753292936129",
        "title": "公共厕所",
        "address": "湖南省怀化市鹤城区正清路与鹤州路交叉口东北方向20米左右",
        "tel": "",
        "category": "基础设施:公共设施:公共厕所",
        "type": 0,
        "location": {
            "lat": 27.544297,
            "lng": 109.976604
        },
        "ad_info": {
            "adcode": 431202,
            "province": "湖南省",
            "city": "怀化市",
            "district": "鹤城区"
        }
    },
    {
        "id": "15843851012089547815",
        "title": "公共厕所",
        "address": "湖南省怀化市鹤城区沿河路与迎丰西路交叉口正东方向142米左右",
        "tel": "",
        "category": "基础设施:公共设施:公共厕所",
        "type": 0,
        "location": {
            "lat": 27.547814,
            "lng": 109.942857
        },
        "ad_info": {
            "adcode": 431202,
            "province": "湖南省",
            "city": "怀化市",
            "district": "鹤城区"
        }
    },
    {
        "id": "10263852440625949195",
        "title": "公共厕所",
        "address": "湖南省怀化市溆浦县团结路与李家桥北巷交叉口正西方向151米左右",
        "tel": "",
        "category": "基础设施:公共设施:公共厕所",
        "type": 0,
        "location": {
            "lat": 27.910489,
            "lng": 110.582654
        },
        "ad_info": {
            "adcode": 431224,
            "province": "湖南省",
            "city": "怀化市",
            "district": "溆浦县"
        }
    },
    {
        "id": "8544307499989933647",
        "title": "公共厕所",
        "address": "湖南省怀化市鹤城区正清路与香洲路交叉口正北方向256米左右",
        "tel": "",
        "category": "基础设施:公共设施:公共厕所",
        "type": 0,
        "location": {
            "lat": 27.543038,
            "lng": 109.994026
        },
        "ad_info": {
            "adcode": 431202,
            "province": "湖南省",
            "city": "怀化市",
            "district": "鹤城区"
        }
    },
    {
        "id": "5699011531579940042",
        "title": "公共厕所",
        "address": "湖南省怀化市芷江侗族自治县G320与芷江大桥交叉口西北方向88米左右",
        "tel": "",
        "category": "基础设施:公共设施:公共厕所",
        "type": 0,
        "location": {
            "lat": 27.427012,
            "lng": 109.689902
        },
        "ad_info": {
            "adcode": 431228,
            "province": "湖南省",
            "city": "怀化市",
            "district": "芷江侗族自治县"
        }
    },
    {
        "id": "658748189023856383",
        "title": "公共厕所(辰溪县孝坪镇当江洲村)",
        "address": "湖南省怀化市辰溪县孝坪镇当江洲村乡道旁",
        "tel": "",
        "category": "基础设施:公共设施:公共厕所",
        "type": 0,
        "location": {
            "lat": 28.068999,
            "lng": 110.132135
        },
        "ad_info": {
            "adcode": 431223,
            "province": "湖南省",
            "city": "怀化市",
            "district": "辰溪县"
        }
    },
    {
        "id": "16424043328320648890",
        "title": "公共厕所(辰溪县五保田古村)",
        "address": "湖南省怀化市辰溪县102乡道五保田古村",
        "tel": "",
        "category": "基础设施:公共设施:公共厕所",
        "type": 0,
        "location": {
            "lat": 27.595107,
            "lng": 110.353431
        },
        "ad_info": {
            "adcode": 431223,
            "province": "湖南省",
            "city": "怀化市",
            "district": "辰溪县"
        }
    },
    {
        "id": "7064239882276849763",
        "title": "公共厕所",
        "address": "湖南省怀化市鹤城区富程路与迎丰中路辅路交叉口东南方向35米左右",
        "tel": "",
        "category": "基础设施:公共设施:公共厕所",
        "type": 0,
        "location": {
            "lat": 27.551958,
            "lng": 109.977795
        },
        "ad_info": {
            "adcode": 431202,
            "province": "湖南省",
            "city": "怀化市",
            "district": "鹤城区"
        }
    },
    {
        "id": "4497275086178712062",
        "title": "公共厕所",
        "address": "湖南省怀化市芷江侗族自治县G320与X473交叉口正北方向22米左右",
        "tel": "",
        "category": "基础设施:公共设施:公共厕所",
        "type": 0,
        "location": {
            "lat": 27.507046,
            "lng": 109.79292
        },
        "ad_info": {
            "adcode": 431228,
            "province": "湖南省",
            "city": "怀化市",
            "district": "芷江侗族自治县"
        }
    },
    {
        "id": "4276176578247897331",
        "title": "公共厕所",
        "address": "湖南省怀化市芷江侗族自治县东紫巷与清江路交叉口西南方向76米左右",
        "tel": "",
        "category": "基础设施:公共设施:公共厕所",
        "type": 0,
        "location": {
            "lat": 27.444133,
            "lng": 109.686498
        },
        "ad_info": {
            "adcode": 431228,
            "province": "湖南省",
            "city": "怀化市",
            "district": "芷江侗族自治县"
        }
    },
    {
        "id": "8554686093750278142",
        "title": "公共厕所",
        "address": "湖南省怀化市麻阳苗族自治县新城路与新城路西一弄交叉口正东方向32米左右",
        "tel": "",
        "category": "基础设施:公共设施:公共厕所",
        "type": 0,
        "location": {
            "lat": 27.859939,
            "lng": 109.799101
        },
        "ad_info": {
            "adcode": 431226,
            "province": "湖南省",
            "city": "怀化市",
            "district": "麻阳苗族自治县"
        }
    },
    {
        "id": "6419552148732827931",
        "title": "公共厕所",
        "address": "湖南省怀化市芷江侗族自治县东紫巷与岩路街交叉口西南方向82米左右",
        "tel": "",
        "category": "基础设施:公共设施:公共厕所",
        "type": 0,
        "location": {
            "lat": 27.442392,
            "lng": 109.687476
        },
        "ad_info": {
            "adcode": 431228,
            "province": "湖南省",
            "city": "怀化市",
            "district": "芷江侗族自治县"
        }
    },
    {
        "id": "12735208078710637703",
        "title": "公共厕所",
        "address": "湖南省怀化市鹤城区长丰路1-3号",
        "tel": "",
        "category": "基础设施:公共设施:公共厕所",
        "type": 0,
        "location": {
            "lat": 27.561972,
            "lng": 109.963905
        },
        "ad_info": {
            "adcode": 431202,
            "province": "湖南省",
            "city": "怀化市",
            "district": "鹤城区"
        }
    },
    {
        "id": "15044882726364402953",
        "title": "公共厕所(会同县望东乡村旅游点停车场外侧)",
        "address": "湖南省怀化市会同县",
        "tel": "",
        "category": "基础设施:公共设施:公共厕所",
        "type": 0,
        "location": {
            "lat": 26.988379,
            "lng": 110.010114
        },
        "ad_info": {
            "adcode": 431225,
            "province": "湖南省",
            "city": "怀化市",
            "district": "会同县"
        }
    },
    {
        "id": "17659765804700132529",
        "title": "公共厕所",
        "address": "湖南省怀化市芷江侗族自治县芷江和平园西侧280米",
        "tel": "",
        "category": "基础设施:公共设施:公共厕所",
        "type": 0,
        "location": {
            "lat": 27.446486,
            "lng": 109.718304
        },
        "ad_info": {
            "adcode": 431228,
            "province": "湖南省",
            "city": "怀化市",
            "district": "芷江侗族自治县"
        }
    },
    {
        "id": "14645943330179942528",
        "title": "公共厕所",
        "address": "湖南省怀化市新晃侗族自治县太阳坪路夜郎文化广场(西南角)",
        "tel": "",
        "category": "基础设施:公共设施:公共厕所",
        "type": 0,
        "location": {
            "lat": 27.358182,
            "lng": 109.172059
        },
        "ad_info": {
            "adcode": 431227,
            "province": "湖南省",
            "city": "怀化市",
            "district": "新晃侗族自治县"
        }
    },
    {
        "id": "301964411725161434",
        "title": "北街公共厕所",
        "address": "湖南省怀化市新晃侗族自治县北街与金星商业街交叉口正南方向8米左右",
        "tel": "",
        "category": "基础设施:公共设施:公共厕所",
        "type": 0,
        "location": {
            "lat": 27.362002,
            "lng": 109.171827
        },
        "ad_info": {
            "adcode": 431227,
            "province": "湖南省",
            "city": "怀化市",
            "district": "新晃侗族自治县"
        }
    },
    {
        "id": "13401394135231073576",
        "title": "公共厕所",
        "address": "湖南省怀化市芷江侗族自治县迎宾路与飞虎路交叉口东南方向202米左右",
        "tel": "",
        "category": "基础设施:公共设施:公共厕所",
        "type": 0,
        "location": {
            "lat": 27.430192,
            "lng": 109.699974
        },
        "ad_info": {
            "adcode": 431228,
            "province": "湖南省",
            "city": "怀化市",
            "district": "芷江侗族自治县"
        }
    },
    {
        "id": "7360338127478963212",
        "title": "公共厕所",
        "address": "湖南省怀化市芷江侗族自治县府后路与胜利路交叉口正北方向1329米左右",
        "tel": "",
        "category": "基础设施:公共设施:公共厕所",
        "type": 0,
        "location": {
            "lat": 27.454216,
            "lng": 109.661505
        },
        "ad_info": {
            "adcode": 431228,
            "province": "湖南省",
            "city": "怀化市",
            "district": "芷江侗族自治县"
        }
    },
    {
        "id": "15169078841289289473",
        "title": "公共公共厕所(辰溪县锦岩村旅游接待中心)",
        "address": "湖南省怀化市辰溪县锦岩村旅游接待中心",
        "tel": "",
        "category": "基础设施:公共设施:公共厕所",
        "type": 0,
        "location": {
            "lat": 28.018639,
            "lng": 110.169465
        },
        "ad_info": {
            "adcode": 431223,
            "province": "湖南省",
            "city": "怀化市",
            "district": "辰溪县"
        }
    },
    {
        "id": "17607851793255295172",
        "title": "公共厕所",
        "address": "湖南省怀化市芷江侗族自治县惠群园小区东南侧280米",
        "tel": "",
        "category": "基础设施:公共设施:公共厕所",
        "type": 0,
        "location": {
            "lat": 27.429555,
            "lng": 109.685609
        },
        "ad_info": {
            "adcode": 431228,
            "province": "湖南省",
            "city": "怀化市",
            "district": "芷江侗族自治县"
        }
    },
    {
        "id": "9862833373662818425",
        "title": "新晃服务区公共厕所",
        "address": "湖南省怀化市新晃侗族自治县沪昆高速新晃服务区",
        "tel": "",
        "category": "基础设施:公共设施:公共厕所",
        "type": 0,
        "location": {
            "lat": 27.349152,
            "lng": 109.155124
        },
        "ad_info": {
            "adcode": 431227,
            "province": "湖南省",
            "city": "怀化市",
            "district": "新晃侗族自治县"
        }
    },
    {
        "id": "2142107025355674268",
        "title": "怀化服务区公共厕所",
        "address": "湖南省怀化市鹤城区包茂高速与朱溪枢纽交叉口正南方向497米左右",
        "tel": "",
        "category": "基础设施:公共设施:公共厕所",
        "type": 0,
        "location": {
            "lat": 27.577235,
            "lng": 109.903072
        },
        "ad_info": {
            "adcode": 431202,
            "province": "湖南省",
            "city": "怀化市",
            "district": "鹤城区"
        }
    },
    {
        "id": "15369722927476813146",
        "title": "公共厕所",
        "address": "湖南省怀化市洪江市复建公路",
        "tel": "",
        "category": "基础设施:公共设施:公共厕所",
        "type": 0,
        "location": {
            "lat": 27.109784,
            "lng": 109.679784
        },
        "ad_info": {
            "adcode": 431281,
            "province": "湖南省",
            "city": "怀化市",
            "district": "洪江市"
        }
    },
    {
        "id": "7066032523080867561",
        "title": "通道服务区公共厕所",
        "address": "湖南省怀化市通道侗族自治县S221与Y958交叉口正南方向470米左右",
        "tel": "",
        "category": "基础设施:公共设施:公共厕所",
        "type": 0,
        "location": {
            "lat": 26.195545,
            "lng": 109.836577
        },
        "ad_info": {
            "adcode": 431230,
            "province": "湖南省",
            "city": "怀化市",
            "district": "通道侗族自治县"
        }
    },
    {
        "id": "3272483503601383273",
        "title": "新晃服务区公共厕所",
        "address": "湖南省怀化市新晃侗族自治县新晃服务区B区(320国道北)",
        "tel": "",
        "category": "基础设施:公共设施:公共厕所",
        "type": 0,
        "location": {
            "lat": 27.346903,
            "lng": 109.152915
        },
        "ad_info": {
            "adcode": 431227,
            "province": "湖南省",
            "city": "怀化市",
            "district": "新晃侗族自治县"
        }
    },
    {
        "id": "13261762399783622398",
        "title": "公共厕所",
        "address": "湖南省怀化市洪江市兰花路与开元大道交叉口正南方向52米左右",
        "tel": "",
        "category": "基础设施:公共设施:公共厕所",
        "type": 0,
        "location": {
            "lat": 27.205743,
            "lng": 109.830029
        },
        "ad_info": {
            "adcode": 431281,
            "province": "湖南省",
            "city": "怀化市",
            "district": "洪江市"
        }
    },
    {
        "id": "787770861826467491",
        "title": "公共厕所",
        "address": "湖南省怀化市洪江市星空庄园南侧230米",
        "tel": "",
        "category": "基础设施:公共设施:公共厕所",
        "type": 0,
        "location": {
            "lat": 27.158981,
            "lng": 110.051685
        },
        "ad_info": {
            "adcode": 431281,
            "province": "湖南省",
            "city": "怀化市",
            "district": "洪江市"
        }
    },
    {
        "id": "3265675265866822060",
        "title": "公共厕所",
        "address": "湖南省怀化市洪江市",
        "tel": "",
        "category": "基础设施:公共设施:公共厕所",
        "type": 0,
        "location": {
            "lat": 27.189618,
            "lng": 109.680423
        },
        "ad_info": {
            "adcode": 431281,
            "province": "湖南省",
            "city": "怀化市",
            "district": "洪江市"
        }
    },
    {
        "id": "1609937773492109057",
        "title": "沅陵服务区第二公共厕所",
        "address": "湖南省怀化市沅陵县杭瑞高速",
        "tel": "",
        "category": "基础设施:公共设施:公共厕所",
        "type": 0,
        "location": {
            "lat": 28.470468,
            "lng": 110.601534
        },
        "ad_info": {
            "adcode": 431222,
            "province": "湖南省",
            "city": "怀化市",
            "district": "沅陵县"
        }
    },
    {
        "id": "17281174606919335573",
        "title": "公共厕所",
        "address": "湖南省怀化市洪江市嵩云路与茅庵街交叉口正南方向313米左右",
        "tel": "",
        "category": "基础设施:公共设施:公共厕所",
        "type": 0,
        "location": {
            "lat": 27.106985,
            "lng": 109.998533
        },
        "ad_info": {
            "adcode": 431281,
            "province": "湖南省",
            "city": "怀化市",
            "district": "洪江市"
        }
    },
    {
        "id": "6620663213892280078",
        "title": "公共厕所",
        "address": "湖南省怀化市洪江市长顺管理西侧230米",
        "tel": "",
        "category": "基础设施:公共设施:公共厕所",
        "type": 0,
        "location": {
            "lat": 27.346688,
            "lng": 110.149701
        },
        "ad_info": {
            "adcode": 431281,
            "province": "湖南省",
            "city": "怀化市",
            "district": "洪江市"
        }
    },
    {
        "id": "15160242213990535599",
        "title": "怀化服务区第二公共厕所",
        "address": "湖南省怀化市鹤城区朱溪枢纽与长芷高速交叉口正南方向552米左右",
        "tel": "",
        "category": "基础设施:公共设施:公共厕所",
        "type": 0,
        "location": {
            "lat": 27.576859,
            "lng": 109.901346
        },
        "ad_info": {
            "adcode": 431202,
            "province": "湖南省",
            "city": "怀化市",
            "district": "鹤城区"
        }
    },
    {
        "id": "10389911121723534051",
        "title": "公共厕所",
        "address": "湖南省怀化市洪江市G209与X034交叉口正北方向412米左右",
        "tel": "",
        "category": "基础设施:公共设施:公共厕所",
        "type": 0,
        "location": {
            "lat": 27.24361,
            "lng": 109.871436
        },
        "ad_info": {
            "adcode": 431281,
            "province": "湖南省",
            "city": "怀化市",
            "district": "洪江市"
        }
    },
    {
        "id": "5573570858091858590",
        "title": "会同服务区公共厕所",
        "address": "湖南省怀化市会同县G65包茂高速西150米",
        "tel": "",
        "category": "基础设施:公共设施:公共厕所",
        "type": 0,
        "location": {
            "lat": 26.831182,
            "lng": 109.74558
        },
        "ad_info": {
            "adcode": 431225,
            "province": "湖南省",
            "city": "怀化市",
            "district": "会同县"
        }
    },
    {
        "id": "4533178672563837689",
        "title": "溆浦服务区公共厕所",
        "address": "湖南省怀化市溆浦县长芷高速溆浦服务区",
        "tel": "",
        "category": "基础设施:公共设施:公共厕所",
        "type": 0,
        "location": {
            "lat": 27.947525,
            "lng": 110.718158
        },
        "ad_info": {
            "adcode": 431224,
            "province": "湖南省",
            "city": "怀化市",
            "district": "溆浦县"
        }
    },
    {
        "id": "15207269051835389814",
        "title": "沅陵服务区公共厕所",
        "address": "湖南省怀化市沅陵县杭瑞高速",
        "tel": "",
        "category": "基础设施:公共设施:公共厕所",
        "type": 0,
        "location": {
            "lat": 28.470568,
            "lng": 110.598472
        },
        "ad_info": {
            "adcode": 431222,
            "province": "湖南省",
            "city": "怀化市",
            "district": "沅陵县"
        }
    },
    {
        "id": "4099748025561511822",
        "title": "公共厕所",
        "address": "湖南省怀化市洪江市G209与龙标路交叉口东北方向149米左右",
        "tel": "",
        "category": "基础设施:公共设施:公共厕所",
        "type": 0,
        "location": {
            "lat": 27.210881,
            "lng": 109.851383
        },
        "ad_info": {
            "adcode": 431281,
            "province": "湖南省",
            "city": "怀化市",
            "district": "洪江市"
        }
    },
    {
        "id": "12297748241468149844",
        "title": "公共厕所",
        "address": "湖南省怀化市洪江市中溪路与宝庆街交叉口东北方向98米左右",
        "tel": "",
        "category": "基础设施:公共设施:公共厕所",
        "type": 0,
        "location": {
            "lat": 27.198864,
            "lng": 109.825444
        },
        "ad_info": {
            "adcode": 431281,
            "province": "湖南省",
            "city": "怀化市",
            "district": "洪江市"
        }
    },
    {
        "id": "13731226412614743336",
        "title": "芷江高铁站公共厕所",
        "address": "湖南省怀化市芷江侗族自治县芷江站售票处南侧70米",
        "tel": "",
        "category": "基础设施:公共设施:公共厕所",
        "type": 0,
        "location": {
            "lat": 27.454513,
            "lng": 109.6599
        },
        "ad_info": {
            "adcode": 431228,
            "province": "湖南省",
            "city": "怀化市",
            "district": "芷江侗族自治县"
        }
    },
    {
        "id": "4974074285353125618",
        "title": "中方服务区公共厕所",
        "address": "湖南省怀化市中方县长芷高速中方服务区",
        "tel": "",
        "category": "基础设施:公共设施:公共厕所",
        "type": 0,
        "location": {
            "lat": 27.636235,
            "lng": 110.088555
        },
        "ad_info": {
            "adcode": 431221,
            "province": "湖南省",
            "city": "怀化市",
            "district": "中方县"
        }
    },
    {
        "id": "4527041165312671910",
        "title": "中方服务区公共厕所",
        "address": "湖南省怀化市中方县长芷高速",
        "tel": "",
        "category": "基础设施:公共设施:公共厕所",
        "type": 0,
        "location": {
            "lat": 27.635334,
            "lng": 110.089082
        },
        "ad_info": {
            "adcode": 431221,
            "province": "湖南省",
            "city": "怀化市",
            "district": "中方县"
        }
    },
    {
        "id": "17028531821444896985",
        "title": "沅陵服务区公共厕所",
        "address": "湖南省怀化市沅陵县沅陵服务区与G56杭瑞高速交叉口西南200米",
        "tel": "",
        "category": "基础设施:公共设施:公共厕所",
        "type": 0,
        "location": {
            "lat": 28.46963,
            "lng": 110.600734
        },
        "ad_info": {
            "adcode": 431222,
            "province": "湖南省",
            "city": "怀化市",
            "district": "沅陵县"
        }
    },
    {
        "id": "7720146939658064246",
        "title": "安江服务区公共厕所",
        "address": "湖南省怀化市洪江市G320与X057交叉口西南方向276米左右",
        "tel": "",
        "category": "基础设施:公共设施:公共厕所",
        "type": 0,
        "location": {
            "lat": 27.307448,
            "lng": 110.120327
        },
        "ad_info": {
            "adcode": 431281,
            "province": "湖南省",
            "city": "怀化市",
            "district": "洪江市"
        }
    },
    {
        "id": "4299500652639476789",
        "title": "安江服务区公共厕所",
        "address": "湖南省怀化市洪江市沪昆高速安江服务区",
        "tel": "",
        "category": "基础设施:公共设施:公共厕所",
        "type": 0,
        "location": {
            "lat": 27.306534,
            "lng": 110.118273
        },
        "ad_info": {
            "adcode": 431281,
            "province": "湖南省",
            "city": "怀化市",
            "district": "洪江市"
        }
    },
    {
        "id": "14677407740377954386",
        "title": "洪江服务区公共厕所",
        "address": "湖南省怀化市洪江市包茂高速洪江服务区",
        "tel": "",
        "category": "基础设施:公共设施:公共厕所",
        "type": 0,
        "location": {
            "lat": 27.278693,
            "lng": 109.827308
        },
        "ad_info": {
            "adcode": 431281,
            "province": "湖南省",
            "city": "怀化市",
            "district": "洪江市"
        }
    },
    {
        "id": "18083686176703450353",
        "title": "洪江服务区公共厕所",
        "address": "湖南省怀化市洪江市包茂高速洪江服务区",
        "tel": "",
        "category": "基础设施:公共设施:公共厕所",
        "type": 0,
        "location": {
            "lat": 27.279228,
            "lng": 109.825017
        },
        "ad_info": {
            "adcode": 431281,
            "province": "湖南省",
            "city": "怀化市",
            "district": "洪江市"
        }
    },
    {
        "id": "8325033234895284909",
        "title": "公共厕所",
        "address": "湖南省怀化市通道侗族自治县城东路与礼雅路交叉口正北方向54米左右",
        "tel": "",
        "category": "基础设施:公共设施:公共厕所",
        "type": 0,
        "location": {
            "lat": 26.163178,
            "lng": 109.78779
        },
        "ad_info": {
            "adcode": 431230,
            "province": "湖南省",
            "city": "怀化市",
            "district": "通道侗族自治县"
        }
    },
    {
        "id": "5732038943700295137",
        "title": "公共厕所",
        "address": "湖南省怀化市洪江市巫水北路与巫水南路交叉口西南方向401米左右",
        "tel": "",
        "category": "基础设施:公共设施:公共厕所",
        "type": 0,
        "location": {
            "lat": 27.103622,
            "lng": 110.00357
        },
        "ad_info": {
            "adcode": 431281,
            "province": "湖南省",
            "city": "怀化市",
            "district": "洪江市"
        }
    },
    {
        "id": "13933866563084179235",
        "title": "公共厕所",
        "address": "湖南省怀化市鹤城区沿河路与迎丰西路交叉口正东方向104米左右",
        "tel": "",
        "category": "基础设施:公共设施:公共厕所",
        "type": 0,
        "location": {
            "lat": 27.547751,
            "lng": 109.942479
        },
        "ad_info": {
            "adcode": 431202,
            "province": "湖南省",
            "city": "怀化市",
            "district": "鹤城区"
        }
    },
    {
        "id": "10038377619933524973",
        "title": "公共厕所",
        "address": "湖南省怀化市新晃侗族自治县人民路与月塘路交叉口正南方向69米左右",
        "tel": "",
        "category": "基础设施:公共设施:公共厕所",
        "type": 0,
        "location": {
            "lat": 27.355369,
            "lng": 109.171599
        },
        "ad_info": {
            "adcode": 431227,
            "province": "湖南省",
            "city": "怀化市",
            "district": "新晃侗族自治县"
        }
    },
    {
        "id": "2373364611503305408",
        "title": "公共厕所",
        "address": "湖南省怀化市鹤城区天星东路与香洲南路交叉口正西方向241米左右",
        "tel": "",
        "category": "基础设施:公共设施:公共厕所",
        "type": 0,
        "location": {
            "lat": 27.536096,
            "lng": 109.99326
        },
        "ad_info": {
            "adcode": 431202,
            "province": "湖南省",
            "city": "怀化市",
            "district": "鹤城区"
        }
    },
    {
        "id": "7936920643893598247",
        "title": "通道服务区公共厕所",
        "address": "湖南省怀化市通道侗族自治县S221与Y958交叉口西南方向233米左右",
        "tel": "",
        "category": "基础设施:公共设施:公共厕所",
        "type": 0,
        "location": {
            "lat": 26.198058,
            "lng": 109.836244
        },
        "ad_info": {
            "adcode": 431230,
            "province": "湖南省",
            "city": "怀化市",
            "district": "通道侗族自治县"
        }
    },
    {
        "id": "17331718689196422491",
        "title": "金牛大酒店-洗手间",
        "address": "湖南省怀化市洪江市巫水北路与巫水南路交叉口正西方向10米左右",
        "tel": "",
        "category": "基础设施:公共设施:公共厕所",
        "type": 0,
        "location": {
            "lat": 27.106881,
            "lng": 110.005163
        },
        "ad_info": {
            "adcode": 431281,
            "province": "湖南省",
            "city": "怀化市",
            "district": "洪江市"
        }
    },
    {
        "id": "10942763289418123007",
        "title": "公共厕所",
        "address": "湖南省怀化市芷江侗族自治县G320与舞阳路交叉口西北方向684米左右",
        "tel": "",
        "category": "基础设施:公共设施:公共厕所",
        "type": 0,
        "location": {
            "lat": 27.441956,
            "lng": 109.649093
        },
        "ad_info": {
            "adcode": 431228,
            "province": "湖南省",
            "city": "怀化市",
            "district": "芷江侗族自治县"
        }
    },
    {
        "id": "8415560535446898874",
        "title": "公共厕所",
        "address": "湖南省怀化市靖州苗族侗族自治县209国道北50米",
        "tel": "",
        "category": "基础设施:公共设施:公共厕所",
        "type": 0,
        "location": {
            "lat": 26.68662,
            "lng": 109.692368
        },
        "ad_info": {
            "adcode": 431229,
            "province": "湖南省",
            "city": "怀化市",
            "district": "靖州苗族侗族自治县"
        }
    },
    {
        "id": "1172308611860214523",
        "title": "星尚·金苑宾馆-洗手间",
        "address": "湖南省怀化市鹤城区红星北路与红星南路交叉口正东方向62米左右",
        "tel": "",
        "category": "基础设施:公共设施:公共厕所",
        "type": 0,
        "location": {
            "lat": 27.551833,
            "lng": 109.982041
        },
        "ad_info": {
            "adcode": 431202,
            "province": "湖南省",
            "city": "怀化市",
            "district": "鹤城区"
        }
    },
    {
        "id": "12982056906001237998",
        "title": "公共厕所",
        "address": "湖南省怀化市洪江市S222与S334交叉口正东方向26米左右",
        "tel": "",
        "category": "基础设施:公共设施:公共厕所",
        "type": 0,
        "location": {
            "lat": 27.09004,
            "lng": 109.993643
        },
        "ad_info": {
            "adcode": 431281,
            "province": "湖南省",
            "city": "怀化市",
            "district": "洪江市"
        }
    },
    {
        "id": "10125608904903580505",
        "title": "公共厕所",
        "address": "湖南省怀化市会同县体育馆路与岩屋寺路交叉口正南方向54米左右",
        "tel": "",
        "category": "基础设施:公共设施:公共厕所",
        "type": 0,
        "location": {
            "lat": 26.865885,
            "lng": 109.715222
        },
        "ad_info": {
            "adcode": 431225,
            "province": "湖南省",
            "city": "怀化市",
            "district": "会同县"
        }
    },
    {
        "id": "11919064087161808892",
        "title": "公共厕所",
        "address": "湖南省怀化市中方县金光大道与陆港大道交叉口正东方向81米左右",
        "tel": "",
        "category": "基础设施:公共设施:公共厕所",
        "type": 0,
        "location": {
            "lat": 27.406269,
            "lng": 109.9418
        },
        "ad_info": {
            "adcode": 431221,
            "province": "湖南省",
            "city": "怀化市",
            "district": "中方县"
        }
    },
    {
        "id": "12400791094247387638",
        "title": "公共厕所",
        "address": "湖南省怀化市靖州苗族侗族自治县梅林西路与梅林路交叉口正西方向520米左右",
        "tel": "",
        "category": "基础设施:公共设施:公共厕所",
        "type": 0,
        "location": {
            "lat": 26.569701,
            "lng": 109.672494
        },
        "ad_info": {
            "adcode": 431229,
            "province": "湖南省",
            "city": "怀化市",
            "district": "靖州苗族侗族自治县"
        }
    },
    {
        "id": "1023461343903090489",
        "title": "公共厕所",
        "address": "湖南省怀化市洪江市富民路与牛头湾巷交叉口正西方向17米左右",
        "tel": "",
        "category": "基础设施:公共设施:公共厕所",
        "type": 0,
        "location": {
            "lat": 27.197845,
            "lng": 109.821639
        },
        "ad_info": {
            "adcode": 431281,
            "province": "湖南省",
            "city": "怀化市",
            "district": "洪江市"
        }
    },
    {
        "id": "10184195359989510594",
        "title": "公共厕所",
        "address": "湖南省怀化市溆浦县滨江雅苑",
        "tel": "",
        "category": "基础设施:公共设施:公共厕所",
        "type": 0,
        "location": {
            "lat": 27.897933,
            "lng": 110.58234
        },
        "ad_info": {
            "adcode": 431224,
            "province": "湖南省",
            "city": "怀化市",
            "district": "溆浦县"
        }
    },
    {
        "id": "729668631212284445",
        "title": "公共厕所",
        "address": "湖南省怀化市洪江市雪峰山国家森林公园旅游景区",
        "tel": "",
        "category": "基础设施:公共设施:公共厕所",
        "type": 0,
        "location": {
            "lat": 27.316928,
            "lng": 110.403389
        },
        "ad_info": {
            "adcode": 431281,
            "province": "湖南省",
            "city": "怀化市",
            "district": "洪江市"
        }
    },
    {
        "id": "13098797716641172415",
        "title": "公共厕所",
        "address": "湖南省怀化市新晃侗族自治县晃州西路与通达路交叉口正西方向131米左右",
        "tel": "",
        "category": "基础设施:公共设施:公共厕所",
        "type": 0,
        "location": {
            "lat": 27.346099,
            "lng": 109.178601
        },
        "ad_info": {
            "adcode": 431227,
            "province": "湖南省",
            "city": "怀化市",
            "district": "新晃侗族自治县"
        }
    },
    {
        "id": "6192688651280022174",
        "title": "公共厕所",
        "address": "湖南省怀化市中方县中方大道与荆坪东路交叉口正北方向111米左右",
        "tel": "",
        "category": "基础设施:公共设施:公共厕所",
        "type": 0,
        "location": {
            "lat": 27.426123,
            "lng": 109.949807
        },
        "ad_info": {
            "adcode": 431221,
            "province": "湖南省",
            "city": "怀化市",
            "district": "中方县"
        }
    },
    {
        "id": "4504900167985483451",
        "title": "公共厕所",
        "address": "湖南省怀化市新晃侗族自治县G242与晃州东路交叉口西南方向188米左右",
        "tel": "",
        "category": "基础设施:公共设施:公共厕所",
        "type": 0,
        "location": {
            "lat": 27.355439,
            "lng": 109.213147
        },
        "ad_info": {
            "adcode": 431227,
            "province": "湖南省",
            "city": "怀化市",
            "district": "新晃侗族自治县"
        }
    },
    {
        "id": "8967231888495050893",
        "title": "公共厕所",
        "address": "湖南省怀化市通道侗族自治县芙蓉巷与长征南路交叉口东北方向244米左右",
        "tel": "",
        "category": "基础设施:公共设施:公共厕所",
        "type": 0,
        "location": {
            "lat": 26.154379,
            "lng": 109.786629
        },
        "ad_info": {
            "adcode": 431230,
            "province": "湖南省",
            "city": "怀化市",
            "district": "通道侗族自治县"
        }
    },
    {
        "id": "9027970207372576694",
        "title": "靖州服务区第二公共厕所",
        "address": "湖南省怀化市靖州苗族侗族自治县信冲枢纽与包茂高速交叉口东北方向63米左右",
        "tel": "",
        "category": "基础设施:公共设施:公共厕所",
        "type": 0,
        "location": {
            "lat": 26.563514,
            "lng": 109.720561
        },
        "ad_info": {
            "adcode": 431229,
            "province": "湖南省",
            "city": "怀化市",
            "district": "靖州苗族侗族自治县"
        }
    },
    {
        "id": "8347045662317877242",
        "title": "旅游厕所",
        "address": "湖南省怀化市溆浦县雁鹅界古村落西侧",
        "tel": "",
        "category": "基础设施:公共设施:公共厕所",
        "type": 0,
        "location": {
            "lat": 27.721138,
            "lng": 110.598531
        },
        "ad_info": {
            "adcode": 431224,
            "province": "湖南省",
            "city": "怀化市",
            "district": "溆浦县"
        }
    },
    {
        "id": "1188146912641983089",
        "title": "公共厕所",
        "address": "湖南省怀化市鹤城区建丰路与迎宾路交叉口东北方向80米左右",
        "tel": "",
        "category": "基础设施:公共设施:公共厕所",
        "type": 0,
        "location": {
            "lat": 27.564273,
            "lng": 109.998058
        },
        "ad_info": {
            "adcode": 431202,
            "province": "湖南省",
            "city": "怀化市",
            "district": "鹤城区"
        }
    },
    {
        "id": "7323678755676192685",
        "title": "芷江服务区第二公共厕所",
        "address": "湖南省怀化市芷江侗族自治县G320与舞水路交叉口正南方向1162米左右",
        "tel": "",
        "category": "基础设施:公共设施:公共厕所",
        "type": 0,
        "location": {
            "lat": 27.427435,
            "lng": 109.659631
        },
        "ad_info": {
            "adcode": 431228,
            "province": "湖南省",
            "city": "怀化市",
            "district": "芷江侗族自治县"
        }
    },
    {
        "id": "13253018295248356191",
        "title": "公共厕所",
        "address": "湖南省怀化市溆浦县义陵大道与粮贸路交叉口西北方向44米左右",
        "tel": "",
        "category": "基础设施:公共设施:公共厕所",
        "type": 0,
        "location": {
            "lat": 27.897543,
            "lng": 110.595243
        },
        "ad_info": {
            "adcode": 431224,
            "province": "湖南省",
            "city": "怀化市",
            "district": "溆浦县"
        }
    },
    {
        "id": "4328127465875433556",
        "title": "公共厕所",
        "address": "湖南省怀化市中方县209国道与G60沪昆高速交叉口东南150米",
        "tel": "",
        "category": "基础设施:公共设施:公共厕所",
        "type": 0,
        "location": {
            "lat": 27.367791,
            "lng": 109.941003
        },
        "ad_info": {
            "adcode": 431221,
            "province": "湖南省",
            "city": "怀化市",
            "district": "中方县"
        }
    },
    {
        "id": "4496496853448072680",
        "title": "公共厕所",
        "address": "湖南省怀化市靖州苗族侗族自治县再思路与永平路交叉口东南方向290米左右",
        "tel": "",
        "category": "基础设施:公共设施:公共厕所",
        "type": 0,
        "location": {
            "lat": 26.579939,
            "lng": 109.680594
        },
        "ad_info": {
            "adcode": 431229,
            "province": "湖南省",
            "city": "怀化市",
            "district": "靖州苗族侗族自治县"
        }
    },
    {
        "id": "14626701296585850430",
        "title": "公共厕所",
        "address": "湖南省怀化市鹤城区神龙路(家家福名烟名酒东)",
        "tel": "",
        "category": "基础设施:公共设施:公共厕所",
        "type": 0,
        "location": {
            "lat": 27.537857,
            "lng": 109.959117
        },
        "ad_info": {
            "adcode": 431202,
            "province": "湖南省",
            "city": "怀化市",
            "district": "鹤城区"
        }
    },
    {
        "id": "5647573165053536571",
        "title": "公共厕所",
        "address": "湖南省怀化市鹤城区鹤洲北路与嫩溪垅东路交叉口东北60米",
        "tel": "",
        "category": "基础设施:公共设施:公共厕所",
        "type": 0,
        "location": {
            "lat": 27.556406,
            "lng": 109.967188
        },
        "ad_info": {
            "adcode": 431202,
            "province": "湖南省",
            "city": "怀化市",
            "district": "鹤城区"
        }
    },
    {
        "id": "14085879319199208932",
        "title": "公共厕所",
        "address": "湖南省怀化市溆浦县龙庄湾乡青山界312省道",
        "tel": "",
        "category": "基础设施:公共设施:公共厕所",
        "type": 0,
        "location": {
            "lat": 27.447659,
            "lng": 110.654815
        },
        "ad_info": {
            "adcode": 431224,
            "province": "湖南省",
            "city": "怀化市",
            "district": "溆浦县"
        }
    },
    {
        "id": "10633940399848870466",
        "title": "公共厕所(辰溪县城东广场)",
        "address": "湖南省怀化市辰溪县育才路398号",
        "tel": "",
        "category": "基础设施:公共设施:公共厕所",
        "type": 0,
        "location": {
            "lat": 28.005046,
            "lng": 110.211772
        },
        "ad_info": {
            "adcode": 431223,
            "province": "湖南省",
            "city": "怀化市",
            "district": "辰溪县"
        }
    },
    {
        "id": "3476305910143627694",
        "title": "公共厕所",
        "address": "湖南省怀化市会同县堡子镇中心卫生院东北侧280米",
        "tel": "",
        "category": "基础设施:公共设施:公共厕所",
        "type": 0,
        "location": {
            "lat": 26.985682,
            "lng": 109.780659
        },
        "ad_info": {
            "adcode": 431225,
            "province": "湖南省",
            "city": "怀化市",
            "district": "会同县"
        }
    },
    {
        "id": "9272357847722396687",
        "title": "公共厕所",
        "address": "湖南省怀化市洪江市竹亭客栈西侧60米",
        "tel": "",
        "category": "基础设施:公共设施:公共厕所",
        "type": 0,
        "location": {
            "lat": 27.122388,
            "lng": 109.877132
        },
        "ad_info": {
            "adcode": 431281,
            "province": "湖南省",
            "city": "怀化市",
            "district": "洪江市"
        }
    },
    {
        "id": "14299918116501909175",
        "title": "洗手间(新晃县伞寨侗民俗博物馆)",
        "address": "湖南省怀化市新晃侗族自治县扶罗镇伞寨小学西侧110米",
        "tel": "",
        "category": "基础设施:公共设施:公共厕所",
        "type": 0,
        "location": {
            "lat": 27.20817,
            "lng": 109.156384
        },
        "ad_info": {
            "adcode": 431227,
            "province": "湖南省",
            "city": "怀化市",
            "district": "新晃侗族自治县"
        }
    },
    {
        "id": "1361070812888699574",
        "title": "公共厕所",
        "address": "湖南省怀化市通道侗族自治县城西路与长征中路交叉口东北方向18米左右",
        "tel": "",
        "category": "基础设施:公共设施:公共厕所",
        "type": 0,
        "location": {
            "lat": 26.159533,
            "lng": 109.782318
        },
        "ad_info": {
            "adcode": 431230,
            "province": "湖南省",
            "city": "怀化市",
            "district": "通道侗族自治县"
        }
    },
    {
        "id": "12640675070092724892",
        "title": "公共厕所",
        "address": "湖南省怀化市鹤城区人民北路与迎丰中路交叉口东北方向204米左右",
        "tel": "",
        "category": "基础设施:公共设施:公共厕所",
        "type": 0,
        "location": {
            "lat": 27.555474,
            "lng": 109.973511
        },
        "ad_info": {
            "adcode": 431202,
            "province": "湖南省",
            "city": "怀化市",
            "district": "鹤城区"
        }
    },
    {
        "id": "10082437410284115159",
        "title": "公共厕所",
        "address": "湖南省怀化市辰溪县S250与Y605交叉口西南方向1161米左右",
        "tel": "",
        "category": "基础设施:公共设施:公共厕所",
        "type": 0,
        "location": {
            "lat": 28.033899,
            "lng": 110.216806
        },
        "ad_info": {
            "adcode": 431223,
            "province": "湖南省",
            "city": "怀化市",
            "district": "辰溪县"
        }
    },
    {
        "id": "6011732000389130329",
        "title": "公共厕所(金洲湾旅游度假区)",
        "address": "湖南省怀化市沅陵县官庄镇金洲湾旅游度假区",
        "tel": "",
        "category": "基础设施:公共设施:公共厕所",
        "type": 0,
        "location": {
            "lat": 28.562715,
            "lng": 110.923753
        },
        "ad_info": {
            "adcode": 431222,
            "province": "湖南省",
            "city": "怀化市",
            "district": "沅陵县"
        }
    },
    {
        "id": "7142332500506791484",
        "title": "公共厕所",
        "address": "湖南省怀化市靖州苗族侗族自治县广场路与拥军路交叉口正东方向217米左右",
        "tel": "",
        "category": "基础设施:公共设施:公共厕所",
        "type": 0,
        "location": {
            "lat": 26.57933,
            "lng": 109.674613
        },
        "ad_info": {
            "adcode": 431229,
            "province": "湖南省",
            "city": "怀化市",
            "district": "靖州苗族侗族自治县"
        }
    },
    {
        "id": "14616205170086828881",
        "title": "公共厕所",
        "address": "湖南省怀化市新晃侗族自治县G242与X064交叉口正北方向125米左右",
        "tel": "",
        "category": "基础设施:公共设施:公共厕所",
        "type": 0,
        "location": {
            "lat": 27.282019,
            "lng": 109.232591
        },
        "ad_info": {
            "adcode": 431227,
            "province": "湖南省",
            "city": "怀化市",
            "district": "新晃侗族自治县"
        }
    },
    {
        "id": "14013831779192020085",
        "title": "公共厕所",
        "address": "湖南省怀化市芷江侗族自治县芷江启勇物流服务部北侧100米",
        "tel": "",
        "category": "基础设施:公共设施:公共厕所",
        "type": 0,
        "location": {
            "lat": 27.435265,
            "lng": 109.400346
        },
        "ad_info": {
            "adcode": 431228,
            "province": "湖南省",
            "city": "怀化市",
            "district": "芷江侗族自治县"
        }
    },
    {
        "id": "10998592763132429184",
        "title": "公共厕所",
        "address": "湖南省怀化市中方县G209与时代路交叉口东北方向74米左右",
        "tel": "",
        "category": "基础设施:公共设施:公共厕所",
        "type": 0,
        "location": {
            "lat": 27.377717,
            "lng": 109.93985
        },
        "ad_info": {
            "adcode": 431221,
            "province": "湖南省",
            "city": "怀化市",
            "district": "中方县"
        }
    },
    {
        "id": "11966025803824243394",
        "title": "公共厕所",
        "address": "湖南省怀化市靖州苗族侗族自治县X061与X169交叉口正东方向278米左右",
        "tel": "",
        "category": "基础设施:公共设施:公共厕所",
        "type": 0,
        "location": {
            "lat": 26.413159,
            "lng": 109.43667
        },
        "ad_info": {
            "adcode": 431229,
            "province": "湖南省",
            "city": "怀化市",
            "district": "靖州苗族侗族自治县"
        }
    },
    {
        "id": "15604421443416334255",
        "title": "公共厕所",
        "address": "湖南省怀化市洪江市G209与芙蓉东路交叉口正东方向363米左右",
        "tel": "",
        "category": "基础设施:公共设施:公共厕所",
        "type": 0,
        "location": {
            "lat": 27.205811,
            "lng": 109.848349
        },
        "ad_info": {
            "adcode": 431281,
            "province": "湖南省",
            "city": "怀化市",
            "district": "洪江市"
        }
    },
    {
        "id": "6812548992589069868",
        "title": "公共厕所",
        "address": "湖南省怀化市通道侗族自治县城东路与滨江路交叉口西北方向51米左右",
        "tel": "",
        "category": "基础设施:公共设施:公共厕所",
        "type": 0,
        "location": {
            "lat": 26.162535,
            "lng": 109.783245
        },
        "ad_info": {
            "adcode": 431230,
            "province": "湖南省",
            "city": "怀化市",
            "district": "通道侗族自治县"
        }
    },
    {
        "id": "6544466223691410596",
        "title": "公共厕所(辰溪县张家溜村荷花基地)",
        "address": "湖南省怀化市辰溪县辰阳镇张家溜村部楼",
        "tel": "",
        "category": "基础设施:公共设施:公共厕所",
        "type": 0,
        "location": {
            "lat": 28.034137,
            "lng": 110.151176
        },
        "ad_info": {
            "adcode": 431223,
            "province": "湖南省",
            "city": "怀化市",
            "district": "辰溪县"
        }
    },
    {
        "id": "7671933442288554075",
        "title": "公共厕所(中方县舞水国家湿地公园)",
        "address": "湖南省怀化市中方县荆坪路与陆港大道交叉口西北方向459米左右",
        "tel": "",
        "category": "基础设施:公共设施:公共厕所",
        "type": 0,
        "location": {
            "lat": 27.426817,
            "lng": 109.943795
        },
        "ad_info": {
            "adcode": 431221,
            "province": "湖南省",
            "city": "怀化市",
            "district": "中方县"
        }
    },
    {
        "id": "6625896443343135094",
        "title": "公共厕所",
        "address": "湖南省怀化市中方县七房路与建设大道交叉口西南方向33米左右",
        "tel": "",
        "category": "基础设施:公共设施:公共厕所",
        "type": 0,
        "location": {
            "lat": 27.38961,
            "lng": 109.937204
        },
        "ad_info": {
            "adcode": 431221,
            "province": "湖南省",
            "city": "怀化市",
            "district": "中方县"
        }
    },
    {
        "id": "11629458118578039330",
        "title": "公共厕所",
        "address": "湖南省怀化市洪江市沙湾乡老屋背花海示范园北侧190米",
        "tel": "",
        "category": "基础设施:公共设施:公共厕所",
        "type": 0,
        "location": {
            "lat": 27.204182,
            "lng": 110.056462
        },
        "ad_info": {
            "adcode": 431281,
            "province": "湖南省",
            "city": "怀化市",
            "district": "洪江市"
        }
    },
    {
        "id": "7560560472598791747",
        "title": "公共厕所",
        "address": "湖南省怀化市靖州苗族侗族自治县G209与X074交叉口正西方向128米左右",
        "tel": "",
        "category": "基础设施:公共设施:公共厕所",
        "type": 0,
        "location": {
            "lat": 26.674766,
            "lng": 109.669084
        },
        "ad_info": {
            "adcode": 431229,
            "province": "湖南省",
            "city": "怀化市",
            "district": "靖州苗族侗族自治县"
        }
    },
    {
        "id": "13539083552695808568",
        "title": "中方服务区公共厕所",
        "address": "湖南省怀化市中方县S50长芷高速与中方服务区交叉口西南360米",
        "tel": "",
        "category": "基础设施:公共设施:公共厕所",
        "type": 0,
        "location": {
            "lat": 27.635245,
            "lng": 110.089469
        },
        "ad_info": {
            "adcode": 431221,
            "province": "湖南省",
            "city": "怀化市",
            "district": "中方县"
        }
    },
    {
        "id": "14306479003222465576",
        "title": "公共厕所",
        "address": "湖南省怀化市会同县马鞍镇相见村卫生室西北侧200米",
        "tel": "",
        "category": "基础设施:公共设施:公共厕所",
        "type": 0,
        "location": {
            "lat": 27.051633,
            "lng": 109.743865
        },
        "ad_info": {
            "adcode": 431225,
            "province": "湖南省",
            "city": "怀化市",
            "district": "会同县"
        }
    },
    {
        "id": "75647978312704186",
        "title": "公共厕所(辰溪县黄溪口双溪村)",
        "address": "湖南省怀化市辰溪县X030与X031交叉口正东方向1210米左右",
        "tel": "",
        "category": "基础设施:公共设施:公共厕所",
        "type": 0,
        "location": {
            "lat": 27.71575,
            "lng": 110.404766
        },
        "ad_info": {
            "adcode": 431223,
            "province": "湖南省",
            "city": "怀化市",
            "district": "辰溪县"
        }
    },
    {
        "id": "3715322493159110092",
        "title": "公共厕所(会同县若水坡塘村)",
        "address": "湖南省怀化市会同县若水镇坡塘村",
        "tel": "",
        "category": "基础设施:公共设施:公共厕所",
        "type": 0,
        "location": {
            "lat": 26.958038,
            "lng": 109.897093
        },
        "ad_info": {
            "adcode": 431225,
            "province": "湖南省",
            "city": "怀化市",
            "district": "会同县"
        }
    },
    {
        "id": "60245638118337365",
        "title": "公共厕所",
        "address": "湖南省怀化市溆浦县X012与大谭桥交叉口正北方向380米左右",
        "tel": "",
        "category": "基础设施:公共设施:公共厕所",
        "type": 0,
        "location": {
            "lat": 27.941267,
            "lng": 110.611862
        },
        "ad_info": {
            "adcode": 431224,
            "province": "湖南省",
            "city": "怀化市",
            "district": "溆浦县"
        }
    },
    {
        "id": "10862795916046773300",
        "title": "公共厕所",
        "address": "湖南省怀化市鹤城区东盟大道与会展路交叉口西南方向474米左右",
        "tel": "",
        "category": "基础设施:公共设施:公共厕所",
        "type": 0,
        "location": {
            "lat": 27.51321,
            "lng": 109.994632
        },
        "ad_info": {
            "adcode": 431202,
            "province": "湖南省",
            "city": "怀化市",
            "district": "鹤城区"
        }
    },
    {
        "id": "10849642135654586623",
        "title": "公共厕所(会同县翁高村)",
        "address": "湖南省怀化市会同县翁高村",
        "tel": "",
        "category": "基础设施:公共设施:公共厕所",
        "type": 0,
        "location": {
            "lat": 26.984268,
            "lng": 110.043074
        },
        "ad_info": {
            "adcode": 431225,
            "province": "湖南省",
            "city": "怀化市",
            "district": "会同县"
        }
    },
    {
        "id": "16158899393324144852",
        "title": "公共厕所(沅陵县龙舟内广场)",
        "address": "湖南省怀化市沅陵县龙舟内广场",
        "tel": "",
        "category": "基础设施:公共设施:公共厕所",
        "type": 0,
        "location": {
            "lat": 28.450346,
            "lng": 110.39995
        },
        "ad_info": {
            "adcode": 431222,
            "province": "湖南省",
            "city": "怀化市",
            "district": "沅陵县"
        }
    },
    {
        "id": "2166738530460065186",
        "title": "公共厕所",
        "address": "湖南省怀化市沅陵县龙腾广场",
        "tel": "",
        "category": "基础设施:公共设施:公共厕所",
        "type": 0,
        "location": {
            "lat": 28.435456,
            "lng": 110.375601
        },
        "ad_info": {
            "adcode": 431222,
            "province": "湖南省",
            "city": "怀化市",
            "district": "沅陵县"
        }
    },
    {
        "id": "8035685778571707866",
        "title": "西晃山服务区公共厕所",
        "address": "湖南省怀化市麻阳苗族自治县西晃山服务区西北侧",
        "tel": "",
        "category": "基础设施:公共设施:公共厕所",
        "type": 0,
        "location": {
            "lat": 27.615273,
            "lng": 109.527002
        },
        "ad_info": {
            "adcode": 431226,
            "province": "湖南省",
            "city": "怀化市",
            "district": "麻阳苗族自治县"
        }
    },
    {
        "id": "5195058674554979362",
        "title": "公共厕所",
        "address": "湖南省怀化市麻阳苗族自治县G354与长寿大道交叉口正南方向1011米左右",
        "tel": "",
        "category": "基础设施:公共设施:公共厕所",
        "type": 0,
        "location": {
            "lat": 27.858621,
            "lng": 109.779868
        },
        "ad_info": {
            "adcode": 431226,
            "province": "湖南省",
            "city": "怀化市",
            "district": "麻阳苗族自治县"
        }
    },
    {
        "id": "16993751014032221980",
        "title": "公共厕所",
        "address": "湖南省怀化市洪江市湘顺艺术水磨石总汇东北侧150米",
        "tel": "",
        "category": "基础设施:公共设施:公共厕所",
        "type": 0,
        "location": {
            "lat": 27.264701,
            "lng": 110.139385
        },
        "ad_info": {
            "adcode": 431281,
            "province": "湖南省",
            "city": "怀化市",
            "district": "洪江市"
        }
    },
    {
        "id": "10890959883570976083",
        "title": "公共厕所(辰溪县茂林温泉山庄)",
        "address": "湖南省怀化市辰溪县火马冲镇燕子洞村茂林温泉山庄",
        "tel": "",
        "category": "基础设施:公共设施:公共厕所",
        "type": 0,
        "location": {
            "lat": 27.863433,
            "lng": 110.256905
        },
        "ad_info": {
            "adcode": 431223,
            "province": "湖南省",
            "city": "怀化市",
            "district": "辰溪县"
        }
    },
    {
        "id": "5698968429781398267",
        "title": "公共厕所(辰溪县刘晓森林公园)",
        "address": "湖南省怀化市辰溪县育才路与长城北路交叉口正南方向390米左右",
        "tel": "",
        "category": "基础设施:公共设施:公共厕所",
        "type": 0,
        "location": {
            "lat": 28.004803,
            "lng": 110.209894
        },
        "ad_info": {
            "adcode": 431223,
            "province": "湖南省",
            "city": "怀化市",
            "district": "辰溪县"
        }
    },
    {
        "id": "9561719301907482295",
        "title": "公共厕所(祥福现代农业园)",
        "address": "湖南省怀化市溆浦县祥福现代农业园241国道",
        "tel": "",
        "category": "基础设施:公共设施:公共厕所",
        "type": 0,
        "location": {
            "lat": 27.852542,
            "lng": 110.619303
        },
        "ad_info": {
            "adcode": 431224,
            "province": "湖南省",
            "city": "怀化市",
            "district": "溆浦县"
        }
    },
    {
        "id": "9299251468499321820",
        "title": "公共厕所",
        "address": "湖南省怀化市鹤城区红星南路与红溪巷交叉口正东方向200米左右",
        "tel": "",
        "category": "基础设施:公共设施:公共厕所",
        "type": 0,
        "location": {
            "lat": 27.527621,
            "lng": 109.973251
        },
        "ad_info": {
            "adcode": 431202,
            "province": "湖南省",
            "city": "怀化市",
            "district": "鹤城区"
        }
    },
    {
        "id": "6930605221902025018",
        "title": "枹木园服务公共厕所",
        "address": "湖南省怀化市沅陵县枹木园服务区西侧",
        "tel": "",
        "category": "基础设施:公共设施:公共厕所",
        "type": 0,
        "location": {
            "lat": 28.519599,
            "lng": 110.979454
        },
        "ad_info": {
            "adcode": 431222,
            "province": "湖南省",
            "city": "怀化市",
            "district": "沅陵县"
        }
    },
    {
        "id": "4527134066280586913",
        "title": "公共厕所",
        "address": "湖南省怀化市通道侗族自治县坪坦乡中心小学南侧140米",
        "tel": "",
        "category": "基础设施:公共设施:公共厕所",
        "type": 0,
        "location": {
            "lat": 26.03988,
            "lng": 109.715755
        },
        "ad_info": {
            "adcode": 431230,
            "province": "湖南省",
            "city": "怀化市",
            "district": "通道侗族自治县"
        }
    },
    {
        "id": "9633161692791809055",
        "title": "公共厕所",
        "address": "湖南省怀化市鹤城区南城景园西北侧80米",
        "tel": "",
        "category": "基础设施:公共设施:公共厕所",
        "type": 0,
        "location": {
            "lat": 27.512077,
            "lng": 109.981293
        },
        "ad_info": {
            "adcode": 431202,
            "province": "湖南省",
            "city": "怀化市",
            "district": "鹤城区"
        }
    },
    {
        "id": "4704921536026825552",
        "title": "公共厕所(HUN-HH-0207)",
        "address": "湖南省怀化市芷江侗族自治县和平路与鼓楼路交叉口西南方向230米左右",
        "tel": "",
        "category": "基础设施:公共设施:公共厕所",
        "type": 0,
        "location": {
            "lat": 27.429981,
            "lng": 109.689569
        },
        "ad_info": {
            "adcode": 431228,
            "province": "湖南省",
            "city": "怀化市",
            "district": "芷江侗族自治县"
        }
    },
    {
        "id": "1341623297204693821",
        "title": "公共厕所",
        "address": "湖南省怀化市洪江市十里窑",
        "tel": "",
        "category": "基础设施:公共设施:公共厕所",
        "type": 0,
        "location": {
            "lat": 27.169269,
            "lng": 109.658632
        },
        "ad_info": {
            "adcode": 431281,
            "province": "湖南省",
            "city": "怀化市",
            "district": "洪江市"
        }
    },
    {
        "id": "13228427967805364116",
        "title": "芷江景星寺旅游厕所HUN-HH-0247",
        "address": "湖南省怀化市芷江侗族自治县和平大道与芷江大桥交叉口东南方向412米左右",
        "tel": "",
        "category": "基础设施:公共设施:公共厕所",
        "type": 0,
        "location": {
            "lat": 27.422563,
            "lng": 109.69051
        },
        "ad_info": {
            "adcode": 431228,
            "province": "湖南省",
            "city": "怀化市",
            "district": "芷江侗族自治县"
        }
    },
    {
        "id": "13716221540634107680",
        "title": "潭湾加油站卫生间",
        "address": "湖南省怀化市辰溪县G354与X200交叉口东北方向84米左右",
        "tel": "",
        "category": "基础设施:公共设施:公共厕所",
        "type": 0,
        "location": {
            "lat": 27.967193,
            "lng": 110.159796
        },
        "ad_info": {
            "adcode": 431223,
            "province": "湖南省",
            "city": "怀化市",
            "district": "辰溪县"
        }
    },
    {
        "id": "3550155537629406036",
        "title": "公共厕所",
        "address": "湖南省怀化市洪江市横岩乡中心小学东南侧130米",
        "tel": "",
        "category": "基础设施:公共设施:公共厕所",
        "type": 0,
        "location": {
            "lat": 27.139186,
            "lng": 109.917656
        },
        "ad_info": {
            "adcode": 431281,
            "province": "湖南省",
            "city": "怀化市",
            "district": "洪江市"
        }
    },
    {
        "id": "7749762516204065028",
        "title": "洗手间(湖南通道万佛山地质公园博物馆)",
        "address": "湖南省怀化市通道侗族自治县万佛山镇临口村马冲组万佛山地质公园博物馆",
        "tel": "",
        "category": "基础设施:公共设施:公共厕所",
        "type": 0,
        "location": {
            "lat": 26.261947,
            "lng": 109.870961
        },
        "ad_info": {
            "adcode": 431230,
            "province": "湖南省",
            "city": "怀化市",
            "district": "通道侗族自治县"
        }
    },
    {
        "id": "9159778626222226435",
        "title": "公共厕所",
        "address": "湖南省怀化市会同县天柱农商行地湖支行户外劳动者服务站西侧240米",
        "tel": "",
        "category": "基础设施:公共设施:公共厕所",
        "type": 0,
        "location": {
            "lat": 26.746817,
            "lng": 109.560132
        },
        "ad_info": {
            "adcode": 431225,
            "province": "湖南省",
            "city": "怀化市",
            "district": "会同县"
        }
    },
    {
        "id": "420780027264269615",
        "title": "公共厕所(辰溪县土陶非遗基地)",
        "address": "湖南省怀化市辰溪县辰阳镇609乡道陶瓷厂土陶非遗基地",
        "tel": "",
        "category": "基础设施:公共设施:公共厕所",
        "type": 0,
        "location": {
            "lat": 27.988563,
            "lng": 110.24198
        },
        "ad_info": {
            "adcode": 431223,
            "province": "湖南省",
            "city": "怀化市",
            "district": "辰溪县"
        }
    },
    {
        "id": "10208827790703584308",
        "title": "公共厕所",
        "address": "湖南省怀化市溆浦县义陵大道与溪北巷交叉口西北方向263米左右",
        "tel": "",
        "category": "基础设施:公共设施:公共厕所",
        "type": 0,
        "location": {
            "lat": 27.914728,
            "lng": 110.588695
        },
        "ad_info": {
            "adcode": 431224,
            "province": "湖南省",
            "city": "怀化市",
            "district": "溆浦县"
        }
    },
    {
        "id": "4641251681859130793",
        "title": "洪江市红十字医院公共厕所",
        "address": "湖南省怀化市洪江市建华路与解放路交叉口正东方向84米左右",
        "tel": "",
        "category": "基础设施:公共设施:公共厕所",
        "type": 0,
        "location": {
            "lat": 27.31388,
            "lng": 110.138877
        },
        "ad_info": {
            "adcode": 431281,
            "province": "湖南省",
            "city": "怀化市",
            "district": "洪江市"
        }
    },
    {
        "id": "3762610088204938748",
        "title": "公共厕所(穿岩山游客服务中心)",
        "address": "湖南省怀化市溆浦县统溪河镇穿岩山景区241国道",
        "tel": "",
        "category": "基础设施:公共设施:公共厕所",
        "type": 0,
        "location": {
            "lat": 27.741957,
            "lng": 110.567639
        },
        "ad_info": {
            "adcode": 431224,
            "province": "湖南省",
            "city": "怀化市",
            "district": "溆浦县"
        }
    },
    {
        "id": "4259943380678439433",
        "title": "公共厕所",
        "address": "湖南省怀化市溆浦县S332与如意大道交叉口正北方向1094米左右",
        "tel": "",
        "category": "基础设施:公共设施:公共厕所",
        "type": 0,
        "location": {
            "lat": 27.618118,
            "lng": 110.594532
        },
        "ad_info": {
            "adcode": 431224,
            "province": "湖南省",
            "city": "怀化市",
            "district": "溆浦县"
        }
    },
    {
        "id": "16993751014032221980",
        "title": "公共厕所",
        "address": "湖南省怀化市洪江市湘顺艺术水磨石总汇东北侧150米",
        "tel": "",
        "category": "基础设施:公共设施:公共厕所",
        "type": 0,
        "location": {
            "lat": 27.264701,
            "lng": 110.139385
        },
        "ad_info": {
            "adcode": 431281,
            "province": "湖南省",
            "city": "怀化市",
            "district": "洪江市"
        }
    },
    {
        "id": "10890959883570976083",
        "title": "公共厕所(辰溪县茂林温泉山庄)",
        "address": "湖南省怀化市辰溪县火马冲镇燕子洞村茂林温泉山庄",
        "tel": "",
        "category": "基础设施:公共设施:公共厕所",
        "type": 0,
        "location": {
            "lat": 27.863433,
            "lng": 110.256905
        },
        "ad_info": {
            "adcode": 431223,
            "province": "湖南省",
            "city": "怀化市",
            "district": "辰溪县"
        }
    },
    {
        "id": "5698968429781398267",
        "title": "公共厕所(辰溪县刘晓森林公园)",
        "address": "湖南省怀化市辰溪县育才路与长城北路交叉口正南方向390米左右",
        "tel": "",
        "category": "基础设施:公共设施:公共厕所",
        "type": 0,
        "location": {
            "lat": 28.004803,
            "lng": 110.209894
        },
        "ad_info": {
            "adcode": 431223,
            "province": "湖南省",
            "city": "怀化市",
            "district": "辰溪县"
        }
    },
    {
        "id": "9561719301907482295",
        "title": "公共厕所(祥福现代农业园)",
        "address": "湖南省怀化市溆浦县祥福现代农业园241国道",
        "tel": "",
        "category": "基础设施:公共设施:公共厕所",
        "type": 0,
        "location": {
            "lat": 27.852542,
            "lng": 110.619303
        },
        "ad_info": {
            "adcode": 431224,
            "province": "湖南省",
            "city": "怀化市",
            "district": "溆浦县"
        }
    },
    {
        "id": "9299251468499321820",
        "title": "公共厕所",
        "address": "湖南省怀化市鹤城区红星南路与红溪巷交叉口正东方向200米左右",
        "tel": "",
        "category": "基础设施:公共设施:公共厕所",
        "type": 0,
        "location": {
            "lat": 27.527621,
            "lng": 109.973251
        },
        "ad_info": {
            "adcode": 431202,
            "province": "湖南省",
            "city": "怀化市",
            "district": "鹤城区"
        }
    },
    {
        "id": "6930605221902025018",
        "title": "枹木园服务公共厕所",
        "address": "湖南省怀化市沅陵县枹木园服务区西侧",
        "tel": "",
        "category": "基础设施:公共设施:公共厕所",
        "type": 0,
        "location": {
            "lat": 28.519599,
            "lng": 110.979454
        },
        "ad_info": {
            "adcode": 431222,
            "province": "湖南省",
            "city": "怀化市",
            "district": "沅陵县"
        }
    },
    {
        "id": "4527134066280586913",
        "title": "公共厕所",
        "address": "湖南省怀化市通道侗族自治县坪坦乡中心小学南侧140米",
        "tel": "",
        "category": "基础设施:公共设施:公共厕所",
        "type": 0,
        "location": {
            "lat": 26.03988,
            "lng": 109.715755
        },
        "ad_info": {
            "adcode": 431230,
            "province": "湖南省",
            "city": "怀化市",
            "district": "通道侗族自治县"
        }
    },
    {
        "id": "9633161692791809055",
        "title": "公共厕所",
        "address": "湖南省怀化市鹤城区南城景园西北侧80米",
        "tel": "",
        "category": "基础设施:公共设施:公共厕所",
        "type": 0,
        "location": {
            "lat": 27.512077,
            "lng": 109.981293
        },
        "ad_info": {
            "adcode": 431202,
            "province": "湖南省",
            "city": "怀化市",
            "district": "鹤城区"
        }
    },
    {
        "id": "4704921536026825552",
        "title": "公共厕所(HUN-HH-0207)",
        "address": "湖南省怀化市芷江侗族自治县和平路与鼓楼路交叉口西南方向230米左右",
        "tel": "",
        "category": "基础设施:公共设施:公共厕所",
        "type": 0,
        "location": {
            "lat": 27.429981,
            "lng": 109.689569
        },
        "ad_info": {
            "adcode": 431228,
            "province": "湖南省",
            "city": "怀化市",
            "district": "芷江侗族自治县"
        }
    },
    {
        "id": "1341623297204693821",
        "title": "公共厕所",
        "address": "湖南省怀化市洪江市十里窑",
        "tel": "",
        "category": "基础设施:公共设施:公共厕所",
        "type": 0,
        "location": {
            "lat": 27.169269,
            "lng": 109.658632
        },
        "ad_info": {
            "adcode": 431281,
            "province": "湖南省",
            "city": "怀化市",
            "district": "洪江市"
        }
    },
    {
        "id": "13228427967805364116",
        "title": "芷江景星寺旅游厕所HUN-HH-0247",
        "address": "湖南省怀化市芷江侗族自治县和平大道与芷江大桥交叉口东南方向412米左右",
        "tel": "",
        "category": "基础设施:公共设施:公共厕所",
        "type": 0,
        "location": {
            "lat": 27.422563,
            "lng": 109.69051
        },
        "ad_info": {
            "adcode": 431228,
            "province": "湖南省",
            "city": "怀化市",
            "district": "芷江侗族自治县"
        }
    },
    {
        "id": "13716221540634107680",
        "title": "潭湾加油站卫生间",
        "address": "湖南省怀化市辰溪县G354与X200交叉口东北方向84米左右",
        "tel": "",
        "category": "基础设施:公共设施:公共厕所",
        "type": 0,
        "location": {
            "lat": 27.967193,
            "lng": 110.159796
        },
        "ad_info": {
            "adcode": 431223,
            "province": "湖南省",
            "city": "怀化市",
            "district": "辰溪县"
        }
    },
    {
        "id": "3550155537629406036",
        "title": "公共厕所",
        "address": "湖南省怀化市洪江市横岩乡中心小学东南侧130米",
        "tel": "",
        "category": "基础设施:公共设施:公共厕所",
        "type": 0,
        "location": {
            "lat": 27.139186,
            "lng": 109.917656
        },
        "ad_info": {
            "adcode": 431281,
            "province": "湖南省",
            "city": "怀化市",
            "district": "洪江市"
        }
    },
    {
        "id": "7749762516204065028",
        "title": "洗手间(湖南通道万佛山地质公园博物馆)",
        "address": "湖南省怀化市通道侗族自治县万佛山镇临口村马冲组万佛山地质公园博物馆",
        "tel": "",
        "category": "基础设施:公共设施:公共厕所",
        "type": 0,
        "location": {
            "lat": 26.261947,
            "lng": 109.870961
        },
        "ad_info": {
            "adcode": 431230,
            "province": "湖南省",
            "city": "怀化市",
            "district": "通道侗族自治县"
        }
    },
    {
        "id": "9159778626222226435",
        "title": "公共厕所",
        "address": "湖南省怀化市会同县天柱农商行地湖支行户外劳动者服务站西侧240米",
        "tel": "",
        "category": "基础设施:公共设施:公共厕所",
        "type": 0,
        "location": {
            "lat": 26.746817,
            "lng": 109.560132
        },
        "ad_info": {
            "adcode": 431225,
            "province": "湖南省",
            "city": "怀化市",
            "district": "会同县"
        }
    },
    {
        "id": "420780027264269615",
        "title": "公共厕所(辰溪县土陶非遗基地)",
        "address": "湖南省怀化市辰溪县辰阳镇609乡道陶瓷厂土陶非遗基地",
        "tel": "",
        "category": "基础设施:公共设施:公共厕所",
        "type": 0,
        "location": {
            "lat": 27.988563,
            "lng": 110.24198
        },
        "ad_info": {
            "adcode": 431223,
            "province": "湖南省",
            "city": "怀化市",
            "district": "辰溪县"
        }
    },
    {
        "id": "10208827790703584308",
        "title": "公共厕所",
        "address": "湖南省怀化市溆浦县义陵大道与溪北巷交叉口西北方向263米左右",
        "tel": "",
        "category": "基础设施:公共设施:公共厕所",
        "type": 0,
        "location": {
            "lat": 27.914728,
            "lng": 110.588695
        },
        "ad_info": {
            "adcode": 431224,
            "province": "湖南省",
            "city": "怀化市",
            "district": "溆浦县"
        }
    },
    {
        "id": "4641251681859130793",
        "title": "洪江市红十字医院公共厕所",
        "address": "湖南省怀化市洪江市建华路与解放路交叉口正东方向84米左右",
        "tel": "",
        "category": "基础设施:公共设施:公共厕所",
        "type": 0,
        "location": {
            "lat": 27.31388,
            "lng": 110.138877
        },
        "ad_info": {
            "adcode": 431281,
            "province": "湖南省",
            "city": "怀化市",
            "district": "洪江市"
        }
    },
    {
        "id": "3762610088204938748",
        "title": "公共厕所(穿岩山游客服务中心)",
        "address": "湖南省怀化市溆浦县统溪河镇穿岩山景区241国道",
        "tel": "",
        "category": "基础设施:公共设施:公共厕所",
        "type": 0,
        "location": {
            "lat": 27.741957,
            "lng": 110.567639
        },
        "ad_info": {
            "adcode": 431224,
            "province": "湖南省",
            "city": "怀化市",
            "district": "溆浦县"
        }
    },
    {
        "id": "4259943380678439433",
        "title": "公共厕所",
        "address": "湖南省怀化市溆浦县S332与如意大道交叉口正北方向1094米左右",
        "tel": "",
        "category": "基础设施:公共设施:公共厕所",
        "type": 0,
        "location": {
            "lat": 27.618118,
            "lng": 110.594532
        },
        "ad_info": {
            "adcode": 431224,
            "province": "湖南省",
            "city": "怀化市",
            "district": "溆浦县"
        }
    },
    {
        "id": "16993751014032221980",
        "title": "公共厕所",
        "address": "湖南省怀化市洪江市湘顺艺术水磨石总汇东北侧150米",
        "tel": "",
        "category": "基础设施:公共设施:公共厕所",
        "type": 0,
        "location": {
            "lat": 27.264701,
            "lng": 110.139385
        },
        "ad_info": {
            "adcode": 431281,
            "province": "湖南省",
            "city": "怀化市",
            "district": "洪江市"
        }
    },
    {
        "id": "10890959883570976083",
        "title": "公共厕所(辰溪县茂林温泉山庄)",
        "address": "湖南省怀化市辰溪县火马冲镇燕子洞村茂林温泉山庄",
        "tel": "",
        "category": "基础设施:公共设施:公共厕所",
        "type": 0,
        "location": {
            "lat": 27.863433,
            "lng": 110.256905
        },
        "ad_info": {
            "adcode": 431223,
            "province": "湖南省",
            "city": "怀化市",
            "district": "辰溪县"
        }
    },
    {
        "id": "5698968429781398267",
        "title": "公共厕所(辰溪县刘晓森林公园)",
        "address": "湖南省怀化市辰溪县育才路与长城北路交叉口正南方向390米左右",
        "tel": "",
        "category": "基础设施:公共设施:公共厕所",
        "type": 0,
        "location": {
            "lat": 28.004803,
            "lng": 110.209894
        },
        "ad_info": {
            "adcode": 431223,
            "province": "湖南省",
            "city": "怀化市",
            "district": "辰溪县"
        }
    },
    {
        "id": "9561719301907482295",
        "title": "公共厕所(祥福现代农业园)",
        "address": "湖南省怀化市溆浦县祥福现代农业园241国道",
        "tel": "",
        "category": "基础设施:公共设施:公共厕所",
        "type": 0,
        "location": {
            "lat": 27.852542,
            "lng": 110.619303
        },
        "ad_info": {
            "adcode": 431224,
            "province": "湖南省",
            "city": "怀化市",
            "district": "溆浦县"
        }
    },
    {
        "id": "9299251468499321820",
        "title": "公共厕所",
        "address": "湖南省怀化市鹤城区红星南路与红溪巷交叉口正东方向200米左右",
        "tel": "",
        "category": "基础设施:公共设施:公共厕所",
        "type": 0,
        "location": {
            "lat": 27.527621,
            "lng": 109.973251
        },
        "ad_info": {
            "adcode": 431202,
            "province": "湖南省",
            "city": "怀化市",
            "district": "鹤城区"
        }
    },
    {
        "id": "6930605221902025018",
        "title": "枹木园服务公共厕所",
        "address": "湖南省怀化市沅陵县枹木园服务区西侧",
        "tel": "",
        "category": "基础设施:公共设施:公共厕所",
        "type": 0,
        "location": {
            "lat": 28.519599,
            "lng": 110.979454
        },
        "ad_info": {
            "adcode": 431222,
            "province": "湖南省",
            "city": "怀化市",
            "district": "沅陵县"
        }
    },
    {
        "id": "4527134066280586913",
        "title": "公共厕所",
        "address": "湖南省怀化市通道侗族自治县坪坦乡中心小学南侧140米",
        "tel": "",
        "category": "基础设施:公共设施:公共厕所",
        "type": 0,
        "location": {
            "lat": 26.03988,
            "lng": 109.715755
        },
        "ad_info": {
            "adcode": 431230,
            "province": "湖南省",
            "city": "怀化市",
            "district": "通道侗族自治县"
        }
    },
    {
        "id": "9633161692791809055",
        "title": "公共厕所",
        "address": "湖南省怀化市鹤城区南城景园西北侧80米",
        "tel": "",
        "category": "基础设施:公共设施:公共厕所",
        "type": 0,
        "location": {
            "lat": 27.512077,
            "lng": 109.981293
        },
        "ad_info": {
            "adcode": 431202,
            "province": "湖南省",
            "city": "怀化市",
            "district": "鹤城区"
        }
    },
    {
        "id": "4704921536026825552",
        "title": "公共厕所(HUN-HH-0207)",
        "address": "湖南省怀化市芷江侗族自治县和平路与鼓楼路交叉口西南方向230米左右",
        "tel": "",
        "category": "基础设施:公共设施:公共厕所",
        "type": 0,
        "location": {
            "lat": 27.429981,
            "lng": 109.689569
        },
        "ad_info": {
            "adcode": 431228,
            "province": "湖南省",
            "city": "怀化市",
            "district": "芷江侗族自治县"
        }
    },
    {
        "id": "1341623297204693821",
        "title": "公共厕所",
        "address": "湖南省怀化市洪江市十里窑",
        "tel": "",
        "category": "基础设施:公共设施:公共厕所",
        "type": 0,
        "location": {
            "lat": 27.169269,
            "lng": 109.658632
        },
        "ad_info": {
            "adcode": 431281,
            "province": "湖南省",
            "city": "怀化市",
            "district": "洪江市"
        }
    },
    {
        "id": "13228427967805364116",
        "title": "芷江景星寺旅游厕所HUN-HH-0247",
        "address": "湖南省怀化市芷江侗族自治县和平大道与芷江大桥交叉口东南方向412米左右",
        "tel": "",
        "category": "基础设施:公共设施:公共厕所",
        "type": 0,
        "location": {
            "lat": 27.422563,
            "lng": 109.69051
        },
        "ad_info": {
            "adcode": 431228,
            "province": "湖南省",
            "city": "怀化市",
            "district": "芷江侗族自治县"
        }
    },
    {
        "id": "13716221540634107680",
        "title": "潭湾加油站卫生间",
        "address": "湖南省怀化市辰溪县G354与X200交叉口东北方向84米左右",
        "tel": "",
        "category": "基础设施:公共设施:公共厕所",
        "type": 0,
        "location": {
            "lat": 27.967193,
            "lng": 110.159796
        },
        "ad_info": {
            "adcode": 431223,
            "province": "湖南省",
            "city": "怀化市",
            "district": "辰溪县"
        }
    },
    {
        "id": "3550155537629406036",
        "title": "公共厕所",
        "address": "湖南省怀化市洪江市横岩乡中心小学东南侧130米",
        "tel": "",
        "category": "基础设施:公共设施:公共厕所",
        "type": 0,
        "location": {
            "lat": 27.139186,
            "lng": 109.917656
        },
        "ad_info": {
            "adcode": 431281,
            "province": "湖南省",
            "city": "怀化市",
            "district": "洪江市"
        }
    },
    {
        "id": "7749762516204065028",
        "title": "洗手间(湖南通道万佛山地质公园博物馆)",
        "address": "湖南省怀化市通道侗族自治县万佛山镇临口村马冲组万佛山地质公园博物馆",
        "tel": "",
        "category": "基础设施:公共设施:公共厕所",
        "type": 0,
        "location": {
            "lat": 26.261947,
            "lng": 109.870961
        },
        "ad_info": {
            "adcode": 431230,
            "province": "湖南省",
            "city": "怀化市",
            "district": "通道侗族自治县"
        }
    },
    {
        "id": "9159778626222226435",
        "title": "公共厕所",
        "address": "湖南省怀化市会同县天柱农商行地湖支行户外劳动者服务站西侧240米",
        "tel": "",
        "category": "基础设施:公共设施:公共厕所",
        "type": 0,
        "location": {
            "lat": 26.746817,
            "lng": 109.560132
        },
        "ad_info": {
            "adcode": 431225,
            "province": "湖南省",
            "city": "怀化市",
            "district": "会同县"
        }
    },
    {
        "id": "420780027264269615",
        "title": "公共厕所(辰溪县土陶非遗基地)",
        "address": "湖南省怀化市辰溪县辰阳镇609乡道陶瓷厂土陶非遗基地",
        "tel": "",
        "category": "基础设施:公共设施:公共厕所",
        "type": 0,
        "location": {
            "lat": 27.988563,
            "lng": 110.24198
        },
        "ad_info": {
            "adcode": 431223,
            "province": "湖南省",
            "city": "怀化市",
            "district": "辰溪县"
        }
    },
    {
        "id": "10208827790703584308",
        "title": "公共厕所",
        "address": "湖南省怀化市溆浦县义陵大道与溪北巷交叉口西北方向263米左右",
        "tel": "",
        "category": "基础设施:公共设施:公共厕所",
        "type": 0,
        "location": {
            "lat": 27.914728,
            "lng": 110.588695
        },
        "ad_info": {
            "adcode": 431224,
            "province": "湖南省",
            "city": "怀化市",
            "district": "溆浦县"
        }
    },
    {
        "id": "4641251681859130793",
        "title": "洪江市红十字医院公共厕所",
        "address": "湖南省怀化市洪江市建华路与解放路交叉口正东方向84米左右",
        "tel": "",
        "category": "基础设施:公共设施:公共厕所",
        "type": 0,
        "location": {
            "lat": 27.31388,
            "lng": 110.138877
        },
        "ad_info": {
            "adcode": 431281,
            "province": "湖南省",
            "city": "怀化市",
            "district": "洪江市"
        }
    },
    {
        "id": "3762610088204938748",
        "title": "公共厕所(穿岩山游客服务中心)",
        "address": "湖南省怀化市溆浦县统溪河镇穿岩山景区241国道",
        "tel": "",
        "category": "基础设施:公共设施:公共厕所",
        "type": 0,
        "location": {
            "lat": 27.741957,
            "lng": 110.567639
        },
        "ad_info": {
            "adcode": 431224,
            "province": "湖南省",
            "city": "怀化市",
            "district": "溆浦县"
        }
    },
    {
        "id": "4259943380678439433",
        "title": "公共厕所",
        "address": "湖南省怀化市溆浦县S332与如意大道交叉口正北方向1094米左右",
        "tel": "",
        "category": "基础设施:公共设施:公共厕所",
        "type": 0,
        "location": {
            "lat": 27.618118,
            "lng": 110.594532
        },
        "ad_info": {
            "adcode": 431224,
            "province": "湖南省",
            "city": "怀化市",
            "district": "溆浦县"
        }
    },
    {
        "id": "16993751014032221980",
        "title": "公共厕所",
        "address": "湖南省怀化市洪江市湘顺艺术水磨石总汇东北侧150米",
        "tel": "",
        "category": "基础设施:公共设施:公共厕所",
        "type": 0,
        "location": {
            "lat": 27.264701,
            "lng": 110.139385
        },
        "ad_info": {
            "adcode": 431281,
            "province": "湖南省",
            "city": "怀化市",
            "district": "洪江市"
        }
    },
    {
        "id": "10890959883570976083",
        "title": "公共厕所(辰溪县茂林温泉山庄)",
        "address": "湖南省怀化市辰溪县火马冲镇燕子洞村茂林温泉山庄",
        "tel": "",
        "category": "基础设施:公共设施:公共厕所",
        "type": 0,
        "location": {
            "lat": 27.863433,
            "lng": 110.256905
        },
        "ad_info": {
            "adcode": 431223,
            "province": "湖南省",
            "city": "怀化市",
            "district": "辰溪县"
        }
    },
    {
        "id": "5698968429781398267",
        "title": "公共厕所(辰溪县刘晓森林公园)",
        "address": "湖南省怀化市辰溪县育才路与长城北路交叉口正南方向390米左右",
        "tel": "",
        "category": "基础设施:公共设施:公共厕所",
        "type": 0,
        "location": {
            "lat": 28.004803,
            "lng": 110.209894
        },
        "ad_info": {
            "adcode": 431223,
            "province": "湖南省",
            "city": "怀化市",
            "district": "辰溪县"
        }
    },
    {
        "id": "9561719301907482295",
        "title": "公共厕所(祥福现代农业园)",
        "address": "湖南省怀化市溆浦县祥福现代农业园241国道",
        "tel": "",
        "category": "基础设施:公共设施:公共厕所",
        "type": 0,
        "location": {
            "lat": 27.852542,
            "lng": 110.619303
        },
        "ad_info": {
            "adcode": 431224,
            "province": "湖南省",
            "city": "怀化市",
            "district": "溆浦县"
        }
    },
    {
        "id": "9299251468499321820",
        "title": "公共厕所",
        "address": "湖南省怀化市鹤城区红星南路与红溪巷交叉口正东方向200米左右",
        "tel": "",
        "category": "基础设施:公共设施:公共厕所",
        "type": 0,
        "location": {
            "lat": 27.527621,
            "lng": 109.973251
        },
        "ad_info": {
            "adcode": 431202,
            "province": "湖南省",
            "city": "怀化市",
            "district": "鹤城区"
        }
    },
    {
        "id": "6930605221902025018",
        "title": "枹木园服务公共厕所",
        "address": "湖南省怀化市沅陵县枹木园服务区西侧",
        "tel": "",
        "category": "基础设施:公共设施:公共厕所",
        "type": 0,
        "location": {
            "lat": 28.519599,
            "lng": 110.979454
        },
        "ad_info": {
            "adcode": 431222,
            "province": "湖南省",
            "city": "怀化市",
            "district": "沅陵县"
        }
    },
    {
        "id": "4527134066280586913",
        "title": "公共厕所",
        "address": "湖南省怀化市通道侗族自治县坪坦乡中心小学南侧140米",
        "tel": "",
        "category": "基础设施:公共设施:公共厕所",
        "type": 0,
        "location": {
            "lat": 26.03988,
            "lng": 109.715755
        },
        "ad_info": {
            "adcode": 431230,
            "province": "湖南省",
            "city": "怀化市",
            "district": "通道侗族自治县"
        }
    },
    {
        "id": "9633161692791809055",
        "title": "公共厕所",
        "address": "湖南省怀化市鹤城区南城景园西北侧80米",
        "tel": "",
        "category": "基础设施:公共设施:公共厕所",
        "type": 0,
        "location": {
            "lat": 27.512077,
            "lng": 109.981293
        },
        "ad_info": {
            "adcode": 431202,
            "province": "湖南省",
            "city": "怀化市",
            "district": "鹤城区"
        }
    },
    {
        "id": "4704921536026825552",
        "title": "公共厕所(HUN-HH-0207)",
        "address": "湖南省怀化市芷江侗族自治县和平路与鼓楼路交叉口西南方向230米左右",
        "tel": "",
        "category": "基础设施:公共设施:公共厕所",
        "type": 0,
        "location": {
            "lat": 27.429981,
            "lng": 109.689569
        },
        "ad_info": {
            "adcode": 431228,
            "province": "湖南省",
            "city": "怀化市",
            "district": "芷江侗族自治县"
        }
    },
    {
        "id": "1341623297204693821",
        "title": "公共厕所",
        "address": "湖南省怀化市洪江市十里窑",
        "tel": "",
        "category": "基础设施:公共设施:公共厕所",
        "type": 0,
        "location": {
            "lat": 27.169269,
            "lng": 109.658632
        },
        "ad_info": {
            "adcode": 431281,
            "province": "湖南省",
            "city": "怀化市",
            "district": "洪江市"
        }
    },
    {
        "id": "13228427967805364116",
        "title": "芷江景星寺旅游厕所HUN-HH-0247",
        "address": "湖南省怀化市芷江侗族自治县和平大道与芷江大桥交叉口东南方向412米左右",
        "tel": "",
        "category": "基础设施:公共设施:公共厕所",
        "type": 0,
        "location": {
            "lat": 27.422563,
            "lng": 109.69051
        },
        "ad_info": {
            "adcode": 431228,
            "province": "湖南省",
            "city": "怀化市",
            "district": "芷江侗族自治县"
        }
    },
    {
        "id": "13716221540634107680",
        "title": "潭湾加油站卫生间",
        "address": "湖南省怀化市辰溪县G354与X200交叉口东北方向84米左右",
        "tel": "",
        "category": "基础设施:公共设施:公共厕所",
        "type": 0,
        "location": {
            "lat": 27.967193,
            "lng": 110.159796
        },
        "ad_info": {
            "adcode": 431223,
            "province": "湖南省",
            "city": "怀化市",
            "district": "辰溪县"
        }
    },
    {
        "id": "3550155537629406036",
        "title": "公共厕所",
        "address": "湖南省怀化市洪江市横岩乡中心小学东南侧130米",
        "tel": "",
        "category": "基础设施:公共设施:公共厕所",
        "type": 0,
        "location": {
            "lat": 27.139186,
            "lng": 109.917656
        },
        "ad_info": {
            "adcode": 431281,
            "province": "湖南省",
            "city": "怀化市",
            "district": "洪江市"
        }
    },
    {
        "id": "7749762516204065028",
        "title": "洗手间(湖南通道万佛山地质公园博物馆)",
        "address": "湖南省怀化市通道侗族自治县万佛山镇临口村马冲组万佛山地质公园博物馆",
        "tel": "",
        "category": "基础设施:公共设施:公共厕所",
        "type": 0,
        "location": {
            "lat": 26.261947,
            "lng": 109.870961
        },
        "ad_info": {
            "adcode": 431230,
            "province": "湖南省",
            "city": "怀化市",
            "district": "通道侗族自治县"
        }
    },
    {
        "id": "9159778626222226435",
        "title": "公共厕所",
        "address": "湖南省怀化市会同县天柱农商行地湖支行户外劳动者服务站西侧240米",
        "tel": "",
        "category": "基础设施:公共设施:公共厕所",
        "type": 0,
        "location": {
            "lat": 26.746817,
            "lng": 109.560132
        },
        "ad_info": {
            "adcode": 431225,
            "province": "湖南省",
            "city": "怀化市",
            "district": "会同县"
        }
    },
    {
        "id": "420780027264269615",
        "title": "公共厕所(辰溪县土陶非遗基地)",
        "address": "湖南省怀化市辰溪县辰阳镇609乡道陶瓷厂土陶非遗基地",
        "tel": "",
        "category": "基础设施:公共设施:公共厕所",
        "type": 0,
        "location": {
            "lat": 27.988563,
            "lng": 110.24198
        },
        "ad_info": {
            "adcode": 431223,
            "province": "湖南省",
            "city": "怀化市",
            "district": "辰溪县"
        }
    },
    {
        "id": "10208827790703584308",
        "title": "公共厕所",
        "address": "湖南省怀化市溆浦县义陵大道与溪北巷交叉口西北方向263米左右",
        "tel": "",
        "category": "基础设施:公共设施:公共厕所",
        "type": 0,
        "location": {
            "lat": 27.914728,
            "lng": 110.588695
        },
        "ad_info": {
            "adcode": 431224,
            "province": "湖南省",
            "city": "怀化市",
            "district": "溆浦县"
        }
    },
    {
        "id": "4641251681859130793",
        "title": "洪江市红十字医院公共厕所",
        "address": "湖南省怀化市洪江市建华路与解放路交叉口正东方向84米左右",
        "tel": "",
        "category": "基础设施:公共设施:公共厕所",
        "type": 0,
        "location": {
            "lat": 27.31388,
            "lng": 110.138877
        },
        "ad_info": {
            "adcode": 431281,
            "province": "湖南省",
            "city": "怀化市",
            "district": "洪江市"
        }
    },
    {
        "id": "3762610088204938748",
        "title": "公共厕所(穿岩山游客服务中心)",
        "address": "湖南省怀化市溆浦县统溪河镇穿岩山景区241国道",
        "tel": "",
        "category": "基础设施:公共设施:公共厕所",
        "type": 0,
        "location": {
            "lat": 27.741957,
            "lng": 110.567639
        },
        "ad_info": {
            "adcode": 431224,
            "province": "湖南省",
            "city": "怀化市",
            "district": "溆浦县"
        }
    },
    {
        "id": "4259943380678439433",
        "title": "公共厕所",
        "address": "湖南省怀化市溆浦县S332与如意大道交叉口正北方向1094米左右",
        "tel": "",
        "category": "基础设施:公共设施:公共厕所",
        "type": 0,
        "location": {
            "lat": 27.618118,
            "lng": 110.594532
        },
        "ad_info": {
            "adcode": 431224,
            "province": "湖南省",
            "city": "怀化市",
            "district": "溆浦县"
        }
    },
    {
        "id": "16993751014032221980",
        "title": "公共厕所",
        "address": "湖南省怀化市洪江市湘顺艺术水磨石总汇东北侧150米",
        "tel": "",
        "category": "基础设施:公共设施:公共厕所",
        "type": 0,
        "location": {
            "lat": 27.264701,
            "lng": 110.139385
        },
        "ad_info": {
            "adcode": 431281,
            "province": "湖南省",
            "city": "怀化市",
            "district": "洪江市"
        }
    },
    {
        "id": "10890959883570976083",
        "title": "公共厕所(辰溪县茂林温泉山庄)",
        "address": "湖南省怀化市辰溪县火马冲镇燕子洞村茂林温泉山庄",
        "tel": "",
        "category": "基础设施:公共设施:公共厕所",
        "type": 0,
        "location": {
            "lat": 27.863433,
            "lng": 110.256905
        },
        "ad_info": {
            "adcode": 431223,
            "province": "湖南省",
            "city": "怀化市",
            "district": "辰溪县"
        }
    },
    {
        "id": "5698968429781398267",
        "title": "公共厕所(辰溪县刘晓森林公园)",
        "address": "湖南省怀化市辰溪县育才路与长城北路交叉口正南方向390米左右",
        "tel": "",
        "category": "基础设施:公共设施:公共厕所",
        "type": 0,
        "location": {
            "lat": 28.004803,
            "lng": 110.209894
        },
        "ad_info": {
            "adcode": 431223,
            "province": "湖南省",
            "city": "怀化市",
            "district": "辰溪县"
        }
    },
    {
        "id": "9561719301907482295",
        "title": "公共厕所(祥福现代农业园)",
        "address": "湖南省怀化市溆浦县祥福现代农业园241国道",
        "tel": "",
        "category": "基础设施:公共设施:公共厕所",
        "type": 0,
        "location": {
            "lat": 27.852542,
            "lng": 110.619303
        },
        "ad_info": {
            "adcode": 431224,
            "province": "湖南省",
            "city": "怀化市",
            "district": "溆浦县"
        }
    },
    {
        "id": "9299251468499321820",
        "title": "公共厕所",
        "address": "湖南省怀化市鹤城区红星南路与红溪巷交叉口正东方向200米左右",
        "tel": "",
        "category": "基础设施:公共设施:公共厕所",
        "type": 0,
        "location": {
            "lat": 27.527621,
            "lng": 109.973251
        },
        "ad_info": {
            "adcode": 431202,
            "province": "湖南省",
            "city": "怀化市",
            "district": "鹤城区"
        }
    },
    {
        "id": "6930605221902025018",
        "title": "枹木园服务公共厕所",
        "address": "湖南省怀化市沅陵县枹木园服务区西侧",
        "tel": "",
        "category": "基础设施:公共设施:公共厕所",
        "type": 0,
        "location": {
            "lat": 28.519599,
            "lng": 110.979454
        },
        "ad_info": {
            "adcode": 431222,
            "province": "湖南省",
            "city": "怀化市",
            "district": "沅陵县"
        }
    },
    {
        "id": "4527134066280586913",
        "title": "公共厕所",
        "address": "湖南省怀化市通道侗族自治县坪坦乡中心小学南侧140米",
        "tel": "",
        "category": "基础设施:公共设施:公共厕所",
        "type": 0,
        "location": {
            "lat": 26.03988,
            "lng": 109.715755
        },
        "ad_info": {
            "adcode": 431230,
            "province": "湖南省",
            "city": "怀化市",
            "district": "通道侗族自治县"
        }
    },
    {
        "id": "9633161692791809055",
        "title": "公共厕所",
        "address": "湖南省怀化市鹤城区南城景园西北侧80米",
        "tel": "",
        "category": "基础设施:公共设施:公共厕所",
        "type": 0,
        "location": {
            "lat": 27.512077,
            "lng": 109.981293
        },
        "ad_info": {
            "adcode": 431202,
            "province": "湖南省",
            "city": "怀化市",
            "district": "鹤城区"
        }
    },
    {
        "id": "4704921536026825552",
        "title": "公共厕所(HUN-HH-0207)",
        "address": "湖南省怀化市芷江侗族自治县和平路与鼓楼路交叉口西南方向230米左右",
        "tel": "",
        "category": "基础设施:公共设施:公共厕所",
        "type": 0,
        "location": {
            "lat": 27.429981,
            "lng": 109.689569
        },
        "ad_info": {
            "adcode": 431228,
            "province": "湖南省",
            "city": "怀化市",
            "district": "芷江侗族自治县"
        }
    },
    {
        "id": "1341623297204693821",
        "title": "公共厕所",
        "address": "湖南省怀化市洪江市十里窑",
        "tel": "",
        "category": "基础设施:公共设施:公共厕所",
        "type": 0,
        "location": {
            "lat": 27.169269,
            "lng": 109.658632
        },
        "ad_info": {
            "adcode": 431281,
            "province": "湖南省",
            "city": "怀化市",
            "district": "洪江市"
        }
    },
    {
        "id": "13228427967805364116",
        "title": "芷江景星寺旅游厕所HUN-HH-0247",
        "address": "湖南省怀化市芷江侗族自治县和平大道与芷江大桥交叉口东南方向412米左右",
        "tel": "",
        "category": "基础设施:公共设施:公共厕所",
        "type": 0,
        "location": {
            "lat": 27.422563,
            "lng": 109.69051
        },
        "ad_info": {
            "adcode": 431228,
            "province": "湖南省",
            "city": "怀化市",
            "district": "芷江侗族自治县"
        }
    },
    {
        "id": "13716221540634107680",
        "title": "潭湾加油站卫生间",
        "address": "湖南省怀化市辰溪县G354与X200交叉口东北方向84米左右",
        "tel": "",
        "category": "基础设施:公共设施:公共厕所",
        "type": 0,
        "location": {
            "lat": 27.967193,
            "lng": 110.159796
        },
        "ad_info": {
            "adcode": 431223,
            "province": "湖南省",
            "city": "怀化市",
            "district": "辰溪县"
        }
    },
    {
        "id": "3550155537629406036",
        "title": "公共厕所",
        "address": "湖南省怀化市洪江市横岩乡中心小学东南侧130米",
        "tel": "",
        "category": "基础设施:公共设施:公共厕所",
        "type": 0,
        "location": {
            "lat": 27.139186,
            "lng": 109.917656
        },
        "ad_info": {
            "adcode": 431281,
            "province": "湖南省",
            "city": "怀化市",
            "district": "洪江市"
        }
    },
    {
        "id": "7749762516204065028",
        "title": "洗手间(湖南通道万佛山地质公园博物馆)",
        "address": "湖南省怀化市通道侗族自治县万佛山镇临口村马冲组万佛山地质公园博物馆",
        "tel": "",
        "category": "基础设施:公共设施:公共厕所",
        "type": 0,
        "location": {
            "lat": 26.261947,
            "lng": 109.870961
        },
        "ad_info": {
            "adcode": 431230,
            "province": "湖南省",
            "city": "怀化市",
            "district": "通道侗族自治县"
        }
    },
    {
        "id": "9159778626222226435",
        "title": "公共厕所",
        "address": "湖南省怀化市会同县天柱农商行地湖支行户外劳动者服务站西侧240米",
        "tel": "",
        "category": "基础设施:公共设施:公共厕所",
        "type": 0,
        "location": {
            "lat": 26.746817,
            "lng": 109.560132
        },
        "ad_info": {
            "adcode": 431225,
            "province": "湖南省",
            "city": "怀化市",
            "district": "会同县"
        }
    },
    {
        "id": "420780027264269615",
        "title": "公共厕所(辰溪县土陶非遗基地)",
        "address": "湖南省怀化市辰溪县辰阳镇609乡道陶瓷厂土陶非遗基地",
        "tel": "",
        "category": "基础设施:公共设施:公共厕所",
        "type": 0,
        "location": {
            "lat": 27.988563,
            "lng": 110.24198
        },
        "ad_info": {
            "adcode": 431223,
            "province": "湖南省",
            "city": "怀化市",
            "district": "辰溪县"
        }
    },
    {
        "id": "10208827790703584308",
        "title": "公共厕所",
        "address": "湖南省怀化市溆浦县义陵大道与溪北巷交叉口西北方向263米左右",
        "tel": "",
        "category": "基础设施:公共设施:公共厕所",
        "type": 0,
        "location": {
            "lat": 27.914728,
            "lng": 110.588695
        },
        "ad_info": {
            "adcode": 431224,
            "province": "湖南省",
            "city": "怀化市",
            "district": "溆浦县"
        }
    },
    {
        "id": "4641251681859130793",
        "title": "洪江市红十字医院公共厕所",
        "address": "湖南省怀化市洪江市建华路与解放路交叉口正东方向84米左右",
        "tel": "",
        "category": "基础设施:公共设施:公共厕所",
        "type": 0,
        "location": {
            "lat": 27.31388,
            "lng": 110.138877
        },
        "ad_info": {
            "adcode": 431281,
            "province": "湖南省",
            "city": "怀化市",
            "district": "洪江市"
        }
    },
    {
        "id": "3762610088204938748",
        "title": "公共厕所(穿岩山游客服务中心)",
        "address": "湖南省怀化市溆浦县统溪河镇穿岩山景区241国道",
        "tel": "",
        "category": "基础设施:公共设施:公共厕所",
        "type": 0,
        "location": {
            "lat": 27.741957,
            "lng": 110.567639
        },
        "ad_info": {
            "adcode": 431224,
            "province": "湖南省",
            "city": "怀化市",
            "district": "溆浦县"
        }
    },
    {
        "id": "4259943380678439433",
        "title": "公共厕所",
        "address": "湖南省怀化市溆浦县S332与如意大道交叉口正北方向1094米左右",
        "tel": "",
        "category": "基础设施:公共设施:公共厕所",
        "type": 0,
        "location": {
            "lat": 27.618118,
            "lng": 110.594532
        },
        "ad_info": {
            "adcode": 431224,
            "province": "湖南省",
            "city": "怀化市",
            "district": "溆浦县"
        }
    },
    {
        "id": "16993751014032221980",
        "title": "公共厕所",
        "address": "湖南省怀化市洪江市湘顺艺术水磨石总汇东北侧150米",
        "tel": "",
        "category": "基础设施:公共设施:公共厕所",
        "type": 0,
        "location": {
            "lat": 27.264701,
            "lng": 110.139385
        },
        "ad_info": {
            "adcode": 431281,
            "province": "湖南省",
            "city": "怀化市",
            "district": "洪江市"
        }
    },
    {
        "id": "10890959883570976083",
        "title": "公共厕所(辰溪县茂林温泉山庄)",
        "address": "湖南省怀化市辰溪县火马冲镇燕子洞村茂林温泉山庄",
        "tel": "",
        "category": "基础设施:公共设施:公共厕所",
        "type": 0,
        "location": {
            "lat": 27.863433,
            "lng": 110.256905
        },
        "ad_info": {
            "adcode": 431223,
            "province": "湖南省",
            "city": "怀化市",
            "district": "辰溪县"
        }
    },
    {
        "id": "5698968429781398267",
        "title": "公共厕所(辰溪县刘晓森林公园)",
        "address": "湖南省怀化市辰溪县育才路与长城北路交叉口正南方向390米左右",
        "tel": "",
        "category": "基础设施:公共设施:公共厕所",
        "type": 0,
        "location": {
            "lat": 28.004803,
            "lng": 110.209894
        },
        "ad_info": {
            "adcode": 431223,
            "province": "湖南省",
            "city": "怀化市",
            "district": "辰溪县"
        }
    },
    {
        "id": "9561719301907482295",
        "title": "公共厕所(祥福现代农业园)",
        "address": "湖南省怀化市溆浦县祥福现代农业园241国道",
        "tel": "",
        "category": "基础设施:公共设施:公共厕所",
        "type": 0,
        "location": {
            "lat": 27.852542,
            "lng": 110.619303
        },
        "ad_info": {
            "adcode": 431224,
            "province": "湖南省",
            "city": "怀化市",
            "district": "溆浦县"
        }
    },
    {
        "id": "9299251468499321820",
        "title": "公共厕所",
        "address": "湖南省怀化市鹤城区红星南路与红溪巷交叉口正东方向200米左右",
        "tel": "",
        "category": "基础设施:公共设施:公共厕所",
        "type": 0,
        "location": {
            "lat": 27.527621,
            "lng": 109.973251
        },
        "ad_info": {
            "adcode": 431202,
            "province": "湖南省",
            "city": "怀化市",
            "district": "鹤城区"
        }
    },
    {
        "id": "6930605221902025018",
        "title": "枹木园服务公共厕所",
        "address": "湖南省怀化市沅陵县枹木园服务区西侧",
        "tel": "",
        "category": "基础设施:公共设施:公共厕所",
        "type": 0,
        "location": {
            "lat": 28.519599,
            "lng": 110.979454
        },
        "ad_info": {
            "adcode": 431222,
            "province": "湖南省",
            "city": "怀化市",
            "district": "沅陵县"
        }
    },
    {
        "id": "4527134066280586913",
        "title": "公共厕所",
        "address": "湖南省怀化市通道侗族自治县坪坦乡中心小学南侧140米",
        "tel": "",
        "category": "基础设施:公共设施:公共厕所",
        "type": 0,
        "location": {
            "lat": 26.03988,
            "lng": 109.715755
        },
        "ad_info": {
            "adcode": 431230,
            "province": "湖南省",
            "city": "怀化市",
            "district": "通道侗族自治县"
        }
    },
    {
        "id": "9633161692791809055",
        "title": "公共厕所",
        "address": "湖南省怀化市鹤城区南城景园西北侧80米",
        "tel": "",
        "category": "基础设施:公共设施:公共厕所",
        "type": 0,
        "location": {
            "lat": 27.512077,
            "lng": 109.981293
        },
        "ad_info": {
            "adcode": 431202,
            "province": "湖南省",
            "city": "怀化市",
            "district": "鹤城区"
        }
    },
    {
        "id": "4704921536026825552",
        "title": "公共厕所(HUN-HH-0207)",
        "address": "湖南省怀化市芷江侗族自治县和平路与鼓楼路交叉口西南方向230米左右",
        "tel": "",
        "category": "基础设施:公共设施:公共厕所",
        "type": 0,
        "location": {
            "lat": 27.429981,
            "lng": 109.689569
        },
        "ad_info": {
            "adcode": 431228,
            "province": "湖南省",
            "city": "怀化市",
            "district": "芷江侗族自治县"
        }
    },
    {
        "id": "1341623297204693821",
        "title": "公共厕所",
        "address": "湖南省怀化市洪江市十里窑",
        "tel": "",
        "category": "基础设施:公共设施:公共厕所",
        "type": 0,
        "location": {
            "lat": 27.169269,
            "lng": 109.658632
        },
        "ad_info": {
            "adcode": 431281,
            "province": "湖南省",
            "city": "怀化市",
            "district": "洪江市"
        }
    },
    {
        "id": "13228427967805364116",
        "title": "芷江景星寺旅游厕所HUN-HH-0247",
        "address": "湖南省怀化市芷江侗族自治县和平大道与芷江大桥交叉口东南方向412米左右",
        "tel": "",
        "category": "基础设施:公共设施:公共厕所",
        "type": 0,
        "location": {
            "lat": 27.422563,
            "lng": 109.69051
        },
        "ad_info": {
            "adcode": 431228,
            "province": "湖南省",
            "city": "怀化市",
            "district": "芷江侗族自治县"
        }
    },
    {
        "id": "13716221540634107680",
        "title": "潭湾加油站卫生间",
        "address": "湖南省怀化市辰溪县G354与X200交叉口东北方向84米左右",
        "tel": "",
        "category": "基础设施:公共设施:公共厕所",
        "type": 0,
        "location": {
            "lat": 27.967193,
            "lng": 110.159796
        },
        "ad_info": {
            "adcode": 431223,
            "province": "湖南省",
            "city": "怀化市",
            "district": "辰溪县"
        }
    },
    {
        "id": "3550155537629406036",
        "title": "公共厕所",
        "address": "湖南省怀化市洪江市横岩乡中心小学东南侧130米",
        "tel": "",
        "category": "基础设施:公共设施:公共厕所",
        "type": 0,
        "location": {
            "lat": 27.139186,
            "lng": 109.917656
        },
        "ad_info": {
            "adcode": 431281,
            "province": "湖南省",
            "city": "怀化市",
            "district": "洪江市"
        }
    },
    {
        "id": "7749762516204065028",
        "title": "洗手间(湖南通道万佛山地质公园博物馆)",
        "address": "湖南省怀化市通道侗族自治县万佛山镇临口村马冲组万佛山地质公园博物馆",
        "tel": "",
        "category": "基础设施:公共设施:公共厕所",
        "type": 0,
        "location": {
            "lat": 26.261947,
            "lng": 109.870961
        },
        "ad_info": {
            "adcode": 431230,
            "province": "湖南省",
            "city": "怀化市",
            "district": "通道侗族自治县"
        }
    },
    {
        "id": "9159778626222226435",
        "title": "公共厕所",
        "address": "湖南省怀化市会同县天柱农商行地湖支行户外劳动者服务站西侧240米",
        "tel": "",
        "category": "基础设施:公共设施:公共厕所",
        "type": 0,
        "location": {
            "lat": 26.746817,
            "lng": 109.560132
        },
        "ad_info": {
            "adcode": 431225,
            "province": "湖南省",
            "city": "怀化市",
            "district": "会同县"
        }
    },
    {
        "id": "420780027264269615",
        "title": "公共厕所(辰溪县土陶非遗基地)",
        "address": "湖南省怀化市辰溪县辰阳镇609乡道陶瓷厂土陶非遗基地",
        "tel": "",
        "category": "基础设施:公共设施:公共厕所",
        "type": 0,
        "location": {
            "lat": 27.988563,
            "lng": 110.24198
        },
        "ad_info": {
            "adcode": 431223,
            "province": "湖南省",
            "city": "怀化市",
            "district": "辰溪县"
        }
    },
    {
        "id": "10208827790703584308",
        "title": "公共厕所",
        "address": "湖南省怀化市溆浦县义陵大道与溪北巷交叉口西北方向263米左右",
        "tel": "",
        "category": "基础设施:公共设施:公共厕所",
        "type": 0,
        "location": {
            "lat": 27.914728,
            "lng": 110.588695
        },
        "ad_info": {
            "adcode": 431224,
            "province": "湖南省",
            "city": "怀化市",
            "district": "溆浦县"
        }
    },
    {
        "id": "4641251681859130793",
        "title": "洪江市红十字医院公共厕所",
        "address": "湖南省怀化市洪江市建华路与解放路交叉口正东方向84米左右",
        "tel": "",
        "category": "基础设施:公共设施:公共厕所",
        "type": 0,
        "location": {
            "lat": 27.31388,
            "lng": 110.138877
        },
        "ad_info": {
            "adcode": 431281,
            "province": "湖南省",
            "city": "怀化市",
            "district": "洪江市"
        }
    },
    {
        "id": "3762610088204938748",
        "title": "公共厕所(穿岩山游客服务中心)",
        "address": "湖南省怀化市溆浦县统溪河镇穿岩山景区241国道",
        "tel": "",
        "category": "基础设施:公共设施:公共厕所",
        "type": 0,
        "location": {
            "lat": 27.741957,
            "lng": 110.567639
        },
        "ad_info": {
            "adcode": 431224,
            "province": "湖南省",
            "city": "怀化市",
            "district": "溆浦县"
        }
    },
    {
        "id": "4259943380678439433",
        "title": "公共厕所",
        "address": "湖南省怀化市溆浦县S332与如意大道交叉口正北方向1094米左右",
        "tel": "",
        "category": "基础设施:公共设施:公共厕所",
        "type": 0,
        "location": {
            "lat": 27.618118,
            "lng": 110.594532
        },
        "ad_info": {
            "adcode": 431224,
            "province": "湖南省",
            "city": "怀化市",
            "district": "溆浦县"
        }
    },
    {
        "id": "16993751014032221980",
        "title": "公共厕所",
        "address": "湖南省怀化市洪江市湘顺艺术水磨石总汇东北侧150米",
        "tel": "",
        "category": "基础设施:公共设施:公共厕所",
        "type": 0,
        "location": {
            "lat": 27.264701,
            "lng": 110.139385
        },
        "ad_info": {
            "adcode": 431281,
            "province": "湖南省",
            "city": "怀化市",
            "district": "洪江市"
        }
    },
    {
        "id": "10890959883570976083",
        "title": "公共厕所(辰溪县茂林温泉山庄)",
        "address": "湖南省怀化市辰溪县火马冲镇燕子洞村茂林温泉山庄",
        "tel": "",
        "category": "基础设施:公共设施:公共厕所",
        "type": 0,
        "location": {
            "lat": 27.863433,
            "lng": 110.256905
        },
        "ad_info": {
            "adcode": 431223,
            "province": "湖南省",
            "city": "怀化市",
            "district": "辰溪县"
        }
    },
    {
        "id": "5698968429781398267",
        "title": "公共厕所(辰溪县刘晓森林公园)",
        "address": "湖南省怀化市辰溪县育才路与长城北路交叉口正南方向390米左右",
        "tel": "",
        "category": "基础设施:公共设施:公共厕所",
        "type": 0,
        "location": {
            "lat": 28.004803,
            "lng": 110.209894
        },
        "ad_info": {
            "adcode": 431223,
            "province": "湖南省",
            "city": "怀化市",
            "district": "辰溪县"
        }
    },
    {
        "id": "9561719301907482295",
        "title": "公共厕所(祥福现代农业园)",
        "address": "湖南省怀化市溆浦县祥福现代农业园241国道",
        "tel": "",
        "category": "基础设施:公共设施:公共厕所",
        "type": 0,
        "location": {
            "lat": 27.852542,
            "lng": 110.619303
        },
        "ad_info": {
            "adcode": 431224,
            "province": "湖南省",
            "city": "怀化市",
            "district": "溆浦县"
        }
    },
    {
        "id": "9299251468499321820",
        "title": "公共厕所",
        "address": "湖南省怀化市鹤城区红星南路与红溪巷交叉口正东方向200米左右",
        "tel": "",
        "category": "基础设施:公共设施:公共厕所",
        "type": 0,
        "location": {
            "lat": 27.527621,
            "lng": 109.973251
        },
        "ad_info": {
            "adcode": 431202,
            "province": "湖南省",
            "city": "怀化市",
            "district": "鹤城区"
        }
    },
    {
        "id": "6930605221902025018",
        "title": "枹木园服务公共厕所",
        "address": "湖南省怀化市沅陵县枹木园服务区西侧",
        "tel": "",
        "category": "基础设施:公共设施:公共厕所",
        "type": 0,
        "location": {
            "lat": 28.519599,
            "lng": 110.979454
        },
        "ad_info": {
            "adcode": 431222,
            "province": "湖南省",
            "city": "怀化市",
            "district": "沅陵县"
        }
    },
    {
        "id": "4527134066280586913",
        "title": "公共厕所",
        "address": "湖南省怀化市通道侗族自治县坪坦乡中心小学南侧140米",
        "tel": "",
        "category": "基础设施:公共设施:公共厕所",
        "type": 0,
        "location": {
            "lat": 26.03988,
            "lng": 109.715755
        },
        "ad_info": {
            "adcode": 431230,
            "province": "湖南省",
            "city": "怀化市",
            "district": "通道侗族自治县"
        }
    },
    {
        "id": "9633161692791809055",
        "title": "公共厕所",
        "address": "湖南省怀化市鹤城区南城景园西北侧80米",
        "tel": "",
        "category": "基础设施:公共设施:公共厕所",
        "type": 0,
        "location": {
            "lat": 27.512077,
            "lng": 109.981293
        },
        "ad_info": {
            "adcode": 431202,
            "province": "湖南省",
            "city": "怀化市",
            "district": "鹤城区"
        }
    },
    {
        "id": "4704921536026825552",
        "title": "公共厕所(HUN-HH-0207)",
        "address": "湖南省怀化市芷江侗族自治县和平路与鼓楼路交叉口西南方向230米左右",
        "tel": "",
        "category": "基础设施:公共设施:公共厕所",
        "type": 0,
        "location": {
            "lat": 27.429981,
            "lng": 109.689569
        },
        "ad_info": {
            "adcode": 431228,
            "province": "湖南省",
            "city": "怀化市",
            "district": "芷江侗族自治县"
        }
    },
    {
        "id": "1341623297204693821",
        "title": "公共厕所",
        "address": "湖南省怀化市洪江市十里窑",
        "tel": "",
        "category": "基础设施:公共设施:公共厕所",
        "type": 0,
        "location": {
            "lat": 27.169269,
            "lng": 109.658632
        },
        "ad_info": {
            "adcode": 431281,
            "province": "湖南省",
            "city": "怀化市",
            "district": "洪江市"
        }
    },
    {
        "id": "13228427967805364116",
        "title": "芷江景星寺旅游厕所HUN-HH-0247",
        "address": "湖南省怀化市芷江侗族自治县和平大道与芷江大桥交叉口东南方向412米左右",
        "tel": "",
        "category": "基础设施:公共设施:公共厕所",
        "type": 0,
        "location": {
            "lat": 27.422563,
            "lng": 109.69051
        },
        "ad_info": {
            "adcode": 431228,
            "province": "湖南省",
            "city": "怀化市",
            "district": "芷江侗族自治县"
        }
    },
    {
        "id": "13716221540634107680",
        "title": "潭湾加油站卫生间",
        "address": "湖南省怀化市辰溪县G354与X200交叉口东北方向84米左右",
        "tel": "",
        "category": "基础设施:公共设施:公共厕所",
        "type": 0,
        "location": {
            "lat": 27.967193,
            "lng": 110.159796
        },
        "ad_info": {
            "adcode": 431223,
            "province": "湖南省",
            "city": "怀化市",
            "district": "辰溪县"
        }
    },
    {
        "id": "3550155537629406036",
        "title": "公共厕所",
        "address": "湖南省怀化市洪江市横岩乡中心小学东南侧130米",
        "tel": "",
        "category": "基础设施:公共设施:公共厕所",
        "type": 0,
        "location": {
            "lat": 27.139186,
            "lng": 109.917656
        },
        "ad_info": {
            "adcode": 431281,
            "province": "湖南省",
            "city": "怀化市",
            "district": "洪江市"
        }
    },
    {
        "id": "7749762516204065028",
        "title": "洗手间(湖南通道万佛山地质公园博物馆)",
        "address": "湖南省怀化市通道侗族自治县万佛山镇临口村马冲组万佛山地质公园博物馆",
        "tel": "",
        "category": "基础设施:公共设施:公共厕所",
        "type": 0,
        "location": {
            "lat": 26.261947,
            "lng": 109.870961
        },
        "ad_info": {
            "adcode": 431230,
            "province": "湖南省",
            "city": "怀化市",
            "district": "通道侗族自治县"
        }
    },
    {
        "id": "9159778626222226435",
        "title": "公共厕所",
        "address": "湖南省怀化市会同县天柱农商行地湖支行户外劳动者服务站西侧240米",
        "tel": "",
        "category": "基础设施:公共设施:公共厕所",
        "type": 0,
        "location": {
            "lat": 26.746817,
            "lng": 109.560132
        },
        "ad_info": {
            "adcode": 431225,
            "province": "湖南省",
            "city": "怀化市",
            "district": "会同县"
        }
    },
    {
        "id": "420780027264269615",
        "title": "公共厕所(辰溪县土陶非遗基地)",
        "address": "湖南省怀化市辰溪县辰阳镇609乡道陶瓷厂土陶非遗基地",
        "tel": "",
        "category": "基础设施:公共设施:公共厕所",
        "type": 0,
        "location": {
            "lat": 27.988563,
            "lng": 110.24198
        },
        "ad_info": {
            "adcode": 431223,
            "province": "湖南省",
            "city": "怀化市",
            "district": "辰溪县"
        }
    },
    {
        "id": "10208827790703584308",
        "title": "公共厕所",
        "address": "湖南省怀化市溆浦县义陵大道与溪北巷交叉口西北方向263米左右",
        "tel": "",
        "category": "基础设施:公共设施:公共厕所",
        "type": 0,
        "location": {
            "lat": 27.914728,
            "lng": 110.588695
        },
        "ad_info": {
            "adcode": 431224,
            "province": "湖南省",
            "city": "怀化市",
            "district": "溆浦县"
        }
    },
    {
        "id": "4641251681859130793",
        "title": "洪江市红十字医院公共厕所",
        "address": "湖南省怀化市洪江市建华路与解放路交叉口正东方向84米左右",
        "tel": "",
        "category": "基础设施:公共设施:公共厕所",
        "type": 0,
        "location": {
            "lat": 27.31388,
            "lng": 110.138877
        },
        "ad_info": {
            "adcode": 431281,
            "province": "湖南省",
            "city": "怀化市",
            "district": "洪江市"
        }
    },
    {
        "id": "3762610088204938748",
        "title": "公共厕所(穿岩山游客服务中心)",
        "address": "湖南省怀化市溆浦县统溪河镇穿岩山景区241国道",
        "tel": "",
        "category": "基础设施:公共设施:公共厕所",
        "type": 0,
        "location": {
            "lat": 27.741957,
            "lng": 110.567639
        },
        "ad_info": {
            "adcode": 431224,
            "province": "湖南省",
            "city": "怀化市",
            "district": "溆浦县"
        }
    },
    {
        "id": "4259943380678439433",
        "title": "公共厕所",
        "address": "湖南省怀化市溆浦县S332与如意大道交叉口正北方向1094米左右",
        "tel": "",
        "category": "基础设施:公共设施:公共厕所",
        "type": 0,
        "location": {
            "lat": 27.618118,
            "lng": 110.594532
        },
        "ad_info": {
            "adcode": 431224,
            "province": "湖南省",
            "city": "怀化市",
            "district": "溆浦县"
        }
    },
    {
        "id": "16993751014032221980",
        "title": "公共厕所",
        "address": "湖南省怀化市洪江市湘顺艺术水磨石总汇东北侧150米",
        "tel": "",
        "category": "基础设施:公共设施:公共厕所",
        "type": 0,
        "location": {
            "lat": 27.264701,
            "lng": 110.139385
        },
        "ad_info": {
            "adcode": 431281,
            "province": "湖南省",
            "city": "怀化市",
            "district": "洪江市"
        }
    },
    {
        "id": "10890959883570976083",
        "title": "公共厕所(辰溪县茂林温泉山庄)",
        "address": "湖南省怀化市辰溪县火马冲镇燕子洞村茂林温泉山庄",
        "tel": "",
        "category": "基础设施:公共设施:公共厕所",
        "type": 0,
        "location": {
            "lat": 27.863433,
            "lng": 110.256905
        },
        "ad_info": {
            "adcode": 431223,
            "province": "湖南省",
            "city": "怀化市",
            "district": "辰溪县"
        }
    },
    {
        "id": "5698968429781398267",
        "title": "公共厕所(辰溪县刘晓森林公园)",
        "address": "湖南省怀化市辰溪县育才路与长城北路交叉口正南方向390米左右",
        "tel": "",
        "category": "基础设施:公共设施:公共厕所",
        "type": 0,
        "location": {
            "lat": 28.004803,
            "lng": 110.209894
        },
        "ad_info": {
            "adcode": 431223,
            "province": "湖南省",
            "city": "怀化市",
            "district": "辰溪县"
        }
    },
    {
        "id": "9561719301907482295",
        "title": "公共厕所(祥福现代农业园)",
        "address": "湖南省怀化市溆浦县祥福现代农业园241国道",
        "tel": "",
        "category": "基础设施:公共设施:公共厕所",
        "type": 0,
        "location": {
            "lat": 27.852542,
            "lng": 110.619303
        },
        "ad_info": {
            "adcode": 431224,
            "province": "湖南省",
            "city": "怀化市",
            "district": "溆浦县"
        }
    },
    {
        "id": "9299251468499321820",
        "title": "公共厕所",
        "address": "湖南省怀化市鹤城区红星南路与红溪巷交叉口正东方向200米左右",
        "tel": "",
        "category": "基础设施:公共设施:公共厕所",
        "type": 0,
        "location": {
            "lat": 27.527621,
            "lng": 109.973251
        },
        "ad_info": {
            "adcode": 431202,
            "province": "湖南省",
            "city": "怀化市",
            "district": "鹤城区"
        }
    },
    {
        "id": "6930605221902025018",
        "title": "枹木园服务公共厕所",
        "address": "湖南省怀化市沅陵县枹木园服务区西侧",
        "tel": "",
        "category": "基础设施:公共设施:公共厕所",
        "type": 0,
        "location": {
            "lat": 28.519599,
            "lng": 110.979454
        },
        "ad_info": {
            "adcode": 431222,
            "province": "湖南省",
            "city": "怀化市",
            "district": "沅陵县"
        }
    },
    {
        "id": "4527134066280586913",
        "title": "公共厕所",
        "address": "湖南省怀化市通道侗族自治县坪坦乡中心小学南侧140米",
        "tel": "",
        "category": "基础设施:公共设施:公共厕所",
        "type": 0,
        "location": {
            "lat": 26.03988,
            "lng": 109.715755
        },
        "ad_info": {
            "adcode": 431230,
            "province": "湖南省",
            "city": "怀化市",
            "district": "通道侗族自治县"
        }
    },
    {
        "id": "9633161692791809055",
        "title": "公共厕所",
        "address": "湖南省怀化市鹤城区南城景园西北侧80米",
        "tel": "",
        "category": "基础设施:公共设施:公共厕所",
        "type": 0,
        "location": {
            "lat": 27.512077,
            "lng": 109.981293
        },
        "ad_info": {
            "adcode": 431202,
            "province": "湖南省",
            "city": "怀化市",
            "district": "鹤城区"
        }
    },
    {
        "id": "4704921536026825552",
        "title": "公共厕所(HUN-HH-0207)",
        "address": "湖南省怀化市芷江侗族自治县和平路与鼓楼路交叉口西南方向230米左右",
        "tel": "",
        "category": "基础设施:公共设施:公共厕所",
        "type": 0,
        "location": {
            "lat": 27.429981,
            "lng": 109.689569
        },
        "ad_info": {
            "adcode": 431228,
            "province": "湖南省",
            "city": "怀化市",
            "district": "芷江侗族自治县"
        }
    },
    {
        "id": "1341623297204693821",
        "title": "公共厕所",
        "address": "湖南省怀化市洪江市十里窑",
        "tel": "",
        "category": "基础设施:公共设施:公共厕所",
        "type": 0,
        "location": {
            "lat": 27.169269,
            "lng": 109.658632
        },
        "ad_info": {
            "adcode": 431281,
            "province": "湖南省",
            "city": "怀化市",
            "district": "洪江市"
        }
    },
    {
        "id": "13228427967805364116",
        "title": "芷江景星寺旅游厕所HUN-HH-0247",
        "address": "湖南省怀化市芷江侗族自治县和平大道与芷江大桥交叉口东南方向412米左右",
        "tel": "",
        "category": "基础设施:公共设施:公共厕所",
        "type": 0,
        "location": {
            "lat": 27.422563,
            "lng": 109.69051
        },
        "ad_info": {
            "adcode": 431228,
            "province": "湖南省",
            "city": "怀化市",
            "district": "芷江侗族自治县"
        }
    },
    {
        "id": "13716221540634107680",
        "title": "潭湾加油站卫生间",
        "address": "湖南省怀化市辰溪县G354与X200交叉口东北方向84米左右",
        "tel": "",
        "category": "基础设施:公共设施:公共厕所",
        "type": 0,
        "location": {
            "lat": 27.967193,
            "lng": 110.159796
        },
        "ad_info": {
            "adcode": 431223,
            "province": "湖南省",
            "city": "怀化市",
            "district": "辰溪县"
        }
    },
    {
        "id": "3550155537629406036",
        "title": "公共厕所",
        "address": "湖南省怀化市洪江市横岩乡中心小学东南侧130米",
        "tel": "",
        "category": "基础设施:公共设施:公共厕所",
        "type": 0,
        "location": {
            "lat": 27.139186,
            "lng": 109.917656
        },
        "ad_info": {
            "adcode": 431281,
            "province": "湖南省",
            "city": "怀化市",
            "district": "洪江市"
        }
    },
    {
        "id": "7749762516204065028",
        "title": "洗手间(湖南通道万佛山地质公园博物馆)",
        "address": "湖南省怀化市通道侗族自治县万佛山镇临口村马冲组万佛山地质公园博物馆",
        "tel": "",
        "category": "基础设施:公共设施:公共厕所",
        "type": 0,
        "location": {
            "lat": 26.261947,
            "lng": 109.870961
        },
        "ad_info": {
            "adcode": 431230,
            "province": "湖南省",
            "city": "怀化市",
            "district": "通道侗族自治县"
        }
    },
    {
        "id": "9159778626222226435",
        "title": "公共厕所",
        "address": "湖南省怀化市会同县天柱农商行地湖支行户外劳动者服务站西侧240米",
        "tel": "",
        "category": "基础设施:公共设施:公共厕所",
        "type": 0,
        "location": {
            "lat": 26.746817,
            "lng": 109.560132
        },
        "ad_info": {
            "adcode": 431225,
            "province": "湖南省",
            "city": "怀化市",
            "district": "会同县"
        }
    },
    {
        "id": "420780027264269615",
        "title": "公共厕所(辰溪县土陶非遗基地)",
        "address": "湖南省怀化市辰溪县辰阳镇609乡道陶瓷厂土陶非遗基地",
        "tel": "",
        "category": "基础设施:公共设施:公共厕所",
        "type": 0,
        "location": {
            "lat": 27.988563,
            "lng": 110.24198
        },
        "ad_info": {
            "adcode": 431223,
            "province": "湖南省",
            "city": "怀化市",
            "district": "辰溪县"
        }
    },
    {
        "id": "10208827790703584308",
        "title": "公共厕所",
        "address": "湖南省怀化市溆浦县义陵大道与溪北巷交叉口西北方向263米左右",
        "tel": "",
        "category": "基础设施:公共设施:公共厕所",
        "type": 0,
        "location": {
            "lat": 27.914728,
            "lng": 110.588695
        },
        "ad_info": {
            "adcode": 431224,
            "province": "湖南省",
            "city": "怀化市",
            "district": "溆浦县"
        }
    },
    {
        "id": "4641251681859130793",
        "title": "洪江市红十字医院公共厕所",
        "address": "湖南省怀化市洪江市建华路与解放路交叉口正东方向84米左右",
        "tel": "",
        "category": "基础设施:公共设施:公共厕所",
        "type": 0,
        "location": {
            "lat": 27.31388,
            "lng": 110.138877
        },
        "ad_info": {
            "adcode": 431281,
            "province": "湖南省",
            "city": "怀化市",
            "district": "洪江市"
        }
    },
    {
        "id": "3762610088204938748",
        "title": "公共厕所(穿岩山游客服务中心)",
        "address": "湖南省怀化市溆浦县统溪河镇穿岩山景区241国道",
        "tel": "",
        "category": "基础设施:公共设施:公共厕所",
        "type": 0,
        "location": {
            "lat": 27.741957,
            "lng": 110.567639
        },
        "ad_info": {
            "adcode": 431224,
            "province": "湖南省",
            "city": "怀化市",
            "district": "溆浦县"
        }
    },
    {
        "id": "4259943380678439433",
        "title": "公共厕所",
        "address": "湖南省怀化市溆浦县S332与如意大道交叉口正北方向1094米左右",
        "tel": "",
        "category": "基础设施:公共设施:公共厕所",
        "type": 0,
        "location": {
            "lat": 27.618118,
            "lng": 110.594532
        },
        "ad_info": {
            "adcode": 431224,
            "province": "湖南省",
            "city": "怀化市",
            "district": "溆浦县"
        }
    },
    {
        "id": "16993751014032221980",
        "title": "公共厕所",
        "address": "湖南省怀化市洪江市湘顺艺术水磨石总汇东北侧150米",
        "tel": "",
        "category": "基础设施:公共设施:公共厕所",
        "type": 0,
        "location": {
            "lat": 27.264701,
            "lng": 110.139385
        },
        "ad_info": {
            "adcode": 431281,
            "province": "湖南省",
            "city": "怀化市",
            "district": "洪江市"
        }
    },
    {
        "id": "10890959883570976083",
        "title": "公共厕所(辰溪县茂林温泉山庄)",
        "address": "湖南省怀化市辰溪县火马冲镇燕子洞村茂林温泉山庄",
        "tel": "",
        "category": "基础设施:公共设施:公共厕所",
        "type": 0,
        "location": {
            "lat": 27.863433,
            "lng": 110.256905
        },
        "ad_info": {
            "adcode": 431223,
            "province": "湖南省",
            "city": "怀化市",
            "district": "辰溪县"
        }
    },
    {
        "id": "5698968429781398267",
        "title": "公共厕所(辰溪县刘晓森林公园)",
        "address": "湖南省怀化市辰溪县育才路与长城北路交叉口正南方向390米左右",
        "tel": "",
        "category": "基础设施:公共设施:公共厕所",
        "type": 0,
        "location": {
            "lat": 28.004803,
            "lng": 110.209894
        },
        "ad_info": {
            "adcode": 431223,
            "province": "湖南省",
            "city": "怀化市",
            "district": "辰溪县"
        }
    },
    {
        "id": "9561719301907482295",
        "title": "公共厕所(祥福现代农业园)",
        "address": "湖南省怀化市溆浦县祥福现代农业园241国道",
        "tel": "",
        "category": "基础设施:公共设施:公共厕所",
        "type": 0,
        "location": {
            "lat": 27.852542,
            "lng": 110.619303
        },
        "ad_info": {
            "adcode": 431224,
            "province": "湖南省",
            "city": "怀化市",
            "district": "溆浦县"
        }
    },
    {
        "id": "9299251468499321820",
        "title": "公共厕所",
        "address": "湖南省怀化市鹤城区红星南路与红溪巷交叉口正东方向200米左右",
        "tel": "",
        "category": "基础设施:公共设施:公共厕所",
        "type": 0,
        "location": {
            "lat": 27.527621,
            "lng": 109.973251
        },
        "ad_info": {
            "adcode": 431202,
            "province": "湖南省",
            "city": "怀化市",
            "district": "鹤城区"
        }
    },
    {
        "id": "6930605221902025018",
        "title": "枹木园服务公共厕所",
        "address": "湖南省怀化市沅陵县枹木园服务区西侧",
        "tel": "",
        "category": "基础设施:公共设施:公共厕所",
        "type": 0,
        "location": {
            "lat": 28.519599,
            "lng": 110.979454
        },
        "ad_info": {
            "adcode": 431222,
            "province": "湖南省",
            "city": "怀化市",
            "district": "沅陵县"
        }
    },
    {
        "id": "4527134066280586913",
        "title": "公共厕所",
        "address": "湖南省怀化市通道侗族自治县坪坦乡中心小学南侧140米",
        "tel": "",
        "category": "基础设施:公共设施:公共厕所",
        "type": 0,
        "location": {
            "lat": 26.03988,
            "lng": 109.715755
        },
        "ad_info": {
            "adcode": 431230,
            "province": "湖南省",
            "city": "怀化市",
            "district": "通道侗族自治县"
        }
    },
    {
        "id": "9633161692791809055",
        "title": "公共厕所",
        "address": "湖南省怀化市鹤城区南城景园西北侧80米",
        "tel": "",
        "category": "基础设施:公共设施:公共厕所",
        "type": 0,
        "location": {
            "lat": 27.512077,
            "lng": 109.981293
        },
        "ad_info": {
            "adcode": 431202,
            "province": "湖南省",
            "city": "怀化市",
            "district": "鹤城区"
        }
    },
    {
        "id": "4704921536026825552",
        "title": "公共厕所(HUN-HH-0207)",
        "address": "湖南省怀化市芷江侗族自治县和平路与鼓楼路交叉口西南方向230米左右",
        "tel": "",
        "category": "基础设施:公共设施:公共厕所",
        "type": 0,
        "location": {
            "lat": 27.429981,
            "lng": 109.689569
        },
        "ad_info": {
            "adcode": 431228,
            "province": "湖南省",
            "city": "怀化市",
            "district": "芷江侗族自治县"
        }
    },
    {
        "id": "1341623297204693821",
        "title": "公共厕所",
        "address": "湖南省怀化市洪江市十里窑",
        "tel": "",
        "category": "基础设施:公共设施:公共厕所",
        "type": 0,
        "location": {
            "lat": 27.169269,
            "lng": 109.658632
        },
        "ad_info": {
            "adcode": 431281,
            "province": "湖南省",
            "city": "怀化市",
            "district": "洪江市"
        }
    },
    {
        "id": "13228427967805364116",
        "title": "芷江景星寺旅游厕所HUN-HH-0247",
        "address": "湖南省怀化市芷江侗族自治县和平大道与芷江大桥交叉口东南方向412米左右",
        "tel": "",
        "category": "基础设施:公共设施:公共厕所",
        "type": 0,
        "location": {
            "lat": 27.422563,
            "lng": 109.69051
        },
        "ad_info": {
            "adcode": 431228,
            "province": "湖南省",
            "city": "怀化市",
            "district": "芷江侗族自治县"
        }
    },
    {
        "id": "13716221540634107680",
        "title": "潭湾加油站卫生间",
        "address": "湖南省怀化市辰溪县G354与X200交叉口东北方向84米左右",
        "tel": "",
        "category": "基础设施:公共设施:公共厕所",
        "type": 0,
        "location": {
            "lat": 27.967193,
            "lng": 110.159796
        },
        "ad_info": {
            "adcode": 431223,
            "province": "湖南省",
            "city": "怀化市",
            "district": "辰溪县"
        }
    },
    {
        "id": "3550155537629406036",
        "title": "公共厕所",
        "address": "湖南省怀化市洪江市横岩乡中心小学东南侧130米",
        "tel": "",
        "category": "基础设施:公共设施:公共厕所",
        "type": 0,
        "location": {
            "lat": 27.139186,
            "lng": 109.917656
        },
        "ad_info": {
            "adcode": 431281,
            "province": "湖南省",
            "city": "怀化市",
            "district": "洪江市"
        }
    },
    {
        "id": "7749762516204065028",
        "title": "洗手间(湖南通道万佛山地质公园博物馆)",
        "address": "湖南省怀化市通道侗族自治县万佛山镇临口村马冲组万佛山地质公园博物馆",
        "tel": "",
        "category": "基础设施:公共设施:公共厕所",
        "type": 0,
        "location": {
            "lat": 26.261947,
            "lng": 109.870961
        },
        "ad_info": {
            "adcode": 431230,
            "province": "湖南省",
            "city": "怀化市",
            "district": "通道侗族自治县"
        }
    },
    {
        "id": "9159778626222226435",
        "title": "公共厕所",
        "address": "湖南省怀化市会同县天柱农商行地湖支行户外劳动者服务站西侧240米",
        "tel": "",
        "category": "基础设施:公共设施:公共厕所",
        "type": 0,
        "location": {
            "lat": 26.746817,
            "lng": 109.560132
        },
        "ad_info": {
            "adcode": 431225,
            "province": "湖南省",
            "city": "怀化市",
            "district": "会同县"
        }
    },
    {
        "id": "420780027264269615",
        "title": "公共厕所(辰溪县土陶非遗基地)",
        "address": "湖南省怀化市辰溪县辰阳镇609乡道陶瓷厂土陶非遗基地",
        "tel": "",
        "category": "基础设施:公共设施:公共厕所",
        "type": 0,
        "location": {
            "lat": 27.988563,
            "lng": 110.24198
        },
        "ad_info": {
            "adcode": 431223,
            "province": "湖南省",
            "city": "怀化市",
            "district": "辰溪县"
        }
    },
    {
        "id": "10208827790703584308",
        "title": "公共厕所",
        "address": "湖南省怀化市溆浦县义陵大道与溪北巷交叉口西北方向263米左右",
        "tel": "",
        "category": "基础设施:公共设施:公共厕所",
        "type": 0,
        "location": {
            "lat": 27.914728,
            "lng": 110.588695
        },
        "ad_info": {
            "adcode": 431224,
            "province": "湖南省",
            "city": "怀化市",
            "district": "溆浦县"
        }
    },
    {
        "id": "4641251681859130793",
        "title": "洪江市红十字医院公共厕所",
        "address": "湖南省怀化市洪江市建华路与解放路交叉口正东方向84米左右",
        "tel": "",
        "category": "基础设施:公共设施:公共厕所",
        "type": 0,
        "location": {
            "lat": 27.31388,
            "lng": 110.138877
        },
        "ad_info": {
            "adcode": 431281,
            "province": "湖南省",
            "city": "怀化市",
            "district": "洪江市"
        }
    },
    {
        "id": "3762610088204938748",
        "title": "公共厕所(穿岩山游客服务中心)",
        "address": "湖南省怀化市溆浦县统溪河镇穿岩山景区241国道",
        "tel": "",
        "category": "基础设施:公共设施:公共厕所",
        "type": 0,
        "location": {
            "lat": 27.741957,
            "lng": 110.567639
        },
        "ad_info": {
            "adcode": 431224,
            "province": "湖南省",
            "city": "怀化市",
            "district": "溆浦县"
        }
    },
    {
        "id": "4259943380678439433",
        "title": "公共厕所",
        "address": "湖南省怀化市溆浦县S332与如意大道交叉口正北方向1094米左右",
        "tel": "",
        "category": "基础设施:公共设施:公共厕所",
        "type": 0,
        "location": {
            "lat": 27.618118,
            "lng": 110.594532
        },
        "ad_info": {
            "adcode": 431224,
            "province": "湖南省",
            "city": "怀化市",
            "district": "溆浦县"
        }
    }
]