[
    {
        "id": "4870239072784414321",
        "title": "公共厕所",
        "address": "云南省怒江傈僳族自治州兰坪白族普米族自治县滨江大道凤凰小区",
        "tel": "",
        "category": "基础设施:公共设施:公共厕所",
        "type": 0,
        "location": {
            "lat": 26.441704,
            "lng": 99.421201
        },
        "ad_info": {
            "adcode": 533325,
            "province": "云南省",
            "city": "怒江傈僳族自治州",
            "district": "兰坪白族普米族自治县"
        }
    },
    {
        "id": "15557942996826831322",
        "title": "公共厕所",
        "address": "云南省怒江傈僳族自治州泸水市沧江路与雪山路交叉口正北方向212米左右",
        "tel": "",
        "category": "基础设施:公共设施:公共厕所",
        "type": 0,
        "location": {
            "lat": 25.825593,
            "lng": 98.858145
        },
        "ad_info": {
            "adcode": 533301,
            "province": "云南省",
            "city": "怒江傈僳族自治州",
            "district": "泸水市"
        }
    },
    {
        "id": "4600037908802566873",
        "title": "公共厕所",
        "address": "云南省怒江傈僳族自治州兰坪白族普米族自治县人民路与怒江路交叉口正西方向345米左右",
        "tel": "",
        "category": "基础设施:公共设施:公共厕所",
        "type": 0,
        "location": {
            "lat": 26.452649,
            "lng": 99.414999
        },
        "ad_info": {
            "adcode": 533325,
            "province": "云南省",
            "city": "怒江傈僳族自治州",
            "district": "兰坪白族普米族自治县"
        }
    },
    {
        "id": "17862952321479453523",
        "title": "公共厕所",
        "address": "云南省怒江傈僳族自治州兰坪白族普米族自治县S311(剑兰公路)",
        "tel": "",
        "category": "基础设施:公共设施:公共厕所",
        "type": 0,
        "location": {
            "lat": 26.486453,
            "lng": 99.430745
        },
        "ad_info": {
            "adcode": 533325,
            "province": "云南省",
            "city": "怒江傈僳族自治州",
            "district": "兰坪白族普米族自治县"
        }
    },
    {
        "id": "1187573522874947168",
        "title": "公共厕所",
        "address": "云南省怒江傈僳族自治州兰坪白族普米族自治县S237与兔峨大桥交叉口正南方向1184米左右",
        "tel": "",
        "category": "基础设施:公共设施:公共厕所",
        "type": 0,
        "location": {
            "lat": 26.195747,
            "lng": 99.13143
        },
        "ad_info": {
            "adcode": 533325,
            "province": "云南省",
            "city": "怒江傈僳族自治州",
            "district": "兰坪白族普米族自治县"
        }
    },
    {
        "id": "7737127324166773302",
        "title": "公共厕所",
        "address": "云南省怒江傈僳族自治州兰坪白族普米族自治县G215与S311交叉口正北方向536米左右",
        "tel": "",
        "category": "基础设施:公共设施:公共厕所",
        "type": 0,
        "location": {
            "lat": 26.437284,
            "lng": 99.414076
        },
        "ad_info": {
            "adcode": 533325,
            "province": "云南省",
            "city": "怒江傈僳族自治州",
            "district": "兰坪白族普米族自治县"
        }
    },
    {
        "id": "9071766801545031697",
        "title": "公共厕所",
        "address": "云南省怒江傈僳族自治州兰坪白族普米族自治县文兴公路金顶镇中心完小",
        "tel": "",
        "category": "基础设施:公共设施:公共厕所",
        "type": 0,
        "location": {
            "lat": 26.425553,
            "lng": 99.405471
        },
        "ad_info": {
            "adcode": 533325,
            "province": "云南省",
            "city": "怒江傈僳族自治州",
            "district": "兰坪白族普米族自治县"
        }
    },
    {
        "id": "6788366108862684528",
        "title": "公共厕所",
        "address": "云南省怒江傈僳族自治州兰坪白族普米族自治县通甸村医疗室西南侧",
        "tel": "",
        "category": "基础设施:公共设施:公共厕所",
        "type": 0,
        "location": {
            "lat": 26.692406,
            "lng": 99.524848
        },
        "ad_info": {
            "adcode": 533325,
            "province": "云南省",
            "city": "怒江傈僳族自治州",
            "district": "兰坪白族普米族自治县"
        }
    },
    {
        "id": "12250750479910911623",
        "title": "公共厕所",
        "address": "云南省怒江傈僳族自治州兰坪白族普米族自治县Q20县道东50米",
        "tel": "",
        "category": "基础设施:公共设施:公共厕所",
        "type": 0,
        "location": {
            "lat": 26.725348,
            "lng": 99.156006
        },
        "ad_info": {
            "adcode": 533325,
            "province": "云南省",
            "city": "怒江傈僳族自治州",
            "district": "兰坪白族普米族自治县"
        }
    },
    {
        "id": "12390137528049630220",
        "title": "公共厕所",
        "address": "云南省怒江傈僳族自治州兰坪白族普米族自治县S311与长涧路交叉口西北方向269米左右",
        "tel": "",
        "category": "基础设施:公共设施:公共厕所",
        "type": 0,
        "location": {
            "lat": 26.489243,
            "lng": 99.274564
        },
        "ad_info": {
            "adcode": 533325,
            "province": "云南省",
            "city": "怒江傈僳族自治州",
            "district": "兰坪白族普米族自治县"
        }
    },
    {
        "id": "16480022200764348353",
        "title": "公共厕所",
        "address": "云南省怒江傈僳族自治州兰坪白族普米族自治县金顶中学东北侧240米",
        "tel": "",
        "category": "基础设施:公共设施:公共厕所",
        "type": 0,
        "location": {
            "lat": 26.427207,
            "lng": 99.411082
        },
        "ad_info": {
            "adcode": 533325,
            "province": "云南省",
            "city": "怒江傈僳族自治州",
            "district": "兰坪白族普米族自治县"
        }
    },
    {
        "id": "5054468013833191710",
        "title": "公共厕所",
        "address": "云南省怒江傈僳族自治州兰坪白族普米族自治县X232与XQ20交叉口东北方向727米左右",
        "tel": "",
        "category": "基础设施:公共设施:公共厕所",
        "type": 0,
        "location": {
            "lat": 26.46814,
            "lng": 99.156918
        },
        "ad_info": {
            "adcode": 533325,
            "province": "云南省",
            "city": "怒江傈僳族自治州",
            "district": "兰坪白族普米族自治县"
        }
    },
    {
        "id": "13613315843983498675",
        "title": "公共厕所",
        "address": "云南省怒江傈僳族自治州兰坪白族普米族自治县金顶镇金江路星泰加油站",
        "tel": "",
        "category": "基础设施:公共设施:公共厕所",
        "type": 0,
        "location": {
            "lat": 26.436687,
            "lng": 99.413867
        },
        "ad_info": {
            "adcode": 533325,
            "province": "云南省",
            "city": "怒江傈僳族自治州",
            "district": "兰坪白族普米族自治县"
        }
    },
    {
        "id": "7385819155072639545",
        "title": "公共厕所",
        "address": "云南省怒江傈僳族自治州兰坪白族普米族自治县G215与期井公路交叉口东北方向1481米左右",
        "tel": "",
        "category": "基础设施:公共设施:公共厕所",
        "type": 0,
        "location": {
            "lat": 26.377176,
            "lng": 99.391224
        },
        "ad_info": {
            "adcode": 533325,
            "province": "云南省",
            "city": "怒江傈僳族自治州",
            "district": "兰坪白族普米族自治县"
        }
    },
    {
        "id": "16746316406210652636",
        "title": "公共厕所",
        "address": "云南省怒江傈僳族自治州兰坪白族普米族自治县Q23县道东50米",
        "tel": "",
        "category": "基础设施:公共设施:公共厕所",
        "type": 0,
        "location": {
            "lat": 26.747534,
            "lng": 99.458824
        },
        "ad_info": {
            "adcode": 533325,
            "province": "云南省",
            "city": "怒江傈僳族自治州",
            "district": "兰坪白族普米族自治县"
        }
    },
    {
        "id": "5071187971655575263",
        "title": "公共厕所",
        "address": "云南省怒江傈僳族自治州贡山独龙族怒族自治县丙中洛边防派出所报警点",
        "tel": "",
        "category": "基础设施:公共设施:公共厕所",
        "type": 0,
        "location": {
            "lat": 27.970237,
            "lng": 98.655836
        },
        "ad_info": {
            "adcode": 533324,
            "province": "云南省",
            "city": "怒江傈僳族自治州",
            "district": "贡山独龙族怒族自治县"
        }
    },
    {
        "id": "15157649257929647261",
        "title": "公共厕所",
        "address": "云南省怒江傈僳族自治州兰坪白族普米族自治县G215与水俸公路交叉口正东方向163米左右",
        "tel": "",
        "category": "基础设施:公共设施:公共厕所",
        "type": 0,
        "location": {
            "lat": 26.609722,
            "lng": 99.475517
        },
        "ad_info": {
            "adcode": 533325,
            "province": "云南省",
            "city": "怒江傈僳族自治州",
            "district": "兰坪白族普米族自治县"
        }
    },
    {
        "id": "2459599791501334580",
        "title": "公共厕所",
        "address": "云南省怒江傈僳族自治州兰坪白族普米族自治县人民路38号",
        "tel": "",
        "category": "基础设施:公共设施:公共厕所",
        "type": 0,
        "location": {
            "lat": 26.455188,
            "lng": 99.414723
        },
        "ad_info": {
            "adcode": 533325,
            "province": "云南省",
            "city": "怒江傈僳族自治州",
            "district": "兰坪白族普米族自治县"
        }
    },
    {
        "id": "15469782644940785690",
        "title": "公共厕所",
        "address": "云南省怒江傈僳族自治州泸水市六库镇中国石化六库城南加油站",
        "tel": "",
        "category": "基础设施:公共设施:公共厕所",
        "type": 0,
        "location": {
            "lat": 25.807478,
            "lng": 98.859419
        },
        "ad_info": {
            "adcode": 533301,
            "province": "云南省",
            "city": "怒江傈僳族自治州",
            "district": "泸水市"
        }
    },
    {
        "id": "9587566560970344609",
        "title": "公共厕所",
        "address": "云南省怒江傈僳族自治州泸水市称杆乡泸水兴忠加油站",
        "tel": "",
        "category": "基础设施:公共设施:公共厕所",
        "type": 0,
        "location": {
            "lat": 26.227454,
            "lng": 98.868254
        },
        "ad_info": {
            "adcode": 533301,
            "province": "云南省",
            "city": "怒江傈僳族自治州",
            "district": "泸水市"
        }
    },
    {
        "id": "18345894834280936458",
        "title": "公共厕所",
        "address": "云南省怒江傈僳族自治州泸水市同心路与沧江路交叉口正南方向45米左右",
        "tel": "",
        "category": "基础设施:公共设施:公共厕所",
        "type": 0,
        "location": {
            "lat": 25.818105,
            "lng": 98.8602
        },
        "ad_info": {
            "adcode": 533301,
            "province": "云南省",
            "city": "怒江傈僳族自治州",
            "district": "泸水市"
        }
    },
    {
        "id": "14023309836118035702",
        "title": "公共厕所",
        "address": "云南省怒江傈僳族自治州泸水市向阳南路怒江僳僳族自治州人民政府食品安全委员会办公室",
        "tel": "",
        "category": "基础设施:公共设施:公共厕所",
        "type": 0,
        "location": {
            "lat": 25.843366,
            "lng": 98.855465
        },
        "ad_info": {
            "adcode": 533301,
            "province": "云南省",
            "city": "怒江傈僳族自治州",
            "district": "泸水市"
        }
    },
    {
        "id": "7372628548980129504",
        "title": "公共厕所",
        "address": "云南省怒江傈僳族自治州泸水市青山公园路与青山路交叉口东北方向95米左右",
        "tel": "",
        "category": "基础设施:公共设施:公共厕所",
        "type": 0,
        "location": {
            "lat": 25.856294,
            "lng": 98.856373
        },
        "ad_info": {
            "adcode": 533301,
            "province": "云南省",
            "city": "怒江傈僳族自治州",
            "district": "泸水市"
        }
    },
    {
        "id": "6426314266680560752",
        "title": "公共厕所",
        "address": "云南省怒江傈僳族自治州泸水市人民路与向阳东路交叉口正南方向98米左右",
        "tel": "",
        "category": "基础设施:公共设施:公共厕所",
        "type": 0,
        "location": {
            "lat": 25.847879,
            "lng": 98.854566
        },
        "ad_info": {
            "adcode": 533301,
            "province": "云南省",
            "city": "怒江傈僳族自治州",
            "district": "泸水市"
        }
    },
    {
        "id": "14347627031795994224",
        "title": "公共厕所",
        "address": "云南省怒江傈僳族自治州泸水市228省道东50米",
        "tel": "",
        "category": "基础设施:公共设施:公共厕所",
        "type": 0,
        "location": {
            "lat": 25.871027,
            "lng": 98.983213
        },
        "ad_info": {
            "adcode": 533301,
            "province": "云南省",
            "city": "怒江傈僳族自治州",
            "district": "泸水市"
        }
    },
    {
        "id": "1699079550976927612",
        "title": "公共厕所",
        "address": "云南省怒江傈僳族自治州兰坪白族普米族自治县沘江路与沧江路交叉口东南方向80米左右",
        "tel": "",
        "category": "基础设施:公共设施:公共厕所",
        "type": 0,
        "location": {
            "lat": 26.455779,
            "lng": 99.423123
        },
        "ad_info": {
            "adcode": 533325,
            "province": "云南省",
            "city": "怒江傈僳族自治州",
            "district": "兰坪白族普米族自治县"
        }
    },
    {
        "id": "10392940180720483144",
        "title": "公共厕所",
        "address": "云南省怒江傈僳族自治州泸水市G219与怒江大道交叉口西南方向64米左右",
        "tel": "",
        "category": "基础设施:公共设施:公共厕所",
        "type": 0,
        "location": {
            "lat": 25.791521,
            "lng": 98.86301
        },
        "ad_info": {
            "adcode": 533301,
            "province": "云南省",
            "city": "怒江傈僳族自治州",
            "district": "泸水市"
        }
    },
    {
        "id": "11409384322897097743",
        "title": "公共厕所",
        "address": "云南省怒江傈僳族自治州泸水市文化路与穿城路交叉口正西方向113米左右",
        "tel": "",
        "category": "基础设施:公共设施:公共厕所",
        "type": 0,
        "location": {
            "lat": 25.852177,
            "lng": 98.853069
        },
        "ad_info": {
            "adcode": 533301,
            "province": "云南省",
            "city": "怒江傈僳族自治州",
            "district": "泸水市"
        }
    },
    {
        "id": "14343849533226619",
        "title": "公共厕所",
        "address": "云南省怒江傈僳族自治州泸水市S316与跃中段交叉口正东方向1306米左右",
        "tel": "",
        "category": "基础设施:公共设施:公共厕所",
        "type": 0,
        "location": {
            "lat": 26.010224,
            "lng": 98.634585
        },
        "ad_info": {
            "adcode": 533301,
            "province": "云南省",
            "city": "怒江傈僳族自治州",
            "district": "泸水市"
        }
    },
    {
        "id": "3576349298674820970",
        "title": "公共厕所",
        "address": "云南省怒江傈僳族自治州兰坪白族普米族自治县团结路与沘江路交叉口正东方向57米左右",
        "tel": "",
        "category": "基础设施:公共设施:公共厕所",
        "type": 0,
        "location": {
            "lat": 26.45301,
            "lng": 99.42409
        },
        "ad_info": {
            "adcode": 533325,
            "province": "云南省",
            "city": "怒江傈僳族自治州",
            "district": "兰坪白族普米族自治县"
        }
    },
    {
        "id": "17185793551934682329",
        "title": "公共厕所",
        "address": "云南省怒江傈僳族自治州泸水市Y026与穿城路交叉口正南方向669米左右",
        "tel": "",
        "category": "基础设施:公共设施:公共厕所",
        "type": 0,
        "location": {
            "lat": 25.868107,
            "lng": 98.847845
        },
        "ad_info": {
            "adcode": 533301,
            "province": "云南省",
            "city": "怒江傈僳族自治州",
            "district": "泸水市"
        }
    },
    {
        "id": "2001511000262899775",
        "title": "公共厕所",
        "address": "云南省怒江傈僳族自治州泸水市316省道北50米",
        "tel": "",
        "category": "基础设施:公共设施:公共厕所",
        "type": 0,
        "location": {
            "lat": 25.980886,
            "lng": 98.813457
        },
        "ad_info": {
            "adcode": 533301,
            "province": "云南省",
            "city": "怒江傈僳族自治州",
            "district": "泸水市"
        }
    },
    {
        "id": "5860570178466404986",
        "title": "公共厕所",
        "address": "云南省怒江傈僳族自治州泸水市山水新城6号苑东侧140米",
        "tel": "",
        "category": "基础设施:公共设施:公共厕所",
        "type": 0,
        "location": {
            "lat": 25.817887,
            "lng": 98.862887
        },
        "ad_info": {
            "adcode": 533301,
            "province": "云南省",
            "city": "怒江傈僳族自治州",
            "district": "泸水市"
        }
    },
    {
        "id": "3871145807611642327",
        "title": "公共厕所",
        "address": "云南省怒江傈僳族自治州贡山独龙族怒族自治县附近",
        "tel": "",
        "category": "基础设施:公共设施:公共厕所",
        "type": 0,
        "location": {
            "lat": 27.621662,
            "lng": 98.760889
        },
        "ad_info": {
            "adcode": 533324,
            "province": "云南省",
            "city": "怒江傈僳族自治州",
            "district": "贡山独龙族怒族自治县"
        }
    },
    {
        "id": "4740013761501149991",
        "title": "公共厕所",
        "address": "云南省怒江傈僳族自治州兰坪白族普米族自治县怒江路与沘江路交叉口西南方向73米左右",
        "tel": "",
        "category": "基础设施:公共设施:公共厕所",
        "type": 0,
        "location": {
            "lat": 26.456997,
            "lng": 99.420327
        },
        "ad_info": {
            "adcode": 533325,
            "province": "云南省",
            "city": "怒江傈僳族自治州",
            "district": "兰坪白族普米族自治县"
        }
    },
    {
        "id": "2117790653814662193",
        "title": "公共厕所",
        "address": "云南省怒江傈僳族自治州兰坪白族普米族自治县金顶填永兴社区上村箐小区东南侧290米",
        "tel": "",
        "category": "基础设施:公共设施:公共厕所",
        "type": 0,
        "location": {
            "lat": 26.433299,
            "lng": 99.41375
        },
        "ad_info": {
            "adcode": 533325,
            "province": "云南省",
            "city": "怒江傈僳族自治州",
            "district": "兰坪白族普米族自治县"
        }
    },
    {
        "id": "12575920467926401196",
        "title": "捧当乡公厕",
        "address": "云南省怒江傈僳族自治州贡山独龙族怒族自治县闪当街",
        "tel": "",
        "category": "基础设施:公共设施:公共厕所",
        "type": 0,
        "location": {
            "lat": 27.890351,
            "lng": 98.671617
        },
        "ad_info": {
            "adcode": 533324,
            "province": "云南省",
            "city": "怒江傈僳族自治州",
            "district": "贡山独龙族怒族自治县"
        }
    },
    {
        "id": "1313434630219314365",
        "title": "帐篷营地(3)厕所",
        "address": "云南省怒江傈僳族自治州兰坪白族普米族自治县景区正门直行1.5公里处",
        "tel": "",
        "category": "基础设施:公共设施:公共厕所",
        "type": 0,
        "location": {
            "lat": 26.80965,
            "lng": 99.51412
        },
        "ad_info": {
            "adcode": 533325,
            "province": "云南省",
            "city": "怒江傈僳族自治州",
            "district": "兰坪白族普米族自治县"
        }
    },
    {
        "id": "3180084660190603977",
        "title": "帐篷营地(1)厕所",
        "address": "云南省怒江傈僳族自治州兰坪白族普米族自治县景区正门直行3.2公里处",
        "tel": "",
        "category": "基础设施:公共设施:公共厕所",
        "type": 0,
        "location": {
            "lat": 26.81049,
            "lng": 99.5313
        },
        "ad_info": {
            "adcode": 533325,
            "province": "云南省",
            "city": "怒江傈僳族自治州",
            "district": "兰坪白族普米族自治县"
        }
    },
    {
        "id": "1597792170185849613",
        "title": "帐篷营地(2)厕所",
        "address": "云南省怒江傈僳族自治州兰坪白族普米族自治县景区正门直行3.2公里处",
        "tel": "",
        "category": "基础设施:公共设施:公共厕所",
        "type": 0,
        "location": {
            "lat": 26.80927,
            "lng": 99.53256
        },
        "ad_info": {
            "adcode": 533325,
            "province": "云南省",
            "city": "怒江傈僳族自治州",
            "district": "兰坪白族普米族自治县"
        }
    },
    {
        "id": "4733237065549179069",
        "title": "百花岭服务区公共厕所",
        "address": "云南省怒江傈僳族自治州泸水市云南交投新能源百花岭上行电动汽车充电站西北侧80米",
        "tel": "",
        "category": "基础设施:公共设施:公共厕所",
        "type": 0,
        "location": {
            "lat": 25.716234,
            "lng": 98.87242
        },
        "ad_info": {
            "adcode": 533301,
            "province": "云南省",
            "city": "怒江傈僳族自治州",
            "district": "泸水市"
        }
    }
]