[
    {
        "id": "7349932450323660783",
        "title": "公共厕所",
        "address": "湖北省恩施土家族苗族自治州恩施市丹霞路与金子坝路交叉口西北方向153米左右",
        "tel": "",
        "category": "基础设施:公共设施:公共厕所",
        "type": 0,
        "location": {
            "lat": 30.329187,
            "lng": 109.499106
        },
        "ad_info": {
            "adcode": 422801,
            "province": "湖北省",
            "city": "恩施土家族苗族自治州",
            "district": "恩施市"
        }
    },
    {
        "id": "12579595124026534097",
        "title": "公共厕所",
        "address": "湖北省恩施土家族苗族自治州恩施市施州大道543号",
        "tel": "",
        "category": "基础设施:公共设施:公共厕所",
        "type": 0,
        "location": {
            "lat": 30.320968,
            "lng": 109.480669
        },
        "ad_info": {
            "adcode": 422801,
            "province": "湖北省",
            "city": "恩施土家族苗族自治州",
            "district": "恩施市"
        }
    },
    {
        "id": "16563295574540541271",
        "title": "公共厕所",
        "address": "湖北省恩施土家族苗族自治州恩施市金桂大道恩施新天地",
        "tel": "",
        "category": "基础设施:公共设施:公共厕所",
        "type": 0,
        "location": {
            "lat": 30.301101,
            "lng": 109.494865
        },
        "ad_info": {
            "adcode": 422801,
            "province": "湖北省",
            "city": "恩施土家族苗族自治州",
            "district": "恩施市"
        }
    },
    {
        "id": "16292777647506353993",
        "title": "公共厕所",
        "address": "湖北省恩施土家族苗族自治州恩施市市府路恩施体育运动中心",
        "tel": "",
        "category": "基础设施:公共设施:公共厕所",
        "type": 0,
        "location": {
            "lat": 30.296637,
            "lng": 109.474395
        },
        "ad_info": {
            "adcode": 422801,
            "province": "湖北省",
            "city": "恩施土家族苗族自治州",
            "district": "恩施市"
        }
    },
    {
        "id": "12734179491925613951",
        "title": "公共厕所",
        "address": "湖北省恩施土家族苗族自治州恩施市航空大道与航空大道二巷交叉口正南方向257米左右",
        "tel": "",
        "category": "基础设施:公共设施:公共厕所",
        "type": 0,
        "location": {
            "lat": 30.280122,
            "lng": 109.478748
        },
        "ad_info": {
            "adcode": 422801,
            "province": "湖北省",
            "city": "恩施土家族苗族自治州",
            "district": "恩施市"
        }
    },
    {
        "id": "3397837492926723655",
        "title": "公共厕所",
        "address": "湖北省恩施土家族苗族自治州恩施市施州大道与清江西路交叉口西南方向40米左右",
        "tel": "",
        "category": "基础设施:公共设施:公共厕所",
        "type": 0,
        "location": {
            "lat": 30.270653,
            "lng": 109.481802
        },
        "ad_info": {
            "adcode": 422801,
            "province": "湖北省",
            "city": "恩施土家族苗族自治州",
            "district": "恩施市"
        }
    },
    {
        "id": "11701884989197173355",
        "title": "公共厕所",
        "address": "湖北省恩施土家族苗族自治州恩施市金山大道与金桂大道交叉口西南方向130米左右",
        "tel": "",
        "category": "基础设施:公共设施:公共厕所",
        "type": 0,
        "location": {
            "lat": 30.302637,
            "lng": 109.495011
        },
        "ad_info": {
            "adcode": 422801,
            "province": "湖北省",
            "city": "恩施土家族苗族自治州",
            "district": "恩施市"
        }
    },
    {
        "id": "18218807496689422305",
        "title": "公共厕所",
        "address": "湖北省恩施土家族苗族自治州恩施市大桥路五巷与民族路一巷交叉口正西方向80米左右",
        "tel": "",
        "category": "基础设施:公共设施:公共厕所",
        "type": 0,
        "location": {
            "lat": 30.290469,
            "lng": 109.48165
        },
        "ad_info": {
            "adcode": 422801,
            "province": "湖北省",
            "city": "恩施土家族苗族自治州",
            "district": "恩施市"
        }
    },
    {
        "id": "7720474409598543062",
        "title": "公共厕所",
        "address": "湖北省恩施土家族苗族自治州恩施市人民路与解放路交叉口正东方向63米左右",
        "tel": "",
        "category": "基础设施:公共设施:公共厕所",
        "type": 0,
        "location": {
            "lat": 30.266319,
            "lng": 109.481597
        },
        "ad_info": {
            "adcode": 422801,
            "province": "湖北省",
            "city": "恩施土家族苗族自治州",
            "district": "恩施市"
        }
    },
    {
        "id": "10389034593227552185",
        "title": "公共厕所",
        "address": "湖北省恩施土家族苗族自治州恩施市恩施步行街商业城与舞阳大道一巷交叉口西北方向40米",
        "tel": "",
        "category": "基础设施:公共设施:公共厕所",
        "type": 0,
        "location": {
            "lat": 30.273133,
            "lng": 109.486497
        },
        "ad_info": {
            "adcode": 422801,
            "province": "湖北省",
            "city": "恩施土家族苗族自治州",
            "district": "恩施市"
        }
    },
    {
        "id": "8305335892793433291",
        "title": "公共厕所",
        "address": "湖北省恩施土家族苗族自治州恩施市旗峰大道与旗望公路交叉口正南方向273米左右",
        "tel": "",
        "category": "基础设施:公共设施:公共厕所",
        "type": 0,
        "location": {
            "lat": 30.317058,
            "lng": 109.463896
        },
        "ad_info": {
            "adcode": 422801,
            "province": "湖北省",
            "city": "恩施土家族苗族自治州",
            "district": "恩施市"
        }
    },
    {
        "id": "10544888289736505042",
        "title": "公共厕所",
        "address": "湖北省恩施土家族苗族自治州恩施市环城西路与硒施大道交叉口正西方向639米左右",
        "tel": "",
        "category": "基础设施:公共设施:公共厕所",
        "type": 0,
        "location": {
            "lat": 30.269503,
            "lng": 109.447765
        },
        "ad_info": {
            "adcode": 422801,
            "province": "湖北省",
            "city": "恩施土家族苗族自治州",
            "district": "恩施市"
        }
    },
    {
        "id": "8897622313610041615",
        "title": "公共厕所",
        "address": "湖北省恩施土家族苗族自治州恩施市林家巷与解放路交叉口东南方向32米左右",
        "tel": "",
        "category": "基础设施:公共设施:公共厕所",
        "type": 0,
        "location": {
            "lat": 30.264244,
            "lng": 109.480236
        },
        "ad_info": {
            "adcode": 422801,
            "province": "湖北省",
            "city": "恩施土家族苗族自治州",
            "district": "恩施市"
        }
    },
    {
        "id": "3291221221076925354",
        "title": "公共厕所",
        "address": "湖北省恩施土家族苗族自治州恩施市Y008与恩咸路交叉口正西方向680米左右",
        "tel": "",
        "category": "基础设施:公共设施:公共厕所",
        "type": 0,
        "location": {
            "lat": 30.17358,
            "lng": 109.429416
        },
        "ad_info": {
            "adcode": 422801,
            "province": "湖北省",
            "city": "恩施土家族苗族自治州",
            "district": "恩施市"
        }
    },
    {
        "id": "2859828091967254525",
        "title": "公共厕所",
        "address": "湖北省恩施土家族苗族自治州利川市解放东路与龙船大道交叉口西北方向35米左右",
        "tel": "",
        "category": "基础设施:公共设施:公共厕所",
        "type": 0,
        "location": {
            "lat": 30.295947,
            "lng": 108.93552
        },
        "ad_info": {
            "adcode": 422802,
            "province": "湖北省",
            "city": "恩施土家族苗族自治州",
            "district": "利川市"
        }
    },
    {
        "id": "11314708228590531634",
        "title": "公共厕所",
        "address": "湖北省恩施土家族苗族自治州恩施市规划十六路与金桂大道交叉口正西方向252米左右",
        "tel": "",
        "category": "基础设施:公共设施:公共厕所",
        "type": 0,
        "location": {
            "lat": 30.311285,
            "lng": 109.491533
        },
        "ad_info": {
            "adcode": 422801,
            "province": "湖北省",
            "city": "恩施土家族苗族自治州",
            "district": "恩施市"
        }
    },
    {
        "id": "16149028609125856135",
        "title": "公共厕所",
        "address": "湖北省恩施土家族苗族自治州恩施市规划十六路与金桂大道交叉口西南方向82米左右",
        "tel": "",
        "category": "基础设施:公共设施:公共厕所",
        "type": 0,
        "location": {
            "lat": 30.310585,
            "lng": 109.49365
        },
        "ad_info": {
            "adcode": 422801,
            "province": "湖北省",
            "city": "恩施土家族苗族自治州",
            "district": "恩施市"
        }
    },
    {
        "id": "6542279798342888077",
        "title": "公共厕所",
        "address": "湖北省恩施土家族苗族自治州恩施市二桥中路与沿河东路交叉口东南方向69米左右",
        "tel": "",
        "category": "基础设施:公共设施:公共厕所",
        "type": 0,
        "location": {
            "lat": 30.284037,
            "lng": 109.500634
        },
        "ad_info": {
            "adcode": 422801,
            "province": "湖北省",
            "city": "恩施土家族苗族自治州",
            "district": "恩施市"
        }
    },
    {
        "id": "7532155008590353815",
        "title": "公共厕所",
        "address": "湖北省恩施土家族苗族自治州恩施市机场东路与金桂大道交叉口正东方向179米左右",
        "tel": "",
        "category": "基础设施:公共设施:公共厕所",
        "type": 0,
        "location": {
            "lat": 30.307193,
            "lng": 109.496915
        },
        "ad_info": {
            "adcode": 422801,
            "province": "湖北省",
            "city": "恩施土家族苗族自治州",
            "district": "恩施市"
        }
    },
    {
        "id": "16912006899196797818",
        "title": "公共厕所",
        "address": "湖北省恩施土家族苗族自治州恩施市柑子槽小区三巷与柑子槽小区二期3交叉口西北方向136米左右",
        "tel": "",
        "category": "基础设施:公共设施:公共厕所",
        "type": 0,
        "location": {
            "lat": 30.304221,
            "lng": 109.49754
        },
        "ad_info": {
            "adcode": 422801,
            "province": "湖北省",
            "city": "恩施土家族苗族自治州",
            "district": "恩施市"
        }
    },
    {
        "id": "13310714050383423079",
        "title": "公共厕所",
        "address": "湖北省恩施土家族苗族自治州恩施市滨江路与施州大道辅路交叉口东南60米",
        "tel": "",
        "category": "基础设施:公共设施:公共厕所",
        "type": 0,
        "location": {
            "lat": 30.292216,
            "lng": 109.485846
        },
        "ad_info": {
            "adcode": 422801,
            "province": "湖北省",
            "city": "恩施土家族苗族自治州",
            "district": "恩施市"
        }
    },
    {
        "id": "16329233067815833811",
        "title": "公共厕所",
        "address": "湖北省恩施土家族苗族自治州恩施市柑子槽小区一期二巷与柑子槽小区二巷交叉口正西方向104米左右",
        "tel": "",
        "category": "基础设施:公共设施:公共厕所",
        "type": 0,
        "location": {
            "lat": 30.298573,
            "lng": 109.497638
        },
        "ad_info": {
            "adcode": 422801,
            "province": "湖北省",
            "city": "恩施土家族苗族自治州",
            "district": "恩施市"
        }
    },
    {
        "id": "14393954491838390218",
        "title": "公共厕所",
        "address": "湖北省恩施土家族苗族自治州恩施市东风大道与清江东路交叉口正西方向84米左右",
        "tel": "",
        "category": "基础设施:公共设施:公共厕所",
        "type": 0,
        "location": {
            "lat": 30.27547,
            "lng": 109.484206
        },
        "ad_info": {
            "adcode": 422801,
            "province": "湖北省",
            "city": "恩施土家族苗族自治州",
            "district": "恩施市"
        }
    },
    {
        "id": "6925626147491257837",
        "title": "公共厕所",
        "address": "湖北省恩施土家族苗族自治州恩施市市府路与市府路二巷交叉口正北方向94米左右",
        "tel": "",
        "category": "基础设施:公共设施:公共厕所",
        "type": 0,
        "location": {
            "lat": 30.295449,
            "lng": 109.481044
        },
        "ad_info": {
            "adcode": 422801,
            "province": "湖北省",
            "city": "恩施土家族苗族自治州",
            "district": "恩施市"
        }
    },
    {
        "id": "17333617885268156627",
        "title": "公共厕所",
        "address": "湖北省恩施土家族苗族自治州恩施市施州大道清和园内",
        "tel": "",
        "category": "基础设施:公共设施:公共厕所",
        "type": 0,
        "location": {
            "lat": 30.280503,
            "lng": 109.483799
        },
        "ad_info": {
            "adcode": 422801,
            "province": "湖北省",
            "city": "恩施土家族苗族自治州",
            "district": "恩施市"
        }
    },
    {
        "id": "11864427058173163484",
        "title": "公共厕所",
        "address": "湖北省恩施土家族苗族自治州恩施市航空大道246-4号",
        "tel": "",
        "category": "基础设施:公共设施:公共厕所",
        "type": 0,
        "location": {
            "lat": 30.293405,
            "lng": 109.481653
        },
        "ad_info": {
            "adcode": 422801,
            "province": "湖北省",
            "city": "恩施土家族苗族自治州",
            "district": "恩施市"
        }
    },
    {
        "id": "1289048825249789836",
        "title": "公共厕所",
        "address": "湖北省恩施土家族苗族自治州恩施市四维街与林家巷交叉口东南方向51米左右",
        "tel": "",
        "category": "基础设施:公共设施:公共厕所",
        "type": 0,
        "location": {
            "lat": 30.263585,
            "lng": 109.481527
        },
        "ad_info": {
            "adcode": 422801,
            "province": "湖北省",
            "city": "恩施土家族苗族自治州",
            "district": "恩施市"
        }
    },
    {
        "id": "11359875782499149730",
        "title": "公共厕所",
        "address": "湖北省恩施土家族苗族自治州恩施市学院路与李家槽路交叉口东南方向138米左右",
        "tel": "",
        "category": "基础设施:公共设施:公共厕所",
        "type": 0,
        "location": {
            "lat": 30.300207,
            "lng": 109.485794
        },
        "ad_info": {
            "adcode": 422801,
            "province": "湖北省",
            "city": "恩施土家族苗族自治州",
            "district": "恩施市"
        }
    },
    {
        "id": "7757761487797889151",
        "title": "公共厕所",
        "address": "湖北省恩施土家族苗族自治州恩施市机场东路与金山大道交叉口东南方向194米左右",
        "tel": "",
        "category": "基础设施:公共设施:公共厕所",
        "type": 0,
        "location": {
            "lat": 30.30203,
            "lng": 109.49432
        },
        "ad_info": {
            "adcode": 422801,
            "province": "湖北省",
            "city": "恩施土家族苗族自治州",
            "district": "恩施市"
        }
    },
    {
        "id": "3909988945074841143",
        "title": "公共厕所",
        "address": "湖北省恩施土家族苗族自治州利川市中山路与龙船大道交叉口正北方向30米左右",
        "tel": "",
        "category": "基础设施:公共设施:公共厕所",
        "type": 0,
        "location": {
            "lat": 30.297173,
            "lng": 108.935549
        },
        "ad_info": {
            "adcode": 422802,
            "province": "湖北省",
            "city": "恩施土家族苗族自治州",
            "district": "利川市"
        }
    },
    {
        "id": "9681503172970499679",
        "title": "公共厕所",
        "address": "湖北省恩施土家族苗族自治州恩施市G318与佳兴大道交叉口东北方向1241米左右",
        "tel": "",
        "category": "基础设施:公共设施:公共厕所",
        "type": 0,
        "location": {
            "lat": 30.483888,
            "lng": 109.83918
        },
        "ad_info": {
            "adcode": 422801,
            "province": "湖北省",
            "city": "恩施土家族苗族自治州",
            "district": "恩施市"
        }
    },
    {
        "id": "6236865314041319307",
        "title": "公共厕所",
        "address": "湖北省恩施土家族苗族自治州利川市东城路与东方城商业步行街交叉口正南方向82米左右",
        "tel": "",
        "category": "基础设施:公共设施:公共厕所",
        "type": 0,
        "location": {
            "lat": 30.295957,
            "lng": 108.954994
        },
        "ad_info": {
            "adcode": 422802,
            "province": "湖北省",
            "city": "恩施土家族苗族自治州",
            "district": "利川市"
        }
    },
    {
        "id": "14824531146318167603",
        "title": "公共厕所",
        "address": "湖北省恩施土家族苗族自治州恩施市中街路与土桥大道交叉口东北方向30米左右",
        "tel": "",
        "category": "基础设施:公共设施:公共厕所",
        "type": 0,
        "location": {
            "lat": 30.286666,
            "lng": 109.500693
        },
        "ad_info": {
            "adcode": 422801,
            "province": "湖北省",
            "city": "恩施土家族苗族自治州",
            "district": "恩施市"
        }
    },
    {
        "id": "5099993402665901553",
        "title": "公共厕所",
        "address": "湖北省恩施土家族苗族自治州恩施市舞阳大道与舞阳大道四巷交叉口西南方向193米左右",
        "tel": "",
        "category": "基础设施:公共设施:公共厕所",
        "type": 0,
        "location": {
            "lat": 30.274868,
            "lng": 109.487396
        },
        "ad_info": {
            "adcode": 422801,
            "province": "湖北省",
            "city": "恩施土家族苗族自治州",
            "district": "恩施市"
        }
    },
    {
        "id": "14951699512966203133",
        "title": "公共厕所",
        "address": "湖北省恩施土家族苗族自治州恩施市G318与桥湾桥交叉口正西方向106米左右",
        "tel": "",
        "category": "基础设施:公共设施:公共厕所",
        "type": 0,
        "location": {
            "lat": 30.295916,
            "lng": 109.327421
        },
        "ad_info": {
            "adcode": 422801,
            "province": "湖北省",
            "city": "恩施土家族苗族自治州",
            "district": "恩施市"
        }
    },
    {
        "id": "11970550883819576174",
        "title": "公共厕所",
        "address": "湖北省恩施土家族苗族自治州恩施市体育馆路与施州大道交叉口正东方向467米左右",
        "tel": "",
        "category": "基础设施:公共设施:公共厕所",
        "type": 0,
        "location": {
            "lat": 30.282614,
            "lng": 109.488127
        },
        "ad_info": {
            "adcode": 422801,
            "province": "湖北省",
            "city": "恩施土家族苗族自治州",
            "district": "恩施市"
        }
    },
    {
        "id": "11504694770502514390",
        "title": "公共厕所",
        "address": "湖北省恩施土家族苗族自治州恩施市新建街与舞阳大道交叉口西北方向158米左右",
        "tel": "",
        "category": "基础设施:公共设施:公共厕所",
        "type": 0,
        "location": {
            "lat": 30.273227,
            "lng": 109.483647
        },
        "ad_info": {
            "adcode": 422801,
            "province": "湖北省",
            "city": "恩施土家族苗族自治州",
            "district": "恩施市"
        }
    },
    {
        "id": "869472051412882082",
        "title": "公共厕所",
        "address": "湖北省恩施土家族苗族自治州恩施市硒江路与硒谷路交叉口西北方向88米左右",
        "tel": "",
        "category": "基础设施:公共设施:公共厕所",
        "type": 0,
        "location": {
            "lat": 30.28143,
            "lng": 109.456273
        },
        "ad_info": {
            "adcode": 422801,
            "province": "湖北省",
            "city": "恩施土家族苗族自治州",
            "district": "恩施市"
        }
    },
    {
        "id": "3014429474452902706",
        "title": "公共厕所",
        "address": "湖北省恩施土家族苗族自治州恩施市体育馆路与施州大道交叉口东南方向260米左右",
        "tel": "",
        "category": "基础设施:公共设施:公共厕所",
        "type": 0,
        "location": {
            "lat": 30.28084,
            "lng": 109.484945
        },
        "ad_info": {
            "adcode": 422801,
            "province": "湖北省",
            "city": "恩施土家族苗族自治州",
            "district": "恩施市"
        }
    },
    {
        "id": "401640450607000051",
        "title": "公共厕所",
        "address": "湖北省恩施土家族苗族自治州恩施市东风大道与清江东路交叉口西北方向361米左右",
        "tel": "",
        "category": "基础设施:公共设施:公共厕所",
        "type": 0,
        "location": {
            "lat": 30.278456,
            "lng": 109.483306
        },
        "ad_info": {
            "adcode": 422801,
            "province": "湖北省",
            "city": "恩施土家族苗族自治州",
            "district": "恩施市"
        }
    },
    {
        "id": "3668636934477010933",
        "title": "公共厕所",
        "address": "湖北省恩施土家族苗族自治州恩施市四维街与薛家巷交叉口正东方向88米左右",
        "tel": "",
        "category": "基础设施:公共设施:公共厕所",
        "type": 0,
        "location": {
            "lat": 30.262494,
            "lng": 109.482313
        },
        "ad_info": {
            "adcode": 422801,
            "province": "湖北省",
            "city": "恩施土家族苗族自治州",
            "district": "恩施市"
        }
    },
    {
        "id": "17827703087320082633",
        "title": "公共厕所",
        "address": "湖北省恩施土家族苗族自治州恩施市施州大道与红庙街交叉口正北方向458米左右",
        "tel": "",
        "category": "基础设施:公共设施:公共厕所",
        "type": 0,
        "location": {
            "lat": 30.33102,
            "lng": 109.480321
        },
        "ad_info": {
            "adcode": 422801,
            "province": "湖北省",
            "city": "恩施土家族苗族自治州",
            "district": "恩施市"
        }
    },
    {
        "id": "10669589299070326017",
        "title": "公共厕所",
        "address": "湖北省恩施土家族苗族自治州利川市清江大道与西桥路交叉口西南方向27米左右",
        "tel": "",
        "category": "基础设施:公共设施:公共厕所",
        "type": 0,
        "location": {
            "lat": 30.292805,
            "lng": 108.926702
        },
        "ad_info": {
            "adcode": 422802,
            "province": "湖北省",
            "city": "恩施土家族苗族自治州",
            "district": "利川市"
        }
    },
    {
        "id": "12797432305519537421",
        "title": "公共厕所",
        "address": "湖北省恩施土家族苗族自治州利川市小东门巷与解放东路交叉口东北方向88米左右",
        "tel": "",
        "category": "基础设施:公共设施:公共厕所",
        "type": 0,
        "location": {
            "lat": 30.298469,
            "lng": 108.942269
        },
        "ad_info": {
            "adcode": 422802,
            "province": "湖北省",
            "city": "恩施土家族苗族自治州",
            "district": "利川市"
        }
    },
    {
        "id": "8393811030740006007",
        "title": "公共厕所",
        "address": "湖北省恩施土家族苗族自治州利川市天平巷与清源大道交叉口东北方向36米左右",
        "tel": "",
        "category": "基础设施:公共设施:公共厕所",
        "type": 0,
        "location": {
            "lat": 30.290575,
            "lng": 108.937856
        },
        "ad_info": {
            "adcode": 422802,
            "province": "湖北省",
            "city": "恩施土家族苗族自治州",
            "district": "利川市"
        }
    },
    {
        "id": "18428711922698186314",
        "title": "公共厕所",
        "address": "湖北省恩施土家族苗族自治州咸丰县荆南路与解放路交叉口东北方向56米左右",
        "tel": "",
        "category": "基础设施:公共设施:公共厕所",
        "type": 0,
        "location": {
            "lat": 29.680655,
            "lng": 109.15083
        },
        "ad_info": {
            "adcode": 422826,
            "province": "湖北省",
            "city": "恩施土家族苗族自治州",
            "district": "咸丰县"
        }
    },
    {
        "id": "13074200832805754405",
        "title": "公共厕所",
        "address": "湖北省恩施土家族苗族自治州恩施市佳兴大道与宝塔路交叉口东北方向234米左右",
        "tel": "",
        "category": "基础设施:公共设施:公共厕所",
        "type": 0,
        "location": {
            "lat": 30.508745,
            "lng": 109.858617
        },
        "ad_info": {
            "adcode": 422801,
            "province": "湖北省",
            "city": "恩施土家族苗族自治州",
            "district": "恩施市"
        }
    },
    {
        "id": "1354380048068666267",
        "title": "公共厕所",
        "address": "湖北省恩施土家族苗族自治州咸丰县大捷路河畔佳苑东北侧约250米",
        "tel": "",
        "category": "基础设施:公共设施:公共厕所",
        "type": 0,
        "location": {
            "lat": 29.68203,
            "lng": 109.174521
        },
        "ad_info": {
            "adcode": 422826,
            "province": "湖北省",
            "city": "恩施土家族苗族自治州",
            "district": "咸丰县"
        }
    },
    {
        "id": "7694495159833788951",
        "title": "公共厕所",
        "address": "湖北省恩施土家族苗族自治州恩施市体育馆路与施州大道交叉口正东方向348米左右",
        "tel": "",
        "category": "基础设施:公共设施:公共厕所",
        "type": 0,
        "location": {
            "lat": 30.282985,
            "lng": 109.486879
        },
        "ad_info": {
            "adcode": 422801,
            "province": "湖北省",
            "city": "恩施土家族苗族自治州",
            "district": "恩施市"
        }
    },
    {
        "id": "7881313592964998503",
        "title": "公共厕所",
        "address": "湖北省恩施土家族苗族自治州恩施市四维街与薛家巷交叉口正东方向231米左右",
        "tel": "",
        "category": "基础设施:公共设施:公共厕所",
        "type": 0,
        "location": {
            "lat": 30.263339,
            "lng": 109.4837
        },
        "ad_info": {
            "adcode": 422801,
            "province": "湖北省",
            "city": "恩施土家族苗族自治州",
            "district": "恩施市"
        }
    },
    {
        "id": "18166950479171700702",
        "title": "公共厕所",
        "address": "湖北省恩施土家族苗族自治州利川市六合街与滨江北路交叉口正东方向144米左右",
        "tel": "",
        "category": "基础设施:公共设施:公共厕所",
        "type": 0,
        "location": {
            "lat": 30.283924,
            "lng": 108.948167
        },
        "ad_info": {
            "adcode": 422802,
            "province": "湖北省",
            "city": "恩施土家族苗族自治州",
            "district": "利川市"
        }
    },
    {
        "id": "18048089506964549809",
        "title": "公共厕所",
        "address": "湖北省恩施土家族苗族自治州恩施市屯渝线恩施大峡谷正红山庄",
        "tel": "",
        "category": "基础设施:公共设施:公共厕所",
        "type": 0,
        "location": {
            "lat": 30.395056,
            "lng": 109.269302
        },
        "ad_info": {
            "adcode": 422801,
            "province": "湖北省",
            "city": "恩施土家族苗族自治州",
            "district": "恩施市"
        }
    },
    {
        "id": "8461592840573880498",
        "title": "公共厕所",
        "address": "湖北省恩施土家族苗族自治州咸丰县徐家坝南北街与红旗路交叉口正东方向70米左右",
        "tel": "",
        "category": "基础设施:公共设施:公共厕所",
        "type": 0,
        "location": {
            "lat": 29.677725,
            "lng": 109.151713
        },
        "ad_info": {
            "adcode": 422826,
            "province": "湖北省",
            "city": "恩施土家族苗族自治州",
            "district": "咸丰县"
        }
    },
    {
        "id": "1034516300758280237",
        "title": "公共厕所",
        "address": "湖北省恩施土家族苗族自治州利川市东城路与滨江北路交叉口正南方向70米左右",
        "tel": "",
        "category": "基础设施:公共设施:公共厕所",
        "type": 0,
        "location": {
            "lat": 30.294669,
            "lng": 108.962024
        },
        "ad_info": {
            "adcode": 422802,
            "province": "湖北省",
            "city": "恩施土家族苗族自治州",
            "district": "利川市"
        }
    },
    {
        "id": "9597556237713174164",
        "title": "公共厕所",
        "address": "湖北省恩施土家族苗族自治州恩施市大清江景区游客中心北侧",
        "tel": "",
        "category": "基础设施:公共设施:公共厕所",
        "type": 0,
        "location": {
            "lat": 30.246271,
            "lng": 109.66938
        },
        "ad_info": {
            "adcode": 422801,
            "province": "湖北省",
            "city": "恩施土家族苗族自治州",
            "district": "恩施市"
        }
    },
    {
        "id": "13466456984021089758",
        "title": "公共厕所",
        "address": "湖北省恩施土家族苗族自治州恩施市金子坝路10号",
        "tel": "",
        "category": "基础设施:公共设施:公共厕所",
        "type": 0,
        "location": {
            "lat": 30.290349,
            "lng": 109.500459
        },
        "ad_info": {
            "adcode": 422801,
            "province": "湖北省",
            "city": "恩施土家族苗族自治州",
            "district": "恩施市"
        }
    },
    {
        "id": "1708222627633326082",
        "title": "公共厕所",
        "address": "湖北省恩施土家族苗族自治州恩施市318国道与005乡道交叉口西北380米",
        "tel": "",
        "category": "基础设施:公共设施:公共厕所",
        "type": 0,
        "location": {
            "lat": 30.395339,
            "lng": 109.567398
        },
        "ad_info": {
            "adcode": 422801,
            "province": "湖北省",
            "city": "恩施土家族苗族自治州",
            "district": "恩施市"
        }
    },
    {
        "id": "6580456568010338700",
        "title": "公共厕所",
        "address": "湖北省恩施土家族苗族自治州咸丰县康庄巷与解放路交叉口正西方向228米左右",
        "tel": "",
        "category": "基础设施:公共设施:公共厕所",
        "type": 0,
        "location": {
            "lat": 29.681112,
            "lng": 109.159058
        },
        "ad_info": {
            "adcode": 422826,
            "province": "湖北省",
            "city": "恩施土家族苗族自治州",
            "district": "咸丰县"
        }
    },
    {
        "id": "11458201945281968161",
        "title": "公共厕所",
        "address": "湖北省恩施土家族苗族自治州利川市欧家坪巷与腾龙大道交叉口西北方向137米左右",
        "tel": "",
        "category": "基础设施:公共设施:公共厕所",
        "type": 0,
        "location": {
            "lat": 30.278811,
            "lng": 108.95551
        },
        "ad_info": {
            "adcode": 422802,
            "province": "湖北省",
            "city": "恩施土家族苗族自治州",
            "district": "利川市"
        }
    },
    {
        "id": "7198840146102506683",
        "title": "公共厕所",
        "address": "湖北省恩施土家族苗族自治州咸丰县S248与龙泰路五巷交叉口东北方向57米",
        "tel": "",
        "category": "基础设施:公共设施:公共厕所",
        "type": 0,
        "location": {
            "lat": 29.667015,
            "lng": 109.137404
        },
        "ad_info": {
            "adcode": 422826,
            "province": "湖北省",
            "city": "恩施土家族苗族自治州",
            "district": "咸丰县"
        }
    },
    {
        "id": "14556842945784695312",
        "title": "公共厕所",
        "address": "湖北省恩施土家族苗族自治州利川市东城路与解放东路交叉口西南方向42米左右",
        "tel": "",
        "category": "基础设施:公共设施:公共厕所",
        "type": 0,
        "location": {
            "lat": 30.295733,
            "lng": 108.950175
        },
        "ad_info": {
            "adcode": 422802,
            "province": "湖北省",
            "city": "恩施土家族苗族自治州",
            "district": "利川市"
        }
    },
    {
        "id": "17406297725302672463",
        "title": "土家女儿城公共厕所",
        "address": "湖北省恩施土家族苗族自治州恩施市马鞍山路41号土家女儿城内",
        "tel": "",
        "category": "基础设施:公共设施:公共厕所",
        "type": 0,
        "location": {
            "lat": 30.268978,
            "lng": 109.502893
        },
        "ad_info": {
            "adcode": 422801,
            "province": "湖北省",
            "city": "恩施土家族苗族自治州",
            "district": "恩施市"
        }
    },
    {
        "id": "10432365384113603287",
        "title": "公共厕所",
        "address": "湖北省恩施土家族苗族自治州利川市欧家坪巷与腾龙大道交叉口正东方向161米左右",
        "tel": "",
        "category": "基础设施:公共设施:公共厕所",
        "type": 0,
        "location": {
            "lat": 30.277651,
            "lng": 108.95802
        },
        "ad_info": {
            "adcode": 422802,
            "province": "湖北省",
            "city": "恩施土家族苗族自治州",
            "district": "利川市"
        }
    },
    {
        "id": "1556853098146483626",
        "title": "公共厕所",
        "address": "湖北省恩施土家族苗族自治州巴东县S245与鱼泉路交叉口西南方向20米左右",
        "tel": "",
        "category": "基础设施:公共设施:公共厕所",
        "type": 0,
        "location": {
            "lat": 30.63766,
            "lng": 110.327508
        },
        "ad_info": {
            "adcode": 422823,
            "province": "湖北省",
            "city": "恩施土家族苗族自治州",
            "district": "巴东县"
        }
    },
    {
        "id": "13580894564016563252",
        "title": "公共厕所",
        "address": "湖北省恩施土家族苗族自治州利川市光明巷与西城路交叉口西北方向419米左右",
        "tel": "",
        "category": "基础设施:公共设施:公共厕所",
        "type": 0,
        "location": {
            "lat": 30.28615,
            "lng": 108.908284
        },
        "ad_info": {
            "adcode": 422802,
            "province": "湖北省",
            "city": "恩施土家族苗族自治州",
            "district": "利川市"
        }
    },
    {
        "id": "15066145149030643738",
        "title": "金三角广场公共厕所",
        "address": "湖北省恩施土家族苗族自治州恩施市大桥路与航空大道交叉口东北方向37米左右",
        "tel": "",
        "category": "基础设施:公共设施:公共厕所",
        "type": 0,
        "location": {
            "lat": 30.285177,
            "lng": 109.47885
        },
        "ad_info": {
            "adcode": 422801,
            "province": "湖北省",
            "city": "恩施土家族苗族自治州",
            "district": "恩施市"
        }
    },
    {
        "id": "4973313036471756929",
        "title": "公共厕所",
        "address": "湖北省恩施土家族苗族自治州利川市凉桥路与腾龙大道交叉口东北方向56米左右",
        "tel": "",
        "category": "基础设施:公共设施:公共厕所",
        "type": 0,
        "location": {
            "lat": 30.289094,
            "lng": 108.956764
        },
        "ad_info": {
            "adcode": 422802,
            "province": "湖北省",
            "city": "恩施土家族苗族自治州",
            "district": "利川市"
        }
    },
    {
        "id": "7708211564559906030",
        "title": "公共厕所",
        "address": "湖北省恩施土家族苗族自治州利川市龙船水乡清江码头",
        "tel": "",
        "category": "基础设施:公共设施:公共厕所",
        "type": 0,
        "location": {
            "lat": 30.300976,
            "lng": 108.832757
        },
        "ad_info": {
            "adcode": 422802,
            "province": "湖北省",
            "city": "恩施土家族苗族自治州",
            "district": "利川市"
        }
    },
    {
        "id": "13806118037210168593",
        "title": "公共厕所",
        "address": "湖北省恩施土家族苗族自治州利川市中山路二巷与胜利大道交叉口东北方向52米左右",
        "tel": "",
        "category": "基础设施:公共设施:公共厕所",
        "type": 0,
        "location": {
            "lat": 30.298862,
            "lng": 108.937651
        },
        "ad_info": {
            "adcode": 422802,
            "province": "湖北省",
            "city": "恩施土家族苗族自治州",
            "district": "利川市"
        }
    },
    {
        "id": "12745599702896345222",
        "title": "公共厕所",
        "address": "湖北省恩施土家族苗族自治州巴东县发展大道与沪蓉大道交叉口西南方向154米左右",
        "tel": "",
        "category": "基础设施:公共设施:公共厕所",
        "type": 0,
        "location": {
            "lat": 30.621204,
            "lng": 110.332177
        },
        "ad_info": {
            "adcode": 422823,
            "province": "湖北省",
            "city": "恩施土家族苗族自治州",
            "district": "巴东县"
        }
    },
    {
        "id": "5053213095560623378",
        "title": "公共厕所",
        "address": "湖北省恩施土家族苗族自治州利川市利北路与胜利大道交叉口西南方向85米左右",
        "tel": "",
        "category": "基础设施:公共设施:公共厕所",
        "type": 0,
        "location": {
            "lat": 30.297554,
            "lng": 108.934718
        },
        "ad_info": {
            "adcode": 422802,
            "province": "湖北省",
            "city": "恩施土家族苗族自治州",
            "district": "利川市"
        }
    },
    {
        "id": "930038923207465253",
        "title": "公共厕所",
        "address": "湖北省恩施土家族苗族自治州宣恩县人民一路与兴隆大道交叉口东南方向36米左右",
        "tel": "",
        "category": "基础设施:公共设施:公共厕所",
        "type": 0,
        "location": {
            "lat": 29.988389,
            "lng": 109.489077
        },
        "ad_info": {
            "adcode": 422825,
            "province": "湖北省",
            "city": "恩施土家族苗族自治州",
            "district": "宣恩县"
        }
    },
    {
        "id": "4837613500425770618",
        "title": "公共厕所",
        "address": "湖北省恩施土家族苗族自治州利川市飞洋华府东南侧270米",
        "tel": "",
        "category": "基础设施:公共设施:公共厕所",
        "type": 0,
        "location": {
            "lat": 30.2808,
            "lng": 108.97977
        },
        "ad_info": {
            "adcode": 422802,
            "province": "湖北省",
            "city": "恩施土家族苗族自治州",
            "district": "利川市"
        }
    },
    {
        "id": "16507550100474766743",
        "title": "公共厕所",
        "address": "湖北省恩施土家族苗族自治州利川市南环大道与江源街交叉口正西方向267米左右",
        "tel": "",
        "category": "基础设施:公共设施:公共厕所",
        "type": 0,
        "location": {
            "lat": 30.27825,
            "lng": 108.926975
        },
        "ad_info": {
            "adcode": 422802,
            "province": "湖北省",
            "city": "恩施土家族苗族自治州",
            "district": "利川市"
        }
    },
    {
        "id": "14055928975831772487",
        "title": "土家女儿城公共厕所",
        "address": "湖北省恩施土家族苗族自治州恩施市土家民俗博物馆东侧140米",
        "tel": "",
        "category": "基础设施:公共设施:公共厕所",
        "type": 0,
        "location": {
            "lat": 30.270294,
            "lng": 109.504392
        },
        "ad_info": {
            "adcode": 422801,
            "province": "湖北省",
            "city": "恩施土家族苗族自治州",
            "district": "恩施市"
        }
    },
    {
        "id": "6352069545447039770",
        "title": "公共厕所",
        "address": "湖北省恩施土家族苗族自治州咸丰县卢家沟路与城北路交叉口西南方向66米左右",
        "tel": "",
        "category": "基础设施:公共设施:公共厕所",
        "type": 0,
        "location": {
            "lat": 29.675992,
            "lng": 109.137755
        },
        "ad_info": {
            "adcode": 422826,
            "province": "湖北省",
            "city": "恩施土家族苗族自治州",
            "district": "咸丰县"
        }
    },
    {
        "id": "12080306324488263278",
        "title": "公共厕所",
        "address": "湖北省恩施土家族苗族自治州利川市胜利大道与腾龙大道交叉口东北方向86米左右",
        "tel": "",
        "category": "基础设施:公共设施:公共厕所",
        "type": 0,
        "location": {
            "lat": 30.300296,
            "lng": 108.959952
        },
        "ad_info": {
            "adcode": 422802,
            "province": "湖北省",
            "city": "恩施土家族苗族自治州",
            "district": "利川市"
        }
    },
    {
        "id": "12710537083138004559",
        "title": "公共厕所",
        "address": "湖北省恩施土家族苗族自治州利川市丽凤大道与利奉大道交叉口正西方向166米左右",
        "tel": "",
        "category": "基础设施:公共设施:公共厕所",
        "type": 0,
        "location": {
            "lat": 30.464583,
            "lng": 108.901209
        },
        "ad_info": {
            "adcode": 422802,
            "province": "湖北省",
            "city": "恩施土家族苗族自治州",
            "district": "利川市"
        }
    },
    {
        "id": "17691031956476870671",
        "title": "公共厕所",
        "address": "湖北省恩施土家族苗族自治州宣恩县民族二路与沿河路交叉口东南方向30米左右",
        "tel": "",
        "category": "基础设施:公共设施:公共厕所",
        "type": 0,
        "location": {
            "lat": 29.98634,
            "lng": 109.48061
        },
        "ad_info": {
            "adcode": 422825,
            "province": "湖北省",
            "city": "恩施土家族苗族自治州",
            "district": "宣恩县"
        }
    },
    {
        "id": "2219148402768471807",
        "title": "公共厕所",
        "address": "湖北省恩施土家族苗族自治州宣恩县人民一路与兴隆大道交叉口西北方向121米左右",
        "tel": "",
        "category": "基础设施:公共设施:公共厕所",
        "type": 0,
        "location": {
            "lat": 29.989606,
            "lng": 109.488304
        },
        "ad_info": {
            "adcode": 422825,
            "province": "湖北省",
            "city": "恩施土家族苗族自治州",
            "district": "宣恩县"
        }
    },
    {
        "id": "14466755104078159651",
        "title": "公共厕所",
        "address": "湖北省恩施土家族苗族自治州利川市凉桥路与蓝天路交叉口西北方向208米左右",
        "tel": "",
        "category": "基础设施:公共设施:公共厕所",
        "type": 0,
        "location": {
            "lat": 30.286769,
            "lng": 108.958234
        },
        "ad_info": {
            "adcode": 422802,
            "province": "湖北省",
            "city": "恩施土家族苗族自治州",
            "district": "利川市"
        }
    },
    {
        "id": "6038318268302929292",
        "title": "公共厕所",
        "address": "湖北省恩施土家族苗族自治州利川市S366与X001交叉口正南方向727米左右",
        "tel": "",
        "category": "基础设施:公共设施:公共厕所",
        "type": 0,
        "location": {
            "lat": 30.14811,
            "lng": 109.095431
        },
        "ad_info": {
            "adcode": 422802,
            "province": "湖北省",
            "city": "恩施土家族苗族自治州",
            "district": "利川市"
        }
    },
    {
        "id": "13561754371764035317",
        "title": "公共厕所",
        "address": "湖北省恩施土家族苗族自治州鹤峰县九峰大道与蒋家湾巷交叉口正西方向170米左右",
        "tel": "",
        "category": "基础设施:公共设施:公共厕所",
        "type": 0,
        "location": {
            "lat": 29.887603,
            "lng": 110.039472
        },
        "ad_info": {
            "adcode": 422828,
            "province": "湖北省",
            "city": "恩施土家族苗族自治州",
            "district": "鹤峰县"
        }
    },
    {
        "id": "16603522565528295720",
        "title": "公共厕所",
        "address": "湖北省恩施土家族苗族自治州巴东县S245与巴鹤大道交叉口正北方向694米左右",
        "tel": "",
        "category": "基础设施:公共设施:公共厕所",
        "type": 0,
        "location": {
            "lat": 30.354521,
            "lng": 110.271392
        },
        "ad_info": {
            "adcode": 422823,
            "province": "湖北省",
            "city": "恩施土家族苗族自治州",
            "district": "巴东县"
        }
    },
    {
        "id": "795618116602158472",
        "title": "公共厕所",
        "address": "湖北省恩施土家族苗族自治州鹤峰县G351",
        "tel": "",
        "category": "基础设施:公共设施:公共厕所",
        "type": 0,
        "location": {
            "lat": 29.912551,
            "lng": 110.103577
        },
        "ad_info": {
            "adcode": 422828,
            "province": "湖北省",
            "city": "恩施土家族苗族自治州",
            "district": "鹤峰县"
        }
    },
    {
        "id": "4113325478946699722",
        "title": "公共厕所",
        "address": "湖北省恩施土家族苗族自治州利川市萧山·利川东西部扶贫协作大黄产业园基地北侧190米",
        "tel": "",
        "category": "基础设施:公共设施:公共厕所",
        "type": 0,
        "location": {
            "lat": 30.131932,
            "lng": 108.998762
        },
        "ad_info": {
            "adcode": 422802,
            "province": "湖北省",
            "city": "恩施土家族苗族自治州",
            "district": "利川市"
        }
    },
    {
        "id": "16058280652424729859",
        "title": "公共厕所",
        "address": "湖北省恩施土家族苗族自治州宣恩县建设路与解放街交叉口东北方向27米左右",
        "tel": "",
        "category": "基础设施:公共设施:公共厕所",
        "type": 0,
        "location": {
            "lat": 29.990821,
            "lng": 109.485197
        },
        "ad_info": {
            "adcode": 422825,
            "province": "湖北省",
            "city": "恩施土家族苗族自治州",
            "district": "宣恩县"
        }
    },
    {
        "id": "15290838324118573859",
        "title": "公共厕所",
        "address": "湖北省恩施土家族苗族自治州利川市G242与S248交叉口正北方向109米左右",
        "tel": "",
        "category": "基础设施:公共设施:公共厕所",
        "type": 0,
        "location": {
            "lat": 30.234897,
            "lng": 109.010655
        },
        "ad_info": {
            "adcode": 422802,
            "province": "湖北省",
            "city": "恩施土家族苗族自治州",
            "district": "利川市"
        }
    },
    {
        "id": "13881191034274382551",
        "title": "公共厕所",
        "address": "湖北省恩施土家族苗族自治州宣恩县民族二路(北段)与民族二路交叉口东南方向20米左右",
        "tel": "",
        "category": "基础设施:公共设施:公共厕所",
        "type": 0,
        "location": {
            "lat": 29.987295,
            "lng": 109.480321
        },
        "ad_info": {
            "adcode": 422825,
            "province": "湖北省",
            "city": "恩施土家族苗族自治州",
            "district": "宣恩县"
        }
    },
    {
        "id": "14010565661590143072",
        "title": "公共厕所",
        "address": "湖北省恩施土家族苗族自治州利川市G350与X012交叉口正西方向103米左右",
        "tel": "",
        "category": "基础设施:公共设施:公共厕所",
        "type": 0,
        "location": {
            "lat": 30.231305,
            "lng": 108.581544
        },
        "ad_info": {
            "adcode": 422802,
            "province": "湖北省",
            "city": "恩施土家族苗族自治州",
            "district": "利川市"
        }
    },
    {
        "id": "11718501324807692235",
        "title": "公共厕所",
        "address": "湖北省恩施土家族苗族自治州建始县朝阳八巷北与朝阳八巷南交叉口东南方向44米左右",
        "tel": "",
        "category": "基础设施:公共设施:公共厕所",
        "type": 0,
        "location": {
            "lat": 30.598008,
            "lng": 109.703952
        },
        "ad_info": {
            "adcode": 422822,
            "province": "湖北省",
            "city": "恩施土家族苗族自治州",
            "district": "建始县"
        }
    },
    {
        "id": "15575524551935606225",
        "title": "公共厕所",
        "address": "湖北省恩施土家族苗族自治州宣恩县G209与莲花路交叉口西南方向168米左右",
        "tel": "",
        "category": "基础设施:公共设施:公共厕所",
        "type": 0,
        "location": {
            "lat": 29.983911,
            "lng": 109.500396
        },
        "ad_info": {
            "adcode": 422825,
            "province": "湖北省",
            "city": "恩施土家族苗族自治州",
            "district": "宣恩县"
        }
    },
    {
        "id": "9664274505844692919",
        "title": "公共厕所",
        "address": "湖北省恩施土家族苗族自治州宣恩县凌云路与琴台路交叉口正南方向647米左右",
        "tel": "",
        "category": "基础设施:公共设施:公共厕所",
        "type": 0,
        "location": {
            "lat": 29.978484,
            "lng": 109.499497
        },
        "ad_info": {
            "adcode": 422825,
            "province": "湖北省",
            "city": "恩施土家族苗族自治州",
            "district": "宣恩县"
        }
    },
    {
        "id": "13378971924271411301",
        "title": "恩施服务区公共厕所",
        "address": "湖北省恩施土家族苗族自治州恩施市舞阳坝街道沪渝高速公路恩施服务区",
        "tel": "",
        "category": "基础设施:公共设施:公共厕所",
        "type": 0,
        "location": {
            "lat": 30.239836,
            "lng": 109.502901
        },
        "ad_info": {
            "adcode": 422801,
            "province": "湖北省",
            "city": "恩施土家族苗族自治州",
            "district": "恩施市"
        }
    },
    {
        "id": "961037463055976362",
        "title": "公共厕所",
        "address": "湖北省恩施土家族苗族自治州建始县",
        "tel": "",
        "category": "基础设施:公共设施:公共厕所",
        "type": 0,
        "location": {
            "lat": 30.567842,
            "lng": 109.72888
        },
        "ad_info": {
            "adcode": 422822,
            "province": "湖北省",
            "city": "恩施土家族苗族自治州",
            "district": "建始县"
        }
    },
    {
        "id": "11144597586864221909",
        "title": "公共厕所",
        "address": "湖北省恩施土家族苗族自治州宣恩县康乐食品纯天然桶装瓶装水生产基地西北侧250米",
        "tel": "",
        "category": "基础设施:公共设施:公共厕所",
        "type": 0,
        "location": {
            "lat": 30.064945,
            "lng": 109.536953
        },
        "ad_info": {
            "adcode": 422825,
            "province": "湖北省",
            "city": "恩施土家族苗族自治州",
            "district": "宣恩县"
        }
    },
    {
        "id": "1991589502207217841",
        "title": "公共厕所",
        "address": "湖北省恩施土家族苗族自治州建始县",
        "tel": "",
        "category": "基础设施:公共设施:公共厕所",
        "type": 0,
        "location": {
            "lat": 30.754066,
            "lng": 109.805188
        },
        "ad_info": {
            "adcode": 422822,
            "province": "湖北省",
            "city": "恩施土家族苗族自治州",
            "district": "建始县"
        }
    },
    {
        "id": "1304285159236425706",
        "title": "公共厕所",
        "address": "湖北省恩施土家族苗族自治州恩施市体育馆路与施州大道交叉口东北方向429米左右",
        "tel": "",
        "category": "基础设施:公共设施:公共厕所",
        "type": 0,
        "location": {
            "lat": 30.284511,
            "lng": 109.487214
        },
        "ad_info": {
            "adcode": 422801,
            "province": "湖北省",
            "city": "恩施土家族苗族自治州",
            "district": "恩施市"
        }
    },
    {
        "id": "10562146446868827880",
        "title": "公共厕所",
        "address": "湖北省恩施土家族苗族自治州鹤峰县九峰大道与溇水大道交叉口东北方向77米左右",
        "tel": "",
        "category": "基础设施:公共设施:公共厕所",
        "type": 0,
        "location": {
            "lat": 29.889438,
            "lng": 110.029629
        },
        "ad_info": {
            "adcode": 422828,
            "province": "湖北省",
            "city": "恩施土家族苗族自治州",
            "district": "鹤峰县"
        }
    },
    {
        "id": "16562966138537784193",
        "title": "男洗手间",
        "address": "湖北省恩施土家族苗族自治州利川市滨江北路与腾龙大道交叉口东南方向131米左右",
        "tel": "",
        "category": "基础设施:公共设施:公共厕所",
        "type": 0,
        "location": {
            "lat": 30.290797,
            "lng": 108.958191
        },
        "ad_info": {
            "adcode": 422802,
            "province": "湖北省",
            "city": "恩施土家族苗族自治州",
            "district": "利川市"
        }
    },
    {
        "id": "12989685092799287537",
        "title": "芭蕉服务区公共厕所",
        "address": "湖北省恩施土家族苗族自治州恩施市安来高速芭蕉服务区",
        "tel": "",
        "category": "基础设施:公共设施:公共厕所",
        "type": 0,
        "location": {
            "lat": 30.154065,
            "lng": 109.462067
        },
        "ad_info": {
            "adcode": 422801,
            "province": "湖北省",
            "city": "恩施土家族苗族自治州",
            "district": "恩施市"
        }
    },
    {
        "id": "9353375042574686756",
        "title": "公共厕所",
        "address": "湖北省恩施土家族苗族自治州恩施市清江东路15号(清江东路与舞阳大道交汇处州公安局斜对面)",
        "tel": "",
        "category": "基础设施:公共设施:公共厕所",
        "type": 0,
        "location": {
            "lat": 30.271888,
            "lng": 109.483411
        },
        "ad_info": {
            "adcode": 422801,
            "province": "湖北省",
            "city": "恩施土家族苗族自治州",
            "district": "恩施市"
        }
    },
    {
        "id": "8007118836640898934",
        "title": "崔坝服务区公共厕所",
        "address": "湖北省恩施土家族苗族自治州恩施市佳兴大道与小康巷交叉口正南方向216米左右",
        "tel": "",
        "category": "基础设施:公共设施:公共厕所",
        "type": 0,
        "location": {
            "lat": 30.495036,
            "lng": 109.851131
        },
        "ad_info": {
            "adcode": 422801,
            "province": "湖北省",
            "city": "恩施土家族苗族自治州",
            "district": "恩施市"
        }
    },
    {
        "id": "3267292721033444124",
        "title": "巴东服务区公共厕所",
        "address": "湖北省恩施土家族苗族自治州巴东县G348与高坪桥交叉口正北方向844米左右",
        "tel": "",
        "category": "基础设施:公共设施:公共厕所",
        "type": 0,
        "location": {
            "lat": 31.172033,
            "lng": 110.428374
        },
        "ad_info": {
            "adcode": 422823,
            "province": "湖北省",
            "city": "恩施土家族苗族自治州",
            "district": "巴东县"
        }
    },
    {
        "id": "9406561067275987389",
        "title": "咸丰服务区公共厕所",
        "address": "湖北省恩施土家族苗族自治州咸丰县宣咸高速咸丰服务区",
        "tel": "",
        "category": "基础设施:公共设施:公共厕所",
        "type": 0,
        "location": {
            "lat": 29.663733,
            "lng": 109.126938
        },
        "ad_info": {
            "adcode": 422826,
            "province": "湖北省",
            "city": "恩施土家族苗族自治州",
            "district": "咸丰县"
        }
    },
    {
        "id": "15409408160345147713",
        "title": "咸丰服务区公共厕所",
        "address": "湖北省恩施土家族苗族自治州咸丰县谢家湾一巷与谢家湾七巷交叉口正南方向323米左右",
        "tel": "",
        "category": "基础设施:公共设施:公共厕所",
        "type": 0,
        "location": {
            "lat": 29.663021,
            "lng": 109.128778
        },
        "ad_info": {
            "adcode": 422826,
            "province": "湖北省",
            "city": "恩施土家族苗族自治州",
            "district": "咸丰县"
        }
    },
    {
        "id": "16974409714687646723",
        "title": "公共厕所",
        "address": "湖北省恩施土家族苗族自治州来凤县凤南路与蓝河路交叉口西南方向208米左右",
        "tel": "",
        "category": "基础设施:公共设施:公共厕所",
        "type": 0,
        "location": {
            "lat": 29.4977,
            "lng": 109.410653
        },
        "ad_info": {
            "adcode": 422827,
            "province": "湖北省",
            "city": "恩施土家族苗族自治州",
            "district": "来凤县"
        }
    },
    {
        "id": "8906661598290066019",
        "title": "白羊塘服务区公共厕所",
        "address": "湖北省恩施土家族苗族自治州利川市S516与Y017交叉口西南方向615米左右",
        "tel": "",
        "category": "基础设施:公共设施:公共厕所",
        "type": 0,
        "location": {
            "lat": 30.169995,
            "lng": 108.567952
        },
        "ad_info": {
            "adcode": 422802,
            "province": "湖北省",
            "city": "恩施土家族苗族自治州",
            "district": "利川市"
        }
    },
    {
        "id": "11309003614810824583",
        "title": "巴东服务区第二公共厕所",
        "address": "湖北省恩施土家族苗族自治州巴东县G42沪蓉高速与巴东服务区交叉口北160米",
        "tel": "",
        "category": "基础设施:公共设施:公共厕所",
        "type": 0,
        "location": {
            "lat": 31.17079,
            "lng": 110.427385
        },
        "ad_info": {
            "adcode": 422823,
            "province": "湖北省",
            "city": "恩施土家族苗族自治州",
            "district": "巴东县"
        }
    },
    {
        "id": "1214325990665804273",
        "title": "长乐服务区公共厕所",
        "address": "湖北省恩施土家族苗族自治州利川市恩广高速",
        "tel": "",
        "category": "基础设施:公共设施:公共厕所",
        "type": 0,
        "location": {
            "lat": 30.35107,
            "lng": 108.805939
        },
        "ad_info": {
            "adcode": 422802,
            "province": "湖北省",
            "city": "恩施土家族苗族自治州",
            "district": "利川市"
        }
    },
    {
        "id": "12890898896422900204",
        "title": "高坪镇公共厕所",
        "address": "湖北省恩施土家族苗族自治州建始县X017与高三路交叉口东南方向173米左右",
        "tel": "",
        "category": "基础设施:公共设施:公共厕所",
        "type": 0,
        "location": {
            "lat": 30.659043,
            "lng": 110.082239
        },
        "ad_info": {
            "adcode": 422822,
            "province": "湖北省",
            "city": "恩施土家族苗族自治州",
            "district": "建始县"
        }
    },
    {
        "id": "8638962598058923877",
        "title": "公共厕所",
        "address": "湖北省恩施土家族苗族自治州来凤县和平路与解放大道交叉口正东方向33米左右",
        "tel": "",
        "category": "基础设施:公共设施:公共厕所",
        "type": 0,
        "location": {
            "lat": 29.508869,
            "lng": 109.407268
        },
        "ad_info": {
            "adcode": 422827,
            "province": "湖北省",
            "city": "恩施土家族苗族自治州",
            "district": "来凤县"
        }
    },
    {
        "id": "4268244571334187234",
        "title": "公共厕所",
        "address": "湖北省恩施土家族苗族自治州来凤县S248与建设路交叉口东北方向428米左右",
        "tel": "",
        "category": "基础设施:公共设施:公共厕所",
        "type": 0,
        "location": {
            "lat": 29.382173,
            "lng": 109.324137
        },
        "ad_info": {
            "adcode": 422827,
            "province": "湖北省",
            "city": "恩施土家族苗族自治州",
            "district": "来凤县"
        }
    },
    {
        "id": "11539934868030764003",
        "title": "崔坝服务区公共厕所",
        "address": "湖北省恩施土家族苗族自治州恩施市崔坝服务区西南",
        "tel": "",
        "category": "基础设施:公共设施:公共厕所",
        "type": 0,
        "location": {
            "lat": 30.491721,
            "lng": 109.85055
        },
        "ad_info": {
            "adcode": 422801,
            "province": "湖北省",
            "city": "恩施土家族苗族自治州",
            "district": "恩施市"
        }
    },
    {
        "id": "16583014024312030939",
        "title": "白羊塘服务区公共厕所",
        "address": "湖北省恩施土家族苗族自治州利川市沪渝高速白羊塘",
        "tel": "",
        "category": "基础设施:公共设施:公共厕所",
        "type": 0,
        "location": {
            "lat": 30.1716,
            "lng": 108.566435
        },
        "ad_info": {
            "adcode": 422802,
            "province": "湖北省",
            "city": "恩施土家族苗族自治州",
            "district": "利川市"
        }
    },
    {
        "id": "16287295337286946759",
        "title": "李家河服务区公共厕所",
        "address": "湖北省恩施土家族苗族自治州宣恩县G6911安来高速与李家河服务区交叉口西南340米",
        "tel": "",
        "category": "基础设施:公共设施:公共厕所",
        "type": 0,
        "location": {
            "lat": 29.618586,
            "lng": 109.480675
        },
        "ad_info": {
            "adcode": 422825,
            "province": "湖北省",
            "city": "恩施土家族苗族自治州",
            "district": "宣恩县"
        }
    },
    {
        "id": "14760414658208997120",
        "title": "公共厕所",
        "address": "湖北省恩施土家族苗族自治州来凤县凤北路与凤翔大道交叉口正南方向76米左右",
        "tel": "",
        "category": "基础设施:公共设施:公共厕所",
        "type": 0,
        "location": {
            "lat": 29.509568,
            "lng": 109.411648
        },
        "ad_info": {
            "adcode": 422827,
            "province": "湖北省",
            "city": "恩施土家族苗族自治州",
            "district": "来凤县"
        }
    },
    {
        "id": "16337649801215907114",
        "title": "来凤县庆凤山公园-公共厕所",
        "address": "湖北省恩施土家族苗族自治州来凤县G209与庆凤山路交叉口西北方向61米左右",
        "tel": "",
        "category": "基础设施:公共设施:公共厕所",
        "type": 0,
        "location": {
            "lat": 29.499349,
            "lng": 109.418459
        },
        "ad_info": {
            "adcode": 422827,
            "province": "湖北省",
            "city": "恩施土家族苗族自治州",
            "district": "来凤县"
        }
    },
    {
        "id": "7753518117178090282",
        "title": "百福园公共厕所",
        "address": "湖北省恩施土家族苗族自治州来凤县渝鄂路与硚口路交叉口正东方向584米左右",
        "tel": "",
        "category": "基础设施:公共设施:公共厕所",
        "type": 0,
        "location": {
            "lat": 29.205114,
            "lng": 109.2295
        },
        "ad_info": {
            "adcode": 422827,
            "province": "湖北省",
            "city": "恩施土家族苗族自治州",
            "district": "来凤县"
        }
    },
    {
        "id": "11637500834677697201",
        "title": "公共厕所",
        "address": "湖北省恩施土家族苗族自治州咸丰县击鼓寨路与新田湾巷交叉口西南方向182米左右",
        "tel": "",
        "category": "基础设施:公共设施:公共厕所",
        "type": 0,
        "location": {
            "lat": 29.683522,
            "lng": 109.154671
        },
        "ad_info": {
            "adcode": 422826,
            "province": "湖北省",
            "city": "恩施土家族苗族自治州",
            "district": "咸丰县"
        }
    },
    {
        "id": "11275718686612265552",
        "title": "李家河服务区公共厕所",
        "address": "湖北省恩施土家族苗族自治州宣恩县G6911安来高速与李家河服务区交叉口南480米",
        "tel": "",
        "category": "基础设施:公共设施:公共厕所",
        "type": 0,
        "location": {
            "lat": 29.616452,
            "lng": 109.481892
        },
        "ad_info": {
            "adcode": 422825,
            "province": "湖北省",
            "city": "恩施土家族苗族自治州",
            "district": "宣恩县"
        }
    },
    {
        "id": "17035723594128626266",
        "title": "公共厕所",
        "address": "湖北省恩施土家族苗族自治州咸丰县楚蜀大道与瓦窑沟巷交叉口西北方向40米左右",
        "tel": "",
        "category": "基础设施:公共设施:公共厕所",
        "type": 0,
        "location": {
            "lat": 29.669121,
            "lng": 109.143934
        },
        "ad_info": {
            "adcode": 422826,
            "province": "湖北省",
            "city": "恩施土家族苗族自治州",
            "district": "咸丰县"
        }
    },
    {
        "id": "11685404288676859631",
        "title": "公共厕所",
        "address": "湖北省恩施土家族苗族自治州恩施市施州大道与枫美路交叉口东北方向206米左右",
        "tel": "",
        "category": "基础设施:公共设施:公共厕所",
        "type": 0,
        "location": {
            "lat": 30.348096,
            "lng": 109.492691
        },
        "ad_info": {
            "adcode": 422801,
            "province": "湖北省",
            "city": "恩施土家族苗族自治州",
            "district": "恩施市"
        }
    },
    {
        "id": "18400081197330978894",
        "title": "公共厕所",
        "address": "湖北省恩施土家族苗族自治州建始县南山路33号",
        "tel": "",
        "category": "基础设施:公共设施:公共厕所",
        "type": 0,
        "location": {
            "lat": 30.597421,
            "lng": 109.717082
        },
        "ad_info": {
            "adcode": 422822,
            "province": "湖北省",
            "city": "恩施土家族苗族自治州",
            "district": "建始县"
        }
    },
    {
        "id": "11946708553493046025",
        "title": "公共厕所",
        "address": "湖北省恩施土家族苗族自治州咸丰县大坝路与解放路交叉口正北方向70米左右",
        "tel": "",
        "category": "基础设施:公共设施:公共厕所",
        "type": 0,
        "location": {
            "lat": 29.670012,
            "lng": 109.14101
        },
        "ad_info": {
            "adcode": 422826,
            "province": "湖北省",
            "city": "恩施土家族苗族自治州",
            "district": "咸丰县"
        }
    },
    {
        "id": "1385621352860772549",
        "title": "公共厕所",
        "address": "湖北省恩施土家族苗族自治州利川市花筑奢·利川凡舍匠心温泉民宿南侧240米",
        "tel": "",
        "category": "基础设施:公共设施:公共厕所",
        "type": 0,
        "location": {
            "lat": 30.284665,
            "lng": 108.813992
        },
        "ad_info": {
            "adcode": 422802,
            "province": "湖北省",
            "city": "恩施土家族苗族自治州",
            "district": "利川市"
        }
    },
    {
        "id": "10137157979957353386",
        "title": "公共厕所",
        "address": "湖北省恩施土家族苗族自治州来凤县升龙路与华龙大道交叉口西南方向74米左右",
        "tel": "",
        "category": "基础设施:公共设施:公共厕所",
        "type": 0,
        "location": {
            "lat": 29.48818,
            "lng": 109.409428
        },
        "ad_info": {
            "adcode": 422827,
            "province": "湖北省",
            "city": "恩施土家族苗族自治州",
            "district": "来凤县"
        }
    },
    {
        "id": "4911021892975506083",
        "title": "公共厕所",
        "address": "湖北省恩施土家族苗族自治州咸丰县025乡道与248省道交叉口东100米",
        "tel": "",
        "category": "基础设施:公共设施:公共厕所",
        "type": 0,
        "location": {
            "lat": 29.797517,
            "lng": 109.083652
        },
        "ad_info": {
            "adcode": 422826,
            "province": "湖北省",
            "city": "恩施土家族苗族自治州",
            "district": "咸丰县"
        }
    },
    {
        "id": "17056512532217877352",
        "title": "车站公共厕所",
        "address": "湖北省恩施土家族苗族自治州来凤县凤中路与凤南路交叉口西北方向88米左右",
        "tel": "",
        "category": "基础设施:公共设施:公共厕所",
        "type": 0,
        "location": {
            "lat": 29.508563,
            "lng": 109.400845
        },
        "ad_info": {
            "adcode": 422827,
            "province": "湖北省",
            "city": "恩施土家族苗族自治州",
            "district": "来凤县"
        }
    },
    {
        "id": "6415722221094147970",
        "title": "公共厕所",
        "address": "湖北省恩施土家族苗族自治州恩施市土桥大道与民族路交叉口西北方向448米左右",
        "tel": "",
        "category": "基础设施:公共设施:公共厕所",
        "type": 0,
        "location": {
            "lat": 30.286389,
            "lng": 109.492279
        },
        "ad_info": {
            "adcode": 422801,
            "province": "湖北省",
            "city": "恩施土家族苗族自治州",
            "district": "恩施市"
        }
    },
    {
        "id": "2662937646870487929",
        "title": "公共厕所",
        "address": "湖北省恩施土家族苗族自治州咸丰县G242与G353交叉口正东方向1119米左右",
        "tel": "",
        "category": "基础设施:公共设施:公共厕所",
        "type": 0,
        "location": {
            "lat": 29.672274,
            "lng": 109.195491
        },
        "ad_info": {
            "adcode": 422826,
            "province": "湖北省",
            "city": "恩施土家族苗族自治州",
            "district": "咸丰县"
        }
    },
    {
        "id": "8949452243257680080",
        "title": "公共厕所",
        "address": "湖北省恩施土家族苗族自治州建始县业州大道与余家坝巷交叉口东北方向74米左右",
        "tel": "",
        "category": "基础设施:公共设施:公共厕所",
        "type": 0,
        "location": {
            "lat": 30.60075,
            "lng": 109.711487
        },
        "ad_info": {
            "adcode": 422822,
            "province": "湖北省",
            "city": "恩施土家族苗族自治州",
            "district": "建始县"
        }
    },
    {
        "id": "13188375885676815004",
        "title": "公共厕所",
        "address": "湖北省恩施土家族苗族自治州来凤县凤仪大道与飞机场三巷交叉口东北方向113米左右",
        "tel": "",
        "category": "基础设施:公共设施:公共厕所",
        "type": 0,
        "location": {
            "lat": 29.510912,
            "lng": 109.419177
        },
        "ad_info": {
            "adcode": 422827,
            "province": "湖北省",
            "city": "恩施土家族苗族自治州",
            "district": "来凤县"
        }
    },
    {
        "id": "1020207988793683018",
        "title": "公共厕所",
        "address": "湖北省恩施土家族苗族自治州巴东县永安路与茶苑路交叉口正东方向46米左右",
        "tel": "",
        "category": "基础设施:公共设施:公共厕所",
        "type": 0,
        "location": {
            "lat": 31.15909,
            "lng": 110.446931
        },
        "ad_info": {
            "adcode": 422823,
            "province": "湖北省",
            "city": "恩施土家族苗族自治州",
            "district": "巴东县"
        }
    },
    {
        "id": "2022286086595465413",
        "title": "晓关服务区卫生间",
        "address": "湖北省恩施土家族苗族自治州宣恩县恩黔高速",
        "tel": "",
        "category": "基础设施:公共设施:公共厕所",
        "type": 0,
        "location": {
            "lat": 29.896004,
            "lng": 109.348596
        },
        "ad_info": {
            "adcode": 422825,
            "province": "湖北省",
            "city": "恩施土家族苗族自治州",
            "district": "宣恩县"
        }
    },
    {
        "id": "10687309659899796813",
        "title": "公共厕所",
        "address": "湖北省恩施土家族苗族自治州利川市东城路与东方城商业步行街交叉口东南方向48米左右",
        "tel": "",
        "category": "基础设施:公共设施:公共厕所",
        "type": 0,
        "location": {
            "lat": 30.296305,
            "lng": 108.95548
        },
        "ad_info": {
            "adcode": 422802,
            "province": "湖北省",
            "city": "恩施土家族苗族自治州",
            "district": "利川市"
        }
    },
    {
        "id": "4461124901961877222",
        "title": "公共厕所",
        "address": "湖北省恩施土家族苗族自治州恩施市环城西路与硒施大道交叉口东南方向178米左右",
        "tel": "",
        "category": "基础设施:公共设施:公共厕所",
        "type": 0,
        "location": {
            "lat": 30.282323,
            "lng": 109.455515
        },
        "ad_info": {
            "adcode": 422801,
            "province": "湖北省",
            "city": "恩施土家族苗族自治州",
            "district": "恩施市"
        }
    },
    {
        "id": "3857375642932440",
        "title": "公共厕所",
        "address": "湖北省恩施土家族苗族自治州恩施市旗峰大道与金山大道交叉口正北方向306米左右",
        "tel": "",
        "category": "基础设施:公共设施:公共厕所",
        "type": 0,
        "location": {
            "lat": 30.307234,
            "lng": 109.47229
        },
        "ad_info": {
            "adcode": 422801,
            "province": "湖北省",
            "city": "恩施土家族苗族自治州",
            "district": "恩施市"
        }
    },
    {
        "id": "18171034373218693886",
        "title": "公共厕所",
        "address": "湖北省恩施土家族苗族自治州恩施市大桥路与大桥路二巷交叉口正东方向29米左右",
        "tel": "",
        "category": "基础设施:公共设施:公共厕所",
        "type": 0,
        "location": {
            "lat": 30.286901,
            "lng": 109.481277
        },
        "ad_info": {
            "adcode": 422801,
            "province": "湖北省",
            "city": "恩施土家族苗族自治州",
            "district": "恩施市"
        }
    },
    {
        "id": "9035108644828092460",
        "title": "公共厕所",
        "address": "湖北省恩施土家族苗族自治州宣恩县G209与椒石路交叉口正北方向228米左右",
        "tel": "",
        "category": "基础设施:公共设施:公共厕所",
        "type": 0,
        "location": {
            "lat": 30.018497,
            "lng": 109.447087
        },
        "ad_info": {
            "adcode": 422825,
            "province": "湖北省",
            "city": "恩施土家族苗族自治州",
            "district": "宣恩县"
        }
    },
    {
        "id": "1058819711560598363",
        "title": "公共厕所",
        "address": "湖北省恩施土家族苗族自治州利川市G350与兴盛福路交叉口西北方向48米左右",
        "tel": "",
        "category": "基础设施:公共设施:公共厕所",
        "type": 0,
        "location": {
            "lat": 30.266423,
            "lng": 108.725399
        },
        "ad_info": {
            "adcode": 422802,
            "province": "湖北省",
            "city": "恩施土家族苗族自治州",
            "district": "利川市"
        }
    },
    {
        "id": "4038727321064043399",
        "title": "公共厕所",
        "address": "湖北省恩施土家族苗族自治州利川市星斗大道与飞强南路交叉口正西方向122米左右",
        "tel": "",
        "category": "基础设施:公共设施:公共厕所",
        "type": 0,
        "location": {
            "lat": 30.017404,
            "lng": 109.055586
        },
        "ad_info": {
            "adcode": 422802,
            "province": "湖北省",
            "city": "恩施土家族苗族自治州",
            "district": "利川市"
        }
    },
    {
        "id": "17468595037151836962",
        "title": "公共厕所",
        "address": "湖北省恩施土家族苗族自治州恩施市沿河大道与金龙大道交叉口东北方向190米左右",
        "tel": "",
        "category": "基础设施:公共设施:公共厕所",
        "type": 0,
        "location": {
            "lat": 30.365628,
            "lng": 109.504389
        },
        "ad_info": {
            "adcode": 422801,
            "province": "湖北省",
            "city": "恩施土家族苗族自治州",
            "district": "恩施市"
        }
    },
    {
        "id": "14445497013547835768",
        "title": "公共厕所",
        "address": "湖北省恩施土家族苗族自治州恩施市东风大道与清江东路交叉口正北方向236米左右",
        "tel": "",
        "category": "基础设施:公共设施:公共厕所",
        "type": 0,
        "location": {
            "lat": 30.277668,
            "lng": 109.484549
        },
        "ad_info": {
            "adcode": 422801,
            "province": "湖北省",
            "city": "恩施土家族苗族自治州",
            "district": "恩施市"
        }
    },
    {
        "id": "15717639527352475571",
        "title": "公共厕所",
        "address": "湖北省恩施土家族苗族自治州恩施市叶挺路与解放路交叉口东北方向236米左右",
        "tel": "",
        "category": "基础设施:公共设施:公共厕所",
        "type": 0,
        "location": {
            "lat": 30.258928,
            "lng": 109.476641
        },
        "ad_info": {
            "adcode": 422801,
            "province": "湖北省",
            "city": "恩施土家族苗族自治州",
            "district": "恩施市"
        }
    },
    {
        "id": "16915322537635958622",
        "title": "公共厕所",
        "address": "湖北省恩施土家族苗族自治州巴东县G209与金店街交叉口西南方向1314米左右",
        "tel": "",
        "category": "基础设施:公共设施:公共厕所",
        "type": 0,
        "location": {
            "lat": 30.934824,
            "lng": 110.338192
        },
        "ad_info": {
            "adcode": 422823,
            "province": "湖北省",
            "city": "恩施土家族苗族自治州",
            "district": "巴东县"
        }
    },
    {
        "id": "11540373719628101453",
        "title": "公共厕所",
        "address": "湖北省恩施土家族苗族自治州来凤县升龙路与华龙大道交叉口西南方向587米左右",
        "tel": "",
        "category": "基础设施:公共设施:公共厕所",
        "type": 0,
        "location": {
            "lat": 29.4853,
            "lng": 109.405212
        },
        "ad_info": {
            "adcode": 422827,
            "province": "湖北省",
            "city": "恩施土家族苗族自治州",
            "district": "来凤县"
        }
    },
    {
        "id": "18245541356766017213",
        "title": "巴东服务区公共厕所",
        "address": "湖北省恩施土家族苗族自治州巴东县G348与高坪桥交叉口正北方向644米左右",
        "tel": "",
        "category": "基础设施:公共设施:公共厕所",
        "type": 0,
        "location": {
            "lat": 31.170153,
            "lng": 110.430008
        },
        "ad_info": {
            "adcode": 422823,
            "province": "湖北省",
            "city": "恩施土家族苗族自治州",
            "district": "巴东县"
        }
    },
    {
        "id": "3942175153474345127",
        "title": "公共厕所",
        "address": "湖北省恩施土家族苗族自治州宣恩县Y014与黄河路交叉口西南方向132米左右",
        "tel": "",
        "category": "基础设施:公共设施:公共厕所",
        "type": 0,
        "location": {
            "lat": 29.867656,
            "lng": 109.312524
        },
        "ad_info": {
            "adcode": 422825,
            "province": "湖北省",
            "city": "恩施土家族苗族自治州",
            "district": "宣恩县"
        }
    },
    {
        "id": "10461010512391151905",
        "title": "沙道沟服务区公共厕所",
        "address": "湖北省恩施土家族苗族自治州宣恩县G209与卡达河桥交叉口正东方向396米左右",
        "tel": "",
        "category": "基础设施:公共设施:公共厕所",
        "type": 0,
        "location": {
            "lat": 29.671338,
            "lng": 109.536255
        },
        "ad_info": {
            "adcode": 422825,
            "province": "湖北省",
            "city": "恩施土家族苗族自治州",
            "district": "宣恩县"
        }
    },
    {
        "id": "2063208431492375835",
        "title": "公共厕所",
        "address": "湖北省恩施土家族苗族自治州恩施市G209与恩施西互通交叉口西北方向81米左右",
        "tel": "",
        "category": "基础设施:公共设施:公共厕所",
        "type": 0,
        "location": {
            "lat": 30.229768,
            "lng": 109.486612
        },
        "ad_info": {
            "adcode": 422801,
            "province": "湖北省",
            "city": "恩施土家族苗族自治州",
            "district": "恩施市"
        }
    },
    {
        "id": "650403397621517078",
        "title": "绿葱坡度假小镇旅游公共厕所",
        "address": "湖北省恩施土家族苗族自治州巴东县绿葱坡滑雪场西北侧",
        "tel": "",
        "category": "基础设施:公共设施:公共厕所",
        "type": 0,
        "location": {
            "lat": 30.81004,
            "lng": 110.246708
        },
        "ad_info": {
            "adcode": 422823,
            "province": "湖北省",
            "city": "恩施土家族苗族自治州",
            "district": "巴东县"
        }
    },
    {
        "id": "2868378379664887638",
        "title": "交通厕所",
        "address": "湖北省恩施土家族苗族自治州咸丰县G353与张南高速交叉口正南方向34米左右",
        "tel": "",
        "category": "基础设施:公共设施:公共厕所",
        "type": 0,
        "location": {
            "lat": 29.60015,
            "lng": 109.030668
        },
        "ad_info": {
            "adcode": 422826,
            "province": "湖北省",
            "city": "恩施土家族苗族自治州",
            "district": "咸丰县"
        }
    },
    {
        "id": "5275550902954016245",
        "title": "公共厕所",
        "address": "湖北省恩施土家族苗族自治州来凤县S248与教育一路交叉口东南方向1715米左右",
        "tel": "",
        "category": "基础设施:公共设施:公共厕所",
        "type": 0,
        "location": {
            "lat": 29.458613,
            "lng": 109.41072
        },
        "ad_info": {
            "adcode": 422827,
            "province": "湖北省",
            "city": "恩施土家族苗族自治州",
            "district": "来凤县"
        }
    },
    {
        "id": "3659608749065065714",
        "title": "公共厕所",
        "address": "湖北省恩施土家族苗族自治州恩施市枫叶路与枫叶路四巷交叉口正北方向102米左右",
        "tel": "",
        "category": "基础设施:公共设施:公共厕所",
        "type": 0,
        "location": {
            "lat": 30.344053,
            "lng": 109.48403
        },
        "ad_info": {
            "adcode": 422801,
            "province": "湖北省",
            "city": "恩施土家族苗族自治州",
            "district": "恩施市"
        }
    },
    {
        "id": "14359308907051356722",
        "title": "公共厕所",
        "address": "湖北省恩施土家族苗族自治州咸丰县城北路与英才路交叉口正南方向54米左右",
        "tel": "",
        "category": "基础设施:公共设施:公共厕所",
        "type": 0,
        "location": {
            "lat": 29.689811,
            "lng": 109.158807
        },
        "ad_info": {
            "adcode": 422826,
            "province": "湖北省",
            "city": "恩施土家族苗族自治州",
            "district": "咸丰县"
        }
    },
    {
        "id": "3881314328133841337",
        "title": "公共厕所",
        "address": "湖北省恩施土家族苗族自治州利川市清源路清源体育场",
        "tel": "",
        "category": "基础设施:公共设施:公共厕所",
        "type": 0,
        "location": {
            "lat": 30.291109,
            "lng": 108.943688
        },
        "ad_info": {
            "adcode": 422802,
            "province": "湖北省",
            "city": "恩施土家族苗族自治州",
            "district": "利川市"
        }
    },
    {
        "id": "3597630276946506843",
        "title": "公共厕所",
        "address": "湖北省恩施土家族苗族自治州恩施市清江路与金龙大道交叉口东北方向618米左右",
        "tel": "",
        "category": "基础设施:公共设施:公共厕所",
        "type": 0,
        "location": {
            "lat": 30.270173,
            "lng": 109.502182
        },
        "ad_info": {
            "adcode": 422801,
            "province": "湖北省",
            "city": "恩施土家族苗族自治州",
            "district": "恩施市"
        }
    },
    {
        "id": "8141559650550986225",
        "title": "公共厕所",
        "address": "湖北省恩施土家族苗族自治州建始县广润路与沿河北路交叉口东南方向81米左右",
        "tel": "",
        "category": "基础设施:公共设施:公共厕所",
        "type": 0,
        "location": {
            "lat": 30.597547,
            "lng": 109.718817
        },
        "ad_info": {
            "adcode": 422822,
            "province": "湖北省",
            "city": "恩施土家族苗族自治州",
            "district": "建始县"
        }
    },
    {
        "id": "4043784976303201530",
        "title": "公共厕所",
        "address": "湖北省恩施土家族苗族自治州建始县南山路与南山风雨桥交叉口正西方向59米左右",
        "tel": "",
        "category": "基础设施:公共设施:公共厕所",
        "type": 0,
        "location": {
            "lat": 30.599072,
            "lng": 109.729733
        },
        "ad_info": {
            "adcode": 422822,
            "province": "湖北省",
            "city": "恩施土家族苗族自治州",
            "district": "建始县"
        }
    },
    {
        "id": "6720071478391295684",
        "title": "公共厕所",
        "address": "湖北省恩施土家族苗族自治州巴东县G209与巴山路交叉口正南方向28米左右",
        "tel": "",
        "category": "基础设施:公共设施:公共厕所",
        "type": 0,
        "location": {
            "lat": 31.036627,
            "lng": 110.33096
        },
        "ad_info": {
            "adcode": 422823,
            "province": "湖北省",
            "city": "恩施土家族苗族自治州",
            "district": "巴东县"
        }
    },
    {
        "id": "2271825044571922507",
        "title": "公共厕所",
        "address": "湖北省恩施土家族苗族自治州巴东县平安路与沪蓉大道交叉口西北方向136米左右",
        "tel": "",
        "category": "基础设施:公共设施:公共厕所",
        "type": 0,
        "location": {
            "lat": 30.631504,
            "lng": 110.330921
        },
        "ad_info": {
            "adcode": 422823,
            "province": "湖北省",
            "city": "恩施土家族苗族自治州",
            "district": "巴东县"
        }
    },
    {
        "id": "3904880023775861697",
        "title": "公共厕所",
        "address": "湖北省恩施土家族苗族自治州宣恩县S245与S325交叉口正北方向1247米左右",
        "tel": "",
        "category": "基础设施:公共设施:公共厕所",
        "type": 0,
        "location": {
            "lat": 29.702796,
            "lng": 109.579184
        },
        "ad_info": {
            "adcode": 422825,
            "province": "湖北省",
            "city": "恩施土家族苗族自治州",
            "district": "宣恩县"
        }
    },
    {
        "id": "18316275179666095139",
        "title": "湖北建始野三峡景区蝴蝶岩景区旅游厕所",
        "address": "湖北省恩施土家族苗族自治州建始县",
        "tel": "",
        "category": "基础设施:公共设施:公共厕所",
        "type": 0,
        "location": {
            "lat": 30.373976,
            "lng": 110.078086
        },
        "ad_info": {
            "adcode": 422822,
            "province": "湖北省",
            "city": "恩施土家族苗族自治州",
            "district": "建始县"
        }
    },
    {
        "id": "15572620699705365368",
        "title": "公共厕所",
        "address": "湖北省恩施土家族苗族自治州利川市G318与Y018交叉口东北方向915米左右",
        "tel": "",
        "category": "基础设施:公共设施:公共厕所",
        "type": 0,
        "location": {
            "lat": 30.396742,
            "lng": 108.823478
        },
        "ad_info": {
            "adcode": 422802,
            "province": "湖北省",
            "city": "恩施土家族苗族自治州",
            "district": "利川市"
        }
    },
    {
        "id": "9276294766972833575",
        "title": "公共厕所",
        "address": "湖北省恩施土家族苗族自治州宣恩县龙虎路343号",
        "tel": "",
        "category": "基础设施:公共设施:公共厕所",
        "type": 0,
        "location": {
            "lat": 29.582355,
            "lng": 109.460845
        },
        "ad_info": {
            "adcode": 422825,
            "province": "湖北省",
            "city": "恩施土家族苗族自治州",
            "district": "宣恩县"
        }
    },
    {
        "id": "14731677275642012798",
        "title": "公共厕所",
        "address": "湖北省恩施土家族苗族自治州恩施市舞阳大道227-1号",
        "tel": "",
        "category": "基础设施:公共设施:公共厕所",
        "type": 0,
        "location": {
            "lat": 30.28183,
            "lng": 109.494387
        },
        "ad_info": {
            "adcode": 422801,
            "province": "湖北省",
            "city": "恩施土家族苗族自治州",
            "district": "恩施市"
        }
    },
    {
        "id": "2880227121813427479",
        "title": "公共厕所",
        "address": "湖北省恩施土家族苗族自治州恩施市龙马风情小镇西侧200米",
        "tel": "",
        "category": "基础设施:公共设施:公共厕所",
        "type": 0,
        "location": {
            "lat": 30.456536,
            "lng": 109.459808
        },
        "ad_info": {
            "adcode": 422801,
            "province": "湖北省",
            "city": "恩施土家族苗族自治州",
            "district": "恩施市"
        }
    },
    {
        "id": "18302378681605189970",
        "title": "公共厕所",
        "address": "湖北省恩施土家族苗族自治州利川市滨江北路与腾龙大道交叉口东南方向112米左右",
        "tel": "",
        "category": "基础设施:公共设施:公共厕所",
        "type": 0,
        "location": {
            "lat": 30.291058,
            "lng": 108.958229
        },
        "ad_info": {
            "adcode": 422802,
            "province": "湖北省",
            "city": "恩施土家族苗族自治州",
            "district": "利川市"
        }
    },
    {
        "id": "1294902313220326554",
        "title": "公共厕所",
        "address": "湖北省恩施土家族苗族自治州巴东县G209与Y031交叉口西南方向327米左右",
        "tel": "",
        "category": "基础设施:公共设施:公共厕所",
        "type": 0,
        "location": {
            "lat": 31.035492,
            "lng": 110.343769
        },
        "ad_info": {
            "adcode": 422823,
            "province": "湖北省",
            "city": "恩施土家族苗族自治州",
            "district": "巴东县"
        }
    },
    {
        "id": "11607398989101237890",
        "title": "公共厕所",
        "address": "湖北省恩施土家族苗族自治州来凤县金茂烟花爆竹有限公司西侧120米",
        "tel": "",
        "category": "基础设施:公共设施:公共厕所",
        "type": 0,
        "location": {
            "lat": 29.445885,
            "lng": 109.386907
        },
        "ad_info": {
            "adcode": 422827,
            "province": "湖北省",
            "city": "恩施土家族苗族自治州",
            "district": "来凤县"
        }
    },
    {
        "id": "18254434733336333916",
        "title": "白果坝停车区公共厕所",
        "address": "湖北省恩施土家族苗族自治州利川市白果停车区北50米",
        "tel": "",
        "category": "基础设施:公共设施:公共厕所",
        "type": 0,
        "location": {
            "lat": 30.253181,
            "lng": 109.080925
        },
        "ad_info": {
            "adcode": 422802,
            "province": "湖北省",
            "city": "恩施土家族苗族自治州",
            "district": "利川市"
        }
    },
    {
        "id": "12767580097456446902",
        "title": "公共厕所",
        "address": "湖北省恩施土家族苗族自治州巴东县G209与巴野公路交叉口正南方向1293米左右",
        "tel": "",
        "category": "基础设施:公共设施:公共厕所",
        "type": 0,
        "location": {
            "lat": 30.876509,
            "lng": 110.308031
        },
        "ad_info": {
            "adcode": 422823,
            "province": "湖北省",
            "city": "恩施土家族苗族自治州",
            "district": "巴东县"
        }
    },
    {
        "id": "12964602850231603640",
        "title": "公共厕所",
        "address": "湖北省恩施土家族苗族自治州利川市利沙线与南环大道交叉口正东方向168米左右",
        "tel": "",
        "category": "基础设施:公共设施:公共厕所",
        "type": 0,
        "location": {
            "lat": 30.278306,
            "lng": 108.910417
        },
        "ad_info": {
            "adcode": 422802,
            "province": "湖北省",
            "city": "恩施土家族苗族自治州",
            "district": "利川市"
        }
    },
    {
        "id": "5983496143739193413",
        "title": "公共厕所",
        "address": "湖北省恩施土家族苗族自治州恩施市012乡道与恩咸大道交叉口东北500米",
        "tel": "",
        "category": "基础设施:公共设施:公共厕所",
        "type": 0,
        "location": {
            "lat": 30.094919,
            "lng": 109.347291
        },
        "ad_info": {
            "adcode": 422801,
            "province": "湖北省",
            "city": "恩施土家族苗族自治州",
            "district": "恩施市"
        }
    },
    {
        "id": "16238229014720183768",
        "title": "芭蕉服务区公共厕所",
        "address": "湖北省恩施土家族苗族自治州恩施市芭蕉服务区与G6911安来高速入口交叉口东140米",
        "tel": "",
        "category": "基础设施:公共设施:公共厕所",
        "type": 0,
        "location": {
            "lat": 30.157688,
            "lng": 109.464228
        },
        "ad_info": {
            "adcode": 422801,
            "province": "湖北省",
            "city": "恩施土家族苗族自治州",
            "district": "恩施市"
        }
    },
    {
        "id": "1944478724520141437",
        "title": "公共厕所",
        "address": "湖北省恩施土家族苗族自治州宣恩县Y014与黄河路交叉口西南方向88米左右",
        "tel": "",
        "category": "基础设施:公共设施:公共厕所",
        "type": 0,
        "location": {
            "lat": 29.868215,
            "lng": 109.312525
        },
        "ad_info": {
            "adcode": 422825,
            "province": "湖北省",
            "city": "恩施土家族苗族自治州",
            "district": "宣恩县"
        }
    },
    {
        "id": "4421618312679666908",
        "title": "公共厕所",
        "address": "湖北省恩施土家族苗族自治州来凤县普恩堂漫水分店东侧150米",
        "tel": "",
        "category": "基础设施:公共设施:公共厕所",
        "type": 0,
        "location": {
            "lat": 29.275193,
            "lng": 109.277659
        },
        "ad_info": {
            "adcode": 422827,
            "province": "湖北省",
            "city": "恩施土家族苗族自治州",
            "district": "来凤县"
        }
    },
    {
        "id": "323724166506429268",
        "title": "公共厕所",
        "address": "湖北省恩施土家族苗族自治州鹤峰县Y026",
        "tel": "",
        "category": "基础设施:公共设施:公共厕所",
        "type": 0,
        "location": {
            "lat": 29.935084,
            "lng": 110.081297
        },
        "ad_info": {
            "adcode": 422828,
            "province": "湖北省",
            "city": "恩施土家族苗族自治州",
            "district": "鹤峰县"
        }
    },
    {
        "id": "283444079766510363",
        "title": "公共厕所",
        "address": "湖北省恩施土家族苗族自治州咸丰县前胜路与解放路交叉口正北方向49米左右",
        "tel": "",
        "category": "基础设施:公共设施:公共厕所",
        "type": 0,
        "location": {
            "lat": 29.674243,
            "lng": 109.144428
        },
        "ad_info": {
            "adcode": 422826,
            "province": "湖北省",
            "city": "恩施土家族苗族自治州",
            "district": "咸丰县"
        }
    },
    {
        "id": "14602566162147187335",
        "title": "公共厕所",
        "address": "湖北省恩施土家族苗族自治州来凤县凤翔大道辅路与蓝河路交叉口东北40米",
        "tel": "",
        "category": "基础设施:公共设施:公共厕所",
        "type": 0,
        "location": {
            "lat": 29.498473,
            "lng": 109.406361
        },
        "ad_info": {
            "adcode": 422827,
            "province": "湖北省",
            "city": "恩施土家族苗族自治州",
            "district": "来凤县"
        }
    },
    {
        "id": "15344164503763544564",
        "title": "公共厕所",
        "address": "湖北省恩施土家族苗族自治州宣恩县建设路1号商场二楼",
        "tel": "",
        "category": "基础设施:公共设施:公共厕所",
        "type": 0,
        "location": {
            "lat": 29.990258,
            "lng": 109.482219
        },
        "ad_info": {
            "adcode": 422825,
            "province": "湖北省",
            "city": "恩施土家族苗族自治州",
            "district": "宣恩县"
        }
    },
    {
        "id": "611904409811484426",
        "title": "公共厕所",
        "address": "湖北省恩施土家族苗族自治州建始县G318高坪站站前广场(沪聂线)",
        "tel": "",
        "category": "基础设施:公共设施:公共厕所",
        "type": 0,
        "location": {
            "lat": 30.663949,
            "lng": 110.091164
        },
        "ad_info": {
            "adcode": 422822,
            "province": "湖北省",
            "city": "恩施土家族苗族自治州",
            "district": "建始县"
        }
    },
    {
        "id": "11388791696652684953",
        "title": "朝阳坡停车区公共厕所",
        "address": "湖北省恩施土家族苗族自治州恩施市G50沪渝高速与朝阳坡停车区交叉口东北340米",
        "tel": "",
        "category": "基础设施:公共设施:公共厕所",
        "type": 0,
        "location": {
            "lat": 30.46137,
            "lng": 109.661815
        },
        "ad_info": {
            "adcode": 422801,
            "province": "湖北省",
            "city": "恩施土家族苗族自治州",
            "district": "恩施市"
        }
    },
    {
        "id": "11209833517556721814",
        "title": "公共厕所",
        "address": "湖北省恩施土家族苗族自治州利川市Y100与杉王大道交叉口东南方向87米左右",
        "tel": "",
        "category": "基础设施:公共设施:公共厕所",
        "type": 0,
        "location": {
            "lat": 30.429402,
            "lng": 108.688914
        },
        "ad_info": {
            "adcode": 422802,
            "province": "湖北省",
            "city": "恩施土家族苗族自治州",
            "district": "利川市"
        }
    },
    {
        "id": "15150722527823768094",
        "title": "公共厕所",
        "address": "湖北省恩施土家族苗族自治州利川市G318与竹园大道交叉口正东方向1691米左右",
        "tel": "",
        "category": "基础设施:公共设施:公共厕所",
        "type": 0,
        "location": {
            "lat": 30.399624,
            "lng": 108.795687
        },
        "ad_info": {
            "adcode": 422802,
            "province": "湖北省",
            "city": "恩施土家族苗族自治州",
            "district": "利川市"
        }
    },
    {
        "id": "3963933550175828223",
        "title": "公共厕所",
        "address": "湖北省恩施土家族苗族自治州恩施市金桂大道恩施汽车客运中心站F1",
        "tel": "",
        "category": "基础设施:公共设施:公共厕所",
        "type": 0,
        "location": {
            "lat": 30.348136,
            "lng": 109.487511
        },
        "ad_info": {
            "adcode": 422801,
            "province": "湖北省",
            "city": "恩施土家族苗族自治州",
            "district": "恩施市"
        }
    },
    {
        "id": "2537586892913492018",
        "title": "派出所公共厕所",
        "address": "湖北省恩施土家族苗族自治州来凤县Y018与硚口路交叉口东南方向41米左右",
        "tel": "",
        "category": "基础设施:公共设施:公共厕所",
        "type": 0,
        "location": {
            "lat": 29.200889,
            "lng": 109.223869
        },
        "ad_info": {
            "adcode": 422827,
            "province": "湖北省",
            "city": "恩施土家族苗族自治州",
            "district": "来凤县"
        }
    },
    {
        "id": "13755206459620417451",
        "title": "公共厕所",
        "address": "湖北省恩施土家族苗族自治州利川市X001",
        "tel": "",
        "category": "基础设施:公共设施:公共厕所",
        "type": 0,
        "location": {
            "lat": 30.186931,
            "lng": 109.07872
        },
        "ad_info": {
            "adcode": 422802,
            "province": "湖北省",
            "city": "恩施土家族苗族自治州",
            "district": "利川市"
        }
    },
    {
        "id": "12485491569682493447",
        "title": "公共厕所",
        "address": "湖北省恩施土家族苗族自治州宣恩县和谐街与文源街交叉口东北方向63米左右",
        "tel": "",
        "category": "基础设施:公共设施:公共厕所",
        "type": 0,
        "location": {
            "lat": 29.870882,
            "lng": 109.316624
        },
        "ad_info": {
            "adcode": 422825,
            "province": "湖北省",
            "city": "恩施土家族苗族自治州",
            "district": "宣恩县"
        }
    },
    {
        "id": "13612664490040626051",
        "title": "公共厕所",
        "address": "湖北省恩施土家族苗族自治州巴东县沪渝高速与野三关互通交叉口西北方向278米左右",
        "tel": "",
        "category": "基础设施:公共设施:公共厕所",
        "type": 0,
        "location": {
            "lat": 30.615722,
            "lng": 110.331111
        },
        "ad_info": {
            "adcode": 422823,
            "province": "湖北省",
            "city": "恩施土家族苗族自治州",
            "district": "巴东县"
        }
    },
    {
        "id": "9171864704422178562",
        "title": "公共卫生间",
        "address": "湖北省恩施土家族苗族自治州恩施市Y095与望茅线交叉口东北方向68米左右",
        "tel": "",
        "category": "基础设施:公共设施:公共厕所",
        "type": 0,
        "location": {
            "lat": 30.3192,
            "lng": 109.445595
        },
        "ad_info": {
            "adcode": 422801,
            "province": "湖北省",
            "city": "恩施土家族苗族自治州",
            "district": "恩施市"
        }
    },
    {
        "id": "10911018873630945744",
        "title": "沙道沟服务区公共厕所",
        "address": "湖北省恩施土家族苗族自治州宣恩县中国石化高管公司恩施片区沙道沟服务区北加油站东侧140米",
        "tel": "",
        "category": "基础设施:公共设施:公共厕所",
        "type": 0,
        "location": {
            "lat": 29.674771,
            "lng": 109.542015
        },
        "ad_info": {
            "adcode": 422825,
            "province": "湖北省",
            "city": "恩施土家族苗族自治州",
            "district": "宣恩县"
        }
    },
    {
        "id": "3010567413925215695",
        "title": "公共厕所",
        "address": "湖北省恩施土家族苗族自治州建始县红二线与花李线交叉口东南方向301米左右",
        "tel": "",
        "category": "基础设施:公共设施:公共厕所",
        "type": 0,
        "location": {
            "lat": 30.388012,
            "lng": 110.025391
        },
        "ad_info": {
            "adcode": 422822,
            "province": "湖北省",
            "city": "恩施土家族苗族自治州",
            "district": "建始县"
        }
    },
    {
        "id": "15705288558078172544",
        "title": "公共厕所",
        "address": "湖北省恩施土家族苗族自治州利川市体育街与南环大道交叉口正南方向168米左右",
        "tel": "",
        "category": "基础设施:公共设施:公共厕所",
        "type": 0,
        "location": {
            "lat": 30.278923,
            "lng": 108.941028
        },
        "ad_info": {
            "adcode": 422802,
            "province": "湖北省",
            "city": "恩施土家族苗族自治州",
            "district": "利川市"
        }
    },
    {
        "id": "4188282144775697833",
        "title": "公共厕所",
        "address": "湖北省恩施土家族苗族自治州利川市栖溪谷度假村东侧220米",
        "tel": "",
        "category": "基础设施:公共设施:公共厕所",
        "type": 0,
        "location": {
            "lat": 30.437814,
            "lng": 108.848355
        },
        "ad_info": {
            "adcode": 422802,
            "province": "湖北省",
            "city": "恩施土家族苗族自治州",
            "district": "利川市"
        }
    },
    {
        "id": "10253011184604652825",
        "title": "恩施停车区公共厕所",
        "address": "湖北省恩施土家族苗族自治州恩施市G6911安来高速与恩施停车区交叉口西南360米",
        "tel": "",
        "category": "基础设施:公共设施:公共厕所",
        "type": 0,
        "location": {
            "lat": 30.326202,
            "lng": 109.457901
        },
        "ad_info": {
            "adcode": 422801,
            "province": "湖北省",
            "city": "恩施土家族苗族自治州",
            "district": "恩施市"
        }
    },
    {
        "id": "15310851438627676498",
        "title": "公共厕所",
        "address": "湖北省恩施土家族苗族自治州恩施市龙洞河路18号对面公园",
        "tel": "",
        "category": "基础设施:公共设施:公共厕所",
        "type": 0,
        "location": {
            "lat": 30.290311,
            "lng": 109.503673
        },
        "ad_info": {
            "adcode": 422801,
            "province": "湖北省",
            "city": "恩施土家族苗族自治州",
            "district": "恩施市"
        }
    },
    {
        "id": "12511268955128516070",
        "title": "椿木营乡公共厕所",
        "address": "湖北省恩施土家族苗族自治州宣恩县国知街与学苑巷交叉口正西方向55米左右",
        "tel": "",
        "category": "基础设施:公共设施:公共厕所",
        "type": 0,
        "location": {
            "lat": 30.053011,
            "lng": 109.830893
        },
        "ad_info": {
            "adcode": 422825,
            "province": "湖北省",
            "city": "恩施土家族苗族自治州",
            "district": "宣恩县"
        }
    },
    {
        "id": "11828926449625164072",
        "title": "恩施服务区公共厕所",
        "address": "湖北省恩施土家族苗族自治州恩施市G50沪渝高速与恩施服务区交叉口西420米",
        "tel": "",
        "category": "基础设施:公共设施:公共厕所",
        "type": 0,
        "location": {
            "lat": 30.242124,
            "lng": 109.502029
        },
        "ad_info": {
            "adcode": 422801,
            "province": "湖北省",
            "city": "恩施土家族苗族自治州",
            "district": "恩施市"
        }
    },
    {
        "id": "14602566162147187335",
        "title": "公共厕所",
        "address": "湖北省恩施土家族苗族自治州来凤县凤翔大道辅路与蓝河路交叉口东北40米",
        "tel": "",
        "category": "基础设施:公共设施:公共厕所",
        "type": 0,
        "location": {
            "lat": 29.498473,
            "lng": 109.406361
        },
        "ad_info": {
            "adcode": 422827,
            "province": "湖北省",
            "city": "恩施土家族苗族自治州",
            "district": "来凤县"
        }
    },
    {
        "id": "15344164503763544564",
        "title": "公共厕所",
        "address": "湖北省恩施土家族苗族自治州宣恩县建设路1号商场二楼",
        "tel": "",
        "category": "基础设施:公共设施:公共厕所",
        "type": 0,
        "location": {
            "lat": 29.990258,
            "lng": 109.482219
        },
        "ad_info": {
            "adcode": 422825,
            "province": "湖北省",
            "city": "恩施土家族苗族自治州",
            "district": "宣恩县"
        }
    },
    {
        "id": "611904409811484426",
        "title": "公共厕所",
        "address": "湖北省恩施土家族苗族自治州建始县G318高坪站站前广场(沪聂线)",
        "tel": "",
        "category": "基础设施:公共设施:公共厕所",
        "type": 0,
        "location": {
            "lat": 30.663949,
            "lng": 110.091164
        },
        "ad_info": {
            "adcode": 422822,
            "province": "湖北省",
            "city": "恩施土家族苗族自治州",
            "district": "建始县"
        }
    },
    {
        "id": "11388791696652684953",
        "title": "朝阳坡停车区公共厕所",
        "address": "湖北省恩施土家族苗族自治州恩施市G50沪渝高速与朝阳坡停车区交叉口东北340米",
        "tel": "",
        "category": "基础设施:公共设施:公共厕所",
        "type": 0,
        "location": {
            "lat": 30.46137,
            "lng": 109.661815
        },
        "ad_info": {
            "adcode": 422801,
            "province": "湖北省",
            "city": "恩施土家族苗族自治州",
            "district": "恩施市"
        }
    },
    {
        "id": "11209833517556721814",
        "title": "公共厕所",
        "address": "湖北省恩施土家族苗族自治州利川市Y100与杉王大道交叉口东南方向87米左右",
        "tel": "",
        "category": "基础设施:公共设施:公共厕所",
        "type": 0,
        "location": {
            "lat": 30.429402,
            "lng": 108.688914
        },
        "ad_info": {
            "adcode": 422802,
            "province": "湖北省",
            "city": "恩施土家族苗族自治州",
            "district": "利川市"
        }
    },
    {
        "id": "15150722527823768094",
        "title": "公共厕所",
        "address": "湖北省恩施土家族苗族自治州利川市G318与竹园大道交叉口正东方向1691米左右",
        "tel": "",
        "category": "基础设施:公共设施:公共厕所",
        "type": 0,
        "location": {
            "lat": 30.399624,
            "lng": 108.795687
        },
        "ad_info": {
            "adcode": 422802,
            "province": "湖北省",
            "city": "恩施土家族苗族自治州",
            "district": "利川市"
        }
    },
    {
        "id": "3963933550175828223",
        "title": "公共厕所",
        "address": "湖北省恩施土家族苗族自治州恩施市金桂大道恩施汽车客运中心站F1",
        "tel": "",
        "category": "基础设施:公共设施:公共厕所",
        "type": 0,
        "location": {
            "lat": 30.348136,
            "lng": 109.487511
        },
        "ad_info": {
            "adcode": 422801,
            "province": "湖北省",
            "city": "恩施土家族苗族自治州",
            "district": "恩施市"
        }
    },
    {
        "id": "2537586892913492018",
        "title": "派出所公共厕所",
        "address": "湖北省恩施土家族苗族自治州来凤县Y018与硚口路交叉口东南方向41米左右",
        "tel": "",
        "category": "基础设施:公共设施:公共厕所",
        "type": 0,
        "location": {
            "lat": 29.200889,
            "lng": 109.223869
        },
        "ad_info": {
            "adcode": 422827,
            "province": "湖北省",
            "city": "恩施土家族苗族自治州",
            "district": "来凤县"
        }
    },
    {
        "id": "13755206459620417451",
        "title": "公共厕所",
        "address": "湖北省恩施土家族苗族自治州利川市X001",
        "tel": "",
        "category": "基础设施:公共设施:公共厕所",
        "type": 0,
        "location": {
            "lat": 30.186931,
            "lng": 109.07872
        },
        "ad_info": {
            "adcode": 422802,
            "province": "湖北省",
            "city": "恩施土家族苗族自治州",
            "district": "利川市"
        }
    },
    {
        "id": "12485491569682493447",
        "title": "公共厕所",
        "address": "湖北省恩施土家族苗族自治州宣恩县和谐街与文源街交叉口东北方向63米左右",
        "tel": "",
        "category": "基础设施:公共设施:公共厕所",
        "type": 0,
        "location": {
            "lat": 29.870882,
            "lng": 109.316624
        },
        "ad_info": {
            "adcode": 422825,
            "province": "湖北省",
            "city": "恩施土家族苗族自治州",
            "district": "宣恩县"
        }
    },
    {
        "id": "13612664490040626051",
        "title": "公共厕所",
        "address": "湖北省恩施土家族苗族自治州巴东县沪渝高速与野三关互通交叉口西北方向278米左右",
        "tel": "",
        "category": "基础设施:公共设施:公共厕所",
        "type": 0,
        "location": {
            "lat": 30.615722,
            "lng": 110.331111
        },
        "ad_info": {
            "adcode": 422823,
            "province": "湖北省",
            "city": "恩施土家族苗族自治州",
            "district": "巴东县"
        }
    },
    {
        "id": "9171864704422178562",
        "title": "公共卫生间",
        "address": "湖北省恩施土家族苗族自治州恩施市Y095与望茅线交叉口东北方向68米左右",
        "tel": "",
        "category": "基础设施:公共设施:公共厕所",
        "type": 0,
        "location": {
            "lat": 30.3192,
            "lng": 109.445595
        },
        "ad_info": {
            "adcode": 422801,
            "province": "湖北省",
            "city": "恩施土家族苗族自治州",
            "district": "恩施市"
        }
    },
    {
        "id": "10911018873630945744",
        "title": "沙道沟服务区公共厕所",
        "address": "湖北省恩施土家族苗族自治州宣恩县中国石化高管公司恩施片区沙道沟服务区北加油站东侧140米",
        "tel": "",
        "category": "基础设施:公共设施:公共厕所",
        "type": 0,
        "location": {
            "lat": 29.674771,
            "lng": 109.542015
        },
        "ad_info": {
            "adcode": 422825,
            "province": "湖北省",
            "city": "恩施土家族苗族自治州",
            "district": "宣恩县"
        }
    },
    {
        "id": "3010567413925215695",
        "title": "公共厕所",
        "address": "湖北省恩施土家族苗族自治州建始县红二线与花李线交叉口东南方向301米左右",
        "tel": "",
        "category": "基础设施:公共设施:公共厕所",
        "type": 0,
        "location": {
            "lat": 30.388012,
            "lng": 110.025391
        },
        "ad_info": {
            "adcode": 422822,
            "province": "湖北省",
            "city": "恩施土家族苗族自治州",
            "district": "建始县"
        }
    },
    {
        "id": "15705288558078172544",
        "title": "公共厕所",
        "address": "湖北省恩施土家族苗族自治州利川市体育街与南环大道交叉口正南方向168米左右",
        "tel": "",
        "category": "基础设施:公共设施:公共厕所",
        "type": 0,
        "location": {
            "lat": 30.278923,
            "lng": 108.941028
        },
        "ad_info": {
            "adcode": 422802,
            "province": "湖北省",
            "city": "恩施土家族苗族自治州",
            "district": "利川市"
        }
    },
    {
        "id": "4188282144775697833",
        "title": "公共厕所",
        "address": "湖北省恩施土家族苗族自治州利川市栖溪谷度假村东侧220米",
        "tel": "",
        "category": "基础设施:公共设施:公共厕所",
        "type": 0,
        "location": {
            "lat": 30.437814,
            "lng": 108.848355
        },
        "ad_info": {
            "adcode": 422802,
            "province": "湖北省",
            "city": "恩施土家族苗族自治州",
            "district": "利川市"
        }
    },
    {
        "id": "10253011184604652825",
        "title": "恩施停车区公共厕所",
        "address": "湖北省恩施土家族苗族自治州恩施市G6911安来高速与恩施停车区交叉口西南360米",
        "tel": "",
        "category": "基础设施:公共设施:公共厕所",
        "type": 0,
        "location": {
            "lat": 30.326202,
            "lng": 109.457901
        },
        "ad_info": {
            "adcode": 422801,
            "province": "湖北省",
            "city": "恩施土家族苗族自治州",
            "district": "恩施市"
        }
    },
    {
        "id": "15310851438627676498",
        "title": "公共厕所",
        "address": "湖北省恩施土家族苗族自治州恩施市龙洞河路18号对面公园",
        "tel": "",
        "category": "基础设施:公共设施:公共厕所",
        "type": 0,
        "location": {
            "lat": 30.290311,
            "lng": 109.503673
        },
        "ad_info": {
            "adcode": 422801,
            "province": "湖北省",
            "city": "恩施土家族苗族自治州",
            "district": "恩施市"
        }
    },
    {
        "id": "12511268955128516070",
        "title": "椿木营乡公共厕所",
        "address": "湖北省恩施土家族苗族自治州宣恩县国知街与学苑巷交叉口正西方向55米左右",
        "tel": "",
        "category": "基础设施:公共设施:公共厕所",
        "type": 0,
        "location": {
            "lat": 30.053011,
            "lng": 109.830893
        },
        "ad_info": {
            "adcode": 422825,
            "province": "湖北省",
            "city": "恩施土家族苗族自治州",
            "district": "宣恩县"
        }
    },
    {
        "id": "11828926449625164072",
        "title": "恩施服务区公共厕所",
        "address": "湖北省恩施土家族苗族自治州恩施市G50沪渝高速与恩施服务区交叉口西420米",
        "tel": "",
        "category": "基础设施:公共设施:公共厕所",
        "type": 0,
        "location": {
            "lat": 30.242124,
            "lng": 109.502029
        },
        "ad_info": {
            "adcode": 422801,
            "province": "湖北省",
            "city": "恩施土家族苗族自治州",
            "district": "恩施市"
        }
    },
    {
        "id": "14602566162147187335",
        "title": "公共厕所",
        "address": "湖北省恩施土家族苗族自治州来凤县凤翔大道辅路与蓝河路交叉口东北40米",
        "tel": "",
        "category": "基础设施:公共设施:公共厕所",
        "type": 0,
        "location": {
            "lat": 29.498473,
            "lng": 109.406361
        },
        "ad_info": {
            "adcode": 422827,
            "province": "湖北省",
            "city": "恩施土家族苗族自治州",
            "district": "来凤县"
        }
    },
    {
        "id": "15344164503763544564",
        "title": "公共厕所",
        "address": "湖北省恩施土家族苗族自治州宣恩县建设路1号商场二楼",
        "tel": "",
        "category": "基础设施:公共设施:公共厕所",
        "type": 0,
        "location": {
            "lat": 29.990258,
            "lng": 109.482219
        },
        "ad_info": {
            "adcode": 422825,
            "province": "湖北省",
            "city": "恩施土家族苗族自治州",
            "district": "宣恩县"
        }
    },
    {
        "id": "611904409811484426",
        "title": "公共厕所",
        "address": "湖北省恩施土家族苗族自治州建始县G318高坪站站前广场(沪聂线)",
        "tel": "",
        "category": "基础设施:公共设施:公共厕所",
        "type": 0,
        "location": {
            "lat": 30.663949,
            "lng": 110.091164
        },
        "ad_info": {
            "adcode": 422822,
            "province": "湖北省",
            "city": "恩施土家族苗族自治州",
            "district": "建始县"
        }
    },
    {
        "id": "11388791696652684953",
        "title": "朝阳坡停车区公共厕所",
        "address": "湖北省恩施土家族苗族自治州恩施市G50沪渝高速与朝阳坡停车区交叉口东北340米",
        "tel": "",
        "category": "基础设施:公共设施:公共厕所",
        "type": 0,
        "location": {
            "lat": 30.46137,
            "lng": 109.661815
        },
        "ad_info": {
            "adcode": 422801,
            "province": "湖北省",
            "city": "恩施土家族苗族自治州",
            "district": "恩施市"
        }
    },
    {
        "id": "11209833517556721814",
        "title": "公共厕所",
        "address": "湖北省恩施土家族苗族自治州利川市Y100与杉王大道交叉口东南方向87米左右",
        "tel": "",
        "category": "基础设施:公共设施:公共厕所",
        "type": 0,
        "location": {
            "lat": 30.429402,
            "lng": 108.688914
        },
        "ad_info": {
            "adcode": 422802,
            "province": "湖北省",
            "city": "恩施土家族苗族自治州",
            "district": "利川市"
        }
    },
    {
        "id": "15150722527823768094",
        "title": "公共厕所",
        "address": "湖北省恩施土家族苗族自治州利川市G318与竹园大道交叉口正东方向1691米左右",
        "tel": "",
        "category": "基础设施:公共设施:公共厕所",
        "type": 0,
        "location": {
            "lat": 30.399624,
            "lng": 108.795687
        },
        "ad_info": {
            "adcode": 422802,
            "province": "湖北省",
            "city": "恩施土家族苗族自治州",
            "district": "利川市"
        }
    },
    {
        "id": "3963933550175828223",
        "title": "公共厕所",
        "address": "湖北省恩施土家族苗族自治州恩施市金桂大道恩施汽车客运中心站F1",
        "tel": "",
        "category": "基础设施:公共设施:公共厕所",
        "type": 0,
        "location": {
            "lat": 30.348136,
            "lng": 109.487511
        },
        "ad_info": {
            "adcode": 422801,
            "province": "湖北省",
            "city": "恩施土家族苗族自治州",
            "district": "恩施市"
        }
    },
    {
        "id": "2537586892913492018",
        "title": "派出所公共厕所",
        "address": "湖北省恩施土家族苗族自治州来凤县Y018与硚口路交叉口东南方向41米左右",
        "tel": "",
        "category": "基础设施:公共设施:公共厕所",
        "type": 0,
        "location": {
            "lat": 29.200889,
            "lng": 109.223869
        },
        "ad_info": {
            "adcode": 422827,
            "province": "湖北省",
            "city": "恩施土家族苗族自治州",
            "district": "来凤县"
        }
    },
    {
        "id": "13755206459620417451",
        "title": "公共厕所",
        "address": "湖北省恩施土家族苗族自治州利川市X001",
        "tel": "",
        "category": "基础设施:公共设施:公共厕所",
        "type": 0,
        "location": {
            "lat": 30.186931,
            "lng": 109.07872
        },
        "ad_info": {
            "adcode": 422802,
            "province": "湖北省",
            "city": "恩施土家族苗族自治州",
            "district": "利川市"
        }
    },
    {
        "id": "12485491569682493447",
        "title": "公共厕所",
        "address": "湖北省恩施土家族苗族自治州宣恩县和谐街与文源街交叉口东北方向63米左右",
        "tel": "",
        "category": "基础设施:公共设施:公共厕所",
        "type": 0,
        "location": {
            "lat": 29.870882,
            "lng": 109.316624
        },
        "ad_info": {
            "adcode": 422825,
            "province": "湖北省",
            "city": "恩施土家族苗族自治州",
            "district": "宣恩县"
        }
    },
    {
        "id": "13612664490040626051",
        "title": "公共厕所",
        "address": "湖北省恩施土家族苗族自治州巴东县沪渝高速与野三关互通交叉口西北方向278米左右",
        "tel": "",
        "category": "基础设施:公共设施:公共厕所",
        "type": 0,
        "location": {
            "lat": 30.615722,
            "lng": 110.331111
        },
        "ad_info": {
            "adcode": 422823,
            "province": "湖北省",
            "city": "恩施土家族苗族自治州",
            "district": "巴东县"
        }
    },
    {
        "id": "9171864704422178562",
        "title": "公共卫生间",
        "address": "湖北省恩施土家族苗族自治州恩施市Y095与望茅线交叉口东北方向68米左右",
        "tel": "",
        "category": "基础设施:公共设施:公共厕所",
        "type": 0,
        "location": {
            "lat": 30.3192,
            "lng": 109.445595
        },
        "ad_info": {
            "adcode": 422801,
            "province": "湖北省",
            "city": "恩施土家族苗族自治州",
            "district": "恩施市"
        }
    },
    {
        "id": "10911018873630945744",
        "title": "沙道沟服务区公共厕所",
        "address": "湖北省恩施土家族苗族自治州宣恩县中国石化高管公司恩施片区沙道沟服务区北加油站东侧140米",
        "tel": "",
        "category": "基础设施:公共设施:公共厕所",
        "type": 0,
        "location": {
            "lat": 29.674771,
            "lng": 109.542015
        },
        "ad_info": {
            "adcode": 422825,
            "province": "湖北省",
            "city": "恩施土家族苗族自治州",
            "district": "宣恩县"
        }
    },
    {
        "id": "3010567413925215695",
        "title": "公共厕所",
        "address": "湖北省恩施土家族苗族自治州建始县红二线与花李线交叉口东南方向301米左右",
        "tel": "",
        "category": "基础设施:公共设施:公共厕所",
        "type": 0,
        "location": {
            "lat": 30.388012,
            "lng": 110.025391
        },
        "ad_info": {
            "adcode": 422822,
            "province": "湖北省",
            "city": "恩施土家族苗族自治州",
            "district": "建始县"
        }
    },
    {
        "id": "15705288558078172544",
        "title": "公共厕所",
        "address": "湖北省恩施土家族苗族自治州利川市体育街与南环大道交叉口正南方向168米左右",
        "tel": "",
        "category": "基础设施:公共设施:公共厕所",
        "type": 0,
        "location": {
            "lat": 30.278923,
            "lng": 108.941028
        },
        "ad_info": {
            "adcode": 422802,
            "province": "湖北省",
            "city": "恩施土家族苗族自治州",
            "district": "利川市"
        }
    },
    {
        "id": "4188282144775697833",
        "title": "公共厕所",
        "address": "湖北省恩施土家族苗族自治州利川市栖溪谷度假村东侧220米",
        "tel": "",
        "category": "基础设施:公共设施:公共厕所",
        "type": 0,
        "location": {
            "lat": 30.437814,
            "lng": 108.848355
        },
        "ad_info": {
            "adcode": 422802,
            "province": "湖北省",
            "city": "恩施土家族苗族自治州",
            "district": "利川市"
        }
    },
    {
        "id": "10253011184604652825",
        "title": "恩施停车区公共厕所",
        "address": "湖北省恩施土家族苗族自治州恩施市G6911安来高速与恩施停车区交叉口西南360米",
        "tel": "",
        "category": "基础设施:公共设施:公共厕所",
        "type": 0,
        "location": {
            "lat": 30.326202,
            "lng": 109.457901
        },
        "ad_info": {
            "adcode": 422801,
            "province": "湖北省",
            "city": "恩施土家族苗族自治州",
            "district": "恩施市"
        }
    },
    {
        "id": "15310851438627676498",
        "title": "公共厕所",
        "address": "湖北省恩施土家族苗族自治州恩施市龙洞河路18号对面公园",
        "tel": "",
        "category": "基础设施:公共设施:公共厕所",
        "type": 0,
        "location": {
            "lat": 30.290311,
            "lng": 109.503673
        },
        "ad_info": {
            "adcode": 422801,
            "province": "湖北省",
            "city": "恩施土家族苗族自治州",
            "district": "恩施市"
        }
    },
    {
        "id": "12511268955128516070",
        "title": "椿木营乡公共厕所",
        "address": "湖北省恩施土家族苗族自治州宣恩县国知街与学苑巷交叉口正西方向55米左右",
        "tel": "",
        "category": "基础设施:公共设施:公共厕所",
        "type": 0,
        "location": {
            "lat": 30.053011,
            "lng": 109.830893
        },
        "ad_info": {
            "adcode": 422825,
            "province": "湖北省",
            "city": "恩施土家族苗族自治州",
            "district": "宣恩县"
        }
    },
    {
        "id": "11828926449625164072",
        "title": "恩施服务区公共厕所",
        "address": "湖北省恩施土家族苗族自治州恩施市G50沪渝高速与恩施服务区交叉口西420米",
        "tel": "",
        "category": "基础设施:公共设施:公共厕所",
        "type": 0,
        "location": {
            "lat": 30.242124,
            "lng": 109.502029
        },
        "ad_info": {
            "adcode": 422801,
            "province": "湖北省",
            "city": "恩施土家族苗族自治州",
            "district": "恩施市"
        }
    },
    {
        "id": "14602566162147187335",
        "title": "公共厕所",
        "address": "湖北省恩施土家族苗族自治州来凤县凤翔大道辅路与蓝河路交叉口东北40米",
        "tel": "",
        "category": "基础设施:公共设施:公共厕所",
        "type": 0,
        "location": {
            "lat": 29.498473,
            "lng": 109.406361
        },
        "ad_info": {
            "adcode": 422827,
            "province": "湖北省",
            "city": "恩施土家族苗族自治州",
            "district": "来凤县"
        }
    },
    {
        "id": "15344164503763544564",
        "title": "公共厕所",
        "address": "湖北省恩施土家族苗族自治州宣恩县建设路1号商场二楼",
        "tel": "",
        "category": "基础设施:公共设施:公共厕所",
        "type": 0,
        "location": {
            "lat": 29.990258,
            "lng": 109.482219
        },
        "ad_info": {
            "adcode": 422825,
            "province": "湖北省",
            "city": "恩施土家族苗族自治州",
            "district": "宣恩县"
        }
    },
    {
        "id": "611904409811484426",
        "title": "公共厕所",
        "address": "湖北省恩施土家族苗族自治州建始县G318高坪站站前广场(沪聂线)",
        "tel": "",
        "category": "基础设施:公共设施:公共厕所",
        "type": 0,
        "location": {
            "lat": 30.663949,
            "lng": 110.091164
        },
        "ad_info": {
            "adcode": 422822,
            "province": "湖北省",
            "city": "恩施土家族苗族自治州",
            "district": "建始县"
        }
    },
    {
        "id": "11388791696652684953",
        "title": "朝阳坡停车区公共厕所",
        "address": "湖北省恩施土家族苗族自治州恩施市G50沪渝高速与朝阳坡停车区交叉口东北340米",
        "tel": "",
        "category": "基础设施:公共设施:公共厕所",
        "type": 0,
        "location": {
            "lat": 30.46137,
            "lng": 109.661815
        },
        "ad_info": {
            "adcode": 422801,
            "province": "湖北省",
            "city": "恩施土家族苗族自治州",
            "district": "恩施市"
        }
    },
    {
        "id": "11209833517556721814",
        "title": "公共厕所",
        "address": "湖北省恩施土家族苗族自治州利川市Y100与杉王大道交叉口东南方向87米左右",
        "tel": "",
        "category": "基础设施:公共设施:公共厕所",
        "type": 0,
        "location": {
            "lat": 30.429402,
            "lng": 108.688914
        },
        "ad_info": {
            "adcode": 422802,
            "province": "湖北省",
            "city": "恩施土家族苗族自治州",
            "district": "利川市"
        }
    },
    {
        "id": "15150722527823768094",
        "title": "公共厕所",
        "address": "湖北省恩施土家族苗族自治州利川市G318与竹园大道交叉口正东方向1691米左右",
        "tel": "",
        "category": "基础设施:公共设施:公共厕所",
        "type": 0,
        "location": {
            "lat": 30.399624,
            "lng": 108.795687
        },
        "ad_info": {
            "adcode": 422802,
            "province": "湖北省",
            "city": "恩施土家族苗族自治州",
            "district": "利川市"
        }
    },
    {
        "id": "3963933550175828223",
        "title": "公共厕所",
        "address": "湖北省恩施土家族苗族自治州恩施市金桂大道恩施汽车客运中心站F1",
        "tel": "",
        "category": "基础设施:公共设施:公共厕所",
        "type": 0,
        "location": {
            "lat": 30.348136,
            "lng": 109.487511
        },
        "ad_info": {
            "adcode": 422801,
            "province": "湖北省",
            "city": "恩施土家族苗族自治州",
            "district": "恩施市"
        }
    },
    {
        "id": "2537586892913492018",
        "title": "派出所公共厕所",
        "address": "湖北省恩施土家族苗族自治州来凤县Y018与硚口路交叉口东南方向41米左右",
        "tel": "",
        "category": "基础设施:公共设施:公共厕所",
        "type": 0,
        "location": {
            "lat": 29.200889,
            "lng": 109.223869
        },
        "ad_info": {
            "adcode": 422827,
            "province": "湖北省",
            "city": "恩施土家族苗族自治州",
            "district": "来凤县"
        }
    },
    {
        "id": "13755206459620417451",
        "title": "公共厕所",
        "address": "湖北省恩施土家族苗族自治州利川市X001",
        "tel": "",
        "category": "基础设施:公共设施:公共厕所",
        "type": 0,
        "location": {
            "lat": 30.186931,
            "lng": 109.07872
        },
        "ad_info": {
            "adcode": 422802,
            "province": "湖北省",
            "city": "恩施土家族苗族自治州",
            "district": "利川市"
        }
    },
    {
        "id": "12485491569682493447",
        "title": "公共厕所",
        "address": "湖北省恩施土家族苗族自治州宣恩县和谐街与文源街交叉口东北方向63米左右",
        "tel": "",
        "category": "基础设施:公共设施:公共厕所",
        "type": 0,
        "location": {
            "lat": 29.870882,
            "lng": 109.316624
        },
        "ad_info": {
            "adcode": 422825,
            "province": "湖北省",
            "city": "恩施土家族苗族自治州",
            "district": "宣恩县"
        }
    },
    {
        "id": "13612664490040626051",
        "title": "公共厕所",
        "address": "湖北省恩施土家族苗族自治州巴东县沪渝高速与野三关互通交叉口西北方向278米左右",
        "tel": "",
        "category": "基础设施:公共设施:公共厕所",
        "type": 0,
        "location": {
            "lat": 30.615722,
            "lng": 110.331111
        },
        "ad_info": {
            "adcode": 422823,
            "province": "湖北省",
            "city": "恩施土家族苗族自治州",
            "district": "巴东县"
        }
    },
    {
        "id": "9171864704422178562",
        "title": "公共卫生间",
        "address": "湖北省恩施土家族苗族自治州恩施市Y095与望茅线交叉口东北方向68米左右",
        "tel": "",
        "category": "基础设施:公共设施:公共厕所",
        "type": 0,
        "location": {
            "lat": 30.3192,
            "lng": 109.445595
        },
        "ad_info": {
            "adcode": 422801,
            "province": "湖北省",
            "city": "恩施土家族苗族自治州",
            "district": "恩施市"
        }
    },
    {
        "id": "10911018873630945744",
        "title": "沙道沟服务区公共厕所",
        "address": "湖北省恩施土家族苗族自治州宣恩县中国石化高管公司恩施片区沙道沟服务区北加油站东侧140米",
        "tel": "",
        "category": "基础设施:公共设施:公共厕所",
        "type": 0,
        "location": {
            "lat": 29.674771,
            "lng": 109.542015
        },
        "ad_info": {
            "adcode": 422825,
            "province": "湖北省",
            "city": "恩施土家族苗族自治州",
            "district": "宣恩县"
        }
    },
    {
        "id": "3010567413925215695",
        "title": "公共厕所",
        "address": "湖北省恩施土家族苗族自治州建始县红二线与花李线交叉口东南方向301米左右",
        "tel": "",
        "category": "基础设施:公共设施:公共厕所",
        "type": 0,
        "location": {
            "lat": 30.388012,
            "lng": 110.025391
        },
        "ad_info": {
            "adcode": 422822,
            "province": "湖北省",
            "city": "恩施土家族苗族自治州",
            "district": "建始县"
        }
    },
    {
        "id": "15705288558078172544",
        "title": "公共厕所",
        "address": "湖北省恩施土家族苗族自治州利川市体育街与南环大道交叉口正南方向168米左右",
        "tel": "",
        "category": "基础设施:公共设施:公共厕所",
        "type": 0,
        "location": {
            "lat": 30.278923,
            "lng": 108.941028
        },
        "ad_info": {
            "adcode": 422802,
            "province": "湖北省",
            "city": "恩施土家族苗族自治州",
            "district": "利川市"
        }
    },
    {
        "id": "4188282144775697833",
        "title": "公共厕所",
        "address": "湖北省恩施土家族苗族自治州利川市栖溪谷度假村东侧220米",
        "tel": "",
        "category": "基础设施:公共设施:公共厕所",
        "type": 0,
        "location": {
            "lat": 30.437814,
            "lng": 108.848355
        },
        "ad_info": {
            "adcode": 422802,
            "province": "湖北省",
            "city": "恩施土家族苗族自治州",
            "district": "利川市"
        }
    },
    {
        "id": "10253011184604652825",
        "title": "恩施停车区公共厕所",
        "address": "湖北省恩施土家族苗族自治州恩施市G6911安来高速与恩施停车区交叉口西南360米",
        "tel": "",
        "category": "基础设施:公共设施:公共厕所",
        "type": 0,
        "location": {
            "lat": 30.326202,
            "lng": 109.457901
        },
        "ad_info": {
            "adcode": 422801,
            "province": "湖北省",
            "city": "恩施土家族苗族自治州",
            "district": "恩施市"
        }
    },
    {
        "id": "15310851438627676498",
        "title": "公共厕所",
        "address": "湖北省恩施土家族苗族自治州恩施市龙洞河路18号对面公园",
        "tel": "",
        "category": "基础设施:公共设施:公共厕所",
        "type": 0,
        "location": {
            "lat": 30.290311,
            "lng": 109.503673
        },
        "ad_info": {
            "adcode": 422801,
            "province": "湖北省",
            "city": "恩施土家族苗族自治州",
            "district": "恩施市"
        }
    },
    {
        "id": "12511268955128516070",
        "title": "椿木营乡公共厕所",
        "address": "湖北省恩施土家族苗族自治州宣恩县国知街与学苑巷交叉口正西方向55米左右",
        "tel": "",
        "category": "基础设施:公共设施:公共厕所",
        "type": 0,
        "location": {
            "lat": 30.053011,
            "lng": 109.830893
        },
        "ad_info": {
            "adcode": 422825,
            "province": "湖北省",
            "city": "恩施土家族苗族自治州",
            "district": "宣恩县"
        }
    },
    {
        "id": "11828926449625164072",
        "title": "恩施服务区公共厕所",
        "address": "湖北省恩施土家族苗族自治州恩施市G50沪渝高速与恩施服务区交叉口西420米",
        "tel": "",
        "category": "基础设施:公共设施:公共厕所",
        "type": 0,
        "location": {
            "lat": 30.242124,
            "lng": 109.502029
        },
        "ad_info": {
            "adcode": 422801,
            "province": "湖北省",
            "city": "恩施土家族苗族自治州",
            "district": "恩施市"
        }
    },
    {
        "id": "14602566162147187335",
        "title": "公共厕所",
        "address": "湖北省恩施土家族苗族自治州来凤县凤翔大道辅路与蓝河路交叉口东北40米",
        "tel": "",
        "category": "基础设施:公共设施:公共厕所",
        "type": 0,
        "location": {
            "lat": 29.498473,
            "lng": 109.406361
        },
        "ad_info": {
            "adcode": 422827,
            "province": "湖北省",
            "city": "恩施土家族苗族自治州",
            "district": "来凤县"
        }
    },
    {
        "id": "15344164503763544564",
        "title": "公共厕所",
        "address": "湖北省恩施土家族苗族自治州宣恩县建设路1号商场二楼",
        "tel": "",
        "category": "基础设施:公共设施:公共厕所",
        "type": 0,
        "location": {
            "lat": 29.990258,
            "lng": 109.482219
        },
        "ad_info": {
            "adcode": 422825,
            "province": "湖北省",
            "city": "恩施土家族苗族自治州",
            "district": "宣恩县"
        }
    },
    {
        "id": "611904409811484426",
        "title": "公共厕所",
        "address": "湖北省恩施土家族苗族自治州建始县G318高坪站站前广场(沪聂线)",
        "tel": "",
        "category": "基础设施:公共设施:公共厕所",
        "type": 0,
        "location": {
            "lat": 30.663949,
            "lng": 110.091164
        },
        "ad_info": {
            "adcode": 422822,
            "province": "湖北省",
            "city": "恩施土家族苗族自治州",
            "district": "建始县"
        }
    },
    {
        "id": "11388791696652684953",
        "title": "朝阳坡停车区公共厕所",
        "address": "湖北省恩施土家族苗族自治州恩施市G50沪渝高速与朝阳坡停车区交叉口东北340米",
        "tel": "",
        "category": "基础设施:公共设施:公共厕所",
        "type": 0,
        "location": {
            "lat": 30.46137,
            "lng": 109.661815
        },
        "ad_info": {
            "adcode": 422801,
            "province": "湖北省",
            "city": "恩施土家族苗族自治州",
            "district": "恩施市"
        }
    },
    {
        "id": "11209833517556721814",
        "title": "公共厕所",
        "address": "湖北省恩施土家族苗族自治州利川市Y100与杉王大道交叉口东南方向87米左右",
        "tel": "",
        "category": "基础设施:公共设施:公共厕所",
        "type": 0,
        "location": {
            "lat": 30.429402,
            "lng": 108.688914
        },
        "ad_info": {
            "adcode": 422802,
            "province": "湖北省",
            "city": "恩施土家族苗族自治州",
            "district": "利川市"
        }
    },
    {
        "id": "15150722527823768094",
        "title": "公共厕所",
        "address": "湖北省恩施土家族苗族自治州利川市G318与竹园大道交叉口正东方向1691米左右",
        "tel": "",
        "category": "基础设施:公共设施:公共厕所",
        "type": 0,
        "location": {
            "lat": 30.399624,
            "lng": 108.795687
        },
        "ad_info": {
            "adcode": 422802,
            "province": "湖北省",
            "city": "恩施土家族苗族自治州",
            "district": "利川市"
        }
    },
    {
        "id": "3963933550175828223",
        "title": "公共厕所",
        "address": "湖北省恩施土家族苗族自治州恩施市金桂大道恩施汽车客运中心站F1",
        "tel": "",
        "category": "基础设施:公共设施:公共厕所",
        "type": 0,
        "location": {
            "lat": 30.348136,
            "lng": 109.487511
        },
        "ad_info": {
            "adcode": 422801,
            "province": "湖北省",
            "city": "恩施土家族苗族自治州",
            "district": "恩施市"
        }
    },
    {
        "id": "2537586892913492018",
        "title": "派出所公共厕所",
        "address": "湖北省恩施土家族苗族自治州来凤县Y018与硚口路交叉口东南方向41米左右",
        "tel": "",
        "category": "基础设施:公共设施:公共厕所",
        "type": 0,
        "location": {
            "lat": 29.200889,
            "lng": 109.223869
        },
        "ad_info": {
            "adcode": 422827,
            "province": "湖北省",
            "city": "恩施土家族苗族自治州",
            "district": "来凤县"
        }
    },
    {
        "id": "13755206459620417451",
        "title": "公共厕所",
        "address": "湖北省恩施土家族苗族自治州利川市X001",
        "tel": "",
        "category": "基础设施:公共设施:公共厕所",
        "type": 0,
        "location": {
            "lat": 30.186931,
            "lng": 109.07872
        },
        "ad_info": {
            "adcode": 422802,
            "province": "湖北省",
            "city": "恩施土家族苗族自治州",
            "district": "利川市"
        }
    },
    {
        "id": "12485491569682493447",
        "title": "公共厕所",
        "address": "湖北省恩施土家族苗族自治州宣恩县和谐街与文源街交叉口东北方向63米左右",
        "tel": "",
        "category": "基础设施:公共设施:公共厕所",
        "type": 0,
        "location": {
            "lat": 29.870882,
            "lng": 109.316624
        },
        "ad_info": {
            "adcode": 422825,
            "province": "湖北省",
            "city": "恩施土家族苗族自治州",
            "district": "宣恩县"
        }
    },
    {
        "id": "13612664490040626051",
        "title": "公共厕所",
        "address": "湖北省恩施土家族苗族自治州巴东县沪渝高速与野三关互通交叉口西北方向278米左右",
        "tel": "",
        "category": "基础设施:公共设施:公共厕所",
        "type": 0,
        "location": {
            "lat": 30.615722,
            "lng": 110.331111
        },
        "ad_info": {
            "adcode": 422823,
            "province": "湖北省",
            "city": "恩施土家族苗族自治州",
            "district": "巴东县"
        }
    },
    {
        "id": "9171864704422178562",
        "title": "公共卫生间",
        "address": "湖北省恩施土家族苗族自治州恩施市Y095与望茅线交叉口东北方向68米左右",
        "tel": "",
        "category": "基础设施:公共设施:公共厕所",
        "type": 0,
        "location": {
            "lat": 30.3192,
            "lng": 109.445595
        },
        "ad_info": {
            "adcode": 422801,
            "province": "湖北省",
            "city": "恩施土家族苗族自治州",
            "district": "恩施市"
        }
    },
    {
        "id": "10911018873630945744",
        "title": "沙道沟服务区公共厕所",
        "address": "湖北省恩施土家族苗族自治州宣恩县中国石化高管公司恩施片区沙道沟服务区北加油站东侧140米",
        "tel": "",
        "category": "基础设施:公共设施:公共厕所",
        "type": 0,
        "location": {
            "lat": 29.674771,
            "lng": 109.542015
        },
        "ad_info": {
            "adcode": 422825,
            "province": "湖北省",
            "city": "恩施土家族苗族自治州",
            "district": "宣恩县"
        }
    },
    {
        "id": "3010567413925215695",
        "title": "公共厕所",
        "address": "湖北省恩施土家族苗族自治州建始县红二线与花李线交叉口东南方向301米左右",
        "tel": "",
        "category": "基础设施:公共设施:公共厕所",
        "type": 0,
        "location": {
            "lat": 30.388012,
            "lng": 110.025391
        },
        "ad_info": {
            "adcode": 422822,
            "province": "湖北省",
            "city": "恩施土家族苗族自治州",
            "district": "建始县"
        }
    },
    {
        "id": "15705288558078172544",
        "title": "公共厕所",
        "address": "湖北省恩施土家族苗族自治州利川市体育街与南环大道交叉口正南方向168米左右",
        "tel": "",
        "category": "基础设施:公共设施:公共厕所",
        "type": 0,
        "location": {
            "lat": 30.278923,
            "lng": 108.941028
        },
        "ad_info": {
            "adcode": 422802,
            "province": "湖北省",
            "city": "恩施土家族苗族自治州",
            "district": "利川市"
        }
    },
    {
        "id": "4188282144775697833",
        "title": "公共厕所",
        "address": "湖北省恩施土家族苗族自治州利川市栖溪谷度假村东侧220米",
        "tel": "",
        "category": "基础设施:公共设施:公共厕所",
        "type": 0,
        "location": {
            "lat": 30.437814,
            "lng": 108.848355
        },
        "ad_info": {
            "adcode": 422802,
            "province": "湖北省",
            "city": "恩施土家族苗族自治州",
            "district": "利川市"
        }
    },
    {
        "id": "10253011184604652825",
        "title": "恩施停车区公共厕所",
        "address": "湖北省恩施土家族苗族自治州恩施市G6911安来高速与恩施停车区交叉口西南360米",
        "tel": "",
        "category": "基础设施:公共设施:公共厕所",
        "type": 0,
        "location": {
            "lat": 30.326202,
            "lng": 109.457901
        },
        "ad_info": {
            "adcode": 422801,
            "province": "湖北省",
            "city": "恩施土家族苗族自治州",
            "district": "恩施市"
        }
    },
    {
        "id": "15310851438627676498",
        "title": "公共厕所",
        "address": "湖北省恩施土家族苗族自治州恩施市龙洞河路18号对面公园",
        "tel": "",
        "category": "基础设施:公共设施:公共厕所",
        "type": 0,
        "location": {
            "lat": 30.290311,
            "lng": 109.503673
        },
        "ad_info": {
            "adcode": 422801,
            "province": "湖北省",
            "city": "恩施土家族苗族自治州",
            "district": "恩施市"
        }
    },
    {
        "id": "12511268955128516070",
        "title": "椿木营乡公共厕所",
        "address": "湖北省恩施土家族苗族自治州宣恩县国知街与学苑巷交叉口正西方向55米左右",
        "tel": "",
        "category": "基础设施:公共设施:公共厕所",
        "type": 0,
        "location": {
            "lat": 30.053011,
            "lng": 109.830893
        },
        "ad_info": {
            "adcode": 422825,
            "province": "湖北省",
            "city": "恩施土家族苗族自治州",
            "district": "宣恩县"
        }
    },
    {
        "id": "11828926449625164072",
        "title": "恩施服务区公共厕所",
        "address": "湖北省恩施土家族苗族自治州恩施市G50沪渝高速与恩施服务区交叉口西420米",
        "tel": "",
        "category": "基础设施:公共设施:公共厕所",
        "type": 0,
        "location": {
            "lat": 30.242124,
            "lng": 109.502029
        },
        "ad_info": {
            "adcode": 422801,
            "province": "湖北省",
            "city": "恩施土家族苗族自治州",
            "district": "恩施市"
        }
    },
    {
        "id": "14602566162147187335",
        "title": "公共厕所",
        "address": "湖北省恩施土家族苗族自治州来凤县凤翔大道辅路与蓝河路交叉口东北40米",
        "tel": "",
        "category": "基础设施:公共设施:公共厕所",
        "type": 0,
        "location": {
            "lat": 29.498473,
            "lng": 109.406361
        },
        "ad_info": {
            "adcode": 422827,
            "province": "湖北省",
            "city": "恩施土家族苗族自治州",
            "district": "来凤县"
        }
    },
    {
        "id": "15344164503763544564",
        "title": "公共厕所",
        "address": "湖北省恩施土家族苗族自治州宣恩县建设路1号商场二楼",
        "tel": "",
        "category": "基础设施:公共设施:公共厕所",
        "type": 0,
        "location": {
            "lat": 29.990258,
            "lng": 109.482219
        },
        "ad_info": {
            "adcode": 422825,
            "province": "湖北省",
            "city": "恩施土家族苗族自治州",
            "district": "宣恩县"
        }
    },
    {
        "id": "611904409811484426",
        "title": "公共厕所",
        "address": "湖北省恩施土家族苗族自治州建始县G318高坪站站前广场(沪聂线)",
        "tel": "",
        "category": "基础设施:公共设施:公共厕所",
        "type": 0,
        "location": {
            "lat": 30.663949,
            "lng": 110.091164
        },
        "ad_info": {
            "adcode": 422822,
            "province": "湖北省",
            "city": "恩施土家族苗族自治州",
            "district": "建始县"
        }
    },
    {
        "id": "11388791696652684953",
        "title": "朝阳坡停车区公共厕所",
        "address": "湖北省恩施土家族苗族自治州恩施市G50沪渝高速与朝阳坡停车区交叉口东北340米",
        "tel": "",
        "category": "基础设施:公共设施:公共厕所",
        "type": 0,
        "location": {
            "lat": 30.46137,
            "lng": 109.661815
        },
        "ad_info": {
            "adcode": 422801,
            "province": "湖北省",
            "city": "恩施土家族苗族自治州",
            "district": "恩施市"
        }
    },
    {
        "id": "11209833517556721814",
        "title": "公共厕所",
        "address": "湖北省恩施土家族苗族自治州利川市Y100与杉王大道交叉口东南方向87米左右",
        "tel": "",
        "category": "基础设施:公共设施:公共厕所",
        "type": 0,
        "location": {
            "lat": 30.429402,
            "lng": 108.688914
        },
        "ad_info": {
            "adcode": 422802,
            "province": "湖北省",
            "city": "恩施土家族苗族自治州",
            "district": "利川市"
        }
    },
    {
        "id": "15150722527823768094",
        "title": "公共厕所",
        "address": "湖北省恩施土家族苗族自治州利川市G318与竹园大道交叉口正东方向1691米左右",
        "tel": "",
        "category": "基础设施:公共设施:公共厕所",
        "type": 0,
        "location": {
            "lat": 30.399624,
            "lng": 108.795687
        },
        "ad_info": {
            "adcode": 422802,
            "province": "湖北省",
            "city": "恩施土家族苗族自治州",
            "district": "利川市"
        }
    },
    {
        "id": "3963933550175828223",
        "title": "公共厕所",
        "address": "湖北省恩施土家族苗族自治州恩施市金桂大道恩施汽车客运中心站F1",
        "tel": "",
        "category": "基础设施:公共设施:公共厕所",
        "type": 0,
        "location": {
            "lat": 30.348136,
            "lng": 109.487511
        },
        "ad_info": {
            "adcode": 422801,
            "province": "湖北省",
            "city": "恩施土家族苗族自治州",
            "district": "恩施市"
        }
    },
    {
        "id": "2537586892913492018",
        "title": "派出所公共厕所",
        "address": "湖北省恩施土家族苗族自治州来凤县Y018与硚口路交叉口东南方向41米左右",
        "tel": "",
        "category": "基础设施:公共设施:公共厕所",
        "type": 0,
        "location": {
            "lat": 29.200889,
            "lng": 109.223869
        },
        "ad_info": {
            "adcode": 422827,
            "province": "湖北省",
            "city": "恩施土家族苗族自治州",
            "district": "来凤县"
        }
    },
    {
        "id": "13755206459620417451",
        "title": "公共厕所",
        "address": "湖北省恩施土家族苗族自治州利川市X001",
        "tel": "",
        "category": "基础设施:公共设施:公共厕所",
        "type": 0,
        "location": {
            "lat": 30.186931,
            "lng": 109.07872
        },
        "ad_info": {
            "adcode": 422802,
            "province": "湖北省",
            "city": "恩施土家族苗族自治州",
            "district": "利川市"
        }
    },
    {
        "id": "12485491569682493447",
        "title": "公共厕所",
        "address": "湖北省恩施土家族苗族自治州宣恩县和谐街与文源街交叉口东北方向63米左右",
        "tel": "",
        "category": "基础设施:公共设施:公共厕所",
        "type": 0,
        "location": {
            "lat": 29.870882,
            "lng": 109.316624
        },
        "ad_info": {
            "adcode": 422825,
            "province": "湖北省",
            "city": "恩施土家族苗族自治州",
            "district": "宣恩县"
        }
    },
    {
        "id": "13612664490040626051",
        "title": "公共厕所",
        "address": "湖北省恩施土家族苗族自治州巴东县沪渝高速与野三关互通交叉口西北方向278米左右",
        "tel": "",
        "category": "基础设施:公共设施:公共厕所",
        "type": 0,
        "location": {
            "lat": 30.615722,
            "lng": 110.331111
        },
        "ad_info": {
            "adcode": 422823,
            "province": "湖北省",
            "city": "恩施土家族苗族自治州",
            "district": "巴东县"
        }
    },
    {
        "id": "9171864704422178562",
        "title": "公共卫生间",
        "address": "湖北省恩施土家族苗族自治州恩施市Y095与望茅线交叉口东北方向68米左右",
        "tel": "",
        "category": "基础设施:公共设施:公共厕所",
        "type": 0,
        "location": {
            "lat": 30.3192,
            "lng": 109.445595
        },
        "ad_info": {
            "adcode": 422801,
            "province": "湖北省",
            "city": "恩施土家族苗族自治州",
            "district": "恩施市"
        }
    },
    {
        "id": "10911018873630945744",
        "title": "沙道沟服务区公共厕所",
        "address": "湖北省恩施土家族苗族自治州宣恩县中国石化高管公司恩施片区沙道沟服务区北加油站东侧140米",
        "tel": "",
        "category": "基础设施:公共设施:公共厕所",
        "type": 0,
        "location": {
            "lat": 29.674771,
            "lng": 109.542015
        },
        "ad_info": {
            "adcode": 422825,
            "province": "湖北省",
            "city": "恩施土家族苗族自治州",
            "district": "宣恩县"
        }
    },
    {
        "id": "3010567413925215695",
        "title": "公共厕所",
        "address": "湖北省恩施土家族苗族自治州建始县红二线与花李线交叉口东南方向301米左右",
        "tel": "",
        "category": "基础设施:公共设施:公共厕所",
        "type": 0,
        "location": {
            "lat": 30.388012,
            "lng": 110.025391
        },
        "ad_info": {
            "adcode": 422822,
            "province": "湖北省",
            "city": "恩施土家族苗族自治州",
            "district": "建始县"
        }
    },
    {
        "id": "15705288558078172544",
        "title": "公共厕所",
        "address": "湖北省恩施土家族苗族自治州利川市体育街与南环大道交叉口正南方向168米左右",
        "tel": "",
        "category": "基础设施:公共设施:公共厕所",
        "type": 0,
        "location": {
            "lat": 30.278923,
            "lng": 108.941028
        },
        "ad_info": {
            "adcode": 422802,
            "province": "湖北省",
            "city": "恩施土家族苗族自治州",
            "district": "利川市"
        }
    },
    {
        "id": "4188282144775697833",
        "title": "公共厕所",
        "address": "湖北省恩施土家族苗族自治州利川市栖溪谷度假村东侧220米",
        "tel": "",
        "category": "基础设施:公共设施:公共厕所",
        "type": 0,
        "location": {
            "lat": 30.437814,
            "lng": 108.848355
        },
        "ad_info": {
            "adcode": 422802,
            "province": "湖北省",
            "city": "恩施土家族苗族自治州",
            "district": "利川市"
        }
    },
    {
        "id": "10253011184604652825",
        "title": "恩施停车区公共厕所",
        "address": "湖北省恩施土家族苗族自治州恩施市G6911安来高速与恩施停车区交叉口西南360米",
        "tel": "",
        "category": "基础设施:公共设施:公共厕所",
        "type": 0,
        "location": {
            "lat": 30.326202,
            "lng": 109.457901
        },
        "ad_info": {
            "adcode": 422801,
            "province": "湖北省",
            "city": "恩施土家族苗族自治州",
            "district": "恩施市"
        }
    },
    {
        "id": "15310851438627676498",
        "title": "公共厕所",
        "address": "湖北省恩施土家族苗族自治州恩施市龙洞河路18号对面公园",
        "tel": "",
        "category": "基础设施:公共设施:公共厕所",
        "type": 0,
        "location": {
            "lat": 30.290311,
            "lng": 109.503673
        },
        "ad_info": {
            "adcode": 422801,
            "province": "湖北省",
            "city": "恩施土家族苗族自治州",
            "district": "恩施市"
        }
    },
    {
        "id": "12511268955128516070",
        "title": "椿木营乡公共厕所",
        "address": "湖北省恩施土家族苗族自治州宣恩县国知街与学苑巷交叉口正西方向55米左右",
        "tel": "",
        "category": "基础设施:公共设施:公共厕所",
        "type": 0,
        "location": {
            "lat": 30.053011,
            "lng": 109.830893
        },
        "ad_info": {
            "adcode": 422825,
            "province": "湖北省",
            "city": "恩施土家族苗族自治州",
            "district": "宣恩县"
        }
    },
    {
        "id": "11828926449625164072",
        "title": "恩施服务区公共厕所",
        "address": "湖北省恩施土家族苗族自治州恩施市G50沪渝高速与恩施服务区交叉口西420米",
        "tel": "",
        "category": "基础设施:公共设施:公共厕所",
        "type": 0,
        "location": {
            "lat": 30.242124,
            "lng": 109.502029
        },
        "ad_info": {
            "adcode": 422801,
            "province": "湖北省",
            "city": "恩施土家族苗族自治州",
            "district": "恩施市"
        }
    },
    {
        "id": "14602566162147187335",
        "title": "公共厕所",
        "address": "湖北省恩施土家族苗族自治州来凤县凤翔大道辅路与蓝河路交叉口东北40米",
        "tel": "",
        "category": "基础设施:公共设施:公共厕所",
        "type": 0,
        "location": {
            "lat": 29.498473,
            "lng": 109.406361
        },
        "ad_info": {
            "adcode": 422827,
            "province": "湖北省",
            "city": "恩施土家族苗族自治州",
            "district": "来凤县"
        }
    },
    {
        "id": "15344164503763544564",
        "title": "公共厕所",
        "address": "湖北省恩施土家族苗族自治州宣恩县建设路1号商场二楼",
        "tel": "",
        "category": "基础设施:公共设施:公共厕所",
        "type": 0,
        "location": {
            "lat": 29.990258,
            "lng": 109.482219
        },
        "ad_info": {
            "adcode": 422825,
            "province": "湖北省",
            "city": "恩施土家族苗族自治州",
            "district": "宣恩县"
        }
    },
    {
        "id": "611904409811484426",
        "title": "公共厕所",
        "address": "湖北省恩施土家族苗族自治州建始县G318高坪站站前广场(沪聂线)",
        "tel": "",
        "category": "基础设施:公共设施:公共厕所",
        "type": 0,
        "location": {
            "lat": 30.663949,
            "lng": 110.091164
        },
        "ad_info": {
            "adcode": 422822,
            "province": "湖北省",
            "city": "恩施土家族苗族自治州",
            "district": "建始县"
        }
    },
    {
        "id": "11388791696652684953",
        "title": "朝阳坡停车区公共厕所",
        "address": "湖北省恩施土家族苗族自治州恩施市G50沪渝高速与朝阳坡停车区交叉口东北340米",
        "tel": "",
        "category": "基础设施:公共设施:公共厕所",
        "type": 0,
        "location": {
            "lat": 30.46137,
            "lng": 109.661815
        },
        "ad_info": {
            "adcode": 422801,
            "province": "湖北省",
            "city": "恩施土家族苗族自治州",
            "district": "恩施市"
        }
    },
    {
        "id": "11209833517556721814",
        "title": "公共厕所",
        "address": "湖北省恩施土家族苗族自治州利川市Y100与杉王大道交叉口东南方向87米左右",
        "tel": "",
        "category": "基础设施:公共设施:公共厕所",
        "type": 0,
        "location": {
            "lat": 30.429402,
            "lng": 108.688914
        },
        "ad_info": {
            "adcode": 422802,
            "province": "湖北省",
            "city": "恩施土家族苗族自治州",
            "district": "利川市"
        }
    },
    {
        "id": "15150722527823768094",
        "title": "公共厕所",
        "address": "湖北省恩施土家族苗族自治州利川市G318与竹园大道交叉口正东方向1691米左右",
        "tel": "",
        "category": "基础设施:公共设施:公共厕所",
        "type": 0,
        "location": {
            "lat": 30.399624,
            "lng": 108.795687
        },
        "ad_info": {
            "adcode": 422802,
            "province": "湖北省",
            "city": "恩施土家族苗族自治州",
            "district": "利川市"
        }
    },
    {
        "id": "3963933550175828223",
        "title": "公共厕所",
        "address": "湖北省恩施土家族苗族自治州恩施市金桂大道恩施汽车客运中心站F1",
        "tel": "",
        "category": "基础设施:公共设施:公共厕所",
        "type": 0,
        "location": {
            "lat": 30.348136,
            "lng": 109.487511
        },
        "ad_info": {
            "adcode": 422801,
            "province": "湖北省",
            "city": "恩施土家族苗族自治州",
            "district": "恩施市"
        }
    },
    {
        "id": "2537586892913492018",
        "title": "派出所公共厕所",
        "address": "湖北省恩施土家族苗族自治州来凤县Y018与硚口路交叉口东南方向41米左右",
        "tel": "",
        "category": "基础设施:公共设施:公共厕所",
        "type": 0,
        "location": {
            "lat": 29.200889,
            "lng": 109.223869
        },
        "ad_info": {
            "adcode": 422827,
            "province": "湖北省",
            "city": "恩施土家族苗族自治州",
            "district": "来凤县"
        }
    },
    {
        "id": "13755206459620417451",
        "title": "公共厕所",
        "address": "湖北省恩施土家族苗族自治州利川市X001",
        "tel": "",
        "category": "基础设施:公共设施:公共厕所",
        "type": 0,
        "location": {
            "lat": 30.186931,
            "lng": 109.07872
        },
        "ad_info": {
            "adcode": 422802,
            "province": "湖北省",
            "city": "恩施土家族苗族自治州",
            "district": "利川市"
        }
    },
    {
        "id": "12485491569682493447",
        "title": "公共厕所",
        "address": "湖北省恩施土家族苗族自治州宣恩县和谐街与文源街交叉口东北方向63米左右",
        "tel": "",
        "category": "基础设施:公共设施:公共厕所",
        "type": 0,
        "location": {
            "lat": 29.870882,
            "lng": 109.316624
        },
        "ad_info": {
            "adcode": 422825,
            "province": "湖北省",
            "city": "恩施土家族苗族自治州",
            "district": "宣恩县"
        }
    },
    {
        "id": "13612664490040626051",
        "title": "公共厕所",
        "address": "湖北省恩施土家族苗族自治州巴东县沪渝高速与野三关互通交叉口西北方向278米左右",
        "tel": "",
        "category": "基础设施:公共设施:公共厕所",
        "type": 0,
        "location": {
            "lat": 30.615722,
            "lng": 110.331111
        },
        "ad_info": {
            "adcode": 422823,
            "province": "湖北省",
            "city": "恩施土家族苗族自治州",
            "district": "巴东县"
        }
    },
    {
        "id": "9171864704422178562",
        "title": "公共卫生间",
        "address": "湖北省恩施土家族苗族自治州恩施市Y095与望茅线交叉口东北方向68米左右",
        "tel": "",
        "category": "基础设施:公共设施:公共厕所",
        "type": 0,
        "location": {
            "lat": 30.3192,
            "lng": 109.445595
        },
        "ad_info": {
            "adcode": 422801,
            "province": "湖北省",
            "city": "恩施土家族苗族自治州",
            "district": "恩施市"
        }
    },
    {
        "id": "10911018873630945744",
        "title": "沙道沟服务区公共厕所",
        "address": "湖北省恩施土家族苗族自治州宣恩县中国石化高管公司恩施片区沙道沟服务区北加油站东侧140米",
        "tel": "",
        "category": "基础设施:公共设施:公共厕所",
        "type": 0,
        "location": {
            "lat": 29.674771,
            "lng": 109.542015
        },
        "ad_info": {
            "adcode": 422825,
            "province": "湖北省",
            "city": "恩施土家族苗族自治州",
            "district": "宣恩县"
        }
    },
    {
        "id": "3010567413925215695",
        "title": "公共厕所",
        "address": "湖北省恩施土家族苗族自治州建始县红二线与花李线交叉口东南方向301米左右",
        "tel": "",
        "category": "基础设施:公共设施:公共厕所",
        "type": 0,
        "location": {
            "lat": 30.388012,
            "lng": 110.025391
        },
        "ad_info": {
            "adcode": 422822,
            "province": "湖北省",
            "city": "恩施土家族苗族自治州",
            "district": "建始县"
        }
    },
    {
        "id": "15705288558078172544",
        "title": "公共厕所",
        "address": "湖北省恩施土家族苗族自治州利川市体育街与南环大道交叉口正南方向168米左右",
        "tel": "",
        "category": "基础设施:公共设施:公共厕所",
        "type": 0,
        "location": {
            "lat": 30.278923,
            "lng": 108.941028
        },
        "ad_info": {
            "adcode": 422802,
            "province": "湖北省",
            "city": "恩施土家族苗族自治州",
            "district": "利川市"
        }
    },
    {
        "id": "4188282144775697833",
        "title": "公共厕所",
        "address": "湖北省恩施土家族苗族自治州利川市栖溪谷度假村东侧220米",
        "tel": "",
        "category": "基础设施:公共设施:公共厕所",
        "type": 0,
        "location": {
            "lat": 30.437814,
            "lng": 108.848355
        },
        "ad_info": {
            "adcode": 422802,
            "province": "湖北省",
            "city": "恩施土家族苗族自治州",
            "district": "利川市"
        }
    },
    {
        "id": "10253011184604652825",
        "title": "恩施停车区公共厕所",
        "address": "湖北省恩施土家族苗族自治州恩施市G6911安来高速与恩施停车区交叉口西南360米",
        "tel": "",
        "category": "基础设施:公共设施:公共厕所",
        "type": 0,
        "location": {
            "lat": 30.326202,
            "lng": 109.457901
        },
        "ad_info": {
            "adcode": 422801,
            "province": "湖北省",
            "city": "恩施土家族苗族自治州",
            "district": "恩施市"
        }
    },
    {
        "id": "15310851438627676498",
        "title": "公共厕所",
        "address": "湖北省恩施土家族苗族自治州恩施市龙洞河路18号对面公园",
        "tel": "",
        "category": "基础设施:公共设施:公共厕所",
        "type": 0,
        "location": {
            "lat": 30.290311,
            "lng": 109.503673
        },
        "ad_info": {
            "adcode": 422801,
            "province": "湖北省",
            "city": "恩施土家族苗族自治州",
            "district": "恩施市"
        }
    },
    {
        "id": "12511268955128516070",
        "title": "椿木营乡公共厕所",
        "address": "湖北省恩施土家族苗族自治州宣恩县国知街与学苑巷交叉口正西方向55米左右",
        "tel": "",
        "category": "基础设施:公共设施:公共厕所",
        "type": 0,
        "location": {
            "lat": 30.053011,
            "lng": 109.830893
        },
        "ad_info": {
            "adcode": 422825,
            "province": "湖北省",
            "city": "恩施土家族苗族自治州",
            "district": "宣恩县"
        }
    },
    {
        "id": "11828926449625164072",
        "title": "恩施服务区公共厕所",
        "address": "湖北省恩施土家族苗族自治州恩施市G50沪渝高速与恩施服务区交叉口西420米",
        "tel": "",
        "category": "基础设施:公共设施:公共厕所",
        "type": 0,
        "location": {
            "lat": 30.242124,
            "lng": 109.502029
        },
        "ad_info": {
            "adcode": 422801,
            "province": "湖北省",
            "city": "恩施土家族苗族自治州",
            "district": "恩施市"
        }
    }
]