[
    {
        "id": "2878870382330336335",
        "title": "公共厕所",
        "address": "江西省抚州市临川区建设路与龙津路交叉口东南方向100米左右",
        "tel": "",
        "category": "基础设施:公共设施:公共厕所",
        "type": 0,
        "location": {
            "lat": 27.936432,
            "lng": 116.30113
        },
        "ad_info": {
            "adcode": 361002,
            "province": "江西省",
            "city": "抚州市",
            "district": "临川区"
        }
    },
    {
        "id": "10681382903176858800",
        "title": "公共厕所",
        "address": "江西省抚州市临川区中洲堤路与横街交叉口正西方向134米左右",
        "tel": "",
        "category": "基础设施:公共设施:公共厕所",
        "type": 0,
        "location": {
            "lat": 27.999505,
            "lng": 116.368808
        },
        "ad_info": {
            "adcode": 361002,
            "province": "江西省",
            "city": "抚州市",
            "district": "临川区"
        }
    },
    {
        "id": "17089342506373690542",
        "title": "公共厕所",
        "address": "江西省抚州市临川区临川大道与抚临路交叉口东北方向47米左右",
        "tel": "",
        "category": "基础设施:公共设施:公共厕所",
        "type": 0,
        "location": {
            "lat": 27.97217,
            "lng": 116.35273
        },
        "ad_info": {
            "adcode": 361002,
            "province": "江西省",
            "city": "抚州市",
            "district": "临川区"
        }
    },
    {
        "id": "12465250240600498953",
        "title": "公共厕所",
        "address": "江西省抚州市宜黄县河东大道135号",
        "tel": "",
        "category": "基础设施:公共设施:公共厕所",
        "type": 0,
        "location": {
            "lat": 27.551069,
            "lng": 116.232018
        },
        "ad_info": {
            "adcode": 361026,
            "province": "江西省",
            "city": "抚州市",
            "district": "宜黄县"
        }
    },
    {
        "id": "770634727958087970",
        "title": "公共厕所",
        "address": "江西省抚州市临川区体育路与赣东大道交叉口正西方向188米左右",
        "tel": "",
        "category": "基础设施:公共设施:公共厕所",
        "type": 0,
        "location": {
            "lat": 27.979846,
            "lng": 116.358395
        },
        "ad_info": {
            "adcode": 361002,
            "province": "江西省",
            "city": "抚州市",
            "district": "临川区"
        }
    },
    {
        "id": "16008110594683469950",
        "title": "公共厕所",
        "address": "江西省抚州市临川区临川大道与金巢大道交叉口西北方向39米左右",
        "tel": "",
        "category": "基础设施:公共设施:公共厕所",
        "type": 0,
        "location": {
            "lat": 27.972262,
            "lng": 116.365593
        },
        "ad_info": {
            "adcode": 361002,
            "province": "江西省",
            "city": "抚州市",
            "district": "临川区"
        }
    },
    {
        "id": "3439130542525259382",
        "title": "公共厕所",
        "address": "江西省抚州市临川区临川大道与文昌大道交叉口东南方向204米左右",
        "tel": "",
        "category": "基础设施:公共设施:公共厕所",
        "type": 0,
        "location": {
            "lat": 27.969874,
            "lng": 116.378718
        },
        "ad_info": {
            "adcode": 361002,
            "province": "江西省",
            "city": "抚州市",
            "district": "临川区"
        }
    },
    {
        "id": "17780831731908435204",
        "title": "公共厕所",
        "address": "江西省抚州市临川区中轴东路与赣东明珠路交叉口正北方向80米左右",
        "tel": "",
        "category": "基础设施:公共设施:公共厕所",
        "type": 0,
        "location": {
            "lat": 27.95604,
            "lng": 116.358789
        },
        "ad_info": {
            "adcode": 361002,
            "province": "江西省",
            "city": "抚州市",
            "district": "临川区"
        }
    },
    {
        "id": "11257997702393577835",
        "title": "公共厕所",
        "address": "江西省抚州市临川区河滨路与环城南路交叉口正南方向300米左右",
        "tel": "",
        "category": "基础设施:公共设施:公共厕所",
        "type": 0,
        "location": {
            "lat": 27.984514,
            "lng": 116.367815
        },
        "ad_info": {
            "adcode": 361002,
            "province": "江西省",
            "city": "抚州市",
            "district": "临川区"
        }
    },
    {
        "id": "17787396880503072088",
        "title": "公共厕所",
        "address": "江西省抚州市临川区广场西路与饶家街交叉口西北方向33米左右",
        "tel": "",
        "category": "基础设施:公共设施:公共厕所",
        "type": 0,
        "location": {
            "lat": 27.937553,
            "lng": 116.309074
        },
        "ad_info": {
            "adcode": 361002,
            "province": "江西省",
            "city": "抚州市",
            "district": "临川区"
        }
    },
    {
        "id": "8276289726817357340",
        "title": "公共厕所",
        "address": "江西省抚州市临川区临川西大道与广场东路交叉口正西方向149米左右",
        "tel": "",
        "category": "基础设施:公共设施:公共厕所",
        "type": 0,
        "location": {
            "lat": 27.944131,
            "lng": 116.31276
        },
        "ad_info": {
            "adcode": 361002,
            "province": "江西省",
            "city": "抚州市",
            "district": "临川区"
        }
    },
    {
        "id": "3531416960738082087",
        "title": "公共厕所",
        "address": "江西省抚州市临川区大公路与州学岭路交叉口正北方向247米左右",
        "tel": "",
        "category": "基础设施:公共设施:公共厕所",
        "type": 0,
        "location": {
            "lat": 27.998851,
            "lng": 116.36251
        },
        "ad_info": {
            "adcode": 361002,
            "province": "江西省",
            "city": "抚州市",
            "district": "临川区"
        }
    },
    {
        "id": "17414417186042126640",
        "title": "公共厕所",
        "address": "江西省抚州市临川区临川西大道与才都大道交叉口东北方向154米左右",
        "tel": "",
        "category": "基础设施:公共设施:公共厕所",
        "type": 0,
        "location": {
            "lat": 27.949177,
            "lng": 116.321269
        },
        "ad_info": {
            "adcode": 361002,
            "province": "江西省",
            "city": "抚州市",
            "district": "临川区"
        }
    },
    {
        "id": "7290385993925728649",
        "title": "公共厕所",
        "address": "江西省抚州市临川区北劳段与石抚线交叉口正西方向247米左右",
        "tel": "",
        "category": "基础设施:公共设施:公共厕所",
        "type": 0,
        "location": {
            "lat": 28.00021,
            "lng": 116.298611
        },
        "ad_info": {
            "adcode": 361002,
            "province": "江西省",
            "city": "抚州市",
            "district": "临川区"
        }
    },
    {
        "id": "9332873544217389625",
        "title": "公共厕所",
        "address": "江西省抚州市南丰县人民路与大桥路交叉口东北方向207米左右",
        "tel": "",
        "category": "基础设施:公共设施:公共厕所",
        "type": 0,
        "location": {
            "lat": 27.212044,
            "lng": 116.543951
        },
        "ad_info": {
            "adcode": 361023,
            "province": "江西省",
            "city": "抚州市",
            "district": "南丰县"
        }
    },
    {
        "id": "14007314010608618234",
        "title": "公共厕所",
        "address": "江西省抚州市临川区东临公路中国石油加油站(天顺黄栀子生态园东北)",
        "tel": "",
        "category": "基础设施:公共设施:公共厕所",
        "type": 0,
        "location": {
            "lat": 28.008613,
            "lng": 116.438647
        },
        "ad_info": {
            "adcode": 361002,
            "province": "江西省",
            "city": "抚州市",
            "district": "临川区"
        }
    },
    {
        "id": "8986455108122025068",
        "title": "公共厕所",
        "address": "江西省抚州市临川区伍家巷与大公路交叉口正西方向26米左右",
        "tel": "",
        "category": "基础设施:公共设施:公共厕所",
        "type": 0,
        "location": {
            "lat": 27.996056,
            "lng": 116.355971
        },
        "ad_info": {
            "adcode": 361002,
            "province": "江西省",
            "city": "抚州市",
            "district": "临川区"
        }
    },
    {
        "id": "11633216295936299662",
        "title": "公共厕所",
        "address": "江西省抚州市临川区S212与见贤路交叉口正西方向85米左右",
        "tel": "",
        "category": "基础设施:公共设施:公共厕所",
        "type": 0,
        "location": {
            "lat": 27.929672,
            "lng": 116.303066
        },
        "ad_info": {
            "adcode": 361002,
            "province": "江西省",
            "city": "抚州市",
            "district": "临川区"
        }
    },
    {
        "id": "4946914556489262763",
        "title": "公共厕所",
        "address": "江西省抚州市临川区Y063与临崇路交叉口正南方向223米左右",
        "tel": "",
        "category": "基础设施:公共设施:公共厕所",
        "type": 0,
        "location": {
            "lat": 27.91879,
            "lng": 116.279693
        },
        "ad_info": {
            "adcode": 361002,
            "province": "江西省",
            "city": "抚州市",
            "district": "临川区"
        }
    },
    {
        "id": "7445076609662394027",
        "title": "公共厕所",
        "address": "江西省抚州市临川区S212与见贤路交叉口西北方向88米左右",
        "tel": "",
        "category": "基础设施:公共设施:公共厕所",
        "type": 0,
        "location": {
            "lat": 27.930021,
            "lng": 116.303153
        },
        "ad_info": {
            "adcode": 361002,
            "province": "江西省",
            "city": "抚州市",
            "district": "临川区"
        }
    },
    {
        "id": "8030844788759549593",
        "title": "公共厕所",
        "address": "江西省抚州市临川区学府路与玉茗大道交叉口正东方向142米左右",
        "tel": "",
        "category": "基础设施:公共设施:公共厕所",
        "type": 0,
        "location": {
            "lat": 27.986655,
            "lng": 116.357113
        },
        "ad_info": {
            "adcode": 361002,
            "province": "江西省",
            "city": "抚州市",
            "district": "临川区"
        }
    },
    {
        "id": "9443556167110936628",
        "title": "公共厕所",
        "address": "江西省抚州市临川区大公路67号",
        "tel": "",
        "category": "基础设施:公共设施:公共厕所",
        "type": 0,
        "location": {
            "lat": 27.997425,
            "lng": 116.359909
        },
        "ad_info": {
            "adcode": 361002,
            "province": "江西省",
            "city": "抚州市",
            "district": "临川区"
        }
    },
    {
        "id": "16966271446373000828",
        "title": "公共厕所",
        "address": "江西省抚州市临川区南门路与贸易广场东路交叉口东北方向190米左右",
        "tel": "",
        "category": "基础设施:公共设施:公共厕所",
        "type": 0,
        "location": {
            "lat": 27.967028,
            "lng": 116.379871
        },
        "ad_info": {
            "adcode": 361002,
            "province": "江西省",
            "city": "抚州市",
            "district": "临川区"
        }
    },
    {
        "id": "2843351191154756297",
        "title": "公共厕所",
        "address": "江西省抚州市临川区中轴西路与赣东明珠路交叉口西北方向89米左右",
        "tel": "",
        "category": "基础设施:公共设施:公共厕所",
        "type": 0,
        "location": {
            "lat": 27.95606,
            "lng": 116.357018
        },
        "ad_info": {
            "adcode": 361002,
            "province": "江西省",
            "city": "抚州市",
            "district": "临川区"
        }
    },
    {
        "id": "1971489218504352320",
        "title": "公共厕所",
        "address": "江西省抚州市资溪县建设东路16号",
        "tel": "",
        "category": "基础设施:公共设施:公共厕所",
        "type": 0,
        "location": {
            "lat": 27.713089,
            "lng": 117.079249
        },
        "ad_info": {
            "adcode": 361028,
            "province": "江西省",
            "city": "抚州市",
            "district": "资溪县"
        }
    },
    {
        "id": "12488246025398841341",
        "title": "公共厕所",
        "address": "江西省抚州市临川区四眼井路与赣东大道交叉口正西方向126米左右",
        "tel": "",
        "category": "基础设施:公共设施:公共厕所",
        "type": 0,
        "location": {
            "lat": 27.999937,
            "lng": 116.356745
        },
        "ad_info": {
            "adcode": 361002,
            "province": "江西省",
            "city": "抚州市",
            "district": "临川区"
        }
    },
    {
        "id": "4587981191957501732",
        "title": "公共厕所",
        "address": "江西省抚州市临川区东临环城高速与抚州东临环城交叉口东北方向662米左右",
        "tel": "",
        "category": "基础设施:公共设施:公共厕所",
        "type": 0,
        "location": {
            "lat": 27.984123,
            "lng": 116.479503
        },
        "ad_info": {
            "adcode": 361002,
            "province": "江西省",
            "city": "抚州市",
            "district": "临川区"
        }
    },
    {
        "id": "2590331130158825044",
        "title": "公共厕所",
        "address": "江西省抚州市临川区晏殊大道与环城北路交叉口正东方向156米左右",
        "tel": "",
        "category": "基础设施:公共设施:公共厕所",
        "type": 0,
        "location": {
            "lat": 28.003215,
            "lng": 116.347813
        },
        "ad_info": {
            "adcode": 361002,
            "province": "江西省",
            "city": "抚州市",
            "district": "临川区"
        }
    },
    {
        "id": "15535406893806770091",
        "title": "公共厕所",
        "address": "江西省抚州市资溪县资溪站",
        "tel": "",
        "category": "基础设施:公共设施:公共厕所",
        "type": 0,
        "location": {
            "lat": 27.721417,
            "lng": 117.078588
        },
        "ad_info": {
            "adcode": 361028,
            "province": "江西省",
            "city": "抚州市",
            "district": "资溪县"
        }
    },
    {
        "id": "10462025828258514673",
        "title": "公共厕所",
        "address": "江西省抚州市临川区革命烈士纪念馆东北侧120米",
        "tel": "",
        "category": "基础设施:公共设施:公共厕所",
        "type": 0,
        "location": {
            "lat": 27.92874,
            "lng": 116.39766
        },
        "ad_info": {
            "adcode": 361002,
            "province": "江西省",
            "city": "抚州市",
            "district": "临川区"
        }
    },
    {
        "id": "6376462277373924104",
        "title": "公共厕所",
        "address": "江西省抚州市宜黄县凤冈镇宜黄县-县医院",
        "tel": "",
        "category": "基础设施:公共设施:公共厕所",
        "type": 0,
        "location": {
            "lat": 27.54286,
            "lng": 116.221971
        },
        "ad_info": {
            "adcode": 361026,
            "province": "江西省",
            "city": "抚州市",
            "district": "宜黄县"
        }
    },
    {
        "id": "15748750082261181279",
        "title": "公共厕所",
        "address": "江西省抚州市临川区抚河大道与晏殊大道交叉口东北方向71米左右",
        "tel": "",
        "category": "基础设施:公共设施:公共厕所",
        "type": 0,
        "location": {
            "lat": 28.007685,
            "lng": 116.346938
        },
        "ad_info": {
            "adcode": 361002,
            "province": "江西省",
            "city": "抚州市",
            "district": "临川区"
        }
    },
    {
        "id": "16001479647298143639",
        "title": "公共厕所",
        "address": "江西省抚州市临川区S312与荣垦段交叉口正北方向1471米左右",
        "tel": "",
        "category": "基础设施:公共设施:公共厕所",
        "type": 0,
        "location": {
            "lat": 27.726026,
            "lng": 116.431909
        },
        "ad_info": {
            "adcode": 361002,
            "province": "江西省",
            "city": "抚州市",
            "district": "临川区"
        }
    },
    {
        "id": "18198610810581885610",
        "title": "公共厕所",
        "address": "江西省抚州市南丰县南丰交通路口腔门诊西南侧110米",
        "tel": "",
        "category": "基础设施:公共设施:公共厕所",
        "type": 0,
        "location": {
            "lat": 27.216308,
            "lng": 116.542322
        },
        "ad_info": {
            "adcode": 361023,
            "province": "江西省",
            "city": "抚州市",
            "district": "南丰县"
        }
    },
    {
        "id": "8274120740388872698",
        "title": "公共厕所",
        "address": "江西省抚州市黎川县京川大道与国安路交叉口正北方向81米左右",
        "tel": "",
        "category": "基础设施:公共设施:公共厕所",
        "type": 0,
        "location": {
            "lat": 27.27395,
            "lng": 116.904993
        },
        "ad_info": {
            "adcode": 361022,
            "province": "江西省",
            "city": "抚州市",
            "district": "黎川县"
        }
    },
    {
        "id": "3747624424372428966",
        "title": "公共厕所",
        "address": "江西省抚州市黎川县禄山公园登山步道",
        "tel": "",
        "category": "基础设施:公共设施:公共厕所",
        "type": 0,
        "location": {
            "lat": 27.280025,
            "lng": 116.909087
        },
        "ad_info": {
            "adcode": 361022,
            "province": "江西省",
            "city": "抚州市",
            "district": "黎川县"
        }
    },
    {
        "id": "15649757849242734307",
        "title": "公共厕所",
        "address": "江西省抚州市南丰县G206与白长线交叉口西北方向861米左右",
        "tel": "",
        "category": "基础设施:公共设施:公共厕所",
        "type": 0,
        "location": {
            "lat": 27.052995,
            "lng": 116.432641
        },
        "ad_info": {
            "adcode": 361023,
            "province": "江西省",
            "city": "抚州市",
            "district": "南丰县"
        }
    },
    {
        "id": "15628236717604089350",
        "title": "公共厕所",
        "address": "江西省抚州市资溪县御龙湾景区内",
        "tel": "",
        "category": "基础设施:公共设施:公共厕所",
        "type": 0,
        "location": {
            "lat": 27.829055,
            "lng": 117.128007
        },
        "ad_info": {
            "adcode": 361028,
            "province": "江西省",
            "city": "抚州市",
            "district": "资溪县"
        }
    },
    {
        "id": "17704695013142206379",
        "title": "公共厕所",
        "address": "江西省抚州市临川区管家村附近",
        "tel": "",
        "category": "基础设施:公共设施:公共厕所",
        "type": 0,
        "location": {
            "lat": 28.144706,
            "lng": 116.21402
        },
        "ad_info": {
            "adcode": 361002,
            "province": "江西省",
            "city": "抚州市",
            "district": "临川区"
        }
    },
    {
        "id": "18241742800127754942",
        "title": "公共厕所",
        "address": "江西省抚州市临川区浒溪小学北侧",
        "tel": "",
        "category": "基础设施:公共设施:公共厕所",
        "type": 0,
        "location": {
            "lat": 28.099296,
            "lng": 116.279821
        },
        "ad_info": {
            "adcode": 361002,
            "province": "江西省",
            "city": "抚州市",
            "district": "临川区"
        }
    },
    {
        "id": "18198610810581885610",
        "title": "公共厕所",
        "address": "江西省抚州市南丰县南丰交通路口腔门诊西南侧110米",
        "tel": "",
        "category": "基础设施:公共设施:公共厕所",
        "type": 0,
        "location": {
            "lat": 27.216308,
            "lng": 116.542322
        },
        "ad_info": {
            "adcode": 361023,
            "province": "江西省",
            "city": "抚州市",
            "district": "南丰县"
        }
    },
    {
        "id": "16001479647298143639",
        "title": "公共厕所",
        "address": "江西省抚州市临川区S312与荣垦段交叉口正北方向1471米左右",
        "tel": "",
        "category": "基础设施:公共设施:公共厕所",
        "type": 0,
        "location": {
            "lat": 27.726026,
            "lng": 116.431909
        },
        "ad_info": {
            "adcode": 361002,
            "province": "江西省",
            "city": "抚州市",
            "district": "临川区"
        }
    },
    {
        "id": "1290949000722506701",
        "title": "公共厕所",
        "address": "江西省抚州市临川区福银高速与罗针互通交叉口东北方向1157米左右",
        "tel": "",
        "category": "基础设施:公共设施:公共厕所",
        "type": 0,
        "location": {
            "lat": 28.130751,
            "lng": 116.272477
        },
        "ad_info": {
            "adcode": 361002,
            "province": "江西省",
            "city": "抚州市",
            "district": "临川区"
        }
    },
    {
        "id": "7618417564973487631",
        "title": "公共厕所",
        "address": "江西省抚州市乐安县广场路与烈士路交叉口西北方向217米左右",
        "tel": "",
        "category": "基础设施:公共设施:公共厕所",
        "type": 0,
        "location": {
            "lat": 27.425342,
            "lng": 115.839642
        },
        "ad_info": {
            "adcode": 361025,
            "province": "江西省",
            "city": "抚州市",
            "district": "乐安县"
        }
    },
    {
        "id": "15628236717604089350",
        "title": "公共厕所",
        "address": "江西省抚州市资溪县御龙湾景区内",
        "tel": "",
        "category": "基础设施:公共设施:公共厕所",
        "type": 0,
        "location": {
            "lat": 27.829055,
            "lng": 117.128007
        },
        "ad_info": {
            "adcode": 361028,
            "province": "江西省",
            "city": "抚州市",
            "district": "资溪县"
        }
    },
    {
        "id": "15649757849242734307",
        "title": "公共厕所",
        "address": "江西省抚州市南丰县G206与白长线交叉口西北方向861米左右",
        "tel": "",
        "category": "基础设施:公共设施:公共厕所",
        "type": 0,
        "location": {
            "lat": 27.052995,
            "lng": 116.432641
        },
        "ad_info": {
            "adcode": 361023,
            "province": "江西省",
            "city": "抚州市",
            "district": "南丰县"
        }
    },
    {
        "id": "17704695013142206379",
        "title": "公共厕所",
        "address": "江西省抚州市临川区管家村附近",
        "tel": "",
        "category": "基础设施:公共设施:公共厕所",
        "type": 0,
        "location": {
            "lat": 28.144706,
            "lng": 116.21402
        },
        "ad_info": {
            "adcode": 361002,
            "province": "江西省",
            "city": "抚州市",
            "district": "临川区"
        }
    },
    {
        "id": "18241742800127754942",
        "title": "公共厕所",
        "address": "江西省抚州市临川区浒溪小学北侧",
        "tel": "",
        "category": "基础设施:公共设施:公共厕所",
        "type": 0,
        "location": {
            "lat": 28.099296,
            "lng": 116.279821
        },
        "ad_info": {
            "adcode": 361002,
            "province": "江西省",
            "city": "抚州市",
            "district": "临川区"
        }
    },
    {
        "id": "9337659551269410276",
        "title": "公共厕所",
        "address": "江西省抚州市临川区810县道与火詹线交叉口东380米",
        "tel": "",
        "category": "基础设施:公共设施:公共厕所",
        "type": 0,
        "location": {
            "lat": 27.90718,
            "lng": 116.224482
        },
        "ad_info": {
            "adcode": 361002,
            "province": "江西省",
            "city": "抚州市",
            "district": "临川区"
        }
    },
    {
        "id": "16725051667780046862",
        "title": "公共厕所",
        "address": "江西省抚州市临川区X881与新城大道交叉口正东方向1087米左右",
        "tel": "",
        "category": "基础设施:公共设施:公共厕所",
        "type": 0,
        "location": {
            "lat": 27.974195,
            "lng": 116.175075
        },
        "ad_info": {
            "adcode": 361002,
            "province": "江西省",
            "city": "抚州市",
            "district": "临川区"
        }
    },
    {
        "id": "4276306786519117715",
        "title": "公共厕所",
        "address": "江西省抚州市黎川县黎川陶瓷园东南侧250米",
        "tel": "",
        "category": "基础设施:公共设施:公共厕所",
        "type": 0,
        "location": {
            "lat": 27.254137,
            "lng": 116.951115
        },
        "ad_info": {
            "adcode": 361022,
            "province": "江西省",
            "city": "抚州市",
            "district": "黎川县"
        }
    },
    {
        "id": "11272090806301679025",
        "title": "公共厕所",
        "address": "江西省抚州市宜黄县G236与G322交叉口正北方向70米左右",
        "tel": "",
        "category": "基础设施:公共设施:公共厕所",
        "type": 0,
        "location": {
            "lat": 27.291175,
            "lng": 116.130153
        },
        "ad_info": {
            "adcode": 361026,
            "province": "江西省",
            "city": "抚州市",
            "district": "宜黄县"
        }
    },
    {
        "id": "16315898659844832822",
        "title": "公共厕所",
        "address": "江西省抚州市宜黄县六里铺路与叔献路交叉口正东方向310米左右",
        "tel": "",
        "category": "基础设施:公共设施:公共厕所",
        "type": 0,
        "location": {
            "lat": 27.560233,
            "lng": 116.229178
        },
        "ad_info": {
            "adcode": 361026,
            "province": "江西省",
            "city": "抚州市",
            "district": "宜黄县"
        }
    },
    {
        "id": "9689003188245162906",
        "title": "公共厕所",
        "address": "江西省抚州市临川区S212与白梅段交叉口正西方向1869米左右",
        "tel": "",
        "category": "基础设施:公共设施:公共厕所",
        "type": 0,
        "location": {
            "lat": 27.850133,
            "lng": 116.426042
        },
        "ad_info": {
            "adcode": 361002,
            "province": "江西省",
            "city": "抚州市",
            "district": "临川区"
        }
    },
    {
        "id": "11636849920392653035",
        "title": "公共厕所",
        "address": "江西省抚州市资溪县S205与泰伯大道交叉口西南方向40米左右",
        "tel": "",
        "category": "基础设施:公共设施:公共厕所",
        "type": 0,
        "location": {
            "lat": 27.717201,
            "lng": 117.064945
        },
        "ad_info": {
            "adcode": 361028,
            "province": "江西省",
            "city": "抚州市",
            "district": "资溪县"
        }
    },
    {
        "id": "16374806698463155634",
        "title": "公共厕所",
        "address": "江西省抚州市崇仁县南环路与育才路交叉口正西方向500米左右",
        "tel": "",
        "category": "基础设施:公共设施:公共厕所",
        "type": 0,
        "location": {
            "lat": 27.754745,
            "lng": 116.049888
        },
        "ad_info": {
            "adcode": 361024,
            "province": "江西省",
            "city": "抚州市",
            "district": "崇仁县"
        }
    },
    {
        "id": "607258279472084023",
        "title": "公共厕所",
        "address": "江西省抚州市南丰县潭湖段",
        "tel": "",
        "category": "基础设施:公共设施:公共厕所",
        "type": 0,
        "location": {
            "lat": 27.132784,
            "lng": 116.665257
        },
        "ad_info": {
            "adcode": 361023,
            "province": "江西省",
            "city": "抚州市",
            "district": "南丰县"
        }
    },
    {
        "id": "1765980632624034199",
        "title": "公共厕所",
        "address": "江西省抚州市南城县建昌大道与花楼下北路交叉口正西方向32米左右",
        "tel": "",
        "category": "基础设施:公共设施:公共厕所",
        "type": 0,
        "location": {
            "lat": 27.553523,
            "lng": 116.635319
        },
        "ad_info": {
            "adcode": 361021,
            "province": "江西省",
            "city": "抚州市",
            "district": "南城县"
        }
    },
    {
        "id": "14872293388076634908",
        "title": "公共厕所",
        "address": "江西省抚州市资溪县X953与汗黄段交叉口正南方向1030米左右",
        "tel": "",
        "category": "基础设施:公共设施:公共厕所",
        "type": 0,
        "location": {
            "lat": 27.734658,
            "lng": 116.893098
        },
        "ad_info": {
            "adcode": 361028,
            "province": "江西省",
            "city": "抚州市",
            "district": "资溪县"
        }
    },
    {
        "id": "15405236834510420410",
        "title": "公共厕所",
        "address": "江西省抚州市资溪县三江路与迎宾大道交叉口东北方向226米左右",
        "tel": "",
        "category": "基础设施:公共设施:公共厕所",
        "type": 0,
        "location": {
            "lat": 27.71392,
            "lng": 117.064467
        },
        "ad_info": {
            "adcode": 361028,
            "province": "江西省",
            "city": "抚州市",
            "district": "资溪县"
        }
    },
    {
        "id": "8028518244796736479",
        "title": "公共厕所",
        "address": "江西省抚州市乐安县X925与公溪大道交叉口正北方向59米左右",
        "tel": "",
        "category": "基础设施:公共设施:公共厕所",
        "type": 0,
        "location": {
            "lat": 27.662075,
            "lng": 115.917673
        },
        "ad_info": {
            "adcode": 361025,
            "province": "江西省",
            "city": "抚州市",
            "district": "乐安县"
        }
    },
    {
        "id": "9586400611122885953",
        "title": "公共厕所",
        "address": "江西省抚州市金溪县白马大道与象山北路交叉口正西方向395米左右",
        "tel": "",
        "category": "基础设施:公共设施:公共厕所",
        "type": 0,
        "location": {
            "lat": 27.916559,
            "lng": 116.776776
        },
        "ad_info": {
            "adcode": 361027,
            "province": "江西省",
            "city": "抚州市",
            "district": "金溪县"
        }
    },
    {
        "id": "3332658060828863606",
        "title": "公共厕所",
        "address": "江西省抚州市金溪县东墅路锦绣公园内",
        "tel": "",
        "category": "基础设施:公共设施:公共厕所",
        "type": 0,
        "location": {
            "lat": 27.92204,
            "lng": 116.75476
        },
        "ad_info": {
            "adcode": 361027,
            "province": "江西省",
            "city": "抚州市",
            "district": "金溪县"
        }
    },
    {
        "id": "12076223465573736579",
        "title": "公共厕所",
        "address": "江西省抚州市广昌县914乡道附近驿前镇姚西村老年体育协会附近",
        "tel": "",
        "category": "基础设施:公共设施:公共厕所",
        "type": 0,
        "location": {
            "lat": 26.539598,
            "lng": 116.300553
        },
        "ad_info": {
            "adcode": 361030,
            "province": "江西省",
            "city": "抚州市",
            "district": "广昌县"
        }
    },
    {
        "id": "1765980632624034199",
        "title": "公共厕所",
        "address": "江西省抚州市南城县建昌大道与花楼下北路交叉口正西方向32米左右",
        "tel": "",
        "category": "基础设施:公共设施:公共厕所",
        "type": 0,
        "location": {
            "lat": 27.553523,
            "lng": 116.635319
        },
        "ad_info": {
            "adcode": 361021,
            "province": "江西省",
            "city": "抚州市",
            "district": "南城县"
        }
    },
    {
        "id": "18247273350970313873",
        "title": "公共厕所",
        "address": "江西省抚州市广昌县广宁线与龙下段交叉口西北方向535米左右",
        "tel": "",
        "category": "基础设施:公共设施:公共厕所",
        "type": 0,
        "location": {
            "lat": 26.7589,
            "lng": 116.266166
        },
        "ad_info": {
            "adcode": 361030,
            "province": "江西省",
            "city": "抚州市",
            "district": "广昌县"
        }
    },
    {
        "id": "9784173525786603948",
        "title": "公共厕所",
        "address": "江西省抚州市广昌县G528与X973交叉口西北方向125米左右",
        "tel": "",
        "category": "基础设施:公共设施:公共厕所",
        "type": 0,
        "location": {
            "lat": 26.830541,
            "lng": 116.410398
        },
        "ad_info": {
            "adcode": 361030,
            "province": "江西省",
            "city": "抚州市",
            "district": "广昌县"
        }
    },
    {
        "id": "14111982014624720679",
        "title": "公共厕所",
        "address": "江西省抚州市乐安县G238与牛万段交叉口西南方向1445米左右",
        "tel": "",
        "category": "基础设施:公共设施:公共厕所",
        "type": 0,
        "location": {
            "lat": 27.272778,
            "lng": 115.713451
        },
        "ad_info": {
            "adcode": 361025,
            "province": "江西省",
            "city": "抚州市",
            "district": "乐安县"
        }
    },
    {
        "id": "11079500831542080688",
        "title": "公共厕所",
        "address": "江西省抚州市东乡区朝阳大道与青井路交叉口西南方向75米左右",
        "tel": "",
        "category": "基础设施:公共设施:公共厕所",
        "type": 0,
        "location": {
            "lat": 28.230211,
            "lng": 116.626451
        },
        "ad_info": {
            "adcode": 361003,
            "province": "江西省",
            "city": "抚州市",
            "district": "东乡区"
        }
    },
    {
        "id": "1418943332489219846",
        "title": "公共厕所",
        "address": "江西省抚州市广昌县桑榆康乐园",
        "tel": "",
        "category": "基础设施:公共设施:公共厕所",
        "type": 0,
        "location": {
            "lat": 26.833988,
            "lng": 116.323879
        },
        "ad_info": {
            "adcode": 361030,
            "province": "江西省",
            "city": "抚州市",
            "district": "广昌县"
        }
    },
    {
        "id": "11889527040372561182",
        "title": "南丰装潢材料厕所",
        "address": "江西省抚州市南丰县桔苑北路96号",
        "tel": "",
        "category": "基础设施:公共设施:公共厕所",
        "type": 0,
        "location": {
            "lat": 27.216971,
            "lng": 116.527183
        },
        "ad_info": {
            "adcode": 361023,
            "province": "江西省",
            "city": "抚州市",
            "district": "南丰县"
        }
    },
    {
        "id": "7858826306381552353",
        "title": "公共厕所",
        "address": "江西省抚州市金溪县胜利路与象山南路交叉口东北方向14米左右",
        "tel": "",
        "category": "基础设施:公共设施:公共厕所",
        "type": 0,
        "location": {
            "lat": 27.894726,
            "lng": 116.776481
        },
        "ad_info": {
            "adcode": 361027,
            "province": "江西省",
            "city": "抚州市",
            "district": "金溪县"
        }
    },
    {
        "id": "3395980436172841986",
        "title": "公共厕所",
        "address": "江西省抚州市广昌县G206与S448交叉口东北方向1421米左右",
        "tel": "",
        "category": "基础设施:公共设施:公共厕所",
        "type": 0,
        "location": {
            "lat": 26.773425,
            "lng": 116.299103
        },
        "ad_info": {
            "adcode": 361030,
            "province": "江西省",
            "city": "抚州市",
            "district": "广昌县"
        }
    },
    {
        "id": "1758559044584642649",
        "title": "公共厕所",
        "address": "江西省抚州市崇仁县巴山城东新区社区卫生服务站西北侧210米",
        "tel": "",
        "category": "基础设施:公共设施:公共厕所",
        "type": 0,
        "location": {
            "lat": 27.753612,
            "lng": 116.078036
        },
        "ad_info": {
            "adcode": 361024,
            "province": "江西省",
            "city": "抚州市",
            "district": "崇仁县"
        }
    },
    {
        "id": "17602685767580423996",
        "title": "公共厕所",
        "address": "江西省抚州市南丰县南丰县环保局(胜利路北)",
        "tel": "",
        "category": "基础设施:公共设施:公共厕所",
        "type": 0,
        "location": {
            "lat": 27.206045,
            "lng": 116.53245
        },
        "ad_info": {
            "adcode": 361023,
            "province": "江西省",
            "city": "抚州市",
            "district": "南丰县"
        }
    },
    {
        "id": "7581818642155666782",
        "title": "公共厕所",
        "address": "江西省抚州市临川区大公路204号",
        "tel": "",
        "category": "基础设施:公共设施:公共厕所",
        "type": 0,
        "location": {
            "lat": 27.995968,
            "lng": 116.355621
        },
        "ad_info": {
            "adcode": 361002,
            "province": "江西省",
            "city": "抚州市",
            "district": "临川区"
        }
    },
    {
        "id": "4404613892144577287",
        "title": "公共厕所",
        "address": "江西省抚州市南城县体育西路与体育路交叉口正北方向41米左右",
        "tel": "",
        "category": "基础设施:公共设施:公共厕所",
        "type": 0,
        "location": {
            "lat": 27.550721,
            "lng": 116.633807
        },
        "ad_info": {
            "adcode": 361021,
            "province": "江西省",
            "city": "抚州市",
            "district": "南城县"
        }
    },
    {
        "id": "15094006826530088904",
        "title": "公共厕所",
        "address": "江西省抚州市乐安县S312与戴麦段交叉口正南方向1132米左右",
        "tel": "",
        "category": "基础设施:公共设施:公共厕所",
        "type": 0,
        "location": {
            "lat": 27.536051,
            "lng": 115.708256
        },
        "ad_info": {
            "adcode": 361025,
            "province": "江西省",
            "city": "抚州市",
            "district": "乐安县"
        }
    },
    {
        "id": "9126974157681818629",
        "title": "公共厕所",
        "address": "江西省抚州市金溪县和谐大道与园湖南路交叉口正北方向253米左右",
        "tel": "",
        "category": "基础设施:公共设施:公共厕所",
        "type": 0,
        "location": {
            "lat": 27.909028,
            "lng": 116.759028
        },
        "ad_info": {
            "adcode": 361027,
            "province": "江西省",
            "city": "抚州市",
            "district": "金溪县"
        }
    },
    {
        "id": "1989127426452438384",
        "title": "公共厕所",
        "address": "江西省抚州市临川区南门路逸秀园(东北角)",
        "tel": "",
        "category": "基础设施:公共设施:公共厕所",
        "type": 0,
        "location": {
            "lat": 27.965317,
            "lng": 116.361426
        },
        "ad_info": {
            "adcode": 361002,
            "province": "江西省",
            "city": "抚州市",
            "district": "临川区"
        }
    },
    {
        "id": "14550804020391255088",
        "title": "公共厕所",
        "address": "江西省抚州市东乡区Y813与铜铜段交叉口东南方向538米左右",
        "tel": "",
        "category": "基础设施:公共设施:公共厕所",
        "type": 0,
        "location": {
            "lat": 28.274767,
            "lng": 116.647606
        },
        "ad_info": {
            "adcode": 361003,
            "province": "江西省",
            "city": "抚州市",
            "district": "东乡区"
        }
    },
    {
        "id": "6164653669811600003",
        "title": "公共厕所",
        "address": "江西省抚州市东乡区南英大道与王震大道交叉口正北方向160米左右",
        "tel": "",
        "category": "基础设施:公共设施:公共厕所",
        "type": 0,
        "location": {
            "lat": 28.226582,
            "lng": 116.578663
        },
        "ad_info": {
            "adcode": 361003,
            "province": "江西省",
            "city": "抚州市",
            "district": "东乡区"
        }
    },
    {
        "id": "3770687804942391900",
        "title": "公共厕所",
        "address": "江西省抚州市南城县南城互通南侧",
        "tel": "",
        "category": "基础设施:公共设施:公共厕所",
        "type": 0,
        "location": {
            "lat": 27.574526,
            "lng": 116.621742
        },
        "ad_info": {
            "adcode": 361021,
            "province": "江西省",
            "city": "抚州市",
            "district": "南城县"
        }
    },
    {
        "id": "12160175949454380267",
        "title": "公共厕所",
        "address": "江西省抚州市临川区外环西路中国石化加油站",
        "tel": "",
        "category": "基础设施:公共设施:公共厕所",
        "type": 0,
        "location": {
            "lat": 27.968266,
            "lng": 116.33416
        },
        "ad_info": {
            "adcode": 361002,
            "province": "江西省",
            "city": "抚州市",
            "district": "临川区"
        }
    },
    {
        "id": "3854932399091364844",
        "title": "公共厕所",
        "address": "江西省抚州市崇仁县马鞍镇中心小学东南侧220米",
        "tel": "",
        "category": "基础设施:公共设施:公共厕所",
        "type": 0,
        "location": {
            "lat": 27.737155,
            "lng": 115.920135
        },
        "ad_info": {
            "adcode": 361024,
            "province": "江西省",
            "city": "抚州市",
            "district": "崇仁县"
        }
    },
    {
        "id": "17703877064491354776",
        "title": "学府路垃圾中转站公共厕所",
        "address": "江西省抚州市临川区学府路抚州赣东学院羊城校区",
        "tel": "",
        "category": "基础设施:公共设施:公共厕所",
        "type": 0,
        "location": {
            "lat": 28.001152,
            "lng": 116.351341
        },
        "ad_info": {
            "adcode": 361002,
            "province": "江西省",
            "city": "抚州市",
            "district": "临川区"
        }
    },
    {
        "id": "16230740538944902669",
        "title": "公共厕所",
        "address": "江西省抚州市崇仁县站前东路与站前南路交叉口东北方向1067米左右",
        "tel": "",
        "category": "基础设施:公共设施:公共厕所",
        "type": 0,
        "location": {
            "lat": 27.781829,
            "lng": 116.064632
        },
        "ad_info": {
            "adcode": 361024,
            "province": "江西省",
            "city": "抚州市",
            "district": "崇仁县"
        }
    },
    {
        "id": "1104948080656973106",
        "title": "公共厕所",
        "address": "江西省抚州市东乡区恒安东路与恒安中路交叉口正西方向40米左右",
        "tel": "",
        "category": "基础设施:公共设施:公共厕所",
        "type": 0,
        "location": {
            "lat": 28.229436,
            "lng": 116.614176
        },
        "ad_info": {
            "adcode": 361003,
            "province": "江西省",
            "city": "抚州市",
            "district": "东乡区"
        }
    },
    {
        "id": "9347677520653911550",
        "title": "公共厕所",
        "address": "江西省抚州市南城县G206与Y161交叉口东北方向113米左右",
        "tel": "",
        "category": "基础设施:公共设施:公共厕所",
        "type": 0,
        "location": {
            "lat": 27.440855,
            "lng": 116.586928
        },
        "ad_info": {
            "adcode": 361021,
            "province": "江西省",
            "city": "抚州市",
            "district": "南城县"
        }
    },
    {
        "id": "13586842344496832083",
        "title": "抚州服务区公共厕所",
        "address": "江西省抚州市临川区S42东昌高速与抚州服务区交叉口东南280米",
        "tel": "",
        "category": "基础设施:公共设施:公共厕所",
        "type": 0,
        "location": {
            "lat": 28.047599,
            "lng": 116.302931
        },
        "ad_info": {
            "adcode": 361002,
            "province": "江西省",
            "city": "抚州市",
            "district": "临川区"
        }
    },
    {
        "id": "8306578507179074656",
        "title": "公共厕所",
        "address": "江西省抚州市东乡区恒安中路与舒同东路交叉口东北方向75米左右",
        "tel": "",
        "category": "基础设施:公共设施:公共厕所",
        "type": 0,
        "location": {
            "lat": 28.230731,
            "lng": 116.611961
        },
        "ad_info": {
            "adcode": 361003,
            "province": "江西省",
            "city": "抚州市",
            "district": "东乡区"
        }
    },
    {
        "id": "1763067768781327290",
        "title": "公共厕所",
        "address": "江西省抚州市东乡区凯旋路与建设路交叉口正北方向99米左右",
        "tel": "",
        "category": "基础设施:公共设施:公共厕所",
        "type": 0,
        "location": {
            "lat": 28.259999,
            "lng": 116.614198
        },
        "ad_info": {
            "adcode": 361003,
            "province": "江西省",
            "city": "抚州市",
            "district": "东乡区"
        }
    },
    {
        "id": "923513586373533077",
        "title": "公共厕所",
        "address": "江西省抚州市东乡区五星商业街与子山路交叉口正南方向59米左右",
        "tel": "",
        "category": "基础设施:公共设施:公共厕所",
        "type": 0,
        "location": {
            "lat": 28.244432,
            "lng": 116.604589
        },
        "ad_info": {
            "adcode": 361003,
            "province": "江西省",
            "city": "抚州市",
            "district": "东乡区"
        }
    },
    {
        "id": "10378795877153063538",
        "title": "公共厕所",
        "address": "江西省抚州市东乡区求学路与汝河北路交叉口正东方向25米左右",
        "tel": "",
        "category": "基础设施:公共设施:公共厕所",
        "type": 0,
        "location": {
            "lat": 28.238624,
            "lng": 116.614643
        },
        "ad_info": {
            "adcode": 361003,
            "province": "江西省",
            "city": "抚州市",
            "district": "东乡区"
        }
    },
    {
        "id": "15544881455831728091",
        "title": "公共厕所",
        "address": "江西省抚州市东乡区汝河北路与龙山大道交叉口正西方向100米左右",
        "tel": "",
        "category": "基础设施:公共设施:公共厕所",
        "type": 0,
        "location": {
            "lat": 28.234758,
            "lng": 116.604126
        },
        "ad_info": {
            "adcode": 361003,
            "province": "江西省",
            "city": "抚州市",
            "district": "东乡区"
        }
    },
    {
        "id": "7446985859251697773",
        "title": "大觉山服务区公共厕所",
        "address": "江西省抚州市资溪县大觉山服务区(抚吉高速公路南)",
        "tel": "",
        "category": "基础设施:公共设施:公共厕所",
        "type": 0,
        "location": {
            "lat": 27.79002,
            "lng": 116.880571
        },
        "ad_info": {
            "adcode": 361028,
            "province": "江西省",
            "city": "抚州市",
            "district": "资溪县"
        }
    },
    {
        "id": "11820712349549578028",
        "title": "公共厕所",
        "address": "江西省抚州市东乡区环城西路与东红路辅路交叉口东南40米",
        "tel": "",
        "category": "基础设施:公共设施:公共厕所",
        "type": 0,
        "location": {
            "lat": 28.230806,
            "lng": 116.595409
        },
        "ad_info": {
            "adcode": 361003,
            "province": "江西省",
            "city": "抚州市",
            "district": "东乡区"
        }
    },
    {
        "id": "5309663988751276063",
        "title": "黎川服务区公共厕所",
        "address": "江西省抚州市黎川县德胜街道与瓷平二路交叉口正北方向410米左右",
        "tel": "",
        "category": "基础设施:公共设施:公共厕所",
        "type": 0,
        "location": {
            "lat": 27.260434,
            "lng": 116.947188
        },
        "ad_info": {
            "adcode": 361022,
            "province": "江西省",
            "city": "抚州市",
            "district": "黎川县"
        }
    },
    {
        "id": "12478361768236810477",
        "title": "临川东服务区公共厕所",
        "address": "江西省抚州市临川区S312与扶贫路交叉口正西方向1318米左右",
        "tel": "",
        "category": "基础设施:公共设施:公共厕所",
        "type": 0,
        "location": {
            "lat": 27.883017,
            "lng": 116.557625
        },
        "ad_info": {
            "adcode": 361002,
            "province": "江西省",
            "city": "抚州市",
            "district": "临川区"
        }
    },
    {
        "id": "8688730150973261436",
        "title": "公共厕所",
        "address": "江西省抚州市东乡区半山路与环城东路交叉口正西方向126米左右",
        "tel": "",
        "category": "基础设施:公共设施:公共厕所",
        "type": 0,
        "location": {
            "lat": 28.226471,
            "lng": 116.60438
        },
        "ad_info": {
            "adcode": 361003,
            "province": "江西省",
            "city": "抚州市",
            "district": "东乡区"
        }
    },
    {
        "id": "6883142680810721702",
        "title": "黎川服务区第一公共厕所",
        "address": "江西省抚州市黎川县德胜街道与瓷平二路交叉口西北方向306米左右",
        "tel": "",
        "category": "基础设施:公共设施:公共厕所",
        "type": 0,
        "location": {
            "lat": 27.259355,
            "lng": 116.944571
        },
        "ad_info": {
            "adcode": 361022,
            "province": "江西省",
            "city": "抚州市",
            "district": "黎川县"
        }
    },
    {
        "id": "12504940431994970182",
        "title": "洗手间",
        "address": "江西省抚州市金溪县建屏北路与白马大道交叉口正南方向135米左右",
        "tel": "",
        "category": "基础设施:公共设施:公共厕所",
        "type": 0,
        "location": {
            "lat": 27.916166,
            "lng": 116.770905
        },
        "ad_info": {
            "adcode": 361027,
            "province": "江西省",
            "city": "抚州市",
            "district": "金溪县"
        }
    },
    {
        "id": "6887360226320735406",
        "title": "南丰服务区公共厕所",
        "address": "江西省抚州市南丰县济广高速鹰瑞段",
        "tel": "",
        "category": "基础设施:公共设施:公共厕所",
        "type": 0,
        "location": {
            "lat": 27.065966,
            "lng": 116.499738
        },
        "ad_info": {
            "adcode": 361023,
            "province": "江西省",
            "city": "抚州市",
            "district": "南丰县"
        }
    },
    {
        "id": "13188130971641781007",
        "title": "黎川服务区第二公共厕所",
        "address": "江西省抚州市黎川县潭溪乡芦陂福银高速公路黎川服务区",
        "tel": "",
        "category": "基础设施:公共设施:公共厕所",
        "type": 0,
        "location": {
            "lat": 27.259384,
            "lng": 116.945504
        },
        "ad_info": {
            "adcode": 361022,
            "province": "江西省",
            "city": "抚州市",
            "district": "黎川县"
        }
    },
    {
        "id": "12247245149149859386",
        "title": "旅游厕所(JX-FZ-0384)",
        "address": "江西省抚州市广昌县G206与振兴路交叉口正东方向219米左右",
        "tel": "",
        "category": "基础设施:公共设施:公共厕所",
        "type": 0,
        "location": {
            "lat": 26.624012,
            "lng": 116.345327
        },
        "ad_info": {
            "adcode": 361030,
            "province": "江西省",
            "city": "抚州市",
            "district": "广昌县"
        }
    },
    {
        "id": "11105567989741526065",
        "title": "大觉山服务区公共厕所",
        "address": "江西省抚州市资溪县抚吉高速大觉山服务区",
        "tel": "",
        "category": "基础设施:公共设施:公共厕所",
        "type": 0,
        "location": {
            "lat": 27.791316,
            "lng": 116.883153
        },
        "ad_info": {
            "adcode": 361028,
            "province": "江西省",
            "city": "抚州市",
            "district": "资溪县"
        }
    },
    {
        "id": "15158844387064467737",
        "title": "公共厕所",
        "address": "江西省抚州市广昌县团结路与大旺路交叉口西北方向87米左右",
        "tel": "",
        "category": "基础设施:公共设施:公共厕所",
        "type": 0,
        "location": {
            "lat": 26.82954,
            "lng": 116.32678
        },
        "ad_info": {
            "adcode": 361030,
            "province": "江西省",
            "city": "抚州市",
            "district": "广昌县"
        }
    },
    {
        "id": "14386374232123116452",
        "title": "广昌服务区公共厕所",
        "address": "江西省抚州市广昌县G206与驿河段交叉口东北方向1763米左右",
        "tel": "",
        "category": "基础设施:公共设施:公共厕所",
        "type": 0,
        "location": {
            "lat": 26.572272,
            "lng": 116.341633
        },
        "ad_info": {
            "adcode": 361030,
            "province": "江西省",
            "city": "抚州市",
            "district": "广昌县"
        }
    },
    {
        "id": "16126044649689449879",
        "title": "荆公路钧天垃圾中转站公共厕所",
        "address": "江西省抚州市临川区花家巷与荆公路交叉口正南方向56米左右",
        "tel": "",
        "category": "基础设施:公共设施:公共厕所",
        "type": 0,
        "location": {
            "lat": 27.986949,
            "lng": 116.362988
        },
        "ad_info": {
            "adcode": 361002,
            "province": "江西省",
            "city": "抚州市",
            "district": "临川区"
        }
    },
    {
        "id": "7882042094083402369",
        "title": "南城服务区公共厕所",
        "address": "江西省抚州市南城县南城服务区(济广高速公路东)",
        "tel": "",
        "category": "基础设施:公共设施:公共厕所",
        "type": 0,
        "location": {
            "lat": 27.471937,
            "lng": 116.647852
        },
        "ad_info": {
            "adcode": 361021,
            "province": "江西省",
            "city": "抚州市",
            "district": "南城县"
        }
    },
    {
        "id": "15712161733802589015",
        "title": "广昌服务区公共厕所",
        "address": "江西省抚州市广昌县G206与驿河段交叉口东北方向1846米左右",
        "tel": "",
        "category": "基础设施:公共设施:公共厕所",
        "type": 0,
        "location": {
            "lat": 26.570517,
            "lng": 116.343559
        },
        "ad_info": {
            "adcode": 361030,
            "province": "江西省",
            "city": "抚州市",
            "district": "广昌县"
        }
    },
    {
        "id": "5172055462428437219",
        "title": "广昌西服务区公共厕所",
        "address": "江西省抚州市广昌县中国石化江西抚州广昌西服务区南加油站西侧140米",
        "tel": "",
        "category": "基础设施:公共设施:公共厕所",
        "type": 0,
        "location": {
            "lat": 26.722827,
            "lng": 116.162753
        },
        "ad_info": {
            "adcode": 361030,
            "province": "江西省",
            "city": "抚州市",
            "district": "广昌县"
        }
    },
    {
        "id": "8946395395707591160",
        "title": "东乡服务区公共厕所",
        "address": "江西省抚州市东乡区沪昆高速公路",
        "tel": "",
        "category": "基础设施:公共设施:公共厕所",
        "type": 0,
        "location": {
            "lat": 28.2742,
            "lng": 116.528567
        },
        "ad_info": {
            "adcode": 361003,
            "province": "江西省",
            "city": "抚州市",
            "district": "东乡区"
        }
    },
    {
        "id": "16500644229805064640",
        "title": "相山服务区公共厕所",
        "address": "江西省抚州市崇仁县S433与朱鲁段交叉口正南方向986米左右",
        "tel": "",
        "category": "基础设施:公共设施:公共厕所",
        "type": 0,
        "location": {
            "lat": 27.476079,
            "lng": 115.973944
        },
        "ad_info": {
            "adcode": 361024,
            "province": "江西省",
            "city": "抚州市",
            "district": "崇仁县"
        }
    },
    {
        "id": "11729733218868493681",
        "title": "乐安服务区第一公共厕所",
        "address": "江西省抚州市乐安县服务区东北50米(昌韶高速公路西)",
        "tel": "",
        "category": "基础设施:公共设施:公共厕所",
        "type": 0,
        "location": {
            "lat": 27.611843,
            "lng": 115.754072
        },
        "ad_info": {
            "adcode": 361025,
            "province": "江西省",
            "city": "抚州市",
            "district": "乐安县"
        }
    },
    {
        "id": "16873002684647938017",
        "title": "抚州法莱德国际大酒店-洗手间",
        "address": "江西省抚州市南城县城南路与建昌南大道交叉口正南方向92米左右",
        "tel": "",
        "category": "基础设施:公共设施:公共厕所",
        "type": 0,
        "location": {
            "lat": 27.543631,
            "lng": 116.630036
        },
        "ad_info": {
            "adcode": 361021,
            "province": "江西省",
            "city": "抚州市",
            "district": "南城县"
        }
    },
    {
        "id": "10462954028792120284",
        "title": "临崇服务区公共厕所",
        "address": "江西省抚州市崇仁县崇仁服务区",
        "tel": "",
        "category": "基础设施:公共设施:公共厕所",
        "type": 0,
        "location": {
            "lat": 27.789394,
            "lng": 116.267648
        },
        "ad_info": {
            "adcode": 361024,
            "province": "江西省",
            "city": "抚州市",
            "district": "崇仁县"
        }
    },
    {
        "id": "8557159800101474367",
        "title": "临崇服务区公共厕所",
        "address": "江西省抚州市崇仁县S432与秋鸽段交叉口正西方向962米左右",
        "tel": "",
        "category": "基础设施:公共设施:公共厕所",
        "type": 0,
        "location": {
            "lat": 27.788828,
            "lng": 116.263526
        },
        "ad_info": {
            "adcode": 361024,
            "province": "江西省",
            "city": "抚州市",
            "district": "崇仁县"
        }
    },
    {
        "id": "4161779901532709993",
        "title": "南城服务区公共厕所",
        "address": "江西省抚州市南城县南上段与罗周段交叉口西北方向426米左右",
        "tel": "",
        "category": "基础设施:公共设施:公共厕所",
        "type": 0,
        "location": {
            "lat": 27.474527,
            "lng": 116.646621
        },
        "ad_info": {
            "adcode": 361021,
            "province": "江西省",
            "city": "抚州市",
            "district": "南城县"
        }
    },
    {
        "id": "5106198769965482930",
        "title": "东乡服务区公共厕所",
        "address": "江西省抚州市东乡区东乡服务区(沪昆高速公路南)",
        "tel": "",
        "category": "基础设施:公共设施:公共厕所",
        "type": 0,
        "location": {
            "lat": 28.272849,
            "lng": 116.528019
        },
        "ad_info": {
            "adcode": 361003,
            "province": "江西省",
            "city": "抚州市",
            "district": "东乡区"
        }
    },
    {
        "id": "2307642493026190056",
        "title": "公共厕所",
        "address": "江西省抚州市金溪县园湖北路与园湖南路交叉口西北方向18米左右",
        "tel": "",
        "category": "基础设施:公共设施:公共厕所",
        "type": 0,
        "location": {
            "lat": 27.91303,
            "lng": 116.763051
        },
        "ad_info": {
            "adcode": 361027,
            "province": "江西省",
            "city": "抚州市",
            "district": "金溪县"
        }
    },
    {
        "id": "11441909132569002649",
        "title": "公共厕所",
        "address": "江西省抚州市崇仁县商贸一路与迎宾大道交叉口西南方向274米左右",
        "tel": "",
        "category": "基础设施:公共设施:公共厕所",
        "type": 0,
        "location": {
            "lat": 27.771472,
            "lng": 116.104819
        },
        "ad_info": {
            "adcode": 361024,
            "province": "江西省",
            "city": "抚州市",
            "district": "崇仁县"
        }
    },
    {
        "id": "4353097307058689625",
        "title": "公共厕所",
        "address": "江西省抚州市东乡区沪瑞线",
        "tel": "",
        "category": "基础设施:公共设施:公共厕所",
        "type": 0,
        "location": {
            "lat": 28.262999,
            "lng": 116.541645
        },
        "ad_info": {
            "adcode": 361003,
            "province": "江西省",
            "city": "抚州市",
            "district": "东乡区"
        }
    },
    {
        "id": "11583231396350359626",
        "title": "公共厕所",
        "address": "江西省抚州市南城县S212与S312交叉口西北方向933米左右",
        "tel": "",
        "category": "基础设施:公共设施:公共厕所",
        "type": 0,
        "location": {
            "lat": 27.664702,
            "lng": 116.566685
        },
        "ad_info": {
            "adcode": 361021,
            "province": "江西省",
            "city": "抚州市",
            "district": "南城县"
        }
    },
    {
        "id": "16812044072728424669",
        "title": "公共厕所",
        "address": "江西省抚州市南丰县X908与饶三线交叉口西北方向258米左右",
        "tel": "",
        "category": "基础设施:公共设施:公共厕所",
        "type": 0,
        "location": {
            "lat": 27.15553,
            "lng": 116.415472
        },
        "ad_info": {
            "adcode": 361023,
            "province": "江西省",
            "city": "抚州市",
            "district": "南丰县"
        }
    },
    {
        "id": "11533318232900486721",
        "title": "公共厕所",
        "address": "江西省抚州市临川区红官小学西南侧170米",
        "tel": "",
        "category": "基础设施:公共设施:公共厕所",
        "type": 0,
        "location": {
            "lat": 27.760578,
            "lng": 116.641808
        },
        "ad_info": {
            "adcode": 361002,
            "province": "江西省",
            "city": "抚州市",
            "district": "临川区"
        }
    },
    {
        "id": "4605877531125900055",
        "title": "临川服务区第一公共厕所",
        "address": "江西省抚州市临川区汤显祖大道与站前北路交叉口西南方向565米左右",
        "tel": "",
        "category": "基础设施:公共设施:公共厕所",
        "type": 0,
        "location": {
            "lat": 27.91619,
            "lng": 116.351275
        },
        "ad_info": {
            "adcode": 361002,
            "province": "江西省",
            "city": "抚州市",
            "district": "临川区"
        }
    },
    {
        "id": "9961579434498117662",
        "title": "公共厕所",
        "address": "江西省抚州市南丰县G206与交通北路交叉口正北方向688米左右",
        "tel": "",
        "category": "基础设施:公共设施:公共厕所",
        "type": 0,
        "location": {
            "lat": 27.263636,
            "lng": 116.532877
        },
        "ad_info": {
            "adcode": 361023,
            "province": "江西省",
            "city": "抚州市",
            "district": "南丰县"
        }
    },
    {
        "id": "17477224921615697581",
        "title": "公共厕所",
        "address": "江西省抚州市临川区临川西大道与罗家巷交叉口西南方向116米左右",
        "tel": "",
        "category": "基础设施:公共设施:公共厕所",
        "type": 0,
        "location": {
            "lat": 27.940482,
            "lng": 116.29895
        },
        "ad_info": {
            "adcode": 361002,
            "province": "江西省",
            "city": "抚州市",
            "district": "临川区"
        }
    },
    {
        "id": "15544162005114613750",
        "title": "公共厕所",
        "address": "江西省抚州市金溪县灵谷路与秀谷中大道交叉口西南方向283米左右",
        "tel": "",
        "category": "基础设施:公共设施:公共厕所",
        "type": 0,
        "location": {
            "lat": 27.906112,
            "lng": 116.776021
        },
        "ad_info": {
            "adcode": 361027,
            "province": "江西省",
            "city": "抚州市",
            "district": "金溪县"
        }
    },
    {
        "id": "1782108682290744185",
        "title": "公共厕所",
        "address": "江西省抚州市宜黄县S213与X059交叉口东北方向454米左右",
        "tel": "",
        "category": "基础设施:公共设施:公共厕所",
        "type": 0,
        "location": {
            "lat": 27.5834,
            "lng": 116.270142
        },
        "ad_info": {
            "adcode": 361026,
            "province": "江西省",
            "city": "抚州市",
            "district": "宜黄县"
        }
    },
    {
        "id": "6360458174385957281",
        "title": "晏殊大道公共厕所",
        "address": "江西省抚州市临川区二仙桥路与利民路交叉口正南方向184米左右",
        "tel": "",
        "category": "基础设施:公共设施:公共厕所",
        "type": 0,
        "location": {
            "lat": 27.995898,
            "lng": 116.346231
        },
        "ad_info": {
            "adcode": 361002,
            "province": "江西省",
            "city": "抚州市",
            "district": "临川区"
        }
    },
    {
        "id": "15901462996641319259",
        "title": "公共厕所",
        "address": "江西省抚州市临川区汤显祖大道与站前北路交叉口正西方向95米左右",
        "tel": "",
        "category": "基础设施:公共设施:公共厕所",
        "type": 0,
        "location": {
            "lat": 27.919112,
            "lng": 116.355232
        },
        "ad_info": {
            "adcode": 361002,
            "province": "江西省",
            "city": "抚州市",
            "district": "临川区"
        }
    },
    {
        "id": "16020587851208886606",
        "title": "公共厕所",
        "address": "江西省抚州市南城县威汕线中国石油加油站(万年桥东北)",
        "tel": "",
        "category": "基础设施:公共设施:公共厕所",
        "type": 0,
        "location": {
            "lat": 27.586986,
            "lng": 116.664912
        },
        "ad_info": {
            "adcode": 361021,
            "province": "江西省",
            "city": "抚州市",
            "district": "南城县"
        }
    },
    {
        "id": "3740461028554994824",
        "title": "公共厕所",
        "address": "江西省抚州市南城县庙前村(南城站)",
        "tel": "",
        "category": "基础设施:公共设施:公共厕所",
        "type": 0,
        "location": {
            "lat": 27.56418,
            "lng": 116.616615
        },
        "ad_info": {
            "adcode": 361021,
            "province": "江西省",
            "city": "抚州市",
            "district": "南城县"
        }
    },
    {
        "id": "14657354051714453477",
        "title": "公共厕所",
        "address": "江西省抚州市临川区G316与X074交叉口正南方向1387米左右",
        "tel": "",
        "category": "基础设施:公共设施:公共厕所",
        "type": 0,
        "location": {
            "lat": 28.092095,
            "lng": 116.312627
        },
        "ad_info": {
            "adcode": 361002,
            "province": "江西省",
            "city": "抚州市",
            "district": "临川区"
        }
    },
    {
        "id": "6247451525736935254",
        "title": "公共厕所",
        "address": "江西省抚州市临川区罗湖镇",
        "tel": "",
        "category": "基础设施:公共设施:公共厕所",
        "type": 0,
        "location": {
            "lat": 28.036048,
            "lng": 116.400583
        },
        "ad_info": {
            "adcode": 361002,
            "province": "江西省",
            "city": "抚州市",
            "district": "临川区"
        }
    },
    {
        "id": "5180119392002291774",
        "title": "公共厕所",
        "address": "江西省抚州市临川区文昌里历史文化街区竹椅街",
        "tel": "",
        "category": "基础设施:公共设施:公共厕所",
        "type": 0,
        "location": {
            "lat": 27.998278,
            "lng": 116.366477
        },
        "ad_info": {
            "adcode": 361002,
            "province": "江西省",
            "city": "抚州市",
            "district": "临川区"
        }
    },
    {
        "id": "11704573601024784714",
        "title": "公共厕所",
        "address": "江西省抚州市临川区大岗镇",
        "tel": "",
        "category": "基础设施:公共设施:公共厕所",
        "type": 0,
        "location": {
            "lat": 28.158069,
            "lng": 116.208562
        },
        "ad_info": {
            "adcode": 361002,
            "province": "江西省",
            "city": "抚州市",
            "district": "临川区"
        }
    },
    {
        "id": "10721680840346599637",
        "title": "公共厕所",
        "address": "江西省抚州市南丰县环城西路与琴台路交叉口正东方向280米左右",
        "tel": "",
        "category": "基础设施:公共设施:公共厕所",
        "type": 0,
        "location": {
            "lat": 27.229893,
            "lng": 116.529094
        },
        "ad_info": {
            "adcode": 361023,
            "province": "江西省",
            "city": "抚州市",
            "district": "南丰县"
        }
    },
    {
        "id": "17287518298145648071",
        "title": "公共厕所",
        "address": "江西省抚州市乐安县乐安大道与南环路交叉口正西方向316米左右",
        "tel": "",
        "category": "基础设施:公共设施:公共厕所",
        "type": 0,
        "location": {
            "lat": 27.420551,
            "lng": 115.81374
        },
        "ad_info": {
            "adcode": 361025,
            "province": "江西省",
            "city": "抚州市",
            "district": "乐安县"
        }
    },
    {
        "id": "5632687618230269308",
        "title": "公共厕所",
        "address": "江西省抚州市临川区王安石大道与陆象山大道交叉口正南方向414米左右",
        "tel": "",
        "category": "基础设施:公共设施:公共厕所",
        "type": 0,
        "location": {
            "lat": 27.932382,
            "lng": 116.348831
        },
        "ad_info": {
            "adcode": 361002,
            "province": "江西省",
            "city": "抚州市",
            "district": "临川区"
        }
    },
    {
        "id": "10018160206246785388",
        "title": "公共厕所",
        "address": "江西省抚州市东乡区荆公路31号",
        "tel": "",
        "category": "基础设施:公共设施:公共厕所",
        "type": 0,
        "location": {
            "lat": 28.228258,
            "lng": 116.608296
        },
        "ad_info": {
            "adcode": 361003,
            "province": "江西省",
            "city": "抚州市",
            "district": "东乡区"
        }
    },
    {
        "id": "16608407962594741355",
        "title": "公共厕所",
        "address": "江西省抚州市南丰县G322与南建线交叉口东南方向58米左右",
        "tel": "",
        "category": "基础设施:公共设施:公共厕所",
        "type": 0,
        "location": {
            "lat": 27.15879,
            "lng": 116.581483
        },
        "ad_info": {
            "adcode": 361023,
            "province": "江西省",
            "city": "抚州市",
            "district": "南丰县"
        }
    },
    {
        "id": "11393637804786203332",
        "title": "公共厕所",
        "address": "江西省抚州市南城县东北大串南侧",
        "tel": "",
        "category": "基础设施:公共设施:公共厕所",
        "type": 0,
        "location": {
            "lat": 27.558356,
            "lng": 116.648502
        },
        "ad_info": {
            "adcode": 361021,
            "province": "江西省",
            "city": "抚州市",
            "district": "南城县"
        }
    },
    {
        "id": "18112469448374147271",
        "title": "公共厕所",
        "address": "江西省抚州市临川区S212与见贤路交叉口东南方向183米左右",
        "tel": "",
        "category": "基础设施:公共设施:公共厕所",
        "type": 0,
        "location": {
            "lat": 27.928312,
            "lng": 116.305064
        },
        "ad_info": {
            "adcode": 361002,
            "province": "江西省",
            "city": "抚州市",
            "district": "临川区"
        }
    },
    {
        "id": "7244261302143033703",
        "title": "公共厕所",
        "address": "江西省抚州市黎川县东方红大道与建设路交叉口正北方向209米左右",
        "tel": "",
        "category": "基础设施:公共设施:公共厕所",
        "type": 0,
        "location": {
            "lat": 27.293469,
            "lng": 116.910576
        },
        "ad_info": {
            "adcode": 361022,
            "province": "江西省",
            "city": "抚州市",
            "district": "黎川县"
        }
    },
    {
        "id": "6517324236401415909",
        "title": "公共厕所",
        "address": "江西省抚州市东乡区杨梅垄乙路与环城西路交叉口东南方向208米左右",
        "tel": "",
        "category": "基础设施:公共设施:公共厕所",
        "type": 0,
        "location": {
            "lat": 28.233128,
            "lng": 116.590522
        },
        "ad_info": {
            "adcode": 361003,
            "province": "江西省",
            "city": "抚州市",
            "district": "东乡区"
        }
    },
    {
        "id": "17858120258955909341",
        "title": "公共厕所",
        "address": "江西省抚州市崇仁县S433与简西段交叉口正北方向1601米左右",
        "tel": "",
        "category": "基础设施:公共设施:公共厕所",
        "type": 0,
        "location": {
            "lat": 27.682922,
            "lng": 116.056919
        },
        "ad_info": {
            "adcode": 361024,
            "province": "江西省",
            "city": "抚州市",
            "district": "崇仁县"
        }
    },
    {
        "id": "6341662946070844139",
        "title": "公共厕所",
        "address": "江西省抚州市临川区金巢运动公园(南门路北)",
        "tel": "",
        "category": "基础设施:公共设施:公共厕所",
        "type": 0,
        "location": {
            "lat": 27.966126,
            "lng": 116.367017
        },
        "ad_info": {
            "adcode": 361002,
            "province": "江西省",
            "city": "抚州市",
            "district": "临川区"
        }
    },
    {
        "id": "14893971319014434494",
        "title": "公共厕所",
        "address": "江西省抚州市临川区三翁大道与仙临路交叉口东南方向124米左右",
        "tel": "",
        "category": "基础设施:公共设施:公共厕所",
        "type": 0,
        "location": {
            "lat": 27.927637,
            "lng": 116.357436
        },
        "ad_info": {
            "adcode": 361002,
            "province": "江西省",
            "city": "抚州市",
            "district": "临川区"
        }
    },
    {
        "id": "8347386029512962198",
        "title": "旅游公共厕所",
        "address": "江西省抚州市乐安县乌牛段与庙大段交叉口西南方向353米左右",
        "tel": "",
        "category": "基础设施:公共设施:公共厕所",
        "type": 0,
        "location": {
            "lat": 27.384976,
            "lng": 115.735018
        },
        "ad_info": {
            "adcode": 361025,
            "province": "江西省",
            "city": "抚州市",
            "district": "乐安县"
        }
    },
    {
        "id": "5062657111889820628",
        "title": "公共厕所",
        "address": "江西省抚州市临川区临川大道与抚临路交叉口东北方向84米左右",
        "tel": "",
        "category": "基础设施:公共设施:公共厕所",
        "type": 0,
        "location": {
            "lat": 27.972172,
            "lng": 116.353162
        },
        "ad_info": {
            "adcode": 361002,
            "province": "江西省",
            "city": "抚州市",
            "district": "临川区"
        }
    },
    {
        "id": "11049526529231445274",
        "title": "绿色空间公共厕所",
        "address": "江西省抚州市东乡区李氏宗祠西南侧60米",
        "tel": "",
        "category": "基础设施:公共设施:公共厕所",
        "type": 0,
        "location": {
            "lat": 28.087505,
            "lng": 116.430337
        },
        "ad_info": {
            "adcode": 361003,
            "province": "江西省",
            "city": "抚州市",
            "district": "东乡区"
        }
    },
    {
        "id": "10356586141420142443",
        "title": "公共厕所",
        "address": "江西省抚州市宜黄县S213与河东大道交叉口西北方向56米左右",
        "tel": "",
        "category": "基础设施:公共设施:公共厕所",
        "type": 0,
        "location": {
            "lat": 27.549467,
            "lng": 116.24307
        },
        "ad_info": {
            "adcode": 361026,
            "province": "江西省",
            "city": "抚州市",
            "district": "宜黄县"
        }
    },
    {
        "id": "8380796388324213539",
        "title": "公共厕所",
        "address": "江西省抚州市临川区大觉山路与金鹏大道交叉口正北方向190米左右",
        "tel": "",
        "category": "基础设施:公共设施:公共厕所",
        "type": 0,
        "location": {
            "lat": 27.927309,
            "lng": 116.395741
        },
        "ad_info": {
            "adcode": 361002,
            "province": "江西省",
            "city": "抚州市",
            "district": "临川区"
        }
    },
    {
        "id": "3423932689069153178",
        "title": "公共厕所",
        "address": "江西省抚州市临川区凤岗河西路与迎宾大道辅路交叉口正北方向121米左右",
        "tel": "",
        "category": "基础设施:公共设施:公共厕所",
        "type": 0,
        "location": {
            "lat": 27.959658,
            "lng": 116.352053
        },
        "ad_info": {
            "adcode": 361002,
            "province": "江西省",
            "city": "抚州市",
            "district": "临川区"
        }
    },
    {
        "id": "4008962680459747366",
        "title": "公共厕所",
        "address": "江西省抚州市临川区学府路与玉茗大道交叉口西南方向215米左右",
        "tel": "",
        "category": "基础设施:公共设施:公共厕所",
        "type": 0,
        "location": {
            "lat": 27.985195,
            "lng": 116.354866
        },
        "ad_info": {
            "adcode": 361002,
            "province": "江西省",
            "city": "抚州市",
            "district": "临川区"
        }
    },
    {
        "id": "845104618919289120",
        "title": "公共厕所",
        "address": "江西省抚州市南城县G206与S213交叉口正北方向485米左右",
        "tel": "",
        "category": "基础设施:公共设施:公共厕所",
        "type": 0,
        "location": {
            "lat": 27.358786,
            "lng": 116.543385
        },
        "ad_info": {
            "adcode": 361021,
            "province": "江西省",
            "city": "抚州市",
            "district": "南城县"
        }
    },
    {
        "id": "5056784570498049528",
        "title": "公共厕所",
        "address": "江西省抚州市临川区居仁路与迎风路交叉口正西方向112米左右",
        "tel": "",
        "category": "基础设施:公共设施:公共厕所",
        "type": 0,
        "location": {
            "lat": 27.945667,
            "lng": 116.37875
        },
        "ad_info": {
            "adcode": 361002,
            "province": "江西省",
            "city": "抚州市",
            "district": "临川区"
        }
    },
    {
        "id": "7588145598594007806",
        "title": "乐安服务区第二公共厕所",
        "address": "江西省抚州市乐安县昌韶高速乐安服务区内附近",
        "tel": "",
        "category": "基础设施:公共设施:公共厕所",
        "type": 0,
        "location": {
            "lat": 27.61098,
            "lng": 115.754916
        },
        "ad_info": {
            "adcode": 361025,
            "province": "江西省",
            "city": "抚州市",
            "district": "乐安县"
        }
    },
    {
        "id": "9357693946066181955",
        "title": "公共厕所",
        "address": "江西省抚州市临川区迎宾大道与曾巩大道交叉路口南侧(抚州万达广场南9号门一楼)",
        "tel": "",
        "category": "基础设施:公共设施:公共厕所",
        "type": 0,
        "location": {
            "lat": 27.956449,
            "lng": 116.346195
        },
        "ad_info": {
            "adcode": 361002,
            "province": "江西省",
            "city": "抚州市",
            "district": "临川区"
        }
    },
    {
        "id": "8178384937210010162",
        "title": "公厕",
        "address": "江西省抚州市临川区水岸明珠南(环城北路南)",
        "tel": "",
        "category": "基础设施:公共设施:公共厕所",
        "type": 0,
        "location": {
            "lat": 28.00338,
            "lng": 116.356317
        },
        "ad_info": {
            "adcode": 361002,
            "province": "江西省",
            "city": "抚州市",
            "district": "临川区"
        }
    },
    {
        "id": "11307612204703877667",
        "title": "公共厕所(JX-FZ-0666)",
        "address": "江西省抚州市乐安县迎宾北大道乐安公园",
        "tel": "",
        "category": "基础设施:公共设施:公共厕所",
        "type": 0,
        "location": {
            "lat": 27.428512,
            "lng": 115.833117
        },
        "ad_info": {
            "adcode": 361025,
            "province": "江西省",
            "city": "抚州市",
            "district": "乐安县"
        }
    },
    {
        "id": "14985097781441002821",
        "title": "公共厕所",
        "address": "江西省抚州市资溪县泰伯大道与站前南路交叉口西北方向182米左右",
        "tel": "",
        "category": "基础设施:公共设施:公共厕所",
        "type": 0,
        "location": {
            "lat": 27.718827,
            "lng": 117.079794
        },
        "ad_info": {
            "adcode": 361028,
            "province": "江西省",
            "city": "抚州市",
            "district": "资溪县"
        }
    },
    {
        "id": "2876533197661990305",
        "title": "公共厕所",
        "address": "江西省抚州市东乡区体育场旁健走步道东乡区体育馆",
        "tel": "",
        "category": "基础设施:公共设施:公共厕所",
        "type": 0,
        "location": {
            "lat": 28.225854,
            "lng": 116.60016
        },
        "ad_info": {
            "adcode": 361003,
            "province": "江西省",
            "city": "抚州市",
            "district": "东乡区"
        }
    },
    {
        "id": "7130098356443800349",
        "title": "公共厕所",
        "address": "江西省抚州市临川区汤显祖大道辅路与站前北路辅路交叉口西北方向143米左右",
        "tel": "",
        "category": "基础设施:公共设施:公共厕所",
        "type": 0,
        "location": {
            "lat": 27.921757,
            "lng": 116.353972
        },
        "ad_info": {
            "adcode": 361002,
            "province": "江西省",
            "city": "抚州市",
            "district": "临川区"
        }
    },
    {
        "id": "12313673978410958760",
        "title": "公共厕所",
        "address": "江西省抚州市崇仁县中山路与创造路交叉口东北方向249米左右",
        "tel": "",
        "category": "基础设施:公共设施:公共厕所",
        "type": 0,
        "location": {
            "lat": 27.759069,
            "lng": 116.060201
        },
        "ad_info": {
            "adcode": 361024,
            "province": "江西省",
            "city": "抚州市",
            "district": "崇仁县"
        }
    },
    {
        "id": "1925187328493681363",
        "title": "公共厕所",
        "address": "江西省抚州市临川区驿收发快递驿站温泉红旗桥合作点西北侧220米",
        "tel": "",
        "category": "基础设施:公共设施:公共厕所",
        "type": 0,
        "location": {
            "lat": 27.966645,
            "lng": 116.256081
        },
        "ad_info": {
            "adcode": 361002,
            "province": "江西省",
            "city": "抚州市",
            "district": "临川区"
        }
    },
    {
        "id": "4034546713911260444",
        "title": "公共厕所",
        "address": "江西省抚州市临川区上顿渡大道与建设路交叉口西北方向179米左右",
        "tel": "",
        "category": "基础设施:公共设施:公共厕所",
        "type": 0,
        "location": {
            "lat": 27.939966,
            "lng": 116.333947
        },
        "ad_info": {
            "adcode": 361002,
            "province": "江西省",
            "city": "抚州市",
            "district": "临川区"
        }
    },
    {
        "id": "5591244408769825454",
        "title": "公共厕所",
        "address": "江西省抚州市南城县民惠路与金茂路交叉口正东方向30米左右",
        "tel": "",
        "category": "基础设施:公共设施:公共厕所",
        "type": 0,
        "location": {
            "lat": 27.58197,
            "lng": 116.635566
        },
        "ad_info": {
            "adcode": 361021,
            "province": "江西省",
            "city": "抚州市",
            "district": "南城县"
        }
    },
    {
        "id": "1709366540022573748",
        "title": "公共厕所",
        "address": "江西省抚州市临川区轻纺路与金巢大道交叉口东北方向74米左右",
        "tel": "",
        "category": "基础设施:公共设施:公共厕所",
        "type": 0,
        "location": {
            "lat": 27.981519,
            "lng": 116.371287
        },
        "ad_info": {
            "adcode": 361002,
            "province": "江西省",
            "city": "抚州市",
            "district": "临川区"
        }
    },
    {
        "id": "1559229162724957489",
        "title": "公共厕所",
        "address": "江西省抚州市临川区烟波路与燕归路交叉口正北方向180米左右",
        "tel": "",
        "category": "基础设施:公共设施:公共厕所",
        "type": 0,
        "location": {
            "lat": 27.983145,
            "lng": 116.334255
        },
        "ad_info": {
            "adcode": 361002,
            "province": "江西省",
            "city": "抚州市",
            "district": "临川区"
        }
    },
    {
        "id": "16082486093704429923",
        "title": "公共厕所",
        "address": "江西省抚州市南丰县南广路与子固南路交叉口正南方向39米左右",
        "tel": "",
        "category": "基础设施:公共设施:公共厕所",
        "type": 0,
        "location": {
            "lat": 27.21819,
            "lng": 116.521496
        },
        "ad_info": {
            "adcode": 361023,
            "province": "江西省",
            "city": "抚州市",
            "district": "南丰县"
        }
    },
    {
        "id": "8955949264545282838",
        "title": "公共厕所",
        "address": "江西省抚州市临川区汝水大道7199号",
        "tel": "",
        "category": "基础设施:公共设施:公共厕所",
        "type": 0,
        "location": {
            "lat": 27.964143,
            "lng": 116.399151
        },
        "ad_info": {
            "adcode": 361002,
            "province": "江西省",
            "city": "抚州市",
            "district": "临川区"
        }
    },
    {
        "id": "13282986660226399287",
        "title": "公共厕所",
        "address": "江西省抚州市广昌县头龙段与老街交叉口东北方向397米左右",
        "tel": "",
        "category": "基础设施:公共设施:公共厕所",
        "type": 0,
        "location": {
            "lat": 26.754128,
            "lng": 116.199403
        },
        "ad_info": {
            "adcode": 361030,
            "province": "江西省",
            "city": "抚州市",
            "district": "广昌县"
        }
    },
    {
        "id": "8286912992802927645",
        "title": "公共厕所",
        "address": "江西省抚州市临川区王安石大道与白岭路交叉口正东方向103米左右",
        "tel": "",
        "category": "基础设施:公共设施:公共厕所",
        "type": 0,
        "location": {
            "lat": 27.935925,
            "lng": 116.369489
        },
        "ad_info": {
            "adcode": 361002,
            "province": "江西省",
            "city": "抚州市",
            "district": "临川区"
        }
    },
    {
        "id": "15493785352814044288",
        "title": "公共厕所",
        "address": "江西省抚州市临川区迎宾大道与临川大道辅路交叉口东南120米",
        "tel": "",
        "category": "基础设施:公共设施:公共厕所",
        "type": 0,
        "location": {
            "lat": 27.954902,
            "lng": 116.327733
        },
        "ad_info": {
            "adcode": 361002,
            "province": "江西省",
            "city": "抚州市",
            "district": "临川区"
        }
    },
    {
        "id": "2624593217373365264",
        "title": "公共厕所",
        "address": "江西省抚州市乐安县S312与丰洛线交叉口东北方向718米左右",
        "tel": "",
        "category": "基础设施:公共设施:公共厕所",
        "type": 0,
        "location": {
            "lat": 27.533098,
            "lng": 115.834991
        },
        "ad_info": {
            "adcode": 361025,
            "province": "江西省",
            "city": "抚州市",
            "district": "乐安县"
        }
    },
    {
        "id": "5762582714681930861",
        "title": "杨家公共厕所",
        "address": "江西省抚州市崇仁县三流段与河三段交叉口正西方向1838米左右",
        "tel": "",
        "category": "基础设施:公共设施:公共厕所",
        "type": 0,
        "location": {
            "lat": 27.83394,
            "lng": 115.969857
        },
        "ad_info": {
            "adcode": 361024,
            "province": "江西省",
            "city": "抚州市",
            "district": "崇仁县"
        }
    },
    {
        "id": "191105809756707627",
        "title": "东华理工学府路校区公厕",
        "address": "江西省抚州市临川区学府路与玉茗大道交叉口正西方向230米左右",
        "tel": "",
        "category": "基础设施:公共设施:公共厕所",
        "type": 0,
        "location": {
            "lat": 27.986382,
            "lng": 116.353478
        },
        "ad_info": {
            "adcode": 361002,
            "province": "江西省",
            "city": "抚州市",
            "district": "临川区"
        }
    },
    {
        "id": "4907391430970707237",
        "title": "公共厕所",
        "address": "江西省抚州市临川区钟岭大道与陆象山大道交叉口正南方向115米左右",
        "tel": "",
        "category": "基础设施:公共设施:公共厕所",
        "type": 0,
        "location": {
            "lat": 27.946383,
            "lng": 116.34999
        },
        "ad_info": {
            "adcode": 361002,
            "province": "江西省",
            "city": "抚州市",
            "district": "临川区"
        }
    },
    {
        "id": "4880324636063723752",
        "title": "公共厕所",
        "address": "江西省抚州市宜黄县华育彩印包装有限公司东侧60米",
        "tel": "",
        "category": "基础设施:公共设施:公共厕所",
        "type": 0,
        "location": {
            "lat": 27.563729,
            "lng": 116.235083
        },
        "ad_info": {
            "adcode": 361026,
            "province": "江西省",
            "city": "抚州市",
            "district": "宜黄县"
        }
    },
    {
        "id": "3787569323397121664",
        "title": "公共厕所",
        "address": "江西省抚州市东乡区冷井一巷与冷井二巷交叉口西南方向83米左右",
        "tel": "",
        "category": "基础设施:公共设施:公共厕所",
        "type": 0,
        "location": {
            "lat": 28.230479,
            "lng": 116.615521
        },
        "ad_info": {
            "adcode": 361003,
            "province": "江西省",
            "city": "抚州市",
            "district": "东乡区"
        }
    },
    {
        "id": "9774819841804624186",
        "title": "公共厕所",
        "address": "江西省抚州市临川区临崇路与才子西路交叉口正东方向248米左右",
        "tel": "",
        "category": "基础设施:公共设施:公共厕所",
        "type": 0,
        "location": {
            "lat": 27.926717,
            "lng": 116.288308
        },
        "ad_info": {
            "adcode": 361002,
            "province": "江西省",
            "city": "抚州市",
            "district": "临川区"
        }
    },
    {
        "id": "10800686565919022385",
        "title": "公共厕所",
        "address": "江西省抚州市临川区钟岭大道9号",
        "tel": "",
        "category": "基础设施:公共设施:公共厕所",
        "type": 0,
        "location": {
            "lat": 27.946731,
            "lng": 116.392433
        },
        "ad_info": {
            "adcode": 361002,
            "province": "江西省",
            "city": "抚州市",
            "district": "临川区"
        }
    },
    {
        "id": "8548107603577995413",
        "title": "公共厕所",
        "address": "江西省抚州市临川区燕归路与连樊路交叉口东北方向103米左右",
        "tel": "",
        "category": "基础设施:公共设施:公共厕所",
        "type": 0,
        "location": {
            "lat": 27.971922,
            "lng": 116.341147
        },
        "ad_info": {
            "adcode": 361002,
            "province": "江西省",
            "city": "抚州市",
            "district": "临川区"
        }
    },
    {
        "id": "421745935674643731",
        "title": "公共厕所",
        "address": "江西省抚州市临川区陆象山大道与王安石大道交叉口以东(王安石大道以北)",
        "tel": "",
        "category": "基础设施:公共设施:公共厕所",
        "type": 0,
        "location": {
            "lat": 27.936949,
            "lng": 116.350641
        },
        "ad_info": {
            "adcode": 361002,
            "province": "江西省",
            "city": "抚州市",
            "district": "临川区"
        }
    },
    {
        "id": "14754305124047673484",
        "title": "雁溪公共厕所",
        "address": "江西省抚州市广昌县慈生路与环岛南路交叉口东北方向81米左右",
        "tel": "",
        "category": "基础设施:公共设施:公共厕所",
        "type": 0,
        "location": {
            "lat": 26.81979,
            "lng": 116.325338
        },
        "ad_info": {
            "adcode": 361030,
            "province": "江西省",
            "city": "抚州市",
            "district": "广昌县"
        }
    },
    {
        "id": "17735357381221383801",
        "title": "公共厕所",
        "address": "江西省抚州市崇仁县周航段与程徐段交叉口正东方向329米左右",
        "tel": "",
        "category": "基础设施:公共设施:公共厕所",
        "type": 0,
        "location": {
            "lat": 27.823994,
            "lng": 116.259747
        },
        "ad_info": {
            "adcode": 361024,
            "province": "江西省",
            "city": "抚州市",
            "district": "崇仁县"
        }
    },
    {
        "id": "10190445673167345892",
        "title": "公共厕所",
        "address": "江西省抚州市临川区临川大道与育英路交叉口东北方向291米左右",
        "tel": "",
        "category": "基础设施:公共设施:公共厕所",
        "type": 0,
        "location": {
            "lat": 27.962182,
            "lng": 116.331885
        },
        "ad_info": {
            "adcode": 361002,
            "province": "江西省",
            "city": "抚州市",
            "district": "临川区"
        }
    },
    {
        "id": "14642943055850517862",
        "title": "公共厕所",
        "address": "江西省抚州市崇仁县383乡道与385乡道交叉口东北440米",
        "tel": "",
        "category": "基础设施:公共设施:公共厕所",
        "type": 0,
        "location": {
            "lat": 27.826492,
            "lng": 116.259772
        },
        "ad_info": {
            "adcode": 361024,
            "province": "江西省",
            "city": "抚州市",
            "district": "崇仁县"
        }
    },
    {
        "id": "7830885743075114121",
        "title": "资溪服务区公共厕所",
        "address": "江西省抚州市资溪县G316与江西公路交叉口东北方向1530米左右",
        "tel": "",
        "category": "基础设施:公共设施:公共厕所",
        "type": 0,
        "location": {
            "lat": 27.705348,
            "lng": 117.112347
        },
        "ad_info": {
            "adcode": 361028,
            "province": "江西省",
            "city": "抚州市",
            "district": "资溪县"
        }
    },
    {
        "id": "16983180118151387682",
        "title": "公共厕所",
        "address": "江西省抚州市崇仁县站前东路4号",
        "tel": "",
        "category": "基础设施:公共设施:公共厕所",
        "type": 0,
        "location": {
            "lat": 27.77422,
            "lng": 116.061463
        },
        "ad_info": {
            "adcode": 361024,
            "province": "江西省",
            "city": "抚州市",
            "district": "崇仁县"
        }
    },
    {
        "id": "2358159282187061926",
        "title": "公共厕所",
        "address": "江西省抚州市广昌县抚州明代雯峰书院",
        "tel": "",
        "category": "基础设施:公共设施:公共厕所",
        "type": 0,
        "location": {
            "lat": 26.933921,
            "lng": 116.386654
        },
        "ad_info": {
            "adcode": 361030,
            "province": "江西省",
            "city": "抚州市",
            "district": "广昌县"
        }
    },
    {
        "id": "6257222738631052437",
        "title": "公共厕所",
        "address": "江西省抚州市临川区梦湖西路与烟波路交叉口正南方向55米左右",
        "tel": "",
        "category": "基础设施:公共设施:公共厕所",
        "type": 0,
        "location": {
            "lat": 27.981556,
            "lng": 116.336144
        },
        "ad_info": {
            "adcode": 361002,
            "province": "江西省",
            "city": "抚州市",
            "district": "临川区"
        }
    },
    {
        "id": "17666862864183334280",
        "title": "东华理工南区公厕",
        "address": "江西省抚州市临川区玉茗大道189号",
        "tel": "",
        "category": "基础设施:公共设施:公共厕所",
        "type": 0,
        "location": {
            "lat": 27.98079,
            "lng": 116.354165
        },
        "ad_info": {
            "adcode": 361002,
            "province": "江西省",
            "city": "抚州市",
            "district": "临川区"
        }
    },
    {
        "id": "7591872943033393632",
        "title": "临川服务区第二公共厕所",
        "address": "江西省抚州市临川区汤显祖大道辅路与站前北路辅路交叉口西南方向528米左右",
        "tel": "",
        "category": "基础设施:公共设施:公共厕所",
        "type": 0,
        "location": {
            "lat": 27.917654,
            "lng": 116.350598
        },
        "ad_info": {
            "adcode": 361002,
            "province": "江西省",
            "city": "抚州市",
            "district": "临川区"
        }
    },
    {
        "id": "16938672674015535419",
        "title": "公共厕所",
        "address": "江西省抚州市东乡区中河沟一巷与恒安中路交叉口正北方向240米左右",
        "tel": "",
        "category": "基础设施:公共设施:公共厕所",
        "type": 0,
        "location": {
            "lat": 28.233393,
            "lng": 116.607205
        },
        "ad_info": {
            "adcode": 361003,
            "province": "江西省",
            "city": "抚州市",
            "district": "东乡区"
        }
    },
    {
        "id": "7830379160409347464",
        "title": "公共厕所",
        "address": "江西省抚州市东乡区何家湾",
        "tel": "",
        "category": "基础设施:公共设施:公共厕所",
        "type": 0,
        "location": {
            "lat": 28.074108,
            "lng": 116.840962
        },
        "ad_info": {
            "adcode": 361003,
            "province": "江西省",
            "city": "抚州市",
            "district": "东乡区"
        }
    },
    {
        "id": "191105809756707627",
        "title": "东华理工学府路校区公厕",
        "address": "江西省抚州市临川区学府路与玉茗大道交叉口正西方向230米左右",
        "tel": "",
        "category": "基础设施:公共设施:公共厕所",
        "type": 0,
        "location": {
            "lat": 27.986382,
            "lng": 116.353478
        },
        "ad_info": {
            "adcode": 361002,
            "province": "江西省",
            "city": "抚州市",
            "district": "临川区"
        }
    },
    {
        "id": "4907391430970707237",
        "title": "公共厕所",
        "address": "江西省抚州市临川区钟岭大道与陆象山大道交叉口正南方向115米左右",
        "tel": "",
        "category": "基础设施:公共设施:公共厕所",
        "type": 0,
        "location": {
            "lat": 27.946383,
            "lng": 116.34999
        },
        "ad_info": {
            "adcode": 361002,
            "province": "江西省",
            "city": "抚州市",
            "district": "临川区"
        }
    },
    {
        "id": "4880324636063723752",
        "title": "公共厕所",
        "address": "江西省抚州市宜黄县华育彩印包装有限公司东侧60米",
        "tel": "",
        "category": "基础设施:公共设施:公共厕所",
        "type": 0,
        "location": {
            "lat": 27.563729,
            "lng": 116.235083
        },
        "ad_info": {
            "adcode": 361026,
            "province": "江西省",
            "city": "抚州市",
            "district": "宜黄县"
        }
    },
    {
        "id": "3787569323397121664",
        "title": "公共厕所",
        "address": "江西省抚州市东乡区冷井一巷与冷井二巷交叉口西南方向83米左右",
        "tel": "",
        "category": "基础设施:公共设施:公共厕所",
        "type": 0,
        "location": {
            "lat": 28.230479,
            "lng": 116.615521
        },
        "ad_info": {
            "adcode": 361003,
            "province": "江西省",
            "city": "抚州市",
            "district": "东乡区"
        }
    },
    {
        "id": "9774819841804624186",
        "title": "公共厕所",
        "address": "江西省抚州市临川区临崇路与才子西路交叉口正东方向248米左右",
        "tel": "",
        "category": "基础设施:公共设施:公共厕所",
        "type": 0,
        "location": {
            "lat": 27.926717,
            "lng": 116.288308
        },
        "ad_info": {
            "adcode": 361002,
            "province": "江西省",
            "city": "抚州市",
            "district": "临川区"
        }
    },
    {
        "id": "10800686565919022385",
        "title": "公共厕所",
        "address": "江西省抚州市临川区钟岭大道9号",
        "tel": "",
        "category": "基础设施:公共设施:公共厕所",
        "type": 0,
        "location": {
            "lat": 27.946731,
            "lng": 116.392433
        },
        "ad_info": {
            "adcode": 361002,
            "province": "江西省",
            "city": "抚州市",
            "district": "临川区"
        }
    },
    {
        "id": "8548107603577995413",
        "title": "公共厕所",
        "address": "江西省抚州市临川区燕归路与连樊路交叉口东北方向103米左右",
        "tel": "",
        "category": "基础设施:公共设施:公共厕所",
        "type": 0,
        "location": {
            "lat": 27.971922,
            "lng": 116.341147
        },
        "ad_info": {
            "adcode": 361002,
            "province": "江西省",
            "city": "抚州市",
            "district": "临川区"
        }
    },
    {
        "id": "421745935674643731",
        "title": "公共厕所",
        "address": "江西省抚州市临川区陆象山大道与王安石大道交叉口以东(王安石大道以北)",
        "tel": "",
        "category": "基础设施:公共设施:公共厕所",
        "type": 0,
        "location": {
            "lat": 27.936949,
            "lng": 116.350641
        },
        "ad_info": {
            "adcode": 361002,
            "province": "江西省",
            "city": "抚州市",
            "district": "临川区"
        }
    },
    {
        "id": "14754305124047673484",
        "title": "雁溪公共厕所",
        "address": "江西省抚州市广昌县慈生路与环岛南路交叉口东北方向81米左右",
        "tel": "",
        "category": "基础设施:公共设施:公共厕所",
        "type": 0,
        "location": {
            "lat": 26.81979,
            "lng": 116.325338
        },
        "ad_info": {
            "adcode": 361030,
            "province": "江西省",
            "city": "抚州市",
            "district": "广昌县"
        }
    },
    {
        "id": "17735357381221383801",
        "title": "公共厕所",
        "address": "江西省抚州市崇仁县周航段与程徐段交叉口正东方向329米左右",
        "tel": "",
        "category": "基础设施:公共设施:公共厕所",
        "type": 0,
        "location": {
            "lat": 27.823994,
            "lng": 116.259747
        },
        "ad_info": {
            "adcode": 361024,
            "province": "江西省",
            "city": "抚州市",
            "district": "崇仁县"
        }
    },
    {
        "id": "10190445673167345892",
        "title": "公共厕所",
        "address": "江西省抚州市临川区临川大道与育英路交叉口东北方向291米左右",
        "tel": "",
        "category": "基础设施:公共设施:公共厕所",
        "type": 0,
        "location": {
            "lat": 27.962182,
            "lng": 116.331885
        },
        "ad_info": {
            "adcode": 361002,
            "province": "江西省",
            "city": "抚州市",
            "district": "临川区"
        }
    },
    {
        "id": "14642943055850517862",
        "title": "公共厕所",
        "address": "江西省抚州市崇仁县383乡道与385乡道交叉口东北440米",
        "tel": "",
        "category": "基础设施:公共设施:公共厕所",
        "type": 0,
        "location": {
            "lat": 27.826492,
            "lng": 116.259772
        },
        "ad_info": {
            "adcode": 361024,
            "province": "江西省",
            "city": "抚州市",
            "district": "崇仁县"
        }
    },
    {
        "id": "7830885743075114121",
        "title": "资溪服务区公共厕所",
        "address": "江西省抚州市资溪县G316与江西公路交叉口东北方向1530米左右",
        "tel": "",
        "category": "基础设施:公共设施:公共厕所",
        "type": 0,
        "location": {
            "lat": 27.705348,
            "lng": 117.112347
        },
        "ad_info": {
            "adcode": 361028,
            "province": "江西省",
            "city": "抚州市",
            "district": "资溪县"
        }
    },
    {
        "id": "16983180118151387682",
        "title": "公共厕所",
        "address": "江西省抚州市崇仁县站前东路4号",
        "tel": "",
        "category": "基础设施:公共设施:公共厕所",
        "type": 0,
        "location": {
            "lat": 27.77422,
            "lng": 116.061463
        },
        "ad_info": {
            "adcode": 361024,
            "province": "江西省",
            "city": "抚州市",
            "district": "崇仁县"
        }
    },
    {
        "id": "2358159282187061926",
        "title": "公共厕所",
        "address": "江西省抚州市广昌县抚州明代雯峰书院",
        "tel": "",
        "category": "基础设施:公共设施:公共厕所",
        "type": 0,
        "location": {
            "lat": 26.933921,
            "lng": 116.386654
        },
        "ad_info": {
            "adcode": 361030,
            "province": "江西省",
            "city": "抚州市",
            "district": "广昌县"
        }
    },
    {
        "id": "6257222738631052437",
        "title": "公共厕所",
        "address": "江西省抚州市临川区梦湖西路与烟波路交叉口正南方向55米左右",
        "tel": "",
        "category": "基础设施:公共设施:公共厕所",
        "type": 0,
        "location": {
            "lat": 27.981556,
            "lng": 116.336144
        },
        "ad_info": {
            "adcode": 361002,
            "province": "江西省",
            "city": "抚州市",
            "district": "临川区"
        }
    },
    {
        "id": "17666862864183334280",
        "title": "东华理工南区公厕",
        "address": "江西省抚州市临川区玉茗大道189号",
        "tel": "",
        "category": "基础设施:公共设施:公共厕所",
        "type": 0,
        "location": {
            "lat": 27.98079,
            "lng": 116.354165
        },
        "ad_info": {
            "adcode": 361002,
            "province": "江西省",
            "city": "抚州市",
            "district": "临川区"
        }
    },
    {
        "id": "7591872943033393632",
        "title": "临川服务区第二公共厕所",
        "address": "江西省抚州市临川区汤显祖大道辅路与站前北路辅路交叉口西南方向528米左右",
        "tel": "",
        "category": "基础设施:公共设施:公共厕所",
        "type": 0,
        "location": {
            "lat": 27.917654,
            "lng": 116.350598
        },
        "ad_info": {
            "adcode": 361002,
            "province": "江西省",
            "city": "抚州市",
            "district": "临川区"
        }
    },
    {
        "id": "16938672674015535419",
        "title": "公共厕所",
        "address": "江西省抚州市东乡区中河沟一巷与恒安中路交叉口正北方向240米左右",
        "tel": "",
        "category": "基础设施:公共设施:公共厕所",
        "type": 0,
        "location": {
            "lat": 28.233393,
            "lng": 116.607205
        },
        "ad_info": {
            "adcode": 361003,
            "province": "江西省",
            "city": "抚州市",
            "district": "东乡区"
        }
    },
    {
        "id": "7830379160409347464",
        "title": "公共厕所",
        "address": "江西省抚州市东乡区何家湾",
        "tel": "",
        "category": "基础设施:公共设施:公共厕所",
        "type": 0,
        "location": {
            "lat": 28.074108,
            "lng": 116.840962
        },
        "ad_info": {
            "adcode": 361003,
            "province": "江西省",
            "city": "抚州市",
            "district": "东乡区"
        }
    },
    {
        "id": "191105809756707627",
        "title": "东华理工学府路校区公厕",
        "address": "江西省抚州市临川区学府路与玉茗大道交叉口正西方向230米左右",
        "tel": "",
        "category": "基础设施:公共设施:公共厕所",
        "type": 0,
        "location": {
            "lat": 27.986382,
            "lng": 116.353478
        },
        "ad_info": {
            "adcode": 361002,
            "province": "江西省",
            "city": "抚州市",
            "district": "临川区"
        }
    },
    {
        "id": "4907391430970707237",
        "title": "公共厕所",
        "address": "江西省抚州市临川区钟岭大道与陆象山大道交叉口正南方向115米左右",
        "tel": "",
        "category": "基础设施:公共设施:公共厕所",
        "type": 0,
        "location": {
            "lat": 27.946383,
            "lng": 116.34999
        },
        "ad_info": {
            "adcode": 361002,
            "province": "江西省",
            "city": "抚州市",
            "district": "临川区"
        }
    },
    {
        "id": "4880324636063723752",
        "title": "公共厕所",
        "address": "江西省抚州市宜黄县华育彩印包装有限公司东侧60米",
        "tel": "",
        "category": "基础设施:公共设施:公共厕所",
        "type": 0,
        "location": {
            "lat": 27.563729,
            "lng": 116.235083
        },
        "ad_info": {
            "adcode": 361026,
            "province": "江西省",
            "city": "抚州市",
            "district": "宜黄县"
        }
    },
    {
        "id": "3787569323397121664",
        "title": "公共厕所",
        "address": "江西省抚州市东乡区冷井一巷与冷井二巷交叉口西南方向83米左右",
        "tel": "",
        "category": "基础设施:公共设施:公共厕所",
        "type": 0,
        "location": {
            "lat": 28.230479,
            "lng": 116.615521
        },
        "ad_info": {
            "adcode": 361003,
            "province": "江西省",
            "city": "抚州市",
            "district": "东乡区"
        }
    },
    {
        "id": "9774819841804624186",
        "title": "公共厕所",
        "address": "江西省抚州市临川区临崇路与才子西路交叉口正东方向248米左右",
        "tel": "",
        "category": "基础设施:公共设施:公共厕所",
        "type": 0,
        "location": {
            "lat": 27.926717,
            "lng": 116.288308
        },
        "ad_info": {
            "adcode": 361002,
            "province": "江西省",
            "city": "抚州市",
            "district": "临川区"
        }
    },
    {
        "id": "10800686565919022385",
        "title": "公共厕所",
        "address": "江西省抚州市临川区钟岭大道9号",
        "tel": "",
        "category": "基础设施:公共设施:公共厕所",
        "type": 0,
        "location": {
            "lat": 27.946731,
            "lng": 116.392433
        },
        "ad_info": {
            "adcode": 361002,
            "province": "江西省",
            "city": "抚州市",
            "district": "临川区"
        }
    },
    {
        "id": "8548107603577995413",
        "title": "公共厕所",
        "address": "江西省抚州市临川区燕归路与连樊路交叉口东北方向103米左右",
        "tel": "",
        "category": "基础设施:公共设施:公共厕所",
        "type": 0,
        "location": {
            "lat": 27.971922,
            "lng": 116.341147
        },
        "ad_info": {
            "adcode": 361002,
            "province": "江西省",
            "city": "抚州市",
            "district": "临川区"
        }
    },
    {
        "id": "421745935674643731",
        "title": "公共厕所",
        "address": "江西省抚州市临川区陆象山大道与王安石大道交叉口以东(王安石大道以北)",
        "tel": "",
        "category": "基础设施:公共设施:公共厕所",
        "type": 0,
        "location": {
            "lat": 27.936949,
            "lng": 116.350641
        },
        "ad_info": {
            "adcode": 361002,
            "province": "江西省",
            "city": "抚州市",
            "district": "临川区"
        }
    },
    {
        "id": "14754305124047673484",
        "title": "雁溪公共厕所",
        "address": "江西省抚州市广昌县慈生路与环岛南路交叉口东北方向81米左右",
        "tel": "",
        "category": "基础设施:公共设施:公共厕所",
        "type": 0,
        "location": {
            "lat": 26.81979,
            "lng": 116.325338
        },
        "ad_info": {
            "adcode": 361030,
            "province": "江西省",
            "city": "抚州市",
            "district": "广昌县"
        }
    },
    {
        "id": "17735357381221383801",
        "title": "公共厕所",
        "address": "江西省抚州市崇仁县周航段与程徐段交叉口正东方向329米左右",
        "tel": "",
        "category": "基础设施:公共设施:公共厕所",
        "type": 0,
        "location": {
            "lat": 27.823994,
            "lng": 116.259747
        },
        "ad_info": {
            "adcode": 361024,
            "province": "江西省",
            "city": "抚州市",
            "district": "崇仁县"
        }
    },
    {
        "id": "10190445673167345892",
        "title": "公共厕所",
        "address": "江西省抚州市临川区临川大道与育英路交叉口东北方向291米左右",
        "tel": "",
        "category": "基础设施:公共设施:公共厕所",
        "type": 0,
        "location": {
            "lat": 27.962182,
            "lng": 116.331885
        },
        "ad_info": {
            "adcode": 361002,
            "province": "江西省",
            "city": "抚州市",
            "district": "临川区"
        }
    },
    {
        "id": "14642943055850517862",
        "title": "公共厕所",
        "address": "江西省抚州市崇仁县383乡道与385乡道交叉口东北440米",
        "tel": "",
        "category": "基础设施:公共设施:公共厕所",
        "type": 0,
        "location": {
            "lat": 27.826492,
            "lng": 116.259772
        },
        "ad_info": {
            "adcode": 361024,
            "province": "江西省",
            "city": "抚州市",
            "district": "崇仁县"
        }
    },
    {
        "id": "7830885743075114121",
        "title": "资溪服务区公共厕所",
        "address": "江西省抚州市资溪县G316与江西公路交叉口东北方向1530米左右",
        "tel": "",
        "category": "基础设施:公共设施:公共厕所",
        "type": 0,
        "location": {
            "lat": 27.705348,
            "lng": 117.112347
        },
        "ad_info": {
            "adcode": 361028,
            "province": "江西省",
            "city": "抚州市",
            "district": "资溪县"
        }
    },
    {
        "id": "16983180118151387682",
        "title": "公共厕所",
        "address": "江西省抚州市崇仁县站前东路4号",
        "tel": "",
        "category": "基础设施:公共设施:公共厕所",
        "type": 0,
        "location": {
            "lat": 27.77422,
            "lng": 116.061463
        },
        "ad_info": {
            "adcode": 361024,
            "province": "江西省",
            "city": "抚州市",
            "district": "崇仁县"
        }
    },
    {
        "id": "2358159282187061926",
        "title": "公共厕所",
        "address": "江西省抚州市广昌县抚州明代雯峰书院",
        "tel": "",
        "category": "基础设施:公共设施:公共厕所",
        "type": 0,
        "location": {
            "lat": 26.933921,
            "lng": 116.386654
        },
        "ad_info": {
            "adcode": 361030,
            "province": "江西省",
            "city": "抚州市",
            "district": "广昌县"
        }
    },
    {
        "id": "6257222738631052437",
        "title": "公共厕所",
        "address": "江西省抚州市临川区梦湖西路与烟波路交叉口正南方向55米左右",
        "tel": "",
        "category": "基础设施:公共设施:公共厕所",
        "type": 0,
        "location": {
            "lat": 27.981556,
            "lng": 116.336144
        },
        "ad_info": {
            "adcode": 361002,
            "province": "江西省",
            "city": "抚州市",
            "district": "临川区"
        }
    },
    {
        "id": "17666862864183334280",
        "title": "东华理工南区公厕",
        "address": "江西省抚州市临川区玉茗大道189号",
        "tel": "",
        "category": "基础设施:公共设施:公共厕所",
        "type": 0,
        "location": {
            "lat": 27.98079,
            "lng": 116.354165
        },
        "ad_info": {
            "adcode": 361002,
            "province": "江西省",
            "city": "抚州市",
            "district": "临川区"
        }
    },
    {
        "id": "7591872943033393632",
        "title": "临川服务区第二公共厕所",
        "address": "江西省抚州市临川区汤显祖大道辅路与站前北路辅路交叉口西南方向528米左右",
        "tel": "",
        "category": "基础设施:公共设施:公共厕所",
        "type": 0,
        "location": {
            "lat": 27.917654,
            "lng": 116.350598
        },
        "ad_info": {
            "adcode": 361002,
            "province": "江西省",
            "city": "抚州市",
            "district": "临川区"
        }
    },
    {
        "id": "16938672674015535419",
        "title": "公共厕所",
        "address": "江西省抚州市东乡区中河沟一巷与恒安中路交叉口正北方向240米左右",
        "tel": "",
        "category": "基础设施:公共设施:公共厕所",
        "type": 0,
        "location": {
            "lat": 28.233393,
            "lng": 116.607205
        },
        "ad_info": {
            "adcode": 361003,
            "province": "江西省",
            "city": "抚州市",
            "district": "东乡区"
        }
    },
    {
        "id": "7830379160409347464",
        "title": "公共厕所",
        "address": "江西省抚州市东乡区何家湾",
        "tel": "",
        "category": "基础设施:公共设施:公共厕所",
        "type": 0,
        "location": {
            "lat": 28.074108,
            "lng": 116.840962
        },
        "ad_info": {
            "adcode": 361003,
            "province": "江西省",
            "city": "抚州市",
            "district": "东乡区"
        }
    },
    {
        "id": "191105809756707627",
        "title": "东华理工学府路校区公厕",
        "address": "江西省抚州市临川区学府路与玉茗大道交叉口正西方向230米左右",
        "tel": "",
        "category": "基础设施:公共设施:公共厕所",
        "type": 0,
        "location": {
            "lat": 27.986382,
            "lng": 116.353478
        },
        "ad_info": {
            "adcode": 361002,
            "province": "江西省",
            "city": "抚州市",
            "district": "临川区"
        }
    },
    {
        "id": "4907391430970707237",
        "title": "公共厕所",
        "address": "江西省抚州市临川区钟岭大道与陆象山大道交叉口正南方向115米左右",
        "tel": "",
        "category": "基础设施:公共设施:公共厕所",
        "type": 0,
        "location": {
            "lat": 27.946383,
            "lng": 116.34999
        },
        "ad_info": {
            "adcode": 361002,
            "province": "江西省",
            "city": "抚州市",
            "district": "临川区"
        }
    },
    {
        "id": "4880324636063723752",
        "title": "公共厕所",
        "address": "江西省抚州市宜黄县华育彩印包装有限公司东侧60米",
        "tel": "",
        "category": "基础设施:公共设施:公共厕所",
        "type": 0,
        "location": {
            "lat": 27.563729,
            "lng": 116.235083
        },
        "ad_info": {
            "adcode": 361026,
            "province": "江西省",
            "city": "抚州市",
            "district": "宜黄县"
        }
    },
    {
        "id": "3787569323397121664",
        "title": "公共厕所",
        "address": "江西省抚州市东乡区冷井一巷与冷井二巷交叉口西南方向83米左右",
        "tel": "",
        "category": "基础设施:公共设施:公共厕所",
        "type": 0,
        "location": {
            "lat": 28.230479,
            "lng": 116.615521
        },
        "ad_info": {
            "adcode": 361003,
            "province": "江西省",
            "city": "抚州市",
            "district": "东乡区"
        }
    },
    {
        "id": "9774819841804624186",
        "title": "公共厕所",
        "address": "江西省抚州市临川区临崇路与才子西路交叉口正东方向248米左右",
        "tel": "",
        "category": "基础设施:公共设施:公共厕所",
        "type": 0,
        "location": {
            "lat": 27.926717,
            "lng": 116.288308
        },
        "ad_info": {
            "adcode": 361002,
            "province": "江西省",
            "city": "抚州市",
            "district": "临川区"
        }
    },
    {
        "id": "10800686565919022385",
        "title": "公共厕所",
        "address": "江西省抚州市临川区钟岭大道9号",
        "tel": "",
        "category": "基础设施:公共设施:公共厕所",
        "type": 0,
        "location": {
            "lat": 27.946731,
            "lng": 116.392433
        },
        "ad_info": {
            "adcode": 361002,
            "province": "江西省",
            "city": "抚州市",
            "district": "临川区"
        }
    },
    {
        "id": "8548107603577995413",
        "title": "公共厕所",
        "address": "江西省抚州市临川区燕归路与连樊路交叉口东北方向103米左右",
        "tel": "",
        "category": "基础设施:公共设施:公共厕所",
        "type": 0,
        "location": {
            "lat": 27.971922,
            "lng": 116.341147
        },
        "ad_info": {
            "adcode": 361002,
            "province": "江西省",
            "city": "抚州市",
            "district": "临川区"
        }
    },
    {
        "id": "421745935674643731",
        "title": "公共厕所",
        "address": "江西省抚州市临川区陆象山大道与王安石大道交叉口以东(王安石大道以北)",
        "tel": "",
        "category": "基础设施:公共设施:公共厕所",
        "type": 0,
        "location": {
            "lat": 27.936949,
            "lng": 116.350641
        },
        "ad_info": {
            "adcode": 361002,
            "province": "江西省",
            "city": "抚州市",
            "district": "临川区"
        }
    },
    {
        "id": "14754305124047673484",
        "title": "雁溪公共厕所",
        "address": "江西省抚州市广昌县慈生路与环岛南路交叉口东北方向81米左右",
        "tel": "",
        "category": "基础设施:公共设施:公共厕所",
        "type": 0,
        "location": {
            "lat": 26.81979,
            "lng": 116.325338
        },
        "ad_info": {
            "adcode": 361030,
            "province": "江西省",
            "city": "抚州市",
            "district": "广昌县"
        }
    },
    {
        "id": "17735357381221383801",
        "title": "公共厕所",
        "address": "江西省抚州市崇仁县周航段与程徐段交叉口正东方向329米左右",
        "tel": "",
        "category": "基础设施:公共设施:公共厕所",
        "type": 0,
        "location": {
            "lat": 27.823994,
            "lng": 116.259747
        },
        "ad_info": {
            "adcode": 361024,
            "province": "江西省",
            "city": "抚州市",
            "district": "崇仁县"
        }
    },
    {
        "id": "10190445673167345892",
        "title": "公共厕所",
        "address": "江西省抚州市临川区临川大道与育英路交叉口东北方向291米左右",
        "tel": "",
        "category": "基础设施:公共设施:公共厕所",
        "type": 0,
        "location": {
            "lat": 27.962182,
            "lng": 116.331885
        },
        "ad_info": {
            "adcode": 361002,
            "province": "江西省",
            "city": "抚州市",
            "district": "临川区"
        }
    },
    {
        "id": "14642943055850517862",
        "title": "公共厕所",
        "address": "江西省抚州市崇仁县383乡道与385乡道交叉口东北440米",
        "tel": "",
        "category": "基础设施:公共设施:公共厕所",
        "type": 0,
        "location": {
            "lat": 27.826492,
            "lng": 116.259772
        },
        "ad_info": {
            "adcode": 361024,
            "province": "江西省",
            "city": "抚州市",
            "district": "崇仁县"
        }
    },
    {
        "id": "7830885743075114121",
        "title": "资溪服务区公共厕所",
        "address": "江西省抚州市资溪县G316与江西公路交叉口东北方向1530米左右",
        "tel": "",
        "category": "基础设施:公共设施:公共厕所",
        "type": 0,
        "location": {
            "lat": 27.705348,
            "lng": 117.112347
        },
        "ad_info": {
            "adcode": 361028,
            "province": "江西省",
            "city": "抚州市",
            "district": "资溪县"
        }
    },
    {
        "id": "16983180118151387682",
        "title": "公共厕所",
        "address": "江西省抚州市崇仁县站前东路4号",
        "tel": "",
        "category": "基础设施:公共设施:公共厕所",
        "type": 0,
        "location": {
            "lat": 27.77422,
            "lng": 116.061463
        },
        "ad_info": {
            "adcode": 361024,
            "province": "江西省",
            "city": "抚州市",
            "district": "崇仁县"
        }
    },
    {
        "id": "2358159282187061926",
        "title": "公共厕所",
        "address": "江西省抚州市广昌县抚州明代雯峰书院",
        "tel": "",
        "category": "基础设施:公共设施:公共厕所",
        "type": 0,
        "location": {
            "lat": 26.933921,
            "lng": 116.386654
        },
        "ad_info": {
            "adcode": 361030,
            "province": "江西省",
            "city": "抚州市",
            "district": "广昌县"
        }
    },
    {
        "id": "6257222738631052437",
        "title": "公共厕所",
        "address": "江西省抚州市临川区梦湖西路与烟波路交叉口正南方向55米左右",
        "tel": "",
        "category": "基础设施:公共设施:公共厕所",
        "type": 0,
        "location": {
            "lat": 27.981556,
            "lng": 116.336144
        },
        "ad_info": {
            "adcode": 361002,
            "province": "江西省",
            "city": "抚州市",
            "district": "临川区"
        }
    },
    {
        "id": "17666862864183334280",
        "title": "东华理工南区公厕",
        "address": "江西省抚州市临川区玉茗大道189号",
        "tel": "",
        "category": "基础设施:公共设施:公共厕所",
        "type": 0,
        "location": {
            "lat": 27.98079,
            "lng": 116.354165
        },
        "ad_info": {
            "adcode": 361002,
            "province": "江西省",
            "city": "抚州市",
            "district": "临川区"
        }
    },
    {
        "id": "7591872943033393632",
        "title": "临川服务区第二公共厕所",
        "address": "江西省抚州市临川区汤显祖大道辅路与站前北路辅路交叉口西南方向528米左右",
        "tel": "",
        "category": "基础设施:公共设施:公共厕所",
        "type": 0,
        "location": {
            "lat": 27.917654,
            "lng": 116.350598
        },
        "ad_info": {
            "adcode": 361002,
            "province": "江西省",
            "city": "抚州市",
            "district": "临川区"
        }
    },
    {
        "id": "16938672674015535419",
        "title": "公共厕所",
        "address": "江西省抚州市东乡区中河沟一巷与恒安中路交叉口正北方向240米左右",
        "tel": "",
        "category": "基础设施:公共设施:公共厕所",
        "type": 0,
        "location": {
            "lat": 28.233393,
            "lng": 116.607205
        },
        "ad_info": {
            "adcode": 361003,
            "province": "江西省",
            "city": "抚州市",
            "district": "东乡区"
        }
    },
    {
        "id": "7830379160409347464",
        "title": "公共厕所",
        "address": "江西省抚州市东乡区何家湾",
        "tel": "",
        "category": "基础设施:公共设施:公共厕所",
        "type": 0,
        "location": {
            "lat": 28.074108,
            "lng": 116.840962
        },
        "ad_info": {
            "adcode": 361003,
            "province": "江西省",
            "city": "抚州市",
            "district": "东乡区"
        }
    },
    {
        "id": "191105809756707627",
        "title": "东华理工学府路校区公厕",
        "address": "江西省抚州市临川区学府路与玉茗大道交叉口正西方向230米左右",
        "tel": "",
        "category": "基础设施:公共设施:公共厕所",
        "type": 0,
        "location": {
            "lat": 27.986382,
            "lng": 116.353478
        },
        "ad_info": {
            "adcode": 361002,
            "province": "江西省",
            "city": "抚州市",
            "district": "临川区"
        }
    },
    {
        "id": "4907391430970707237",
        "title": "公共厕所",
        "address": "江西省抚州市临川区钟岭大道与陆象山大道交叉口正南方向115米左右",
        "tel": "",
        "category": "基础设施:公共设施:公共厕所",
        "type": 0,
        "location": {
            "lat": 27.946383,
            "lng": 116.34999
        },
        "ad_info": {
            "adcode": 361002,
            "province": "江西省",
            "city": "抚州市",
            "district": "临川区"
        }
    },
    {
        "id": "4880324636063723752",
        "title": "公共厕所",
        "address": "江西省抚州市宜黄县华育彩印包装有限公司东侧60米",
        "tel": "",
        "category": "基础设施:公共设施:公共厕所",
        "type": 0,
        "location": {
            "lat": 27.563729,
            "lng": 116.235083
        },
        "ad_info": {
            "adcode": 361026,
            "province": "江西省",
            "city": "抚州市",
            "district": "宜黄县"
        }
    },
    {
        "id": "3787569323397121664",
        "title": "公共厕所",
        "address": "江西省抚州市东乡区冷井一巷与冷井二巷交叉口西南方向83米左右",
        "tel": "",
        "category": "基础设施:公共设施:公共厕所",
        "type": 0,
        "location": {
            "lat": 28.230479,
            "lng": 116.615521
        },
        "ad_info": {
            "adcode": 361003,
            "province": "江西省",
            "city": "抚州市",
            "district": "东乡区"
        }
    },
    {
        "id": "9774819841804624186",
        "title": "公共厕所",
        "address": "江西省抚州市临川区临崇路与才子西路交叉口正东方向248米左右",
        "tel": "",
        "category": "基础设施:公共设施:公共厕所",
        "type": 0,
        "location": {
            "lat": 27.926717,
            "lng": 116.288308
        },
        "ad_info": {
            "adcode": 361002,
            "province": "江西省",
            "city": "抚州市",
            "district": "临川区"
        }
    },
    {
        "id": "10800686565919022385",
        "title": "公共厕所",
        "address": "江西省抚州市临川区钟岭大道9号",
        "tel": "",
        "category": "基础设施:公共设施:公共厕所",
        "type": 0,
        "location": {
            "lat": 27.946731,
            "lng": 116.392433
        },
        "ad_info": {
            "adcode": 361002,
            "province": "江西省",
            "city": "抚州市",
            "district": "临川区"
        }
    },
    {
        "id": "8548107603577995413",
        "title": "公共厕所",
        "address": "江西省抚州市临川区燕归路与连樊路交叉口东北方向103米左右",
        "tel": "",
        "category": "基础设施:公共设施:公共厕所",
        "type": 0,
        "location": {
            "lat": 27.971922,
            "lng": 116.341147
        },
        "ad_info": {
            "adcode": 361002,
            "province": "江西省",
            "city": "抚州市",
            "district": "临川区"
        }
    },
    {
        "id": "421745935674643731",
        "title": "公共厕所",
        "address": "江西省抚州市临川区陆象山大道与王安石大道交叉口以东(王安石大道以北)",
        "tel": "",
        "category": "基础设施:公共设施:公共厕所",
        "type": 0,
        "location": {
            "lat": 27.936949,
            "lng": 116.350641
        },
        "ad_info": {
            "adcode": 361002,
            "province": "江西省",
            "city": "抚州市",
            "district": "临川区"
        }
    },
    {
        "id": "14754305124047673484",
        "title": "雁溪公共厕所",
        "address": "江西省抚州市广昌县慈生路与环岛南路交叉口东北方向81米左右",
        "tel": "",
        "category": "基础设施:公共设施:公共厕所",
        "type": 0,
        "location": {
            "lat": 26.81979,
            "lng": 116.325338
        },
        "ad_info": {
            "adcode": 361030,
            "province": "江西省",
            "city": "抚州市",
            "district": "广昌县"
        }
    },
    {
        "id": "17735357381221383801",
        "title": "公共厕所",
        "address": "江西省抚州市崇仁县周航段与程徐段交叉口正东方向329米左右",
        "tel": "",
        "category": "基础设施:公共设施:公共厕所",
        "type": 0,
        "location": {
            "lat": 27.823994,
            "lng": 116.259747
        },
        "ad_info": {
            "adcode": 361024,
            "province": "江西省",
            "city": "抚州市",
            "district": "崇仁县"
        }
    },
    {
        "id": "10190445673167345892",
        "title": "公共厕所",
        "address": "江西省抚州市临川区临川大道与育英路交叉口东北方向291米左右",
        "tel": "",
        "category": "基础设施:公共设施:公共厕所",
        "type": 0,
        "location": {
            "lat": 27.962182,
            "lng": 116.331885
        },
        "ad_info": {
            "adcode": 361002,
            "province": "江西省",
            "city": "抚州市",
            "district": "临川区"
        }
    },
    {
        "id": "14642943055850517862",
        "title": "公共厕所",
        "address": "江西省抚州市崇仁县383乡道与385乡道交叉口东北440米",
        "tel": "",
        "category": "基础设施:公共设施:公共厕所",
        "type": 0,
        "location": {
            "lat": 27.826492,
            "lng": 116.259772
        },
        "ad_info": {
            "adcode": 361024,
            "province": "江西省",
            "city": "抚州市",
            "district": "崇仁县"
        }
    },
    {
        "id": "7830885743075114121",
        "title": "资溪服务区公共厕所",
        "address": "江西省抚州市资溪县G316与江西公路交叉口东北方向1530米左右",
        "tel": "",
        "category": "基础设施:公共设施:公共厕所",
        "type": 0,
        "location": {
            "lat": 27.705348,
            "lng": 117.112347
        },
        "ad_info": {
            "adcode": 361028,
            "province": "江西省",
            "city": "抚州市",
            "district": "资溪县"
        }
    },
    {
        "id": "16983180118151387682",
        "title": "公共厕所",
        "address": "江西省抚州市崇仁县站前东路4号",
        "tel": "",
        "category": "基础设施:公共设施:公共厕所",
        "type": 0,
        "location": {
            "lat": 27.77422,
            "lng": 116.061463
        },
        "ad_info": {
            "adcode": 361024,
            "province": "江西省",
            "city": "抚州市",
            "district": "崇仁县"
        }
    },
    {
        "id": "2358159282187061926",
        "title": "公共厕所",
        "address": "江西省抚州市广昌县抚州明代雯峰书院",
        "tel": "",
        "category": "基础设施:公共设施:公共厕所",
        "type": 0,
        "location": {
            "lat": 26.933921,
            "lng": 116.386654
        },
        "ad_info": {
            "adcode": 361030,
            "province": "江西省",
            "city": "抚州市",
            "district": "广昌县"
        }
    },
    {
        "id": "6257222738631052437",
        "title": "公共厕所",
        "address": "江西省抚州市临川区梦湖西路与烟波路交叉口正南方向55米左右",
        "tel": "",
        "category": "基础设施:公共设施:公共厕所",
        "type": 0,
        "location": {
            "lat": 27.981556,
            "lng": 116.336144
        },
        "ad_info": {
            "adcode": 361002,
            "province": "江西省",
            "city": "抚州市",
            "district": "临川区"
        }
    },
    {
        "id": "17666862864183334280",
        "title": "东华理工南区公厕",
        "address": "江西省抚州市临川区玉茗大道189号",
        "tel": "",
        "category": "基础设施:公共设施:公共厕所",
        "type": 0,
        "location": {
            "lat": 27.98079,
            "lng": 116.354165
        },
        "ad_info": {
            "adcode": 361002,
            "province": "江西省",
            "city": "抚州市",
            "district": "临川区"
        }
    },
    {
        "id": "7591872943033393632",
        "title": "临川服务区第二公共厕所",
        "address": "江西省抚州市临川区汤显祖大道辅路与站前北路辅路交叉口西南方向528米左右",
        "tel": "",
        "category": "基础设施:公共设施:公共厕所",
        "type": 0,
        "location": {
            "lat": 27.917654,
            "lng": 116.350598
        },
        "ad_info": {
            "adcode": 361002,
            "province": "江西省",
            "city": "抚州市",
            "district": "临川区"
        }
    },
    {
        "id": "16938672674015535419",
        "title": "公共厕所",
        "address": "江西省抚州市东乡区中河沟一巷与恒安中路交叉口正北方向240米左右",
        "tel": "",
        "category": "基础设施:公共设施:公共厕所",
        "type": 0,
        "location": {
            "lat": 28.233393,
            "lng": 116.607205
        },
        "ad_info": {
            "adcode": 361003,
            "province": "江西省",
            "city": "抚州市",
            "district": "东乡区"
        }
    },
    {
        "id": "7830379160409347464",
        "title": "公共厕所",
        "address": "江西省抚州市东乡区何家湾",
        "tel": "",
        "category": "基础设施:公共设施:公共厕所",
        "type": 0,
        "location": {
            "lat": 28.074108,
            "lng": 116.840962
        },
        "ad_info": {
            "adcode": 361003,
            "province": "江西省",
            "city": "抚州市",
            "district": "东乡区"
        }
    },
    {
        "id": "191105809756707627",
        "title": "东华理工学府路校区公厕",
        "address": "江西省抚州市临川区学府路与玉茗大道交叉口正西方向230米左右",
        "tel": "",
        "category": "基础设施:公共设施:公共厕所",
        "type": 0,
        "location": {
            "lat": 27.986382,
            "lng": 116.353478
        },
        "ad_info": {
            "adcode": 361002,
            "province": "江西省",
            "city": "抚州市",
            "district": "临川区"
        }
    },
    {
        "id": "4907391430970707237",
        "title": "公共厕所",
        "address": "江西省抚州市临川区钟岭大道与陆象山大道交叉口正南方向115米左右",
        "tel": "",
        "category": "基础设施:公共设施:公共厕所",
        "type": 0,
        "location": {
            "lat": 27.946383,
            "lng": 116.34999
        },
        "ad_info": {
            "adcode": 361002,
            "province": "江西省",
            "city": "抚州市",
            "district": "临川区"
        }
    },
    {
        "id": "4880324636063723752",
        "title": "公共厕所",
        "address": "江西省抚州市宜黄县华育彩印包装有限公司东侧60米",
        "tel": "",
        "category": "基础设施:公共设施:公共厕所",
        "type": 0,
        "location": {
            "lat": 27.563729,
            "lng": 116.235083
        },
        "ad_info": {
            "adcode": 361026,
            "province": "江西省",
            "city": "抚州市",
            "district": "宜黄县"
        }
    },
    {
        "id": "3787569323397121664",
        "title": "公共厕所",
        "address": "江西省抚州市东乡区冷井一巷与冷井二巷交叉口西南方向83米左右",
        "tel": "",
        "category": "基础设施:公共设施:公共厕所",
        "type": 0,
        "location": {
            "lat": 28.230479,
            "lng": 116.615521
        },
        "ad_info": {
            "adcode": 361003,
            "province": "江西省",
            "city": "抚州市",
            "district": "东乡区"
        }
    },
    {
        "id": "9774819841804624186",
        "title": "公共厕所",
        "address": "江西省抚州市临川区临崇路与才子西路交叉口正东方向248米左右",
        "tel": "",
        "category": "基础设施:公共设施:公共厕所",
        "type": 0,
        "location": {
            "lat": 27.926717,
            "lng": 116.288308
        },
        "ad_info": {
            "adcode": 361002,
            "province": "江西省",
            "city": "抚州市",
            "district": "临川区"
        }
    },
    {
        "id": "10800686565919022385",
        "title": "公共厕所",
        "address": "江西省抚州市临川区钟岭大道9号",
        "tel": "",
        "category": "基础设施:公共设施:公共厕所",
        "type": 0,
        "location": {
            "lat": 27.946731,
            "lng": 116.392433
        },
        "ad_info": {
            "adcode": 361002,
            "province": "江西省",
            "city": "抚州市",
            "district": "临川区"
        }
    },
    {
        "id": "8548107603577995413",
        "title": "公共厕所",
        "address": "江西省抚州市临川区燕归路与连樊路交叉口东北方向103米左右",
        "tel": "",
        "category": "基础设施:公共设施:公共厕所",
        "type": 0,
        "location": {
            "lat": 27.971922,
            "lng": 116.341147
        },
        "ad_info": {
            "adcode": 361002,
            "province": "江西省",
            "city": "抚州市",
            "district": "临川区"
        }
    },
    {
        "id": "421745935674643731",
        "title": "公共厕所",
        "address": "江西省抚州市临川区陆象山大道与王安石大道交叉口以东(王安石大道以北)",
        "tel": "",
        "category": "基础设施:公共设施:公共厕所",
        "type": 0,
        "location": {
            "lat": 27.936949,
            "lng": 116.350641
        },
        "ad_info": {
            "adcode": 361002,
            "province": "江西省",
            "city": "抚州市",
            "district": "临川区"
        }
    },
    {
        "id": "14754305124047673484",
        "title": "雁溪公共厕所",
        "address": "江西省抚州市广昌县慈生路与环岛南路交叉口东北方向81米左右",
        "tel": "",
        "category": "基础设施:公共设施:公共厕所",
        "type": 0,
        "location": {
            "lat": 26.81979,
            "lng": 116.325338
        },
        "ad_info": {
            "adcode": 361030,
            "province": "江西省",
            "city": "抚州市",
            "district": "广昌县"
        }
    },
    {
        "id": "17735357381221383801",
        "title": "公共厕所",
        "address": "江西省抚州市崇仁县周航段与程徐段交叉口正东方向329米左右",
        "tel": "",
        "category": "基础设施:公共设施:公共厕所",
        "type": 0,
        "location": {
            "lat": 27.823994,
            "lng": 116.259747
        },
        "ad_info": {
            "adcode": 361024,
            "province": "江西省",
            "city": "抚州市",
            "district": "崇仁县"
        }
    },
    {
        "id": "10190445673167345892",
        "title": "公共厕所",
        "address": "江西省抚州市临川区临川大道与育英路交叉口东北方向291米左右",
        "tel": "",
        "category": "基础设施:公共设施:公共厕所",
        "type": 0,
        "location": {
            "lat": 27.962182,
            "lng": 116.331885
        },
        "ad_info": {
            "adcode": 361002,
            "province": "江西省",
            "city": "抚州市",
            "district": "临川区"
        }
    },
    {
        "id": "14642943055850517862",
        "title": "公共厕所",
        "address": "江西省抚州市崇仁县383乡道与385乡道交叉口东北440米",
        "tel": "",
        "category": "基础设施:公共设施:公共厕所",
        "type": 0,
        "location": {
            "lat": 27.826492,
            "lng": 116.259772
        },
        "ad_info": {
            "adcode": 361024,
            "province": "江西省",
            "city": "抚州市",
            "district": "崇仁县"
        }
    },
    {
        "id": "7830885743075114121",
        "title": "资溪服务区公共厕所",
        "address": "江西省抚州市资溪县G316与江西公路交叉口东北方向1530米左右",
        "tel": "",
        "category": "基础设施:公共设施:公共厕所",
        "type": 0,
        "location": {
            "lat": 27.705348,
            "lng": 117.112347
        },
        "ad_info": {
            "adcode": 361028,
            "province": "江西省",
            "city": "抚州市",
            "district": "资溪县"
        }
    },
    {
        "id": "16983180118151387682",
        "title": "公共厕所",
        "address": "江西省抚州市崇仁县站前东路4号",
        "tel": "",
        "category": "基础设施:公共设施:公共厕所",
        "type": 0,
        "location": {
            "lat": 27.77422,
            "lng": 116.061463
        },
        "ad_info": {
            "adcode": 361024,
            "province": "江西省",
            "city": "抚州市",
            "district": "崇仁县"
        }
    },
    {
        "id": "2358159282187061926",
        "title": "公共厕所",
        "address": "江西省抚州市广昌县抚州明代雯峰书院",
        "tel": "",
        "category": "基础设施:公共设施:公共厕所",
        "type": 0,
        "location": {
            "lat": 26.933921,
            "lng": 116.386654
        },
        "ad_info": {
            "adcode": 361030,
            "province": "江西省",
            "city": "抚州市",
            "district": "广昌县"
        }
    },
    {
        "id": "6257222738631052437",
        "title": "公共厕所",
        "address": "江西省抚州市临川区梦湖西路与烟波路交叉口正南方向55米左右",
        "tel": "",
        "category": "基础设施:公共设施:公共厕所",
        "type": 0,
        "location": {
            "lat": 27.981556,
            "lng": 116.336144
        },
        "ad_info": {
            "adcode": 361002,
            "province": "江西省",
            "city": "抚州市",
            "district": "临川区"
        }
    },
    {
        "id": "17666862864183334280",
        "title": "东华理工南区公厕",
        "address": "江西省抚州市临川区玉茗大道189号",
        "tel": "",
        "category": "基础设施:公共设施:公共厕所",
        "type": 0,
        "location": {
            "lat": 27.98079,
            "lng": 116.354165
        },
        "ad_info": {
            "adcode": 361002,
            "province": "江西省",
            "city": "抚州市",
            "district": "临川区"
        }
    },
    {
        "id": "7591872943033393632",
        "title": "临川服务区第二公共厕所",
        "address": "江西省抚州市临川区汤显祖大道辅路与站前北路辅路交叉口西南方向528米左右",
        "tel": "",
        "category": "基础设施:公共设施:公共厕所",
        "type": 0,
        "location": {
            "lat": 27.917654,
            "lng": 116.350598
        },
        "ad_info": {
            "adcode": 361002,
            "province": "江西省",
            "city": "抚州市",
            "district": "临川区"
        }
    },
    {
        "id": "16938672674015535419",
        "title": "公共厕所",
        "address": "江西省抚州市东乡区中河沟一巷与恒安中路交叉口正北方向240米左右",
        "tel": "",
        "category": "基础设施:公共设施:公共厕所",
        "type": 0,
        "location": {
            "lat": 28.233393,
            "lng": 116.607205
        },
        "ad_info": {
            "adcode": 361003,
            "province": "江西省",
            "city": "抚州市",
            "district": "东乡区"
        }
    },
    {
        "id": "7830379160409347464",
        "title": "公共厕所",
        "address": "江西省抚州市东乡区何家湾",
        "tel": "",
        "category": "基础设施:公共设施:公共厕所",
        "type": 0,
        "location": {
            "lat": 28.074108,
            "lng": 116.840962
        },
        "ad_info": {
            "adcode": 361003,
            "province": "江西省",
            "city": "抚州市",
            "district": "东乡区"
        }
    },
    {
        "id": "191105809756707627",
        "title": "东华理工学府路校区公厕",
        "address": "江西省抚州市临川区学府路与玉茗大道交叉口正西方向230米左右",
        "tel": "",
        "category": "基础设施:公共设施:公共厕所",
        "type": 0,
        "location": {
            "lat": 27.986382,
            "lng": 116.353478
        },
        "ad_info": {
            "adcode": 361002,
            "province": "江西省",
            "city": "抚州市",
            "district": "临川区"
        }
    },
    {
        "id": "4907391430970707237",
        "title": "公共厕所",
        "address": "江西省抚州市临川区钟岭大道与陆象山大道交叉口正南方向115米左右",
        "tel": "",
        "category": "基础设施:公共设施:公共厕所",
        "type": 0,
        "location": {
            "lat": 27.946383,
            "lng": 116.34999
        },
        "ad_info": {
            "adcode": 361002,
            "province": "江西省",
            "city": "抚州市",
            "district": "临川区"
        }
    },
    {
        "id": "4880324636063723752",
        "title": "公共厕所",
        "address": "江西省抚州市宜黄县华育彩印包装有限公司东侧60米",
        "tel": "",
        "category": "基础设施:公共设施:公共厕所",
        "type": 0,
        "location": {
            "lat": 27.563729,
            "lng": 116.235083
        },
        "ad_info": {
            "adcode": 361026,
            "province": "江西省",
            "city": "抚州市",
            "district": "宜黄县"
        }
    },
    {
        "id": "3787569323397121664",
        "title": "公共厕所",
        "address": "江西省抚州市东乡区冷井一巷与冷井二巷交叉口西南方向83米左右",
        "tel": "",
        "category": "基础设施:公共设施:公共厕所",
        "type": 0,
        "location": {
            "lat": 28.230479,
            "lng": 116.615521
        },
        "ad_info": {
            "adcode": 361003,
            "province": "江西省",
            "city": "抚州市",
            "district": "东乡区"
        }
    },
    {
        "id": "9774819841804624186",
        "title": "公共厕所",
        "address": "江西省抚州市临川区临崇路与才子西路交叉口正东方向248米左右",
        "tel": "",
        "category": "基础设施:公共设施:公共厕所",
        "type": 0,
        "location": {
            "lat": 27.926717,
            "lng": 116.288308
        },
        "ad_info": {
            "adcode": 361002,
            "province": "江西省",
            "city": "抚州市",
            "district": "临川区"
        }
    },
    {
        "id": "10800686565919022385",
        "title": "公共厕所",
        "address": "江西省抚州市临川区钟岭大道9号",
        "tel": "",
        "category": "基础设施:公共设施:公共厕所",
        "type": 0,
        "location": {
            "lat": 27.946731,
            "lng": 116.392433
        },
        "ad_info": {
            "adcode": 361002,
            "province": "江西省",
            "city": "抚州市",
            "district": "临川区"
        }
    },
    {
        "id": "8548107603577995413",
        "title": "公共厕所",
        "address": "江西省抚州市临川区燕归路与连樊路交叉口东北方向103米左右",
        "tel": "",
        "category": "基础设施:公共设施:公共厕所",
        "type": 0,
        "location": {
            "lat": 27.971922,
            "lng": 116.341147
        },
        "ad_info": {
            "adcode": 361002,
            "province": "江西省",
            "city": "抚州市",
            "district": "临川区"
        }
    },
    {
        "id": "421745935674643731",
        "title": "公共厕所",
        "address": "江西省抚州市临川区陆象山大道与王安石大道交叉口以东(王安石大道以北)",
        "tel": "",
        "category": "基础设施:公共设施:公共厕所",
        "type": 0,
        "location": {
            "lat": 27.936949,
            "lng": 116.350641
        },
        "ad_info": {
            "adcode": 361002,
            "province": "江西省",
            "city": "抚州市",
            "district": "临川区"
        }
    },
    {
        "id": "14754305124047673484",
        "title": "雁溪公共厕所",
        "address": "江西省抚州市广昌县慈生路与环岛南路交叉口东北方向81米左右",
        "tel": "",
        "category": "基础设施:公共设施:公共厕所",
        "type": 0,
        "location": {
            "lat": 26.81979,
            "lng": 116.325338
        },
        "ad_info": {
            "adcode": 361030,
            "province": "江西省",
            "city": "抚州市",
            "district": "广昌县"
        }
    },
    {
        "id": "17735357381221383801",
        "title": "公共厕所",
        "address": "江西省抚州市崇仁县周航段与程徐段交叉口正东方向329米左右",
        "tel": "",
        "category": "基础设施:公共设施:公共厕所",
        "type": 0,
        "location": {
            "lat": 27.823994,
            "lng": 116.259747
        },
        "ad_info": {
            "adcode": 361024,
            "province": "江西省",
            "city": "抚州市",
            "district": "崇仁县"
        }
    },
    {
        "id": "10190445673167345892",
        "title": "公共厕所",
        "address": "江西省抚州市临川区临川大道与育英路交叉口东北方向291米左右",
        "tel": "",
        "category": "基础设施:公共设施:公共厕所",
        "type": 0,
        "location": {
            "lat": 27.962182,
            "lng": 116.331885
        },
        "ad_info": {
            "adcode": 361002,
            "province": "江西省",
            "city": "抚州市",
            "district": "临川区"
        }
    },
    {
        "id": "14642943055850517862",
        "title": "公共厕所",
        "address": "江西省抚州市崇仁县383乡道与385乡道交叉口东北440米",
        "tel": "",
        "category": "基础设施:公共设施:公共厕所",
        "type": 0,
        "location": {
            "lat": 27.826492,
            "lng": 116.259772
        },
        "ad_info": {
            "adcode": 361024,
            "province": "江西省",
            "city": "抚州市",
            "district": "崇仁县"
        }
    },
    {
        "id": "7830885743075114121",
        "title": "资溪服务区公共厕所",
        "address": "江西省抚州市资溪县G316与江西公路交叉口东北方向1530米左右",
        "tel": "",
        "category": "基础设施:公共设施:公共厕所",
        "type": 0,
        "location": {
            "lat": 27.705348,
            "lng": 117.112347
        },
        "ad_info": {
            "adcode": 361028,
            "province": "江西省",
            "city": "抚州市",
            "district": "资溪县"
        }
    },
    {
        "id": "16983180118151387682",
        "title": "公共厕所",
        "address": "江西省抚州市崇仁县站前东路4号",
        "tel": "",
        "category": "基础设施:公共设施:公共厕所",
        "type": 0,
        "location": {
            "lat": 27.77422,
            "lng": 116.061463
        },
        "ad_info": {
            "adcode": 361024,
            "province": "江西省",
            "city": "抚州市",
            "district": "崇仁县"
        }
    },
    {
        "id": "2358159282187061926",
        "title": "公共厕所",
        "address": "江西省抚州市广昌县抚州明代雯峰书院",
        "tel": "",
        "category": "基础设施:公共设施:公共厕所",
        "type": 0,
        "location": {
            "lat": 26.933921,
            "lng": 116.386654
        },
        "ad_info": {
            "adcode": 361030,
            "province": "江西省",
            "city": "抚州市",
            "district": "广昌县"
        }
    },
    {
        "id": "6257222738631052437",
        "title": "公共厕所",
        "address": "江西省抚州市临川区梦湖西路与烟波路交叉口正南方向55米左右",
        "tel": "",
        "category": "基础设施:公共设施:公共厕所",
        "type": 0,
        "location": {
            "lat": 27.981556,
            "lng": 116.336144
        },
        "ad_info": {
            "adcode": 361002,
            "province": "江西省",
            "city": "抚州市",
            "district": "临川区"
        }
    },
    {
        "id": "17666862864183334280",
        "title": "东华理工南区公厕",
        "address": "江西省抚州市临川区玉茗大道189号",
        "tel": "",
        "category": "基础设施:公共设施:公共厕所",
        "type": 0,
        "location": {
            "lat": 27.98079,
            "lng": 116.354165
        },
        "ad_info": {
            "adcode": 361002,
            "province": "江西省",
            "city": "抚州市",
            "district": "临川区"
        }
    },
    {
        "id": "7591872943033393632",
        "title": "临川服务区第二公共厕所",
        "address": "江西省抚州市临川区汤显祖大道辅路与站前北路辅路交叉口西南方向528米左右",
        "tel": "",
        "category": "基础设施:公共设施:公共厕所",
        "type": 0,
        "location": {
            "lat": 27.917654,
            "lng": 116.350598
        },
        "ad_info": {
            "adcode": 361002,
            "province": "江西省",
            "city": "抚州市",
            "district": "临川区"
        }
    },
    {
        "id": "16938672674015535419",
        "title": "公共厕所",
        "address": "江西省抚州市东乡区中河沟一巷与恒安中路交叉口正北方向240米左右",
        "tel": "",
        "category": "基础设施:公共设施:公共厕所",
        "type": 0,
        "location": {
            "lat": 28.233393,
            "lng": 116.607205
        },
        "ad_info": {
            "adcode": 361003,
            "province": "江西省",
            "city": "抚州市",
            "district": "东乡区"
        }
    },
    {
        "id": "7830379160409347464",
        "title": "公共厕所",
        "address": "江西省抚州市东乡区何家湾",
        "tel": "",
        "category": "基础设施:公共设施:公共厕所",
        "type": 0,
        "location": {
            "lat": 28.074108,
            "lng": 116.840962
        },
        "ad_info": {
            "adcode": 361003,
            "province": "江西省",
            "city": "抚州市",
            "district": "东乡区"
        }
    },
    {
        "id": "191105809756707627",
        "title": "东华理工学府路校区公厕",
        "address": "江西省抚州市临川区学府路与玉茗大道交叉口正西方向230米左右",
        "tel": "",
        "category": "基础设施:公共设施:公共厕所",
        "type": 0,
        "location": {
            "lat": 27.986382,
            "lng": 116.353478
        },
        "ad_info": {
            "adcode": 361002,
            "province": "江西省",
            "city": "抚州市",
            "district": "临川区"
        }
    },
    {
        "id": "4907391430970707237",
        "title": "公共厕所",
        "address": "江西省抚州市临川区钟岭大道与陆象山大道交叉口正南方向115米左右",
        "tel": "",
        "category": "基础设施:公共设施:公共厕所",
        "type": 0,
        "location": {
            "lat": 27.946383,
            "lng": 116.34999
        },
        "ad_info": {
            "adcode": 361002,
            "province": "江西省",
            "city": "抚州市",
            "district": "临川区"
        }
    },
    {
        "id": "4880324636063723752",
        "title": "公共厕所",
        "address": "江西省抚州市宜黄县华育彩印包装有限公司东侧60米",
        "tel": "",
        "category": "基础设施:公共设施:公共厕所",
        "type": 0,
        "location": {
            "lat": 27.563729,
            "lng": 116.235083
        },
        "ad_info": {
            "adcode": 361026,
            "province": "江西省",
            "city": "抚州市",
            "district": "宜黄县"
        }
    },
    {
        "id": "3787569323397121664",
        "title": "公共厕所",
        "address": "江西省抚州市东乡区冷井一巷与冷井二巷交叉口西南方向83米左右",
        "tel": "",
        "category": "基础设施:公共设施:公共厕所",
        "type": 0,
        "location": {
            "lat": 28.230479,
            "lng": 116.615521
        },
        "ad_info": {
            "adcode": 361003,
            "province": "江西省",
            "city": "抚州市",
            "district": "东乡区"
        }
    },
    {
        "id": "9774819841804624186",
        "title": "公共厕所",
        "address": "江西省抚州市临川区临崇路与才子西路交叉口正东方向248米左右",
        "tel": "",
        "category": "基础设施:公共设施:公共厕所",
        "type": 0,
        "location": {
            "lat": 27.926717,
            "lng": 116.288308
        },
        "ad_info": {
            "adcode": 361002,
            "province": "江西省",
            "city": "抚州市",
            "district": "临川区"
        }
    },
    {
        "id": "10800686565919022385",
        "title": "公共厕所",
        "address": "江西省抚州市临川区钟岭大道9号",
        "tel": "",
        "category": "基础设施:公共设施:公共厕所",
        "type": 0,
        "location": {
            "lat": 27.946731,
            "lng": 116.392433
        },
        "ad_info": {
            "adcode": 361002,
            "province": "江西省",
            "city": "抚州市",
            "district": "临川区"
        }
    },
    {
        "id": "8548107603577995413",
        "title": "公共厕所",
        "address": "江西省抚州市临川区燕归路与连樊路交叉口东北方向103米左右",
        "tel": "",
        "category": "基础设施:公共设施:公共厕所",
        "type": 0,
        "location": {
            "lat": 27.971922,
            "lng": 116.341147
        },
        "ad_info": {
            "adcode": 361002,
            "province": "江西省",
            "city": "抚州市",
            "district": "临川区"
        }
    },
    {
        "id": "421745935674643731",
        "title": "公共厕所",
        "address": "江西省抚州市临川区陆象山大道与王安石大道交叉口以东(王安石大道以北)",
        "tel": "",
        "category": "基础设施:公共设施:公共厕所",
        "type": 0,
        "location": {
            "lat": 27.936949,
            "lng": 116.350641
        },
        "ad_info": {
            "adcode": 361002,
            "province": "江西省",
            "city": "抚州市",
            "district": "临川区"
        }
    },
    {
        "id": "14754305124047673484",
        "title": "雁溪公共厕所",
        "address": "江西省抚州市广昌县慈生路与环岛南路交叉口东北方向81米左右",
        "tel": "",
        "category": "基础设施:公共设施:公共厕所",
        "type": 0,
        "location": {
            "lat": 26.81979,
            "lng": 116.325338
        },
        "ad_info": {
            "adcode": 361030,
            "province": "江西省",
            "city": "抚州市",
            "district": "广昌县"
        }
    },
    {
        "id": "17735357381221383801",
        "title": "公共厕所",
        "address": "江西省抚州市崇仁县周航段与程徐段交叉口正东方向329米左右",
        "tel": "",
        "category": "基础设施:公共设施:公共厕所",
        "type": 0,
        "location": {
            "lat": 27.823994,
            "lng": 116.259747
        },
        "ad_info": {
            "adcode": 361024,
            "province": "江西省",
            "city": "抚州市",
            "district": "崇仁县"
        }
    },
    {
        "id": "10190445673167345892",
        "title": "公共厕所",
        "address": "江西省抚州市临川区临川大道与育英路交叉口东北方向291米左右",
        "tel": "",
        "category": "基础设施:公共设施:公共厕所",
        "type": 0,
        "location": {
            "lat": 27.962182,
            "lng": 116.331885
        },
        "ad_info": {
            "adcode": 361002,
            "province": "江西省",
            "city": "抚州市",
            "district": "临川区"
        }
    },
    {
        "id": "14642943055850517862",
        "title": "公共厕所",
        "address": "江西省抚州市崇仁县383乡道与385乡道交叉口东北440米",
        "tel": "",
        "category": "基础设施:公共设施:公共厕所",
        "type": 0,
        "location": {
            "lat": 27.826492,
            "lng": 116.259772
        },
        "ad_info": {
            "adcode": 361024,
            "province": "江西省",
            "city": "抚州市",
            "district": "崇仁县"
        }
    },
    {
        "id": "7830885743075114121",
        "title": "资溪服务区公共厕所",
        "address": "江西省抚州市资溪县G316与江西公路交叉口东北方向1530米左右",
        "tel": "",
        "category": "基础设施:公共设施:公共厕所",
        "type": 0,
        "location": {
            "lat": 27.705348,
            "lng": 117.112347
        },
        "ad_info": {
            "adcode": 361028,
            "province": "江西省",
            "city": "抚州市",
            "district": "资溪县"
        }
    },
    {
        "id": "16983180118151387682",
        "title": "公共厕所",
        "address": "江西省抚州市崇仁县站前东路4号",
        "tel": "",
        "category": "基础设施:公共设施:公共厕所",
        "type": 0,
        "location": {
            "lat": 27.77422,
            "lng": 116.061463
        },
        "ad_info": {
            "adcode": 361024,
            "province": "江西省",
            "city": "抚州市",
            "district": "崇仁县"
        }
    },
    {
        "id": "2358159282187061926",
        "title": "公共厕所",
        "address": "江西省抚州市广昌县抚州明代雯峰书院",
        "tel": "",
        "category": "基础设施:公共设施:公共厕所",
        "type": 0,
        "location": {
            "lat": 26.933921,
            "lng": 116.386654
        },
        "ad_info": {
            "adcode": 361030,
            "province": "江西省",
            "city": "抚州市",
            "district": "广昌县"
        }
    },
    {
        "id": "6257222738631052437",
        "title": "公共厕所",
        "address": "江西省抚州市临川区梦湖西路与烟波路交叉口正南方向55米左右",
        "tel": "",
        "category": "基础设施:公共设施:公共厕所",
        "type": 0,
        "location": {
            "lat": 27.981556,
            "lng": 116.336144
        },
        "ad_info": {
            "adcode": 361002,
            "province": "江西省",
            "city": "抚州市",
            "district": "临川区"
        }
    },
    {
        "id": "17666862864183334280",
        "title": "东华理工南区公厕",
        "address": "江西省抚州市临川区玉茗大道189号",
        "tel": "",
        "category": "基础设施:公共设施:公共厕所",
        "type": 0,
        "location": {
            "lat": 27.98079,
            "lng": 116.354165
        },
        "ad_info": {
            "adcode": 361002,
            "province": "江西省",
            "city": "抚州市",
            "district": "临川区"
        }
    },
    {
        "id": "7591872943033393632",
        "title": "临川服务区第二公共厕所",
        "address": "江西省抚州市临川区汤显祖大道辅路与站前北路辅路交叉口西南方向528米左右",
        "tel": "",
        "category": "基础设施:公共设施:公共厕所",
        "type": 0,
        "location": {
            "lat": 27.917654,
            "lng": 116.350598
        },
        "ad_info": {
            "adcode": 361002,
            "province": "江西省",
            "city": "抚州市",
            "district": "临川区"
        }
    },
    {
        "id": "16938672674015535419",
        "title": "公共厕所",
        "address": "江西省抚州市东乡区中河沟一巷与恒安中路交叉口正北方向240米左右",
        "tel": "",
        "category": "基础设施:公共设施:公共厕所",
        "type": 0,
        "location": {
            "lat": 28.233393,
            "lng": 116.607205
        },
        "ad_info": {
            "adcode": 361003,
            "province": "江西省",
            "city": "抚州市",
            "district": "东乡区"
        }
    },
    {
        "id": "7830379160409347464",
        "title": "公共厕所",
        "address": "江西省抚州市东乡区何家湾",
        "tel": "",
        "category": "基础设施:公共设施:公共厕所",
        "type": 0,
        "location": {
            "lat": 28.074108,
            "lng": 116.840962
        },
        "ad_info": {
            "adcode": 361003,
            "province": "江西省",
            "city": "抚州市",
            "district": "东乡区"
        }
    },
    {
        "id": "191105809756707627",
        "title": "东华理工学府路校区公厕",
        "address": "江西省抚州市临川区学府路与玉茗大道交叉口正西方向230米左右",
        "tel": "",
        "category": "基础设施:公共设施:公共厕所",
        "type": 0,
        "location": {
            "lat": 27.986382,
            "lng": 116.353478
        },
        "ad_info": {
            "adcode": 361002,
            "province": "江西省",
            "city": "抚州市",
            "district": "临川区"
        }
    },
    {
        "id": "4907391430970707237",
        "title": "公共厕所",
        "address": "江西省抚州市临川区钟岭大道与陆象山大道交叉口正南方向115米左右",
        "tel": "",
        "category": "基础设施:公共设施:公共厕所",
        "type": 0,
        "location": {
            "lat": 27.946383,
            "lng": 116.34999
        },
        "ad_info": {
            "adcode": 361002,
            "province": "江西省",
            "city": "抚州市",
            "district": "临川区"
        }
    },
    {
        "id": "4880324636063723752",
        "title": "公共厕所",
        "address": "江西省抚州市宜黄县华育彩印包装有限公司东侧60米",
        "tel": "",
        "category": "基础设施:公共设施:公共厕所",
        "type": 0,
        "location": {
            "lat": 27.563729,
            "lng": 116.235083
        },
        "ad_info": {
            "adcode": 361026,
            "province": "江西省",
            "city": "抚州市",
            "district": "宜黄县"
        }
    },
    {
        "id": "3787569323397121664",
        "title": "公共厕所",
        "address": "江西省抚州市东乡区冷井一巷与冷井二巷交叉口西南方向83米左右",
        "tel": "",
        "category": "基础设施:公共设施:公共厕所",
        "type": 0,
        "location": {
            "lat": 28.230479,
            "lng": 116.615521
        },
        "ad_info": {
            "adcode": 361003,
            "province": "江西省",
            "city": "抚州市",
            "district": "东乡区"
        }
    },
    {
        "id": "9774819841804624186",
        "title": "公共厕所",
        "address": "江西省抚州市临川区临崇路与才子西路交叉口正东方向248米左右",
        "tel": "",
        "category": "基础设施:公共设施:公共厕所",
        "type": 0,
        "location": {
            "lat": 27.926717,
            "lng": 116.288308
        },
        "ad_info": {
            "adcode": 361002,
            "province": "江西省",
            "city": "抚州市",
            "district": "临川区"
        }
    },
    {
        "id": "10800686565919022385",
        "title": "公共厕所",
        "address": "江西省抚州市临川区钟岭大道9号",
        "tel": "",
        "category": "基础设施:公共设施:公共厕所",
        "type": 0,
        "location": {
            "lat": 27.946731,
            "lng": 116.392433
        },
        "ad_info": {
            "adcode": 361002,
            "province": "江西省",
            "city": "抚州市",
            "district": "临川区"
        }
    },
    {
        "id": "8548107603577995413",
        "title": "公共厕所",
        "address": "江西省抚州市临川区燕归路与连樊路交叉口东北方向103米左右",
        "tel": "",
        "category": "基础设施:公共设施:公共厕所",
        "type": 0,
        "location": {
            "lat": 27.971922,
            "lng": 116.341147
        },
        "ad_info": {
            "adcode": 361002,
            "province": "江西省",
            "city": "抚州市",
            "district": "临川区"
        }
    },
    {
        "id": "421745935674643731",
        "title": "公共厕所",
        "address": "江西省抚州市临川区陆象山大道与王安石大道交叉口以东(王安石大道以北)",
        "tel": "",
        "category": "基础设施:公共设施:公共厕所",
        "type": 0,
        "location": {
            "lat": 27.936949,
            "lng": 116.350641
        },
        "ad_info": {
            "adcode": 361002,
            "province": "江西省",
            "city": "抚州市",
            "district": "临川区"
        }
    },
    {
        "id": "14754305124047673484",
        "title": "雁溪公共厕所",
        "address": "江西省抚州市广昌县慈生路与环岛南路交叉口东北方向81米左右",
        "tel": "",
        "category": "基础设施:公共设施:公共厕所",
        "type": 0,
        "location": {
            "lat": 26.81979,
            "lng": 116.325338
        },
        "ad_info": {
            "adcode": 361030,
            "province": "江西省",
            "city": "抚州市",
            "district": "广昌县"
        }
    },
    {
        "id": "17735357381221383801",
        "title": "公共厕所",
        "address": "江西省抚州市崇仁县周航段与程徐段交叉口正东方向329米左右",
        "tel": "",
        "category": "基础设施:公共设施:公共厕所",
        "type": 0,
        "location": {
            "lat": 27.823994,
            "lng": 116.259747
        },
        "ad_info": {
            "adcode": 361024,
            "province": "江西省",
            "city": "抚州市",
            "district": "崇仁县"
        }
    },
    {
        "id": "10190445673167345892",
        "title": "公共厕所",
        "address": "江西省抚州市临川区临川大道与育英路交叉口东北方向291米左右",
        "tel": "",
        "category": "基础设施:公共设施:公共厕所",
        "type": 0,
        "location": {
            "lat": 27.962182,
            "lng": 116.331885
        },
        "ad_info": {
            "adcode": 361002,
            "province": "江西省",
            "city": "抚州市",
            "district": "临川区"
        }
    },
    {
        "id": "14642943055850517862",
        "title": "公共厕所",
        "address": "江西省抚州市崇仁县383乡道与385乡道交叉口东北440米",
        "tel": "",
        "category": "基础设施:公共设施:公共厕所",
        "type": 0,
        "location": {
            "lat": 27.826492,
            "lng": 116.259772
        },
        "ad_info": {
            "adcode": 361024,
            "province": "江西省",
            "city": "抚州市",
            "district": "崇仁县"
        }
    },
    {
        "id": "7830885743075114121",
        "title": "资溪服务区公共厕所",
        "address": "江西省抚州市资溪县G316与江西公路交叉口东北方向1530米左右",
        "tel": "",
        "category": "基础设施:公共设施:公共厕所",
        "type": 0,
        "location": {
            "lat": 27.705348,
            "lng": 117.112347
        },
        "ad_info": {
            "adcode": 361028,
            "province": "江西省",
            "city": "抚州市",
            "district": "资溪县"
        }
    },
    {
        "id": "16983180118151387682",
        "title": "公共厕所",
        "address": "江西省抚州市崇仁县站前东路4号",
        "tel": "",
        "category": "基础设施:公共设施:公共厕所",
        "type": 0,
        "location": {
            "lat": 27.77422,
            "lng": 116.061463
        },
        "ad_info": {
            "adcode": 361024,
            "province": "江西省",
            "city": "抚州市",
            "district": "崇仁县"
        }
    },
    {
        "id": "2358159282187061926",
        "title": "公共厕所",
        "address": "江西省抚州市广昌县抚州明代雯峰书院",
        "tel": "",
        "category": "基础设施:公共设施:公共厕所",
        "type": 0,
        "location": {
            "lat": 26.933921,
            "lng": 116.386654
        },
        "ad_info": {
            "adcode": 361030,
            "province": "江西省",
            "city": "抚州市",
            "district": "广昌县"
        }
    },
    {
        "id": "6257222738631052437",
        "title": "公共厕所",
        "address": "江西省抚州市临川区梦湖西路与烟波路交叉口正南方向55米左右",
        "tel": "",
        "category": "基础设施:公共设施:公共厕所",
        "type": 0,
        "location": {
            "lat": 27.981556,
            "lng": 116.336144
        },
        "ad_info": {
            "adcode": 361002,
            "province": "江西省",
            "city": "抚州市",
            "district": "临川区"
        }
    },
    {
        "id": "17666862864183334280",
        "title": "东华理工南区公厕",
        "address": "江西省抚州市临川区玉茗大道189号",
        "tel": "",
        "category": "基础设施:公共设施:公共厕所",
        "type": 0,
        "location": {
            "lat": 27.98079,
            "lng": 116.354165
        },
        "ad_info": {
            "adcode": 361002,
            "province": "江西省",
            "city": "抚州市",
            "district": "临川区"
        }
    },
    {
        "id": "7591872943033393632",
        "title": "临川服务区第二公共厕所",
        "address": "江西省抚州市临川区汤显祖大道辅路与站前北路辅路交叉口西南方向528米左右",
        "tel": "",
        "category": "基础设施:公共设施:公共厕所",
        "type": 0,
        "location": {
            "lat": 27.917654,
            "lng": 116.350598
        },
        "ad_info": {
            "adcode": 361002,
            "province": "江西省",
            "city": "抚州市",
            "district": "临川区"
        }
    },
    {
        "id": "16938672674015535419",
        "title": "公共厕所",
        "address": "江西省抚州市东乡区中河沟一巷与恒安中路交叉口正北方向240米左右",
        "tel": "",
        "category": "基础设施:公共设施:公共厕所",
        "type": 0,
        "location": {
            "lat": 28.233393,
            "lng": 116.607205
        },
        "ad_info": {
            "adcode": 361003,
            "province": "江西省",
            "city": "抚州市",
            "district": "东乡区"
        }
    },
    {
        "id": "7830379160409347464",
        "title": "公共厕所",
        "address": "江西省抚州市东乡区何家湾",
        "tel": "",
        "category": "基础设施:公共设施:公共厕所",
        "type": 0,
        "location": {
            "lat": 28.074108,
            "lng": 116.840962
        },
        "ad_info": {
            "adcode": 361003,
            "province": "江西省",
            "city": "抚州市",
            "district": "东乡区"
        }
    }
]