[
    {
        "id": "17821409318852812736",
        "title": "公共厕所",
        "address": "辽宁省抚顺市新宾满族自治县兴京街与青年路交叉口东南方向66米左右",
        "tel": "",
        "category": "基础设施:公共设施:公共厕所",
        "type": 0,
        "location": {
            "lat": 41.73271,
            "lng": 125.0393
        },
        "ad_info": {
            "adcode": 210422,
            "province": "辽宁省",
            "city": "抚顺市",
            "district": "新宾满族自治县"
        }
    },
    {
        "id": "14936273082756337659",
        "title": "公共厕所",
        "address": "辽宁省抚顺市东洲区新屯西街与煤都路(中段)交叉口东南40米",
        "tel": "",
        "category": "基础设施:公共设施:公共厕所",
        "type": 0,
        "location": {
            "lat": 41.838923,
            "lng": 123.979679
        },
        "ad_info": {
            "adcode": 210403,
            "province": "辽宁省",
            "city": "抚顺市",
            "district": "东洲区"
        }
    },
    {
        "id": "931698404533739228",
        "title": "公共厕所",
        "address": "辽宁省抚顺市清原满族自治县兴隆路与长岭街交叉口东南方向73米左右",
        "tel": "",
        "category": "基础设施:公共设施:公共厕所",
        "type": 0,
        "location": {
            "lat": 42.098752,
            "lng": 124.92958
        },
        "ad_info": {
            "adcode": 210423,
            "province": "辽宁省",
            "city": "抚顺市",
            "district": "清原满族自治县"
        }
    },
    {
        "id": "17869795655178468572",
        "title": "公共厕所",
        "address": "辽宁省抚顺市新宾满族自治县420县道南50米",
        "tel": "",
        "category": "基础设施:公共设施:公共厕所",
        "type": 0,
        "location": {
            "lat": 41.746877,
            "lng": 124.443799
        },
        "ad_info": {
            "adcode": 210422,
            "province": "辽宁省",
            "city": "抚顺市",
            "district": "新宾满族自治县"
        }
    },
    {
        "id": "9060411902863847858",
        "title": "公共厕所",
        "address": "辽宁省抚顺市新抚区九道街与北堤路交叉口西北方向104米左右",
        "tel": "",
        "category": "基础设施:公共设施:公共厕所",
        "type": 0,
        "location": {
            "lat": 41.862786,
            "lng": 123.873392
        },
        "ad_info": {
            "adcode": 210402,
            "province": "辽宁省",
            "city": "抚顺市",
            "district": "新抚区"
        }
    },
    {
        "id": "12762845714549799188",
        "title": "公共厕所",
        "address": "辽宁省抚顺市东洲区呼兰街与绥化路交叉口东北方向48米左右",
        "tel": "",
        "category": "基础设施:公共设施:公共厕所",
        "type": 0,
        "location": {
            "lat": 41.870759,
            "lng": 124.047746
        },
        "ad_info": {
            "adcode": 210403,
            "province": "辽宁省",
            "city": "抚顺市",
            "district": "东洲区"
        }
    },
    {
        "id": "10921791294148703794",
        "title": "公共厕所",
        "address": "辽宁省抚顺市东洲区虎西一街与虎西街交叉口西北方向61米左右",
        "tel": "",
        "category": "基础设施:公共设施:公共厕所",
        "type": 0,
        "location": {
            "lat": 41.837061,
            "lng": 123.94356
        },
        "ad_info": {
            "adcode": 210403,
            "province": "辽宁省",
            "city": "抚顺市",
            "district": "东洲区"
        }
    },
    {
        "id": "9249791829058413067",
        "title": "公共厕所",
        "address": "辽宁省抚顺市清原满族自治县白银路与石花街交叉口东南方向31米左右",
        "tel": "",
        "category": "基础设施:公共设施:公共厕所",
        "type": 0,
        "location": {
            "lat": 42.103471,
            "lng": 124.920477
        },
        "ad_info": {
            "adcode": 210423,
            "province": "辽宁省",
            "city": "抚顺市",
            "district": "清原满族自治县"
        }
    },
    {
        "id": "15230159438909876867",
        "title": "公共厕所",
        "address": "辽宁省抚顺市东洲区平山五街与平山街交叉口西南方向28米左右",
        "tel": "",
        "category": "基础设施:公共设施:公共厕所",
        "type": 0,
        "location": {
            "lat": 41.835446,
            "lng": 123.93825
        },
        "ad_info": {
            "adcode": 210403,
            "province": "辽宁省",
            "city": "抚顺市",
            "district": "东洲区"
        }
    },
    {
        "id": "16273030429277304499",
        "title": "公共厕所",
        "address": "辽宁省抚顺市新抚区东一街与民主路交叉口东南方向28米左右",
        "tel": "",
        "category": "基础设施:公共设施:公共厕所",
        "type": 0,
        "location": {
            "lat": 41.862892,
            "lng": 123.904763
        },
        "ad_info": {
            "adcode": 210402,
            "province": "辽宁省",
            "city": "抚顺市",
            "district": "新抚区"
        }
    },
    {
        "id": "3134651808736032038",
        "title": "公共厕所",
        "address": "辽宁省抚顺市清原满族自治县柴河路与长岭街交叉口西北方向63米左右",
        "tel": "",
        "category": "基础设施:公共设施:公共厕所",
        "type": 0,
        "location": {
            "lat": 42.10337,
            "lng": 124.927707
        },
        "ad_info": {
            "adcode": 210423,
            "province": "辽宁省",
            "city": "抚顺市",
            "district": "清原满族自治县"
        }
    },
    {
        "id": "7201590712591625401",
        "title": "公共厕所",
        "address": "辽宁省抚顺市清原满族自治县南天门景区游客服务中心",
        "tel": "",
        "category": "基础设施:公共设施:公共厕所",
        "type": 0,
        "location": {
            "lat": 41.9812,
            "lng": 124.953039
        },
        "ad_info": {
            "adcode": 210423,
            "province": "辽宁省",
            "city": "抚顺市",
            "district": "清原满族自治县"
        }
    },
    {
        "id": "312320763818702564",
        "title": "公共厕所",
        "address": "辽宁省抚顺市新宾满族自治县富江路39号",
        "tel": "",
        "category": "基础设施:公共设施:公共厕所",
        "type": 0,
        "location": {
            "lat": 41.726919,
            "lng": 125.037338
        },
        "ad_info": {
            "adcode": 210422,
            "province": "辽宁省",
            "city": "抚顺市",
            "district": "新宾满族自治县"
        }
    },
    {
        "id": "8271218845176151545",
        "title": "公共厕所",
        "address": "辽宁省抚顺市抚顺县抚金线与沈通线交叉口西北方向1541米左右",
        "tel": "",
        "category": "基础设施:公共设施:公共厕所",
        "type": 0,
        "location": {
            "lat": 41.712678,
            "lng": 124.213039
        },
        "ad_info": {
            "adcode": 210421,
            "province": "辽宁省",
            "city": "抚顺市",
            "district": "抚顺县"
        }
    },
    {
        "id": "13008502366636642479",
        "title": "公共厕所",
        "address": "辽宁省抚顺市新抚区沿滨路停车场",
        "tel": "",
        "category": "基础设施:公共设施:公共厕所",
        "type": 0,
        "location": {
            "lat": 41.860247,
            "lng": 123.857945
        },
        "ad_info": {
            "adcode": 210402,
            "province": "辽宁省",
            "city": "抚顺市",
            "district": "新抚区"
        }
    },
    {
        "id": "8923515000843383489",
        "title": "公共厕所",
        "address": "辽宁省抚顺市东洲区煤都路(中段)与海新路交叉口东100米",
        "tel": "",
        "category": "基础设施:公共设施:公共厕所",
        "type": 0,
        "location": {
            "lat": 41.849839,
            "lng": 124.007913
        },
        "ad_info": {
            "adcode": 210403,
            "province": "辽宁省",
            "city": "抚顺市",
            "district": "东洲区"
        }
    },
    {
        "id": "9148981254348441716",
        "title": "公共厕所",
        "address": "辽宁省抚顺市新抚区西二街与西十路交叉口正东方向79米左右",
        "tel": "",
        "category": "基础设施:公共设施:公共厕所",
        "type": 0,
        "location": {
            "lat": 41.856886,
            "lng": 123.902174
        },
        "ad_info": {
            "adcode": 210402,
            "province": "辽宁省",
            "city": "抚顺市",
            "district": "新抚区"
        }
    },
    {
        "id": "9923210206859492684",
        "title": "公共厕所",
        "address": "辽宁省抚顺市望花区和平新苑小区北侧70米",
        "tel": "",
        "category": "基础设施:公共设施:公共厕所",
        "type": 0,
        "location": {
            "lat": 41.875326,
            "lng": 123.765033
        },
        "ad_info": {
            "adcode": 210404,
            "province": "辽宁省",
            "city": "抚顺市",
            "district": "望花区"
        }
    },
    {
        "id": "14885399347499038283",
        "title": "公共厕所",
        "address": "辽宁省抚顺市抚顺县抚金线",
        "tel": "",
        "category": "基础设施:公共设施:公共厕所",
        "type": 0,
        "location": {
            "lat": 41.57349,
            "lng": 124.348478
        },
        "ad_info": {
            "adcode": 210421,
            "province": "辽宁省",
            "city": "抚顺市",
            "district": "抚顺县"
        }
    },
    {
        "id": "2950369178180075077",
        "title": "公共厕所",
        "address": "辽宁省抚顺市新抚区南阳路安居北区",
        "tel": "",
        "category": "基础设施:公共设施:公共厕所",
        "type": 0,
        "location": {
            "lat": 41.855333,
            "lng": 123.924412
        },
        "ad_info": {
            "adcode": 210402,
            "province": "辽宁省",
            "city": "抚顺市",
            "district": "新抚区"
        }
    },
    {
        "id": "18014083437069159242",
        "title": "公共厕所",
        "address": "辽宁省抚顺市抚顺县中国移动(马圈子指定专营店)东",
        "tel": "",
        "category": "基础设施:公共设施:公共厕所",
        "type": 0,
        "location": {
            "lat": 41.530852,
            "lng": 124.371483
        },
        "ad_info": {
            "adcode": 210421,
            "province": "辽宁省",
            "city": "抚顺市",
            "district": "抚顺县"
        }
    },
    {
        "id": "11117742579509765648",
        "title": "公共厕所",
        "address": "辽宁省抚顺市新宾满族自治县木东线与铁长线交叉口东北方向412米左右",
        "tel": "",
        "category": "基础设施:公共设施:公共厕所",
        "type": 0,
        "location": {
            "lat": 41.776031,
            "lng": 124.630137
        },
        "ad_info": {
            "adcode": 210422,
            "province": "辽宁省",
            "city": "抚顺市",
            "district": "新宾满族自治县"
        }
    },
    {
        "id": "14157915811911611821",
        "title": "公厕",
        "address": "辽宁省抚顺市新抚区月牙岛生态公园",
        "tel": "",
        "category": "基础设施:公共设施:公共厕所",
        "type": 0,
        "location": {
            "lat": 41.858755,
            "lng": 123.847419
        },
        "ad_info": {
            "adcode": 210402,
            "province": "辽宁省",
            "city": "抚顺市",
            "district": "新抚区"
        }
    },
    {
        "id": "12419590127367722375",
        "title": "公共厕所",
        "address": "辽宁省抚顺市东洲区城乡路与高上线交叉口正北方向684米左右",
        "tel": "",
        "category": "基础设施:公共设施:公共厕所",
        "type": 0,
        "location": {
            "lat": 41.808327,
            "lng": 124.043831
        },
        "ad_info": {
            "adcode": 210403,
            "province": "辽宁省",
            "city": "抚顺市",
            "district": "东洲区"
        }
    },
    {
        "id": "13263557482943258126",
        "title": "公共厕所",
        "address": "辽宁省抚顺市清原满族自治县柴河路与金凤街交叉口正东方向56米左右",
        "tel": "",
        "category": "基础设施:公共设施:公共厕所",
        "type": 0,
        "location": {
            "lat": 42.10305,
            "lng": 124.931449
        },
        "ad_info": {
            "adcode": 210423,
            "province": "辽宁省",
            "city": "抚顺市",
            "district": "清原满族自治县"
        }
    },
    {
        "id": "9264277764961281245",
        "title": "公共厕所",
        "address": "辽宁省抚顺市清原满族自治县G202与古城二号路交叉口西北方向477米左右",
        "tel": "",
        "category": "基础设施:公共设施:公共厕所",
        "type": 0,
        "location": {
            "lat": 42.107957,
            "lng": 124.953777
        },
        "ad_info": {
            "adcode": 210423,
            "province": "辽宁省",
            "city": "抚顺市",
            "district": "清原满族自治县"
        }
    },
    {
        "id": "13664107475382091954",
        "title": "公共厕所",
        "address": "辽宁省抚顺市望花区西丰街13号",
        "tel": "",
        "category": "基础设施:公共设施:公共厕所",
        "type": 0,
        "location": {
            "lat": 41.852445,
            "lng": 123.78123
        },
        "ad_info": {
            "adcode": 210404,
            "province": "辽宁省",
            "city": "抚顺市",
            "district": "望花区"
        }
    },
    {
        "id": "12304648344303561130",
        "title": "公共厕所",
        "address": "辽宁省抚顺市望花区两岸568庄园东南侧380米",
        "tel": "",
        "category": "基础设施:公共设施:公共厕所",
        "type": 0,
        "location": {
            "lat": 41.862087,
            "lng": 123.762625
        },
        "ad_info": {
            "adcode": 210404,
            "province": "辽宁省",
            "city": "抚顺市",
            "district": "望花区"
        }
    },
    {
        "id": "11735808073071222579",
        "title": "公共厕所",
        "address": "辽宁省抚顺市清原满族自治县彰桓线",
        "tel": "",
        "category": "基础设施:公共设施:公共厕所",
        "type": 0,
        "location": {
            "lat": 42.041936,
            "lng": 125.026993
        },
        "ad_info": {
            "adcode": 210423,
            "province": "辽宁省",
            "city": "抚顺市",
            "district": "清原满族自治县"
        }
    },
    {
        "id": "3648477529791301495",
        "title": "公共厕所",
        "address": "辽宁省抚顺市顺城区抚顺城路与新华大街交叉口正东方向143米左右",
        "tel": "",
        "category": "基础设施:公共设施:公共厕所",
        "type": 0,
        "location": {
            "lat": 41.887955,
            "lng": 123.919443
        },
        "ad_info": {
            "adcode": 210411,
            "province": "辽宁省",
            "city": "抚顺市",
            "district": "顺城区"
        }
    },
    {
        "id": "7595840039772509798",
        "title": "公共厕所",
        "address": "辽宁省抚顺市新抚区西三街与西四路交叉口正南方向23米左右",
        "tel": "",
        "category": "基础设施:公共设施:公共厕所",
        "type": 0,
        "location": {
            "lat": 41.858967,
            "lng": 123.897459
        },
        "ad_info": {
            "adcode": 210402,
            "province": "辽宁省",
            "city": "抚顺市",
            "district": "新抚区"
        }
    },
    {
        "id": "1426089145421092219",
        "title": "公共厕所",
        "address": "辽宁省抚顺市新抚区北台一街与北台二路交叉口西南方向130米左右",
        "tel": "",
        "category": "基础设施:公共设施:公共厕所",
        "type": 0,
        "location": {
            "lat": 41.865041,
            "lng": 123.913991
        },
        "ad_info": {
            "adcode": 210402,
            "province": "辽宁省",
            "city": "抚顺市",
            "district": "新抚区"
        }
    },
    {
        "id": "15165661197717765099",
        "title": "公共厕所",
        "address": "辽宁省抚顺市新抚区榆林路与浑河南路(中段)交叉口正南方向569米左右",
        "tel": "",
        "category": "基础设施:公共设施:公共厕所",
        "type": 0,
        "location": {
            "lat": 41.869228,
            "lng": 123.956399
        },
        "ad_info": {
            "adcode": 210402,
            "province": "辽宁省",
            "city": "抚顺市",
            "district": "新抚区"
        }
    },
    {
        "id": "9551257928774009433",
        "title": "公共厕所",
        "address": "辽宁省抚顺市望花区五老街与千台路交叉口正南方向406米左右",
        "tel": "",
        "category": "基础设施:公共设施:公共厕所",
        "type": 0,
        "location": {
            "lat": 41.823817,
            "lng": 123.860228
        },
        "ad_info": {
            "adcode": 210404,
            "province": "辽宁省",
            "city": "抚顺市",
            "district": "望花区"
        }
    },
    {
        "id": "12640368805004746124",
        "title": "公共厕所",
        "address": "辽宁省抚顺市顺城区长春一街与长春一路交叉口正西方向88米左右",
        "tel": "",
        "category": "基础设施:公共设施:公共厕所",
        "type": 0,
        "location": {
            "lat": 41.88065,
            "lng": 123.93452
        },
        "ad_info": {
            "adcode": 210411,
            "province": "辽宁省",
            "city": "抚顺市",
            "district": "顺城区"
        }
    },
    {
        "id": "6615154062428405362",
        "title": "公共厕所",
        "address": "辽宁省抚顺市顺城区临江东路(马德里皇家花园西南侧约50米)",
        "tel": "",
        "category": "基础设施:公共设施:公共厕所",
        "type": 0,
        "location": {
            "lat": 41.880616,
            "lng": 123.971888
        },
        "ad_info": {
            "adcode": 210411,
            "province": "辽宁省",
            "city": "抚顺市",
            "district": "顺城区"
        }
    },
    {
        "id": "10613677229894752343",
        "title": "公共厕所",
        "address": "辽宁省抚顺市新宾满族自治县古城街与罕王路交叉口西南方向117米左右",
        "tel": "",
        "category": "基础设施:公共设施:公共厕所",
        "type": 0,
        "location": {
            "lat": 41.706836,
            "lng": 124.820924
        },
        "ad_info": {
            "adcode": 210422,
            "province": "辽宁省",
            "city": "抚顺市",
            "district": "新宾满族自治县"
        }
    },
    {
        "id": "17450209914994022324",
        "title": "公共厕所",
        "address": "辽宁省抚顺市顺城区新城东路大自然城市家园(北区)",
        "tel": "",
        "category": "基础设施:公共设施:公共厕所",
        "type": 0,
        "location": {
            "lat": 41.883111,
            "lng": 123.948974
        },
        "ad_info": {
            "adcode": 210411,
            "province": "辽宁省",
            "city": "抚顺市",
            "district": "顺城区"
        }
    },
    {
        "id": "15624832873866844000",
        "title": "公共厕所",
        "address": "辽宁省抚顺市顺城区将军街与梅河路交叉口西北方向34米左右",
        "tel": "",
        "category": "基础设施:公共设施:公共厕所",
        "type": 0,
        "location": {
            "lat": 41.871991,
            "lng": 123.89288
        },
        "ad_info": {
            "adcode": 210411,
            "province": "辽宁省",
            "city": "抚顺市",
            "district": "顺城区"
        }
    },
    {
        "id": "16977883936014802991",
        "title": "公共厕所",
        "address": "辽宁省抚顺市顺城区双阳南路与高山路交叉口正东方向327米左右",
        "tel": "",
        "category": "基础设施:公共设施:公共厕所",
        "type": 0,
        "location": {
            "lat": 41.892823,
            "lng": 123.97122
        },
        "ad_info": {
            "adcode": 210411,
            "province": "辽宁省",
            "city": "抚顺市",
            "district": "顺城区"
        }
    },
    {
        "id": "10061458420572594210",
        "title": "公共厕所",
        "address": "辽宁省抚顺市顺城区抚顺市第六医院西侧120米",
        "tel": "",
        "category": "基础设施:公共设施:公共厕所",
        "type": 0,
        "location": {
            "lat": 41.876473,
            "lng": 123.838691
        },
        "ad_info": {
            "adcode": 210411,
            "province": "辽宁省",
            "city": "抚顺市",
            "district": "顺城区"
        }
    },
    {
        "id": "3472096413010083612",
        "title": "公共厕所",
        "address": "辽宁省抚顺市新抚区抚清线与碾三线交叉口东南方向318米左右",
        "tel": "",
        "category": "基础设施:公共设施:公共厕所",
        "type": 0,
        "location": {
            "lat": 41.805046,
            "lng": 123.945552
        },
        "ad_info": {
            "adcode": 210402,
            "province": "辽宁省",
            "city": "抚顺市",
            "district": "新抚区"
        }
    },
    {
        "id": "12096066717288961573",
        "title": "公共厕所",
        "address": "辽宁省抚顺市顺城区长春三路与长春街交叉口正南方向94米左右",
        "tel": "",
        "category": "基础设施:公共设施:公共厕所",
        "type": 0,
        "location": {
            "lat": 41.883531,
            "lng": 123.943001
        },
        "ad_info": {
            "adcode": 210411,
            "province": "辽宁省",
            "city": "抚顺市",
            "district": "顺城区"
        }
    },
    {
        "id": "333485188618167263",
        "title": "公共厕所",
        "address": "辽宁省抚顺市望花区海城一路与海城二街交叉口正北方向26米左右",
        "tel": "",
        "category": "基础设施:公共设施:公共厕所",
        "type": 0,
        "location": {
            "lat": 41.851108,
            "lng": 123.823028
        },
        "ad_info": {
            "adcode": 210404,
            "province": "辽宁省",
            "city": "抚顺市",
            "district": "望花区"
        }
    },
    {
        "id": "16945760335002676165",
        "title": "公共厕所",
        "address": "辽宁省抚顺市顺城区临江路(东段)与汪清街交叉口正南方向222米左右",
        "tel": "",
        "category": "基础设施:公共设施:公共厕所",
        "type": 0,
        "location": {
            "lat": 41.876688,
            "lng": 123.931587
        },
        "ad_info": {
            "adcode": 210411,
            "province": "辽宁省",
            "city": "抚顺市",
            "district": "顺城区"
        }
    },
    {
        "id": "628828932022099313",
        "title": "公共厕所",
        "address": "辽宁省抚顺市顺城区经一街雷锋体育场",
        "tel": "",
        "category": "基础设施:公共设施:公共厕所",
        "type": 0,
        "location": {
            "lat": 41.867711,
            "lng": 123.868312
        },
        "ad_info": {
            "adcode": 210411,
            "province": "辽宁省",
            "city": "抚顺市",
            "district": "顺城区"
        }
    },
    {
        "id": "4939407037101274333",
        "title": "公共厕所",
        "address": "辽宁省抚顺市顺城区临江路(中段)与乾安街交叉口正南方向244米左右",
        "tel": "",
        "category": "基础设施:公共设施:公共厕所",
        "type": 0,
        "location": {
            "lat": 41.876178,
            "lng": 123.921906
        },
        "ad_info": {
            "adcode": 210411,
            "province": "辽宁省",
            "city": "抚顺市",
            "district": "顺城区"
        }
    },
    {
        "id": "312148655123949119",
        "title": "公共厕所",
        "address": "辽宁省抚顺市望花区星光路与高新路交叉口正南方向146米左右",
        "tel": "",
        "category": "基础设施:公共设施:公共厕所",
        "type": 0,
        "location": {
            "lat": 41.841411,
            "lng": 123.741294
        },
        "ad_info": {
            "adcode": 210404,
            "province": "辽宁省",
            "city": "抚顺市",
            "district": "望花区"
        }
    },
    {
        "id": "16932870054968747706",
        "title": "公共厕所",
        "address": "辽宁省抚顺市望花区辽中街与雷锋路(东段)交叉口正北方向111米左右",
        "tel": "",
        "category": "基础设施:公共设施:公共厕所",
        "type": 0,
        "location": {
            "lat": 41.850185,
            "lng": 123.805614
        },
        "ad_info": {
            "adcode": 210404,
            "province": "辽宁省",
            "city": "抚顺市",
            "district": "望花区"
        }
    },
    {
        "id": "8337784637459312008",
        "title": "公共厕所",
        "address": "辽宁省抚顺市顺城区临江路(西段)与宁远街交叉口正东方向60米左右",
        "tel": "",
        "category": "基础设施:公共设施:公共厕所",
        "type": 0,
        "location": {
            "lat": 41.875386,
            "lng": 123.913304
        },
        "ad_info": {
            "adcode": 210411,
            "province": "辽宁省",
            "city": "抚顺市",
            "district": "顺城区"
        }
    },
    {
        "id": "3367914885167325371",
        "title": "公共厕所",
        "address": "辽宁省抚顺市望花区凤城街与雷锋路交叉口正北方向97米左右",
        "tel": "",
        "category": "基础设施:公共设施:公共厕所",
        "type": 0,
        "location": {
            "lat": 41.850304,
            "lng": 123.808488
        },
        "ad_info": {
            "adcode": 210404,
            "province": "辽宁省",
            "city": "抚顺市",
            "district": "望花区"
        }
    },
    {
        "id": "10936355248133759715",
        "title": "公共厕所",
        "address": "辽宁省抚顺市新宾满族自治县建洲街与肇兴路交叉口西北方向56米左右",
        "tel": "",
        "category": "基础设施:公共设施:公共厕所",
        "type": 0,
        "location": {
            "lat": 41.728298,
            "lng": 125.04008
        },
        "ad_info": {
            "adcode": 210422,
            "province": "辽宁省",
            "city": "抚顺市",
            "district": "新宾满族自治县"
        }
    },
    {
        "id": "8628654238215465373",
        "title": "公共厕所",
        "address": "辽宁省抚顺市新抚区凤翔路市场(劳动公园附近)",
        "tel": "",
        "category": "基础设施:公共设施:公共厕所",
        "type": 0,
        "location": {
            "lat": 41.869697,
            "lng": 123.9298
        },
        "ad_info": {
            "adcode": 210402,
            "province": "辽宁省",
            "city": "抚顺市",
            "district": "新抚区"
        }
    },
    {
        "id": "7710206482607587022",
        "title": "公共厕所",
        "address": "辽宁省抚顺市新抚区浑河南路(中段)与琥珀街交叉口东北方向49米左右",
        "tel": "",
        "category": "基础设施:公共设施:公共厕所",
        "type": 0,
        "location": {
            "lat": 41.871792,
            "lng": 123.919911
        },
        "ad_info": {
            "adcode": 210402,
            "province": "辽宁省",
            "city": "抚顺市",
            "district": "新抚区"
        }
    },
    {
        "id": "4104905460944331227",
        "title": "公共厕所",
        "address": "辽宁省抚顺市新抚区西一路与西二街交叉口正西方向44米左右",
        "tel": "",
        "category": "基础设施:公共设施:公共厕所",
        "type": 0,
        "location": {
            "lat": 41.861457,
            "lng": 123.897732
        },
        "ad_info": {
            "adcode": 210402,
            "province": "辽宁省",
            "city": "抚顺市",
            "district": "新抚区"
        }
    },
    {
        "id": "12485081139357697548",
        "title": "公共厕所",
        "address": "辽宁省抚顺市新宾满族自治县G230与肇兴路交叉口东南方向112米左右",
        "tel": "",
        "category": "基础设施:公共设施:公共厕所",
        "type": 0,
        "location": {
            "lat": 41.720917,
            "lng": 125.066371
        },
        "ad_info": {
            "adcode": 210422,
            "province": "辽宁省",
            "city": "抚顺市",
            "district": "新宾满族自治县"
        }
    },
    {
        "id": "13971284447024168156",
        "title": "公共厕所",
        "address": "辽宁省抚顺市望花区凤城街与本溪路交叉口西南方向14米左右",
        "tel": "",
        "category": "基础设施:公共设施:公共厕所",
        "type": 0,
        "location": {
            "lat": 41.851908,
            "lng": 123.808142
        },
        "ad_info": {
            "adcode": 210404,
            "province": "辽宁省",
            "city": "抚顺市",
            "district": "望花区"
        }
    },
    {
        "id": "13217680264018440518",
        "title": "公共厕所",
        "address": "辽宁省抚顺市顺城区前岭立交与沈吉高速交叉口正南方向1308米左右",
        "tel": "",
        "category": "基础设施:公共设施:公共厕所",
        "type": 0,
        "location": {
            "lat": 41.903265,
            "lng": 124.048371
        },
        "ad_info": {
            "adcode": 210411,
            "province": "辽宁省",
            "city": "抚顺市",
            "district": "顺城区"
        }
    },
    {
        "id": "6833223207401860128",
        "title": "公共厕所",
        "address": "辽宁省抚顺市顺城区前甸镇",
        "tel": "",
        "category": "基础设施:公共设施:公共厕所",
        "type": 0,
        "location": {
            "lat": 41.939872,
            "lng": 123.972138
        },
        "ad_info": {
            "adcode": 210411,
            "province": "辽宁省",
            "city": "抚顺市",
            "district": "顺城区"
        }
    },
    {
        "id": "13187532503030144016",
        "title": "公共厕所",
        "address": "辽宁省抚顺市望花区芳庭街金风湾(西南角)",
        "tel": "",
        "category": "基础设施:公共设施:公共厕所",
        "type": 0,
        "location": {
            "lat": 41.817321,
            "lng": 123.68851
        },
        "ad_info": {
            "adcode": 210404,
            "province": "辽宁省",
            "city": "抚顺市",
            "district": "望花区"
        }
    },
    {
        "id": "16622539744047848487",
        "title": "公共厕所",
        "address": "辽宁省抚顺市新抚区东富平路与迎宾街(南段)交叉口东北方向44米左右",
        "tel": "",
        "category": "基础设施:公共设施:公共厕所",
        "type": 0,
        "location": {
            "lat": 41.858445,
            "lng": 123.913349
        },
        "ad_info": {
            "adcode": 210402,
            "province": "辽宁省",
            "city": "抚顺市",
            "district": "新抚区"
        }
    },
    {
        "id": "11134715240213984828",
        "title": "公共厕所",
        "address": "辽宁省抚顺市东洲区虎西一路与虎西街交叉口正东方向24米左右",
        "tel": "",
        "category": "基础设施:公共设施:公共厕所",
        "type": 0,
        "location": {
            "lat": 41.838687,
            "lng": 123.944775
        },
        "ad_info": {
            "adcode": 210403,
            "province": "辽宁省",
            "city": "抚顺市",
            "district": "东洲区"
        }
    },
    {
        "id": "10952600221759677730",
        "title": "公共厕所",
        "address": "辽宁省抚顺市顺城区古城河口桥与沿滨路交叉口正北方向1095米左右",
        "tel": "",
        "category": "基础设施:公共设施:公共厕所",
        "type": 0,
        "location": {
            "lat": 41.866674,
            "lng": 123.835914
        },
        "ad_info": {
            "adcode": 210411,
            "province": "辽宁省",
            "city": "抚顺市",
            "district": "顺城区"
        }
    },
    {
        "id": "8725231960521939656",
        "title": "南天门景区游客服务中心旅游厕所",
        "address": "辽宁省抚顺市清原满族自治县大苏河乡南天门村",
        "tel": "",
        "category": "基础设施:公共设施:公共厕所",
        "type": 0,
        "location": {
            "lat": 41.980079,
            "lng": 124.95225
        },
        "ad_info": {
            "adcode": 210423,
            "province": "辽宁省",
            "city": "抚顺市",
            "district": "清原满族自治县"
        }
    },
    {
        "id": "4583602490053364523",
        "title": "公共厕所",
        "address": "辽宁省抚顺市东洲区南昌路与平山南街交叉口东南方向144米左右",
        "tel": "",
        "category": "基础设施:公共设施:公共厕所",
        "type": 0,
        "location": {
            "lat": 41.841243,
            "lng": 123.929554
        },
        "ad_info": {
            "adcode": 210403,
            "province": "辽宁省",
            "city": "抚顺市",
            "district": "东洲区"
        }
    },
    {
        "id": "3327922724538220413",
        "title": "公共厕所",
        "address": "辽宁省抚顺市顺城区前岭立交与沈吉高速交叉口正南方向439米左右",
        "tel": "",
        "category": "基础设施:公共设施:公共厕所",
        "type": 0,
        "location": {
            "lat": 41.912072,
            "lng": 124.056793
        },
        "ad_info": {
            "adcode": 210411,
            "province": "辽宁省",
            "city": "抚顺市",
            "district": "顺城区"
        }
    },
    {
        "id": "4835177432648038535",
        "title": "公用厕所",
        "address": "辽宁省抚顺市清原满族自治县枫桥夜泊水岸庄园东侧290米",
        "tel": "",
        "category": "基础设施:公共设施:公共厕所",
        "type": 0,
        "location": {
            "lat": 42.198471,
            "lng": 125.188567
        },
        "ad_info": {
            "adcode": 210423,
            "province": "辽宁省",
            "city": "抚顺市",
            "district": "清原满族自治县"
        }
    },
    {
        "id": "1130626612534214477",
        "title": "公共厕所",
        "address": "辽宁省抚顺市望花区朝阳路(东段)恒德高中",
        "tel": "",
        "category": "基础设施:公共设施:公共厕所",
        "type": 0,
        "location": {
            "lat": 41.845798,
            "lng": 123.795421
        },
        "ad_info": {
            "adcode": 210404,
            "province": "辽宁省",
            "city": "抚顺市",
            "district": "望花区"
        }
    },
    {
        "id": "17039645232950740010",
        "title": "公共厕所",
        "address": "辽宁省抚顺市新抚区西二街与西五路交叉口正南方向36米左右",
        "tel": "",
        "category": "基础设施:公共设施:公共厕所",
        "type": 0,
        "location": {
            "lat": 41.859022,
            "lng": 123.899471
        },
        "ad_info": {
            "adcode": 210402,
            "province": "辽宁省",
            "city": "抚顺市",
            "district": "新抚区"
        }
    },
    {
        "id": "13480437699140792905",
        "title": "卫生间",
        "address": "辽宁省抚顺市新抚区浑河南路中段56号万达广场B1",
        "tel": "",
        "category": "基础设施:公共设施:公共厕所",
        "type": 0,
        "location": {
            "lat": 41.865075,
            "lng": 123.903224
        },
        "ad_info": {
            "adcode": 210402,
            "province": "辽宁省",
            "city": "抚顺市",
            "district": "新抚区"
        }
    },
    {
        "id": "1494384967059649712",
        "title": "女洗手间",
        "address": "辽宁省抚顺市新抚区浑河南路中段56号万达广场F4",
        "tel": "",
        "category": "基础设施:公共设施:公共厕所",
        "type": 0,
        "location": {
            "lat": 41.865609,
            "lng": 123.902429
        },
        "ad_info": {
            "adcode": 210402,
            "province": "辽宁省",
            "city": "抚顺市",
            "district": "新抚区"
        }
    },
    {
        "id": "4669942331472333559",
        "title": "公共厕所",
        "address": "辽宁省抚顺市新抚区人工河路与南昌路交叉口正东方向310米左右",
        "tel": "",
        "category": "基础设施:公共设施:公共厕所",
        "type": 0,
        "location": {
            "lat": 41.830106,
            "lng": 123.917284
        },
        "ad_info": {
            "adcode": 210402,
            "province": "辽宁省",
            "city": "抚顺市",
            "district": "新抚区"
        }
    },
    {
        "id": "8728966649720476245",
        "title": "南杂木服务区公共厕所",
        "address": "辽宁省抚顺市新宾满族自治县抚通高速",
        "tel": "",
        "category": "基础设施:公共设施:公共厕所",
        "type": 0,
        "location": {
            "lat": 41.946427,
            "lng": 124.447645
        },
        "ad_info": {
            "adcode": 210422,
            "province": "辽宁省",
            "city": "抚顺市",
            "district": "新宾满族自治县"
        }
    },
    {
        "id": "1387427833286560837",
        "title": "共卫生间",
        "address": "辽宁省抚顺市新抚区西三街与西四路交叉口西北方向22米左右",
        "tel": "",
        "category": "基础设施:公共设施:公共厕所",
        "type": 0,
        "location": {
            "lat": 41.859301,
            "lng": 123.897332
        },
        "ad_info": {
            "adcode": 210402,
            "province": "辽宁省",
            "city": "抚顺市",
            "district": "新抚区"
        }
    },
    {
        "id": "3415632110987532583",
        "title": "公共厕所",
        "address": "辽宁省抚顺市新抚区南阳路与迎宾街(南段)交叉口正东方向128米左右",
        "tel": "",
        "category": "基础设施:公共设施:公共厕所",
        "type": 0,
        "location": {
            "lat": 41.855032,
            "lng": 123.914326
        },
        "ad_info": {
            "adcode": 210402,
            "province": "辽宁省",
            "city": "抚顺市",
            "district": "新抚区"
        }
    },
    {
        "id": "13497673144706099089",
        "title": "南天门旅游景区北岸旅游厕所",
        "address": "辽宁省抚顺市清原满族自治县大苏河乡南天门村",
        "tel": "",
        "category": "基础设施:公共设施:公共厕所",
        "type": 0,
        "location": {
            "lat": 41.980781,
            "lng": 124.953385
        },
        "ad_info": {
            "adcode": 210423,
            "province": "辽宁省",
            "city": "抚顺市",
            "district": "清原满族自治县"
        }
    },
    {
        "id": "2522442034788488989",
        "title": "南杂木服务区第二公共厕所",
        "address": "辽宁省抚顺市新宾满族自治县S10抚通高速西100米",
        "tel": "",
        "category": "基础设施:公共设施:公共厕所",
        "type": 0,
        "location": {
            "lat": 41.943778,
            "lng": 124.44672
        },
        "ad_info": {
            "adcode": 210422,
            "province": "辽宁省",
            "city": "抚顺市",
            "district": "新宾满族自治县"
        }
    },
    {
        "id": "16111970352488250141",
        "title": "无障碍洗手间(万达广场)",
        "address": "辽宁省抚顺市新抚区浑河南路中段56号万达广场(抚顺店)3F层",
        "tel": "",
        "category": "基础设施:公共设施:公共厕所",
        "type": 0,
        "location": {
            "lat": 41.865714,
            "lng": 123.902558
        },
        "ad_info": {
            "adcode": 210402,
            "province": "辽宁省",
            "city": "抚顺市",
            "district": "新抚区"
        }
    },
    {
        "id": "17860550162923910993",
        "title": "公共厕所",
        "address": "辽宁省抚顺市望花区辽中街抚顺和平集控中心",
        "tel": "",
        "category": "基础设施:公共设施:公共厕所",
        "type": 0,
        "location": {
            "lat": 41.854896,
            "lng": 123.80469
        },
        "ad_info": {
            "adcode": 210404,
            "province": "辽宁省",
            "city": "抚顺市",
            "district": "望花区"
        }
    },
    {
        "id": "16312424827252387237",
        "title": "残障洗手间",
        "address": "辽宁省抚顺市新抚区浑河南路中段56号万达广场F1",
        "tel": "",
        "category": "基础设施:公共设施:公共厕所",
        "type": 0,
        "location": {
            "lat": 41.865605,
            "lng": 123.902431
        },
        "ad_info": {
            "adcode": 210402,
            "province": "辽宁省",
            "city": "抚顺市",
            "district": "新抚区"
        }
    },
    {
        "id": "12627189925219224542",
        "title": "男洗手间(万达广场抚顺店)",
        "address": "辽宁省抚顺市新抚区浑河南路中段56号万达广场F3",
        "tel": "",
        "category": "基础设施:公共设施:公共厕所",
        "type": 0,
        "location": {
            "lat": 41.866514,
            "lng": 123.902381
        },
        "ad_info": {
            "adcode": 210402,
            "province": "辽宁省",
            "city": "抚顺市",
            "district": "新抚区"
        }
    },
    {
        "id": "12486922018472313822",
        "title": "南杂木服务区公共厕所",
        "address": "辽宁省抚顺市新宾满族自治县抚通高速",
        "tel": "",
        "category": "基础设施:公共设施:公共厕所",
        "type": 0,
        "location": {
            "lat": 41.944339,
            "lng": 124.44558
        },
        "ad_info": {
            "adcode": 210422,
            "province": "辽宁省",
            "city": "抚顺市",
            "district": "新宾满族自治县"
        }
    },
    {
        "id": "17173475359009708533",
        "title": "公共厕所",
        "address": "辽宁省抚顺市望花区岫岩路与海城街交叉口东南方向39米左右",
        "tel": "",
        "category": "基础设施:公共设施:公共厕所",
        "type": 0,
        "location": {
            "lat": 41.848104,
            "lng": 123.82577
        },
        "ad_info": {
            "adcode": 210404,
            "province": "辽宁省",
            "city": "抚顺市",
            "district": "望花区"
        }
    },
    {
        "id": "4062401690626651175",
        "title": "旺清门服务区公共厕所",
        "address": "辽宁省抚顺市新宾满族自治县南通高速与抚通高速交叉口正西方向547米左右",
        "tel": "",
        "category": "基础设施:公共设施:公共厕所",
        "type": 0,
        "location": {
            "lat": 41.70273,
            "lng": 125.274073
        },
        "ad_info": {
            "adcode": 210422,
            "province": "辽宁省",
            "city": "抚顺市",
            "district": "新宾满族自治县"
        }
    },
    {
        "id": "13020099869296037278",
        "title": "旺清门服务区公共厕所",
        "address": "辽宁省抚顺市新宾满族自治县旺清门服务区与S10抚通高速出口交叉口东南200米",
        "tel": "",
        "category": "基础设施:公共设施:公共厕所",
        "type": 0,
        "location": {
            "lat": 41.7007,
            "lng": 125.272805
        },
        "ad_info": {
            "adcode": 210422,
            "province": "辽宁省",
            "city": "抚顺市",
            "district": "新宾满族自治县"
        }
    },
    {
        "id": "17978380529145739213",
        "title": "公共厕所",
        "address": "辽宁省抚顺市望花区本溪路(东段)健身广场内",
        "tel": "",
        "category": "基础设施:公共设施:公共厕所",
        "type": 0,
        "location": {
            "lat": 41.851801,
            "lng": 123.804138
        },
        "ad_info": {
            "adcode": 210404,
            "province": "辽宁省",
            "city": "抚顺市",
            "district": "望花区"
        }
    },
    {
        "id": "4215762146120394823",
        "title": "女洗手间(万达广场抚顺店)",
        "address": "辽宁省抚顺市新抚区浑河南路中段56号万达广场(抚顺店)5F层",
        "tel": "",
        "category": "基础设施:公共设施:公共厕所",
        "type": 0,
        "location": {
            "lat": 41.865772,
            "lng": 123.902445
        },
        "ad_info": {
            "adcode": 210402,
            "province": "辽宁省",
            "city": "抚顺市",
            "district": "新抚区"
        }
    },
    {
        "id": "8188092466492994431",
        "title": "公共厕所",
        "address": "辽宁省抚顺市清原满族自治县天桥街与清河路交叉口正北方向112米左右",
        "tel": "",
        "category": "基础设施:公共设施:公共厕所",
        "type": 0,
        "location": {
            "lat": 42.099559,
            "lng": 124.913837
        },
        "ad_info": {
            "adcode": 210423,
            "province": "辽宁省",
            "city": "抚顺市",
            "district": "清原满族自治县"
        }
    },
    {
        "id": "12376429179410235370",
        "title": "北三家服务区公共厕所",
        "address": "辽宁省抚顺市清原满族自治县北三家互通与沈吉高速交叉口西南方向407米左右",
        "tel": "",
        "category": "基础设施:公共设施:公共厕所",
        "type": 0,
        "location": {
            "lat": 42.031209,
            "lng": 124.699494
        },
        "ad_info": {
            "adcode": 210423,
            "province": "辽宁省",
            "city": "抚顺市",
            "district": "清原满族自治县"
        }
    },
    {
        "id": "1361239145904513630",
        "title": "公共厕所",
        "address": "辽宁省抚顺市清原满族自治县红河路19-10号大会场西北角",
        "tel": "",
        "category": "基础设施:公共设施:公共厕所",
        "type": 0,
        "location": {
            "lat": 42.099949,
            "lng": 124.917848
        },
        "ad_info": {
            "adcode": 210423,
            "province": "辽宁省",
            "city": "抚顺市",
            "district": "清原满族自治县"
        }
    },
    {
        "id": "12044124459214653081",
        "title": "女洗手间(万达广场抚顺店)",
        "address": "辽宁省抚顺市新抚区浑河南路中段56号万达广场F3",
        "tel": "",
        "category": "基础设施:公共设施:公共厕所",
        "type": 0,
        "location": {
            "lat": 41.865607,
            "lng": 123.902441
        },
        "ad_info": {
            "adcode": 210402,
            "province": "辽宁省",
            "city": "抚顺市",
            "district": "新抚区"
        }
    },
    {
        "id": "16722347292694583872",
        "title": "无障碍洗手间(万达广场)",
        "address": "辽宁省抚顺市新抚区浑河南路中段56号万达广场(抚顺店)2F层",
        "tel": "",
        "category": "基础设施:公共设施:公共厕所",
        "type": 0,
        "location": {
            "lat": 41.866671,
            "lng": 123.902498
        },
        "ad_info": {
            "adcode": 210402,
            "province": "辽宁省",
            "city": "抚顺市",
            "district": "新抚区"
        }
    },
    {
        "id": "4461189147963126136",
        "title": "无障碍洗手间(万达广场)",
        "address": "辽宁省抚顺市新抚区浑河南路中段56号万达广场(抚顺店)3F层",
        "tel": "",
        "category": "基础设施:公共设施:公共厕所",
        "type": 0,
        "location": {
            "lat": 41.866679,
            "lng": 123.90248
        },
        "ad_info": {
            "adcode": 210402,
            "province": "辽宁省",
            "city": "抚顺市",
            "district": "新抚区"
        }
    },
    {
        "id": "2692320804637339892",
        "title": "无障碍洗手间(万达广场)",
        "address": "辽宁省抚顺市新抚区浑河南路中段56号万达广场(抚顺店)4F层",
        "tel": "",
        "category": "基础设施:公共设施:公共厕所",
        "type": 0,
        "location": {
            "lat": 41.86572,
            "lng": 123.902524
        },
        "ad_info": {
            "adcode": 210402,
            "province": "辽宁省",
            "city": "抚顺市",
            "district": "新抚区"
        }
    },
    {
        "id": "2371570568170269037",
        "title": "草市服务区公共厕所",
        "address": "辽宁省抚顺市清原满族自治县G202与开草线交叉口西南方向1068米左右",
        "tel": "",
        "category": "基础设施:公共设施:公共厕所",
        "type": 0,
        "location": {
            "lat": 42.29588,
            "lng": 125.255379
        },
        "ad_info": {
            "adcode": 210423,
            "province": "辽宁省",
            "city": "抚顺市",
            "district": "清原满族自治县"
        }
    },
    {
        "id": "11475149607879908073",
        "title": "女洗手间(万达广场抚顺店)",
        "address": "辽宁省抚顺市新抚区浑河南路中段56号万达广场(抚顺店)2F层",
        "tel": "",
        "category": "基础设施:公共设施:公共厕所",
        "type": 0,
        "location": {
            "lat": 41.866641,
            "lng": 123.902505
        },
        "ad_info": {
            "adcode": 210402,
            "province": "辽宁省",
            "city": "抚顺市",
            "district": "新抚区"
        }
    },
    {
        "id": "16508147271907597407",
        "title": "男洗手间(万达广场抚顺店)",
        "address": "辽宁省抚顺市新抚区浑河南路中段56号万达广场F1",
        "tel": "",
        "category": "基础设施:公共设施:公共厕所",
        "type": 0,
        "location": {
            "lat": 41.866518,
            "lng": 123.902382
        },
        "ad_info": {
            "adcode": 210402,
            "province": "辽宁省",
            "city": "抚顺市",
            "district": "新抚区"
        }
    },
    {
        "id": "563387190772233547",
        "title": "男洗手间(万达广场抚顺店)",
        "address": "辽宁省抚顺市新抚区浑河南路中段56号万达广场F2",
        "tel": "",
        "category": "基础设施:公共设施:公共厕所",
        "type": 0,
        "location": {
            "lat": 41.866518,
            "lng": 123.902383
        },
        "ad_info": {
            "adcode": 210402,
            "province": "辽宁省",
            "city": "抚顺市",
            "district": "新抚区"
        }
    },
    {
        "id": "10140372043506146185",
        "title": "女洗手间(万达广场抚顺店)",
        "address": "辽宁省抚顺市新抚区浑河南路中段56号万达广场F1",
        "tel": "",
        "category": "基础设施:公共设施:公共厕所",
        "type": 0,
        "location": {
            "lat": 41.865031,
            "lng": 123.903368
        },
        "ad_info": {
            "adcode": 210402,
            "province": "辽宁省",
            "city": "抚顺市",
            "district": "新抚区"
        }
    },
    {
        "id": "6215308964887906791",
        "title": "男洗手间(万达广场抚顺店)",
        "address": "辽宁省抚顺市新抚区浑河南路中段56号万达广场F2",
        "tel": "",
        "category": "基础设施:公共设施:公共厕所",
        "type": 0,
        "location": {
            "lat": 41.865603,
            "lng": 123.902423
        },
        "ad_info": {
            "adcode": 210402,
            "province": "辽宁省",
            "city": "抚顺市",
            "district": "新抚区"
        }
    },
    {
        "id": "4153880004988394649",
        "title": "男洗手间(万达广场抚顺店)",
        "address": "辽宁省抚顺市新抚区浑河南路中段56号万达广场(抚顺店)4F层",
        "tel": "",
        "category": "基础设施:公共设施:公共厕所",
        "type": 0,
        "location": {
            "lat": 41.865734,
            "lng": 123.902555
        },
        "ad_info": {
            "adcode": 210402,
            "province": "辽宁省",
            "city": "抚顺市",
            "district": "新抚区"
        }
    },
    {
        "id": "12143956555324425312",
        "title": "女洗手间",
        "address": "辽宁省抚顺市新抚区浑河南路中段56号万达广场B1",
        "tel": "",
        "category": "基础设施:公共设施:公共厕所",
        "type": 0,
        "location": {
            "lat": 41.866351,
            "lng": 123.901904
        },
        "ad_info": {
            "adcode": 210402,
            "province": "辽宁省",
            "city": "抚顺市",
            "district": "新抚区"
        }
    },
    {
        "id": "3653968656402218711",
        "title": "东华园公共厕所",
        "address": "辽宁省抚顺市顺城区裕城东路",
        "tel": "",
        "category": "基础设施:公共设施:公共厕所",
        "type": 0,
        "location": {
            "lat": 41.889989,
            "lng": 123.991543
        },
        "ad_info": {
            "adcode": 210411,
            "province": "辽宁省",
            "city": "抚顺市",
            "district": "顺城区"
        }
    },
    {
        "id": "8147029947098622270",
        "title": "永陵服务区公共厕所",
        "address": "辽宁省抚顺市新宾满族自治县永陵镇西堡抚通高速公路永陵服务区",
        "tel": "",
        "category": "基础设施:公共设施:公共厕所",
        "type": 0,
        "location": {
            "lat": 41.696461,
            "lng": 124.800255
        },
        "ad_info": {
            "adcode": 210422,
            "province": "辽宁省",
            "city": "抚顺市",
            "district": "新宾满族自治县"
        }
    },
    {
        "id": "3347172448455087699",
        "title": "永陵服务区公共厕所",
        "address": "辽宁省抚顺市新宾满族自治县S10抚通高速出口与永陵服务区交叉口西100米",
        "tel": "",
        "category": "基础设施:公共设施:公共厕所",
        "type": 0,
        "location": {
            "lat": 41.694766,
            "lng": 124.797654
        },
        "ad_info": {
            "adcode": 210422,
            "province": "辽宁省",
            "city": "抚顺市",
            "district": "新宾满族自治县"
        }
    },
    {
        "id": "2436481327735104061",
        "title": "女洗手间(万达广场抚顺店)",
        "address": "辽宁省抚顺市新抚区浑河南路中段56号万达广场F3",
        "tel": "",
        "category": "基础设施:公共设施:公共厕所",
        "type": 0,
        "location": {
            "lat": 41.865027,
            "lng": 123.903363
        },
        "ad_info": {
            "adcode": 210402,
            "province": "辽宁省",
            "city": "抚顺市",
            "district": "新抚区"
        }
    },
    {
        "id": "17482461617216405534",
        "title": "无障碍洗手间(万达广场)",
        "address": "辽宁省抚顺市新抚区浑河南路中段56号万达广场(抚顺店)2F层",
        "tel": "",
        "category": "基础设施:公共设施:公共厕所",
        "type": 0,
        "location": {
            "lat": 41.865654,
            "lng": 123.902566
        },
        "ad_info": {
            "adcode": 210402,
            "province": "辽宁省",
            "city": "抚顺市",
            "district": "新抚区"
        }
    },
    {
        "id": "10781084337541835675",
        "title": "抚顺服务区公共厕所",
        "address": "辽宁省抚顺市顺城区G1212沈吉高速附近",
        "tel": "",
        "category": "基础设施:公共设施:公共厕所",
        "type": 0,
        "location": {
            "lat": 41.90186,
            "lng": 123.820019
        },
        "ad_info": {
            "adcode": 210411,
            "province": "辽宁省",
            "city": "抚顺市",
            "district": "顺城区"
        }
    },
    {
        "id": "8255032527149223138",
        "title": "女洗手间(印象新城购物中心)",
        "address": "辽宁省抚顺市顺城区临江东路19-1印象大厦F3",
        "tel": "",
        "category": "基础设施:公共设施:公共厕所",
        "type": 0,
        "location": {
            "lat": 41.8813,
            "lng": 123.953783
        },
        "ad_info": {
            "adcode": 210411,
            "province": "辽宁省",
            "city": "抚顺市",
            "district": "顺城区"
        }
    },
    {
        "id": "11054105789873996571",
        "title": "男洗手间(印象新城购物中心)",
        "address": "辽宁省抚顺市顺城区临江东路19-1印象大厦F3",
        "tel": "",
        "category": "基础设施:公共设施:公共厕所",
        "type": 0,
        "location": {
            "lat": 41.881334,
            "lng": 123.953782
        },
        "ad_info": {
            "adcode": 210411,
            "province": "辽宁省",
            "city": "抚顺市",
            "district": "顺城区"
        }
    },
    {
        "id": "15023026976192289938",
        "title": "女洗手间(印象新城购物中心)",
        "address": "辽宁省抚顺市顺城区临江东路19-1印象大厦F3",
        "tel": "",
        "category": "基础设施:公共设施:公共厕所",
        "type": 0,
        "location": {
            "lat": 41.882043,
            "lng": 123.953757
        },
        "ad_info": {
            "adcode": 210411,
            "province": "辽宁省",
            "city": "抚顺市",
            "district": "顺城区"
        }
    },
    {
        "id": "14936160953685783942",
        "title": "北三家服务区公共厕所",
        "address": "辽宁省抚顺市清原满族自治县北三家互通与沈吉高速交叉口正西方向357米左右",
        "tel": "",
        "category": "基础设施:公共设施:公共厕所",
        "type": 0,
        "location": {
            "lat": 42.033011,
            "lng": 124.698394
        },
        "ad_info": {
            "adcode": 210423,
            "province": "辽宁省",
            "city": "抚顺市",
            "district": "清原满族自治县"
        }
    },
    {
        "id": "17199795205614020681",
        "title": "残疾人洗手间(印象新城购物中心)",
        "address": "辽宁省抚顺市顺城区临江东路19-1印象大厦F2",
        "tel": "",
        "category": "基础设施:公共设施:无障碍洗手间",
        "type": 0,
        "location": {
            "lat": 41.882062,
            "lng": 123.953712
        },
        "ad_info": {
            "adcode": 210411,
            "province": "辽宁省",
            "city": "抚顺市",
            "district": "顺城区"
        }
    },
    {
        "id": "3123047273495264010",
        "title": "女洗手间(印象新城购物中心)",
        "address": "辽宁省抚顺市顺城区临江东路19-1印象大厦F2",
        "tel": "",
        "category": "基础设施:公共设施:女洗手间",
        "type": 0,
        "location": {
            "lat": 41.882043,
            "lng": 123.953757
        },
        "ad_info": {
            "adcode": 210411,
            "province": "辽宁省",
            "city": "抚顺市",
            "district": "顺城区"
        }
    },
    {
        "id": "7767197198563706844",
        "title": "男卫生间",
        "address": "辽宁省抚顺市顺城区临江东路19-1印象大厦F2",
        "tel": "",
        "category": "基础设施:公共设施:男洗手间",
        "type": 0,
        "location": {
            "lat": 41.881334,
            "lng": 123.953782
        },
        "ad_info": {
            "adcode": 210411,
            "province": "辽宁省",
            "city": "抚顺市",
            "district": "顺城区"
        }
    },
    {
        "id": "6958734631639462727",
        "title": "男卫生间",
        "address": "辽宁省抚顺市顺城区临江东路19-1印象大厦F1",
        "tel": "",
        "category": "基础设施:公共设施:男洗手间",
        "type": 0,
        "location": {
            "lat": 41.880914,
            "lng": 123.953075
        },
        "ad_info": {
            "adcode": 210411,
            "province": "辽宁省",
            "city": "抚顺市",
            "district": "顺城区"
        }
    },
    {
        "id": "1585616492061362166",
        "title": "女卫生间",
        "address": "辽宁省抚顺市顺城区临江东路19-1印象大厦F1",
        "tel": "",
        "category": "基础设施:公共设施:女洗手间",
        "type": 0,
        "location": {
            "lat": 41.881915,
            "lng": 123.953053
        },
        "ad_info": {
            "adcode": 210411,
            "province": "辽宁省",
            "city": "抚顺市",
            "district": "顺城区"
        }
    },
    {
        "id": "13524473382990795644",
        "title": "公共厕所",
        "address": "辽宁省抚顺市东洲区前岭立交与辽中环线高速交叉口正东方向229米左右",
        "tel": "",
        "category": "基础设施:公共设施:公共厕所",
        "type": 0,
        "location": {
            "lat": 41.911648,
            "lng": 124.06486
        },
        "ad_info": {
            "adcode": 210403,
            "province": "辽宁省",
            "city": "抚顺市",
            "district": "东洲区"
        }
    },
    {
        "id": "17139256114018803081",
        "title": "公共厕所",
        "address": "辽宁省抚顺市新宾满族自治县G229与木通线交叉口正北方向752米左右",
        "tel": "",
        "category": "基础设施:公共设施:公共厕所",
        "type": 0,
        "location": {
            "lat": 41.645685,
            "lng": 124.820883
        },
        "ad_info": {
            "adcode": 210422,
            "province": "辽宁省",
            "city": "抚顺市",
            "district": "新宾满族自治县"
        }
    },
    {
        "id": "8850799201514805338",
        "title": "公共厕所",
        "address": "辽宁省抚顺市顺城区葛布东街与葛布路交叉口正西方向35米左右",
        "tel": "",
        "category": "基础设施:公共设施:公共厕所",
        "type": 0,
        "location": {
            "lat": 41.869051,
            "lng": 123.868001
        },
        "ad_info": {
            "adcode": 210411,
            "province": "辽宁省",
            "city": "抚顺市",
            "district": "顺城区"
        }
    },
    {
        "id": "5339456270592421900",
        "title": "公共厕所",
        "address": "辽宁省抚顺市望花区雷锋路(西段)与黑山街交叉口正南方向807米左右",
        "tel": "",
        "category": "基础设施:公共设施:公共厕所",
        "type": 0,
        "location": {
            "lat": 41.83769,
            "lng": 123.7712
        },
        "ad_info": {
            "adcode": 210404,
            "province": "辽宁省",
            "city": "抚顺市",
            "district": "望花区"
        }
    },
    {
        "id": "12109166644835002473",
        "title": "公共厕所",
        "address": "辽宁省抚顺市清原满族自治县G202与浑河南路交叉口西南方向1033米左右",
        "tel": "",
        "category": "基础设施:公共设施:公共厕所",
        "type": 0,
        "location": {
            "lat": 42.084573,
            "lng": 124.896493
        },
        "ad_info": {
            "adcode": 210423,
            "province": "辽宁省",
            "city": "抚顺市",
            "district": "清原满族自治县"
        }
    },
    {
        "id": "661843584936445135",
        "title": "公共厕所",
        "address": "辽宁省抚顺市清原满族自治县兴隆路36号正西方向190米",
        "tel": "",
        "category": "基础设施:公共设施:公共厕所",
        "type": 0,
        "location": {
            "lat": 42.095182,
            "lng": 124.921689
        },
        "ad_info": {
            "adcode": 210423,
            "province": "辽宁省",
            "city": "抚顺市",
            "district": "清原满族自治县"
        }
    },
    {
        "id": "11624897904256945122",
        "title": "公共厕所",
        "address": "辽宁省抚顺市顺城区临江路(西段)与柳河街交叉口正南方向109米左右",
        "tel": "",
        "category": "基础设施:公共设施:公共厕所",
        "type": 0,
        "location": {
            "lat": 41.871622,
            "lng": 123.903038
        },
        "ad_info": {
            "adcode": 210411,
            "province": "辽宁省",
            "city": "抚顺市",
            "district": "顺城区"
        }
    },
    {
        "id": "3712963139245552502",
        "title": "公共厕所(民主路)",
        "address": "辽宁省抚顺市新抚区东三街与东六路交叉口西南方向40米左右",
        "tel": "",
        "category": "基础设施:公共设施:公共厕所",
        "type": 0,
        "location": {
            "lat": 41.862308,
            "lng": 123.909616
        },
        "ad_info": {
            "adcode": 210402,
            "province": "辽宁省",
            "city": "抚顺市",
            "district": "新抚区"
        }
    },
    {
        "id": "270458050532321706",
        "title": "公共厕所",
        "address": "辽宁省抚顺市新宾满族自治县兴京街与彰桓线交叉口东北方向508米左右",
        "tel": "",
        "category": "基础设施:公共设施:公共厕所",
        "type": 0,
        "location": {
            "lat": 41.74551,
            "lng": 125.041976
        },
        "ad_info": {
            "adcode": 210422,
            "province": "辽宁省",
            "city": "抚顺市",
            "district": "新宾满族自治县"
        }
    },
    {
        "id": "8353164522768771954",
        "title": "男洗手间(万达广场抚顺店)",
        "address": "辽宁省抚顺市新抚区浑河南路中段56号万达广场F2",
        "tel": "",
        "category": "基础设施:公共设施:公共厕所",
        "type": 0,
        "location": {
            "lat": 41.865034,
            "lng": 123.903369
        },
        "ad_info": {
            "adcode": 210402,
            "province": "辽宁省",
            "city": "抚顺市",
            "district": "新抚区"
        }
    },
    {
        "id": "17436781982177923254",
        "title": "公共厕所",
        "address": "辽宁省抚顺市清原满族自治县柴河路与白云街交叉口正北方向32米左右",
        "tel": "",
        "category": "基础设施:公共设施:公共厕所",
        "type": 0,
        "location": {
            "lat": 42.104442,
            "lng": 124.936442
        },
        "ad_info": {
            "adcode": 210423,
            "province": "辽宁省",
            "city": "抚顺市",
            "district": "清原满族自治县"
        }
    },
    {
        "id": "17710453637800569486",
        "title": "公共厕所",
        "address": "辽宁省抚顺市望花区五老街与五老西路交叉口正南方向54米左右",
        "tel": "",
        "category": "基础设施:公共设施:公共厕所",
        "type": 0,
        "location": {
            "lat": 41.82825,
            "lng": 123.858618
        },
        "ad_info": {
            "adcode": 210404,
            "province": "辽宁省",
            "city": "抚顺市",
            "district": "望花区"
        }
    },
    {
        "id": "8571314703939071290",
        "title": "公共厕所",
        "address": "辽宁省抚顺市新宾满族自治县罕王路35号",
        "tel": "",
        "category": "基础设施:公共设施:公共厕所",
        "type": 0,
        "location": {
            "lat": 41.708516,
            "lng": 124.824715
        },
        "ad_info": {
            "adcode": 210422,
            "province": "辽宁省",
            "city": "抚顺市",
            "district": "新宾满族自治县"
        }
    },
    {
        "id": "10937790327990341590",
        "title": "公共厕所",
        "address": "辽宁省抚顺市清原满族自治县双龙街与浑河北路交叉口正南方向23米左右",
        "tel": "",
        "category": "基础设施:公共设施:公共厕所",
        "type": 0,
        "location": {
            "lat": 42.09635,
            "lng": 124.926163
        },
        "ad_info": {
            "adcode": 210423,
            "province": "辽宁省",
            "city": "抚顺市",
            "district": "清原满族自治县"
        }
    },
    {
        "id": "15325665660380905741",
        "title": "公共厕所",
        "address": "辽宁省抚顺市新宾满族自治县303省道西50米",
        "tel": "",
        "category": "基础设施:公共设施:公共厕所",
        "type": 0,
        "location": {
            "lat": 41.677233,
            "lng": 125.150257
        },
        "ad_info": {
            "adcode": 210422,
            "province": "辽宁省",
            "city": "抚顺市",
            "district": "新宾满族自治县"
        }
    },
    {
        "id": "389224293180492132",
        "title": "公共厕所",
        "address": "辽宁省抚顺市清原满族自治县白银路与长岭街交叉口正西方向19米左右",
        "tel": "",
        "category": "基础设施:公共设施:公共厕所",
        "type": 0,
        "location": {
            "lat": 42.105148,
            "lng": 124.927123
        },
        "ad_info": {
            "adcode": 210423,
            "province": "辽宁省",
            "city": "抚顺市",
            "district": "清原满族自治县"
        }
    },
    {
        "id": "15891001055482320534",
        "title": "公共厕所",
        "address": "辽宁省抚顺市新抚区刘山一路与刘山二街交叉口正东方向285米左右",
        "tel": "",
        "category": "基础设施:公共设施:公共厕所",
        "type": 0,
        "location": {
            "lat": 41.829634,
            "lng": 123.900343
        },
        "ad_info": {
            "adcode": 210402,
            "province": "辽宁省",
            "city": "抚顺市",
            "district": "新抚区"
        }
    },
    {
        "id": "11277011390294827933",
        "title": "男卫生间",
        "address": "辽宁省抚顺市顺城区临江东路19-1印象大厦F2",
        "tel": "",
        "category": "基础设施:公共设施:男洗手间",
        "type": 0,
        "location": {
            "lat": 41.882083,
            "lng": 123.953753
        },
        "ad_info": {
            "adcode": 210411,
            "province": "辽宁省",
            "city": "抚顺市",
            "district": "顺城区"
        }
    },
    {
        "id": "12615159367524731975",
        "title": "公共厕所",
        "address": "辽宁省抚顺市顺城区珲春街与临江路(东段)交叉口东南260米",
        "tel": "",
        "category": "基础设施:公共设施:公共厕所",
        "type": 0,
        "location": {
            "lat": 41.87714,
            "lng": 123.939688
        },
        "ad_info": {
            "adcode": 210411,
            "province": "辽宁省",
            "city": "抚顺市",
            "district": "顺城区"
        }
    },
    {
        "id": "5516175321799038451",
        "title": "公共厕所",
        "address": "辽宁省抚顺市新宾满族自治县青年路2号",
        "tel": "",
        "category": "基础设施:公共设施:公共厕所",
        "type": 0,
        "location": {
            "lat": 41.735366,
            "lng": 125.032767
        },
        "ad_info": {
            "adcode": 210422,
            "province": "辽宁省",
            "city": "抚顺市",
            "district": "新宾满族自治县"
        }
    },
    {
        "id": "2080924935099862256",
        "title": "公共厕所",
        "address": "辽宁省抚顺市新抚区十四道街与福民路交叉口西南方向13米左右",
        "tel": "",
        "category": "基础设施:公共设施:公共厕所",
        "type": 0,
        "location": {
            "lat": 41.859674,
            "lng": 123.865513
        },
        "ad_info": {
            "adcode": 210402,
            "province": "辽宁省",
            "city": "抚顺市",
            "district": "新抚区"
        }
    },
    {
        "id": "9428298123511980250",
        "title": "公共厕所",
        "address": "辽宁省抚顺市东洲区张家街村附近",
        "tel": "",
        "category": "基础设施:公共设施:公共厕所",
        "type": 0,
        "location": {
            "lat": 41.945188,
            "lng": 124.070744
        },
        "ad_info": {
            "adcode": 210403,
            "province": "辽宁省",
            "city": "抚顺市",
            "district": "东洲区"
        }
    },
    {
        "id": "16736387260070789582",
        "title": "男洗手间(万达广场抚顺店)",
        "address": "辽宁省抚顺市新抚区浑河南路中段56号万达广场F5",
        "tel": "",
        "category": "基础设施:公共设施:公共厕所",
        "type": 0,
        "location": {
            "lat": 41.86561,
            "lng": 123.902435
        },
        "ad_info": {
            "adcode": 210402,
            "province": "辽宁省",
            "city": "抚顺市",
            "district": "新抚区"
        }
    },
    {
        "id": "10278792188329433950",
        "title": "公共厕所",
        "address": "辽宁省抚顺市新抚区西四路与解放路交叉口西南方向42米左右",
        "tel": "",
        "category": "基础设施:公共设施:公共厕所",
        "type": 0,
        "location": {
            "lat": 41.859844,
            "lng": 123.899724
        },
        "ad_info": {
            "adcode": 210402,
            "province": "辽宁省",
            "city": "抚顺市",
            "district": "新抚区"
        }
    },
    {
        "id": "9080423676793134452",
        "title": "公共厕所",
        "address": "辽宁省抚顺市新抚区新开路与裕民路交叉口东南方向37米左右",
        "tel": "",
        "category": "基础设施:公共设施:公共厕所",
        "type": 0,
        "location": {
            "lat": 41.868134,
            "lng": 123.910518
        },
        "ad_info": {
            "adcode": 210402,
            "province": "辽宁省",
            "city": "抚顺市",
            "district": "新抚区"
        }
    },
    {
        "id": "10724288048609521502",
        "title": "公共厕所",
        "address": "辽宁省抚顺市清原满族自治县兴隆路与清河路交叉口正北方向245米左右",
        "tel": "",
        "category": "基础设施:公共设施:公共厕所",
        "type": 0,
        "location": {
            "lat": 42.105273,
            "lng": 124.941638
        },
        "ad_info": {
            "adcode": 210423,
            "province": "辽宁省",
            "city": "抚顺市",
            "district": "清原满族自治县"
        }
    },
    {
        "id": "1185714910862997839",
        "title": "公共厕所",
        "address": "辽宁省抚顺市新宾满族自治县永陵镇中心卫生院东侧80米",
        "tel": "",
        "category": "基础设施:公共设施:公共厕所",
        "type": 0,
        "location": {
            "lat": 41.711601,
            "lng": 124.835187
        },
        "ad_info": {
            "adcode": 210422,
            "province": "辽宁省",
            "city": "抚顺市",
            "district": "新宾满族自治县"
        }
    },
    {
        "id": "17305245291712301007",
        "title": "公共厕所",
        "address": "辽宁省抚顺市顺城区106省道西50米",
        "tel": "",
        "category": "基础设施:公共设施:公共厕所",
        "type": 0,
        "location": {
            "lat": 41.91725,
            "lng": 123.932983
        },
        "ad_info": {
            "adcode": 210411,
            "province": "辽宁省",
            "city": "抚顺市",
            "district": "顺城区"
        }
    },
    {
        "id": "5768819857451519950",
        "title": "公共厕所",
        "address": "辽宁省抚顺市清原满族自治县柴河路与玉花街交叉口正东方向195米左右",
        "tel": "",
        "category": "基础设施:公共设施:公共厕所",
        "type": 0,
        "location": {
            "lat": 42.104846,
            "lng": 124.939688
        },
        "ad_info": {
            "adcode": 210423,
            "province": "辽宁省",
            "city": "抚顺市",
            "district": "清原满族自治县"
        }
    },
    {
        "id": "17657300838207809173",
        "title": "大伙房水库-公共厕所",
        "address": "辽宁省抚顺市东洲区新太南街与绥化路交叉口东北方向84米左右",
        "tel": "",
        "category": "基础设施:公共设施:公共厕所",
        "type": 0,
        "location": {
            "lat": 41.888628,
            "lng": 124.08762
        },
        "ad_info": {
            "adcode": 210403,
            "province": "辽宁省",
            "city": "抚顺市",
            "district": "东洲区"
        }
    },
    {
        "id": "4982089561975818792",
        "title": "公共厕所",
        "address": "辽宁省抚顺市东洲区土高线与土口子路交叉口西南180米",
        "tel": "",
        "category": "基础设施:公共设施:公共厕所",
        "type": 0,
        "location": {
            "lat": 41.904511,
            "lng": 124.10224
        },
        "ad_info": {
            "adcode": 210403,
            "province": "辽宁省",
            "city": "抚顺市",
            "district": "东洲区"
        }
    },
    {
        "id": "15350092951614828994",
        "title": "公共厕所",
        "address": "辽宁省抚顺市东洲区G202与土高线交叉口西南方向237米左右",
        "tel": "",
        "category": "基础设施:公共设施:公共厕所",
        "type": 0,
        "location": {
            "lat": 41.94574,
            "lng": 124.278145
        },
        "ad_info": {
            "adcode": 210403,
            "province": "辽宁省",
            "city": "抚顺市",
            "district": "东洲区"
        }
    },
    {
        "id": "10094816780286590978",
        "title": "旅游厕所",
        "address": "辽宁省抚顺市新宾满族自治县485乡道北30米",
        "tel": "",
        "category": "基础设施:公共设施:公共厕所",
        "type": 0,
        "location": {
            "lat": 41.680614,
            "lng": 124.469561
        },
        "ad_info": {
            "adcode": 210422,
            "province": "辽宁省",
            "city": "抚顺市",
            "district": "新宾满族自治县"
        }
    },
    {
        "id": "10607373718825045299",
        "title": "公共厕所",
        "address": "辽宁省抚顺市顺城区临江路(东段)与隆城街交叉口东南方向365米左右",
        "tel": "",
        "category": "基础设施:公共设施:公共厕所",
        "type": 0,
        "location": {
            "lat": 41.876118,
            "lng": 123.948654
        },
        "ad_info": {
            "adcode": 210411,
            "province": "辽宁省",
            "city": "抚顺市",
            "district": "顺城区"
        }
    },
    {
        "id": "13283360113250446746",
        "title": "公共厕所",
        "address": "辽宁省抚顺市抚顺县抚金线与沈通线交叉口西北方向87米左右",
        "tel": "",
        "category": "基础设施:公共设施:公共厕所",
        "type": 0,
        "location": {
            "lat": 41.531332,
            "lng": 124.370432
        },
        "ad_info": {
            "adcode": 210421,
            "province": "辽宁省",
            "city": "抚顺市",
            "district": "抚顺县"
        }
    },
    {
        "id": "668455222413298839",
        "title": "公共厕所",
        "address": "辽宁省抚顺市望花区刘大线与沈通线交叉口西北方向723米左右",
        "tel": "",
        "category": "基础设施:公共设施:公共厕所",
        "type": 0,
        "location": {
            "lat": 41.772209,
            "lng": 123.786803
        },
        "ad_info": {
            "adcode": 210404,
            "province": "辽宁省",
            "city": "抚顺市",
            "district": "望花区"
        }
    },
    {
        "id": "12817955964735415658",
        "title": "公共厕所",
        "address": "辽宁省抚顺市望花区华茂街与知行路交叉口正西方向288米左右",
        "tel": "",
        "category": "基础设施:公共设施:公共厕所",
        "type": 0,
        "location": {
            "lat": 41.83813,
            "lng": 123.689667
        },
        "ad_info": {
            "adcode": 210404,
            "province": "辽宁省",
            "city": "抚顺市",
            "district": "望花区"
        }
    },
    {
        "id": "17984317221287499224",
        "title": "公共厕所",
        "address": "辽宁省抚顺市顺城区丰城街与裕城路交叉口西北角口袋公园内",
        "tel": "",
        "category": "基础设施:公共设施:公共厕所",
        "type": 0,
        "location": {
            "lat": 41.887337,
            "lng": 123.975783
        },
        "ad_info": {
            "adcode": 210411,
            "province": "辽宁省",
            "city": "抚顺市",
            "district": "顺城区"
        }
    },
    {
        "id": "8619925522875519243",
        "title": "公共厕所",
        "address": "辽宁省抚顺市望花区北镇街与朝阳路交叉口东南方向68米左右",
        "tel": "",
        "category": "基础设施:公共设施:公共厕所",
        "type": 0,
        "location": {
            "lat": 41.844631,
            "lng": 123.786944
        },
        "ad_info": {
            "adcode": 210404,
            "province": "辽宁省",
            "city": "抚顺市",
            "district": "望花区"
        }
    },
    {
        "id": "15256901475754449491",
        "title": "公共厕所",
        "address": "辽宁省抚顺市望花区凌源街与雷锋路(东段)交叉口正北方向51米左右",
        "tel": "",
        "category": "基础设施:公共设施:公共厕所",
        "type": 0,
        "location": {
            "lat": 41.850432,
            "lng": 123.815011
        },
        "ad_info": {
            "adcode": 210404,
            "province": "辽宁省",
            "city": "抚顺市",
            "district": "望花区"
        }
    }
]