[
    {
        "id": "2303883339770739652",
        "title": "公共厕所",
        "address": "西藏自治区拉萨市城关区北环路与阳岛路交叉口西北方向19米左右",
        "tel": "",
        "category": "基础设施:公共设施:公共厕所",
        "type": 0,
        "location": {
            "lat": 29.645672,
            "lng": 91.116051
        },
        "ad_info": {
            "adcode": 540102,
            "province": "西藏自治区",
            "city": "拉萨市",
            "district": "城关区"
        }
    },
    {
        "id": "16948202934947517180",
        "title": "公共厕所",
        "address": "西藏自治区拉萨市城关区北京中路与康昂多北路交叉口正南方向87米左右",
        "tel": "",
        "category": "基础设施:公共设施:公共厕所",
        "type": 0,
        "location": {
            "lat": 29.651708,
            "lng": 91.121207
        },
        "ad_info": {
            "adcode": 540102,
            "province": "西藏自治区",
            "city": "拉萨市",
            "district": "城关区"
        }
    },
    {
        "id": "11745044919267766696",
        "title": "公共厕所",
        "address": "西藏自治区拉萨市城关区红旗西路与江苏东路交叉口东南方向170米",
        "tel": "",
        "category": "基础设施:公共设施:公共厕所",
        "type": 0,
        "location": {
            "lat": 29.646691,
            "lng": 91.15043
        },
        "ad_info": {
            "adcode": 540102,
            "province": "西藏自治区",
            "city": "拉萨市",
            "district": "城关区"
        }
    },
    {
        "id": "18353413075311263457",
        "title": "公共厕所",
        "address": "西藏自治区拉萨市城关区林聚南路与迎亲桥交叉口正北方向290米左右",
        "tel": "",
        "category": "基础设施:公共设施:公共厕所",
        "type": 0,
        "location": {
            "lat": 29.63988,
            "lng": 91.131354
        },
        "ad_info": {
            "adcode": 540102,
            "province": "西藏自治区",
            "city": "拉萨市",
            "district": "城关区"
        }
    },
    {
        "id": "1973585460516181395",
        "title": "公共厕所",
        "address": "西藏自治区拉萨市城关区夺底路南段与林廓东路北段交叉口正南方向285米左右",
        "tel": "",
        "category": "基础设施:公共设施:公共厕所",
        "type": 0,
        "location": {
            "lat": 29.654997,
            "lng": 91.139862
        },
        "ad_info": {
            "adcode": 540102,
            "province": "西藏自治区",
            "city": "拉萨市",
            "district": "城关区"
        }
    },
    {
        "id": "1017763167817660335",
        "title": "公共厕所",
        "address": "西藏自治区拉萨市城关区丹墨路与川藏公路交叉口正北方向41米左右",
        "tel": "",
        "category": "基础设施:公共设施:公共厕所",
        "type": 0,
        "location": {
            "lat": 29.6418,
            "lng": 91.227612
        },
        "ad_info": {
            "adcode": 540102,
            "province": "西藏自治区",
            "city": "拉萨市",
            "district": "城关区"
        }
    },
    {
        "id": "13995265944683567161",
        "title": "公共厕所",
        "address": "西藏自治区拉萨市城关区吉曲玉景东北侧210米",
        "tel": "",
        "category": "基础设施:公共设施:公共厕所",
        "type": 0,
        "location": {
            "lat": 29.633555,
            "lng": 91.044347
        },
        "ad_info": {
            "adcode": 540102,
            "province": "西藏自治区",
            "city": "拉萨市",
            "district": "城关区"
        }
    },
    {
        "id": "15610156627572588645",
        "title": "公共厕所",
        "address": "西藏自治区拉萨市城关区江达岗东路与江达岗西路交叉口东南方向160米",
        "tel": "",
        "category": "基础设施:公共设施:公共厕所",
        "type": 0,
        "location": {
            "lat": 29.658232,
            "lng": 91.102644
        },
        "ad_info": {
            "adcode": 540102,
            "province": "西藏自治区",
            "city": "拉萨市",
            "district": "城关区"
        }
    },
    {
        "id": "1087533273509644032",
        "title": "公共厕所",
        "address": "西藏自治区拉萨市达孜区章多派出所附近",
        "tel": "",
        "category": "基础设施:公共设施:公共厕所",
        "type": 0,
        "location": {
            "lat": 29.75341,
            "lng": 91.477585
        },
        "ad_info": {
            "adcode": 540104,
            "province": "西藏自治区",
            "city": "拉萨市",
            "district": "达孜区"
        }
    },
    {
        "id": "16184342414100524628",
        "title": "公共厕所",
        "address": "西藏自治区拉萨市城关区嘎吉林酒店(江苏东路北)",
        "tel": "",
        "category": "基础设施:公共设施:公共厕所",
        "type": 0,
        "location": {
            "lat": 29.656332,
            "lng": 91.14153
        },
        "ad_info": {
            "adcode": 540102,
            "province": "西藏自治区",
            "city": "拉萨市",
            "district": "城关区"
        }
    },
    {
        "id": "12740977317780237553",
        "title": "公共厕所",
        "address": "西藏自治区拉萨市城关区当热东路与当热路交叉口正南方向234米左右",
        "tel": "",
        "category": "基础设施:公共设施:公共厕所",
        "type": 0,
        "location": {
            "lat": 29.660612,
            "lng": 91.156181
        },
        "ad_info": {
            "adcode": 540102,
            "province": "西藏自治区",
            "city": "拉萨市",
            "district": "城关区"
        }
    },
    {
        "id": "7554584083020970568",
        "title": "公共厕所",
        "address": "西藏自治区拉萨市城关区朵森格路南段与宇拓路交叉口南100米",
        "tel": "",
        "category": "基础设施:公共设施:公共厕所",
        "type": 0,
        "location": {
            "lat": 29.649181,
            "lng": 91.12897
        },
        "ad_info": {
            "adcode": 540102,
            "province": "西藏自治区",
            "city": "拉萨市",
            "district": "城关区"
        }
    },
    {
        "id": "525277435498503374",
        "title": "公共厕所",
        "address": "西藏自治区拉萨市城关区林廓西路宗角禄康公园西门西南侧约60米",
        "tel": "",
        "category": "基础设施:公共设施:公共厕所",
        "type": 0,
        "location": {
            "lat": 29.65728,
            "lng": 91.1156
        },
        "ad_info": {
            "adcode": 540102,
            "province": "西藏自治区",
            "city": "拉萨市",
            "district": "城关区"
        }
    },
    {
        "id": "17354722235592464395",
        "title": "公共厕所",
        "address": "西藏自治区拉萨市城关区仙足岛住宅小区南2区东南侧180米",
        "tel": "",
        "category": "基础设施:公共设施:公共厕所",
        "type": 0,
        "location": {
            "lat": 29.637221,
            "lng": 91.135871
        },
        "ad_info": {
            "adcode": 540102,
            "province": "西藏自治区",
            "city": "拉萨市",
            "district": "城关区"
        }
    },
    {
        "id": "7831243837274010945",
        "title": "公共厕所",
        "address": "西藏自治区拉萨市城关区纳金东路东城金座",
        "tel": "",
        "category": "基础设施:公共设施:公共厕所",
        "type": 0,
        "location": {
            "lat": 29.657965,
            "lng": 91.182144
        },
        "ad_info": {
            "adcode": 540102,
            "province": "西藏自治区",
            "city": "拉萨市",
            "district": "城关区"
        }
    },
    {
        "id": "9094055114098049434",
        "title": "公共厕所",
        "address": "西藏自治区拉萨市城关区纳金中路城市管理综合执法局",
        "tel": "",
        "category": "基础设施:公共设施:公共厕所",
        "type": 0,
        "location": {
            "lat": 29.657047,
            "lng": 91.152836
        },
        "ad_info": {
            "adcode": 540102,
            "province": "西藏自治区",
            "city": "拉萨市",
            "district": "城关区"
        }
    },
    {
        "id": "9560519883340776967",
        "title": "公共厕所",
        "address": "西藏自治区拉萨市城关区城关花园C区西侧商铺7号东北方向90米",
        "tel": "",
        "category": "基础设施:公共设施:公共厕所",
        "type": 0,
        "location": {
            "lat": 29.667534,
            "lng": 91.163692
        },
        "ad_info": {
            "adcode": 540102,
            "province": "西藏自治区",
            "city": "拉萨市",
            "district": "城关区"
        }
    },
    {
        "id": "346353829482869730",
        "title": "公共厕所",
        "address": "西藏自治区拉萨市城关区东二路与岗堆路交叉口东南方向45米左右",
        "tel": "",
        "category": "基础设施:公共设施:公共厕所",
        "type": 0,
        "location": {
            "lat": 29.661084,
            "lng": 91.180143
        },
        "ad_info": {
            "adcode": 540102,
            "province": "西藏自治区",
            "city": "拉萨市",
            "district": "城关区"
        }
    },
    {
        "id": "16832261834889431192",
        "title": "公共厕所",
        "address": "西藏自治区拉萨市城关区林廓东路南段与波林卡路交叉口正西方向137米左右",
        "tel": "",
        "category": "基础设施:公共设施:公共厕所",
        "type": 0,
        "location": {
            "lat": 29.643755,
            "lng": 91.138228
        },
        "ad_info": {
            "adcode": 540102,
            "province": "西藏自治区",
            "city": "拉萨市",
            "district": "城关区"
        }
    },
    {
        "id": "11180377478493542829",
        "title": "公共厕所",
        "address": "西藏自治区拉萨市城关区扎细新村路与色拉中路交叉口东北方向28米左右",
        "tel": "",
        "category": "基础设施:公共设施:公共厕所",
        "type": 0,
        "location": {
            "lat": 29.669124,
            "lng": 91.134567
        },
        "ad_info": {
            "adcode": 540102,
            "province": "西藏自治区",
            "city": "拉萨市",
            "district": "城关区"
        }
    },
    {
        "id": "39688803415739336",
        "title": "公共厕所",
        "address": "西藏自治区拉萨市城关区北京西路与北环路交叉口西南方向133米左右",
        "tel": "",
        "category": "基础设施:公共设施:公共厕所",
        "type": 0,
        "location": {
            "lat": 29.661194,
            "lng": 91.061855
        },
        "ad_info": {
            "adcode": 540102,
            "province": "西藏自治区",
            "city": "拉萨市",
            "district": "城关区"
        }
    },
    {
        "id": "9516103191209496318",
        "title": "公共厕所",
        "address": "西藏自治区拉萨市城关区和谐路与罗堆中路交叉口正东方向67米左右",
        "tel": "",
        "category": "基础设施:公共设施:公共厕所",
        "type": 0,
        "location": {
            "lat": 29.649623,
            "lng": 91.07885
        },
        "ad_info": {
            "adcode": 540102,
            "province": "西藏自治区",
            "city": "拉萨市",
            "district": "城关区"
        }
    },
    {
        "id": "6681724707700516088",
        "title": "公共厕所",
        "address": "西藏自治区拉萨市墨竹工卡县南京路与堪巴林路交叉口西南方向40米左右",
        "tel": "",
        "category": "基础设施:公共设施:公共厕所",
        "type": 0,
        "location": {
            "lat": 29.846663,
            "lng": 91.738364
        },
        "ad_info": {
            "adcode": 540127,
            "province": "西藏自治区",
            "city": "拉萨市",
            "district": "墨竹工卡县"
        }
    },
    {
        "id": "15087508207028708566",
        "title": "公共厕所",
        "address": "西藏自治区拉萨市堆龙德庆区拉萨之窗2栋一单元4层正西方向110米",
        "tel": "",
        "category": "基础设施:公共设施:公共厕所",
        "type": 0,
        "location": {
            "lat": 29.625036,
            "lng": 91.068912
        },
        "ad_info": {
            "adcode": 540103,
            "province": "西藏自治区",
            "city": "拉萨市",
            "district": "堆龙德庆区"
        }
    },
    {
        "id": "6168352129202466806",
        "title": "公共厕所",
        "address": "西藏自治区拉萨市堆龙德庆区青藏公路世邦湿地公园",
        "tel": "",
        "category": "基础设施:公共设施:公共厕所",
        "type": 0,
        "location": {
            "lat": 29.65605,
            "lng": 90.984636
        },
        "ad_info": {
            "adcode": 540103,
            "province": "西藏自治区",
            "city": "拉萨市",
            "district": "堆龙德庆区"
        }
    },
    {
        "id": "11383129337105159347",
        "title": "公共厕所",
        "address": "西藏自治区拉萨市城关区朝阳路与金珠东路交叉口西北方向306米左右",
        "tel": "",
        "category": "基础设施:公共设施:公共厕所",
        "type": 0,
        "location": {
            "lat": 29.647945,
            "lng": 91.10783
        },
        "ad_info": {
            "adcode": 540102,
            "province": "西藏自治区",
            "city": "拉萨市",
            "district": "城关区"
        }
    },
    {
        "id": "13967099444547033232",
        "title": "公共厕所",
        "address": "西藏自治区拉萨市城关区北京西路与文艺路交叉口西南方向303米左右",
        "tel": "",
        "category": "基础设施:公共设施:公共厕所",
        "type": 0,
        "location": {
            "lat": 29.654557,
            "lng": 91.094358
        },
        "ad_info": {
            "adcode": 540102,
            "province": "西藏自治区",
            "city": "拉萨市",
            "district": "城关区"
        }
    },
    {
        "id": "12894914383316782726",
        "title": "公共厕所",
        "address": "西藏自治区拉萨市城关区东西大道与新村南路交叉口正东方向220米左右",
        "tel": "",
        "category": "基础设施:公共设施:公共厕所",
        "type": 0,
        "location": {
            "lat": 29.662556,
            "lng": 91.131849
        },
        "ad_info": {
            "adcode": 540102,
            "province": "西藏自治区",
            "city": "拉萨市",
            "district": "城关区"
        }
    },
    {
        "id": "12344255700238826126",
        "title": "公共厕所",
        "address": "西藏自治区拉萨市城关区罗堆东路与罗布林卡南支路交叉口东北方向75米左右",
        "tel": "",
        "category": "基础设施:公共设施:公共厕所",
        "type": 0,
        "location": {
            "lat": 29.649234,
            "lng": 91.091654
        },
        "ad_info": {
            "adcode": 540102,
            "province": "西藏自治区",
            "city": "拉萨市",
            "district": "城关区"
        }
    },
    {
        "id": "3153460104178831773",
        "title": "公共厕所",
        "address": "西藏自治区拉萨市城关区八朗学四巷与北京东路交叉口东南方向26米左右",
        "tel": "",
        "category": "基础设施:公共设施:公共厕所",
        "type": 0,
        "location": {
            "lat": 29.652133,
            "lng": 91.139567
        },
        "ad_info": {
            "adcode": 540102,
            "province": "西藏自治区",
            "city": "拉萨市",
            "district": "城关区"
        }
    },
    {
        "id": "13484619614405541352",
        "title": "公共厕所",
        "address": "西藏自治区拉萨市城关区城关区教育体育局(林聚北路东)",
        "tel": "",
        "category": "基础设施:公共设施:公共厕所",
        "type": 0,
        "location": {
            "lat": 29.649228,
            "lng": 91.144862
        },
        "ad_info": {
            "adcode": 540102,
            "province": "西藏自治区",
            "city": "拉萨市",
            "district": "城关区"
        }
    },
    {
        "id": "6482055407628833798",
        "title": "公共厕所",
        "address": "西藏自治区拉萨市城关区小昭寺北巷与小昭寺路交叉口东南方向17米左右",
        "tel": "",
        "category": "基础设施:公共设施:公共厕所",
        "type": 0,
        "location": {
            "lat": 29.656411,
            "lng": 91.13298
        },
        "ad_info": {
            "adcode": 540102,
            "province": "西藏自治区",
            "city": "拉萨市",
            "district": "城关区"
        }
    },
    {
        "id": "15082115958353793936",
        "title": "公共厕所",
        "address": "西藏自治区拉萨市城关区娘热北路与色拉北路交叉口正西方向510米左右",
        "tel": "",
        "category": "基础设施:公共设施:公共厕所",
        "type": 0,
        "location": {
            "lat": 29.69427,
            "lng": 91.12026
        },
        "ad_info": {
            "adcode": 540102,
            "province": "西藏自治区",
            "city": "拉萨市",
            "district": "城关区"
        }
    },
    {
        "id": "13647467135587092925",
        "title": "公共厕所",
        "address": "西藏自治区拉萨市城关区拉鲁社区2号",
        "tel": "",
        "category": "基础设施:公共设施:公共厕所",
        "type": 0,
        "location": {
            "lat": 29.666488,
            "lng": 91.120267
        },
        "ad_info": {
            "adcode": 540102,
            "province": "西藏自治区",
            "city": "拉萨市",
            "district": "城关区"
        }
    },
    {
        "id": "2285590624002898416",
        "title": "公共厕所",
        "address": "西藏自治区拉萨市城关区天海路与民族路北段交叉口东120米",
        "tel": "",
        "category": "基础设施:公共设施:公共厕所",
        "type": 0,
        "location": {
            "lat": 29.65937,
            "lng": 91.099122
        },
        "ad_info": {
            "adcode": 540102,
            "province": "西藏自治区",
            "city": "拉萨市",
            "district": "城关区"
        }
    },
    {
        "id": "11178358558352221780",
        "title": "公共厕所",
        "address": "西藏自治区拉萨市城关区夺底中路与夺底北路交叉口正南方向65米左右",
        "tel": "",
        "category": "基础设施:公共设施:公共厕所",
        "type": 0,
        "location": {
            "lat": 29.672448,
            "lng": 91.144789
        },
        "ad_info": {
            "adcode": 540102,
            "province": "西藏自治区",
            "city": "拉萨市",
            "district": "城关区"
        }
    },
    {
        "id": "1827574247527383620",
        "title": "公共厕所",
        "address": "西藏自治区拉萨市城关区岗廓路与江苏大道交叉口东北方向299米左右",
        "tel": "",
        "category": "基础设施:公共设施:公共厕所",
        "type": 0,
        "location": {
            "lat": 29.653882,
            "lng": 91.186792
        },
        "ad_info": {
            "adcode": 540102,
            "province": "西藏自治区",
            "city": "拉萨市",
            "district": "城关区"
        }
    },
    {
        "id": "14578040665100396423",
        "title": "公共厕所",
        "address": "西藏自治区拉萨市城关区民族南路2号西藏博物馆内",
        "tel": "",
        "category": "基础设施:公共设施:公共厕所",
        "type": 0,
        "location": {
            "lat": 29.647309,
            "lng": 91.09705
        },
        "ad_info": {
            "adcode": 540102,
            "province": "西藏自治区",
            "city": "拉萨市",
            "district": "城关区"
        }
    },
    {
        "id": "1920827075999158004",
        "title": "公共厕所",
        "address": "西藏自治区拉萨市城关区林廓南路与鲁固一巷交叉口正东方向60米左右",
        "tel": "",
        "category": "基础设施:公共设施:公共厕所",
        "type": 0,
        "location": {
            "lat": 29.647504,
            "lng": 91.135676
        },
        "ad_info": {
            "adcode": 540102,
            "province": "西藏自治区",
            "city": "拉萨市",
            "district": "城关区"
        }
    },
    {
        "id": "1414581945424789685",
        "title": "公共厕所",
        "address": "西藏自治区拉萨市城关区丹杰林巷与钦古巷交叉口西南方向66米左右",
        "tel": "",
        "category": "基础设施:公共设施:公共厕所",
        "type": 0,
        "location": {
            "lat": 29.651226,
            "lng": 91.129136
        },
        "ad_info": {
            "adcode": 540102,
            "province": "西藏自治区",
            "city": "拉萨市",
            "district": "城关区"
        }
    },
    {
        "id": "111408026317226973",
        "title": "公共厕所",
        "address": "西藏自治区拉萨市城关区罗布林卡路2号",
        "tel": "",
        "category": "基础设施:公共设施:公共厕所",
        "type": 0,
        "location": {
            "lat": 29.652191,
            "lng": 91.114932
        },
        "ad_info": {
            "adcode": 540102,
            "province": "西藏自治区",
            "city": "拉萨市",
            "district": "城关区"
        }
    },
    {
        "id": "4971685977622573189",
        "title": "公共厕所",
        "address": "西藏自治区拉萨市城关区当热西路与民族北路交叉口正南方向251米左右",
        "tel": "",
        "category": "基础设施:公共设施:公共厕所",
        "type": 0,
        "location": {
            "lat": 29.661773,
            "lng": 91.097736
        },
        "ad_info": {
            "adcode": 540102,
            "province": "西藏自治区",
            "city": "拉萨市",
            "district": "城关区"
        }
    },
    {
        "id": "5142039729657299958",
        "title": "公共厕所",
        "address": "西藏自治区拉萨市城关区当热西路与扎基中路交叉口正东方向63米左右",
        "tel": "",
        "category": "基础设施:公共设施:公共厕所",
        "type": 0,
        "location": {
            "lat": 29.664267,
            "lng": 91.122503
        },
        "ad_info": {
            "adcode": 540102,
            "province": "西藏自治区",
            "city": "拉萨市",
            "district": "城关区"
        }
    },
    {
        "id": "12234140073108780261",
        "title": "公共厕所",
        "address": "西藏自治区拉萨市城关区藏大东路16号",
        "tel": "",
        "category": "基础设施:公共设施:公共厕所",
        "type": 0,
        "location": {
            "lat": 29.645584,
            "lng": 91.179909
        },
        "ad_info": {
            "adcode": 540102,
            "province": "西藏自治区",
            "city": "拉萨市",
            "district": "城关区"
        }
    },
    {
        "id": "2220305298232544650",
        "title": "公共厕所",
        "address": "西藏自治区拉萨市城关区宇拓路20号",
        "tel": "",
        "category": "基础设施:公共设施:公共厕所",
        "type": 0,
        "location": {
            "lat": 29.649685,
            "lng": 91.131257
        },
        "ad_info": {
            "adcode": 540102,
            "province": "西藏自治区",
            "city": "拉萨市",
            "district": "城关区"
        }
    },
    {
        "id": "10835576948522447577",
        "title": "公共厕所",
        "address": "西藏自治区拉萨市城关区和谐路与金珠西路交叉口正北方向136米左右",
        "tel": "",
        "category": "基础设施:公共设施:公共厕所",
        "type": 0,
        "location": {
            "lat": 29.646024,
            "lng": 91.078355
        },
        "ad_info": {
            "adcode": 540102,
            "province": "西藏自治区",
            "city": "拉萨市",
            "district": "城关区"
        }
    },
    {
        "id": "15472002087060326309",
        "title": "公共厕所",
        "address": "西藏自治区拉萨市堆龙德庆区察古大道16号",
        "tel": "",
        "category": "基础设施:公共设施:公共厕所",
        "type": 0,
        "location": {
            "lat": 29.620343,
            "lng": 91.088717
        },
        "ad_info": {
            "adcode": 540103,
            "province": "西藏自治区",
            "city": "拉萨市",
            "district": "堆龙德庆区"
        }
    },
    {
        "id": "3834363526068867769",
        "title": "公共厕所",
        "address": "西藏自治区拉萨市堆龙德庆区经开区苏州路5号",
        "tel": "",
        "category": "基础设施:公共设施:公共厕所",
        "type": 0,
        "location": {
            "lat": 29.636674,
            "lng": 91.016727
        },
        "ad_info": {
            "adcode": 540103,
            "province": "西藏自治区",
            "city": "拉萨市",
            "district": "堆龙德庆区"
        }
    },
    {
        "id": "8310463055173836111",
        "title": "公共厕所",
        "address": "西藏自治区拉萨市城关区夺底北路与慈松塘东路交叉口正东方向136米左右",
        "tel": "",
        "category": "基础设施:公共设施:公共厕所",
        "type": 0,
        "location": {
            "lat": 29.676805,
            "lng": 91.147614
        },
        "ad_info": {
            "adcode": 540102,
            "province": "西藏自治区",
            "city": "拉萨市",
            "district": "城关区"
        }
    },
    {
        "id": "4751506215525154753",
        "title": "公共厕所",
        "address": "西藏自治区拉萨市城关区智慧城东侧280米",
        "tel": "",
        "category": "基础设施:公共设施:公共厕所",
        "type": 0,
        "location": {
            "lat": 29.61966,
            "lng": 91.14348
        },
        "ad_info": {
            "adcode": 540102,
            "province": "西藏自治区",
            "city": "拉萨市",
            "district": "城关区"
        }
    },
    {
        "id": "9841901454470156245",
        "title": "公共厕所",
        "address": "西藏自治区拉萨市城关区鲁固三巷与鲁固四巷交叉口正东方向54米左右",
        "tel": "",
        "category": "基础设施:公共设施:公共厕所",
        "type": 0,
        "location": {
            "lat": 29.647768,
            "lng": 91.132637
        },
        "ad_info": {
            "adcode": 540102,
            "province": "西藏自治区",
            "city": "拉萨市",
            "district": "城关区"
        }
    },
    {
        "id": "16406057049179328921",
        "title": "公共厕所",
        "address": "西藏自治区拉萨市城关区罗布林卡南支路与金珠中路交叉口东南方向61米左右",
        "tel": "",
        "category": "基础设施:公共设施:公共厕所",
        "type": 0,
        "location": {
            "lat": 29.645156,
            "lng": 91.09123
        },
        "ad_info": {
            "adcode": 540102,
            "province": "西藏自治区",
            "city": "拉萨市",
            "district": "城关区"
        }
    },
    {
        "id": "17387502499885716731",
        "title": "公共厕所",
        "address": "西藏自治区拉萨市城关区天海路与当热西路交叉口西北方向48米左右",
        "tel": "",
        "category": "基础设施:公共设施:公共厕所",
        "type": 0,
        "location": {
            "lat": 29.664366,
            "lng": 91.101601
        },
        "ad_info": {
            "adcode": 540102,
            "province": "西藏自治区",
            "city": "拉萨市",
            "district": "城关区"
        }
    },
    {
        "id": "18443392671155735774",
        "title": "公共厕所",
        "address": "西藏自治区拉萨市城关区北环路辅路与吉拉路辅路交叉口正北方向330米左右",
        "tel": "",
        "category": "基础设施:公共设施:公共厕所",
        "type": 0,
        "location": {
            "lat": 29.689757,
            "lng": 91.124933
        },
        "ad_info": {
            "adcode": 540102,
            "province": "西藏自治区",
            "city": "拉萨市",
            "district": "城关区"
        }
    },
    {
        "id": "17753404180841055963",
        "title": "公共厕所",
        "address": "西藏自治区拉萨市城关区娘热北路与色拉北路交叉口正南方向124米左右",
        "tel": "",
        "category": "基础设施:公共设施:公共厕所",
        "type": 0,
        "location": {
            "lat": 29.693138,
            "lng": 91.125778
        },
        "ad_info": {
            "adcode": 540102,
            "province": "西藏自治区",
            "city": "拉萨市",
            "district": "城关区"
        }
    },
    {
        "id": "7052448782551429285",
        "title": "公共厕所",
        "address": "西藏自治区拉萨市城关区扎基东路与扎基中路交叉口正北方向147米左右",
        "tel": "",
        "category": "基础设施:公共设施:公共厕所",
        "type": 0,
        "location": {
            "lat": 29.675548,
            "lng": 91.134257
        },
        "ad_info": {
            "adcode": 540102,
            "province": "西藏自治区",
            "city": "拉萨市",
            "district": "城关区"
        }
    },
    {
        "id": "17818524829149578110",
        "title": "公共厕所",
        "address": "西藏自治区拉萨市城关区慈松塘东路与桑伊路交叉口正西方向327米左右",
        "tel": "",
        "category": "基础设施:公共设施:公共厕所",
        "type": 0,
        "location": {
            "lat": 29.675827,
            "lng": 91.151631
        },
        "ad_info": {
            "adcode": 540102,
            "province": "西藏自治区",
            "city": "拉萨市",
            "district": "城关区"
        }
    },
    {
        "id": "1638368064650901046",
        "title": "公共厕所",
        "address": "西藏自治区拉萨市城关区林廓北路与色拉南路交叉口正北方向90米左右",
        "tel": "",
        "category": "基础设施:公共设施:公共厕所",
        "type": 0,
        "location": {
            "lat": 29.65854,
            "lng": 91.13395
        },
        "ad_info": {
            "adcode": 540102,
            "province": "西藏自治区",
            "city": "拉萨市",
            "district": "城关区"
        }
    },
    {
        "id": "14065707896622581779",
        "title": "公共厕所",
        "address": "西藏自治区拉萨市城关区夺底中路与夺底北路交叉口正西方向127米左右",
        "tel": "",
        "category": "基础设施:公共设施:公共厕所",
        "type": 0,
        "location": {
            "lat": 29.673434,
            "lng": 91.143609
        },
        "ad_info": {
            "adcode": 540102,
            "province": "西藏自治区",
            "city": "拉萨市",
            "district": "城关区"
        }
    },
    {
        "id": "9114038742532242382",
        "title": "公共厕所",
        "address": "西藏自治区拉萨市城关区当热中路与色拉中路交叉口西南方向33米左右",
        "tel": "",
        "category": "基础设施:公共设施:公共厕所",
        "type": 0,
        "location": {
            "lat": 29.664124,
            "lng": 91.133987
        },
        "ad_info": {
            "adcode": 540102,
            "province": "西藏自治区",
            "city": "拉萨市",
            "district": "城关区"
        }
    },
    {
        "id": "7245680180741466558",
        "title": "公共厕所",
        "address": "西藏自治区拉萨市城关区八朗学五巷与北京东路交叉口正南方向39米左右",
        "tel": "",
        "category": "基础设施:公共设施:公共厕所",
        "type": 0,
        "location": {
            "lat": 29.651939,
            "lng": 91.13836
        },
        "ad_info": {
            "adcode": 540102,
            "province": "西藏自治区",
            "city": "拉萨市",
            "district": "城关区"
        }
    },
    {
        "id": "14367795460380974419",
        "title": "公共厕所",
        "address": "西藏自治区拉萨市城关区当热西路与德吉路北段交叉口正东方向113米左右",
        "tel": "",
        "category": "基础设施:公共设施:公共厕所",
        "type": 0,
        "location": {
            "lat": 29.66446,
            "lng": 91.11156
        },
        "ad_info": {
            "adcode": 540102,
            "province": "西藏自治区",
            "city": "拉萨市",
            "district": "城关区"
        }
    },
    {
        "id": "17521047384900909690",
        "title": "公共厕所",
        "address": "西藏自治区拉萨市城关区拉萨七中对面",
        "tel": "",
        "category": "基础设施:公共设施:公共厕所",
        "type": 0,
        "location": {
            "lat": 29.657366,
            "lng": 91.089399
        },
        "ad_info": {
            "adcode": 540102,
            "province": "西藏自治区",
            "city": "拉萨市",
            "district": "城关区"
        }
    },
    {
        "id": "1041005176714110105",
        "title": "公共厕所",
        "address": "西藏自治区拉萨市城关区BOOK说cafe东南(北京东路)",
        "tel": "",
        "category": "基础设施:公共设施:公共厕所",
        "type": 0,
        "location": {
            "lat": 29.651545,
            "lng": 91.138831
        },
        "ad_info": {
            "adcode": 540102,
            "province": "西藏自治区",
            "city": "拉萨市",
            "district": "城关区"
        }
    },
    {
        "id": "14486521502198825961",
        "title": "公共厕所",
        "address": "西藏自治区拉萨市城关区巴尔库路4号",
        "tel": "",
        "category": "基础设施:公共设施:公共厕所",
        "type": 0,
        "location": {
            "lat": 29.660013,
            "lng": 91.116757
        },
        "ad_info": {
            "adcode": 540102,
            "province": "西藏自治区",
            "city": "拉萨市",
            "district": "城关区"
        }
    },
    {
        "id": "4862195725555748835",
        "title": "公共厕所",
        "address": "西藏自治区拉萨市城关区北京东路与朵森格路中段交叉口西南方向73米左右",
        "tel": "",
        "category": "基础设施:公共设施:公共厕所",
        "type": 0,
        "location": {
            "lat": 29.652283,
            "lng": 91.12816
        },
        "ad_info": {
            "adcode": 540102,
            "province": "西藏自治区",
            "city": "拉萨市",
            "district": "城关区"
        }
    },
    {
        "id": "5575246382620314892",
        "title": "公共厕所",
        "address": "西藏自治区拉萨市城关区慈松塘中路与色拉北路交叉口西南方向205米左右",
        "tel": "",
        "category": "基础设施:公共设施:公共厕所",
        "type": 0,
        "location": {
            "lat": 29.678699,
            "lng": 91.13299
        },
        "ad_info": {
            "adcode": 540102,
            "province": "西藏自治区",
            "city": "拉萨市",
            "district": "城关区"
        }
    },
    {
        "id": "1909077559290090362",
        "title": "公共厕所",
        "address": "西藏自治区拉萨市城关区宇拓路与朵森格路南段交叉口西360米",
        "tel": "",
        "category": "基础设施:公共设施:公共厕所",
        "type": 0,
        "location": {
            "lat": 29.649069,
            "lng": 91.125255
        },
        "ad_info": {
            "adcode": 540102,
            "province": "西藏自治区",
            "city": "拉萨市",
            "district": "城关区"
        }
    },
    {
        "id": "7537452908483351511",
        "title": "公共厕所",
        "address": "西藏自治区拉萨市城关区和谐路与罗堆中路交叉口正南方向138米左右",
        "tel": "",
        "category": "基础设施:公共设施:公共厕所",
        "type": 0,
        "location": {
            "lat": 29.648157,
            "lng": 91.07801
        },
        "ad_info": {
            "adcode": 540102,
            "province": "西藏自治区",
            "city": "拉萨市",
            "district": "城关区"
        }
    },
    {
        "id": "9261557320506947110",
        "title": "公共厕所",
        "address": "西藏自治区拉萨市城关区林廓北路与温州商贸城步行街交叉口正东方向38米左右",
        "tel": "",
        "category": "基础设施:公共设施:公共厕所",
        "type": 0,
        "location": {
            "lat": 29.657795,
            "lng": 91.13158
        },
        "ad_info": {
            "adcode": 540102,
            "province": "西藏自治区",
            "city": "拉萨市",
            "district": "城关区"
        }
    },
    {
        "id": "13132462029788898400",
        "title": "公共卫生间",
        "address": "西藏自治区拉萨市城关区八朗学二巷与八朗学五巷交叉口东南方向114米左右",
        "tel": "",
        "category": "基础设施:公共设施:公共厕所",
        "type": 0,
        "location": {
            "lat": 29.650158,
            "lng": 91.139039
        },
        "ad_info": {
            "adcode": 540102,
            "province": "西藏自治区",
            "city": "拉萨市",
            "district": "城关区"
        }
    },
    {
        "id": "9083329024270057696",
        "title": "公共厕所",
        "address": "西藏自治区拉萨市墨竹工卡县G349与下吊段交叉口正西方向1559米左右",
        "tel": "",
        "category": "基础设施:公共设施:公共厕所",
        "type": 0,
        "location": {
            "lat": 29.9373,
            "lng": 91.847518
        },
        "ad_info": {
            "adcode": 540127,
            "province": "西藏自治区",
            "city": "拉萨市",
            "district": "墨竹工卡县"
        }
    },
    {
        "id": "2764025725646286985",
        "title": "公共厕所",
        "address": "西藏自治区拉萨市城关区鲁固一巷与鲁固六巷交叉口正南方向41米左右",
        "tel": "",
        "category": "基础设施:公共设施:公共厕所",
        "type": 0,
        "location": {
            "lat": 29.647749,
            "lng": 91.133773
        },
        "ad_info": {
            "adcode": 540102,
            "province": "西藏自治区",
            "city": "拉萨市",
            "district": "城关区"
        }
    },
    {
        "id": "11031457051401671121",
        "title": "公共厕所",
        "address": "西藏自治区拉萨市墨竹工卡县帮堆路与直孔路交叉口正南方向172米左右",
        "tel": "",
        "category": "基础设施:公共设施:公共厕所",
        "type": 0,
        "location": {
            "lat": 29.835994,
            "lng": 91.72891
        },
        "ad_info": {
            "adcode": 540127,
            "province": "西藏自治区",
            "city": "拉萨市",
            "district": "墨竹工卡县"
        }
    },
    {
        "id": "2825284549757453538",
        "title": "公共厕所",
        "address": "西藏自治区拉萨市堆龙德庆区平安路与通站路交叉口正南方向89米左右",
        "tel": "",
        "category": "基础设施:公共设施:公共厕所",
        "type": 0,
        "location": {
            "lat": 29.624673,
            "lng": 91.072076
        },
        "ad_info": {
            "adcode": 540103,
            "province": "西藏自治区",
            "city": "拉萨市",
            "district": "堆龙德庆区"
        }
    },
    {
        "id": "8404079851344816631",
        "title": "公共厕所",
        "address": "西藏自治区拉萨市尼木县人民路与巴古西路交叉口东南方向219米左右",
        "tel": "",
        "category": "基础设施:公共设施:公共厕所",
        "type": 0,
        "location": {
            "lat": 29.426069,
            "lng": 90.168206
        },
        "ad_info": {
            "adcode": 540123,
            "province": "西藏自治区",
            "city": "拉萨市",
            "district": "尼木县"
        }
    },
    {
        "id": "8455831932401894839",
        "title": "公共厕所",
        "address": "西藏自治区拉萨市城关区娘热北路与慈松塘中路交叉口正西方向179米左右",
        "tel": "",
        "category": "基础设施:公共设施:公共厕所",
        "type": 0,
        "location": {
            "lat": 29.681054,
            "lng": 91.122872
        },
        "ad_info": {
            "adcode": 540102,
            "province": "西藏自治区",
            "city": "拉萨市",
            "district": "城关区"
        }
    },
    {
        "id": "6549007421501477454",
        "title": "公共厕所",
        "address": "西藏自治区拉萨市城关区格桑花香家居酒店(神力·时代广场东)",
        "tel": "",
        "category": "基础设施:公共设施:公共厕所",
        "type": 0,
        "location": {
            "lat": 29.653508,
            "lng": 91.131407
        },
        "ad_info": {
            "adcode": 540102,
            "province": "西藏自治区",
            "city": "拉萨市",
            "district": "城关区"
        }
    },
    {
        "id": "1766993672641028209",
        "title": "公共厕所",
        "address": "西藏自治区拉萨市城关区巴尔库路与扎基西路交叉口正西方向64米左右",
        "tel": "",
        "category": "基础设施:公共设施:公共厕所",
        "type": 0,
        "location": {
            "lat": 29.674389,
            "lng": 91.117555
        },
        "ad_info": {
            "adcode": 540102,
            "province": "西藏自治区",
            "city": "拉萨市",
            "district": "城关区"
        }
    },
    {
        "id": "5932510019131677250",
        "title": "公共厕所",
        "address": "西藏自治区拉萨市堆龙德庆区北京大道与团结路交叉口东南方向112米左右",
        "tel": "",
        "category": "基础设施:公共设施:公共厕所",
        "type": 0,
        "location": {
            "lat": 29.620905,
            "lng": 91.081448
        },
        "ad_info": {
            "adcode": 540103,
            "province": "西藏自治区",
            "city": "拉萨市",
            "district": "堆龙德庆区"
        }
    },
    {
        "id": "9953697688721686950",
        "title": "公共厕所",
        "address": "西藏自治区拉萨市城关区朝阳路与金珠东路交叉口东南方向49米左右",
        "tel": "",
        "category": "基础设施:公共设施:公共厕所",
        "type": 0,
        "location": {
            "lat": 29.645422,
            "lng": 91.109968
        },
        "ad_info": {
            "adcode": 540102,
            "province": "西藏自治区",
            "city": "拉萨市",
            "district": "城关区"
        }
    },
    {
        "id": "18151085625573420370",
        "title": "公共厕所",
        "address": "西藏自治区拉萨市城关区江苏路与生态园路交叉口正南方向31米左右",
        "tel": "",
        "category": "基础设施:公共设施:公共厕所",
        "type": 0,
        "location": {
            "lat": 29.646466,
            "lng": 91.134388
        },
        "ad_info": {
            "adcode": 540102,
            "province": "西藏自治区",
            "city": "拉萨市",
            "district": "城关区"
        }
    },
    {
        "id": "10196971306583525976",
        "title": "公共厕所",
        "address": "西藏自治区拉萨市城关区北京东路与北京中路三巷交叉口东南方向60米左右",
        "tel": "",
        "category": "基础设施:公共设施:公共厕所",
        "type": 0,
        "location": {
            "lat": 29.652457,
            "lng": 91.132324
        },
        "ad_info": {
            "adcode": 540102,
            "province": "西藏自治区",
            "city": "拉萨市",
            "district": "城关区"
        }
    },
    {
        "id": "9641372641843524069",
        "title": "公共厕所",
        "address": "西藏自治区拉萨市城关区翁堆兴卡路与吉日四巷交叉口东20米",
        "tel": "",
        "category": "基础设施:公共设施:公共厕所",
        "type": 0,
        "location": {
            "lat": 29.649737,
            "lng": 91.13724
        },
        "ad_info": {
            "adcode": 540102,
            "province": "西藏自治区",
            "city": "拉萨市",
            "district": "城关区"
        }
    },
    {
        "id": "2123579651064846680",
        "title": "公共厕所",
        "address": "西藏自治区拉萨市城关区江苏东路与贡布堂路交叉口东北方向113米左右",
        "tel": "",
        "category": "基础设施:公共设施:公共厕所",
        "type": 0,
        "location": {
            "lat": 29.645218,
            "lng": 91.151354
        },
        "ad_info": {
            "adcode": 540102,
            "province": "西藏自治区",
            "city": "拉萨市",
            "district": "城关区"
        }
    },
    {
        "id": "3060828030683473006",
        "title": "公共厕所",
        "address": "西藏自治区拉萨市城关区夺底北路与慈松塘东路交叉口西南方向68米左右",
        "tel": "",
        "category": "基础设施:公共设施:公共厕所",
        "type": 0,
        "location": {
            "lat": 29.676415,
            "lng": 91.145659
        },
        "ad_info": {
            "adcode": 540102,
            "province": "西藏自治区",
            "city": "拉萨市",
            "district": "城关区"
        }
    },
    {
        "id": "4800851392634034091",
        "title": "公共厕所",
        "address": "西藏自治区拉萨市城关区嘎丹康萨二巷与小昭寺北巷交叉口正北方向26米左右",
        "tel": "",
        "category": "基础设施:公共设施:公共厕所",
        "type": 0,
        "location": {
            "lat": 29.656731,
            "lng": 91.13178
        },
        "ad_info": {
            "adcode": 540102,
            "province": "西藏自治区",
            "city": "拉萨市",
            "district": "城关区"
        }
    },
    {
        "id": "2447634326428002897",
        "title": "公共厕所",
        "address": "西藏自治区拉萨市城关区小昭寺一巷与石桥巷交叉口西北方向31米左右",
        "tel": "",
        "category": "基础设施:公共设施:公共厕所",
        "type": 0,
        "location": {
            "lat": 29.654321,
            "lng": 91.134258
        },
        "ad_info": {
            "adcode": 540102,
            "province": "西藏自治区",
            "city": "拉萨市",
            "district": "城关区"
        }
    },
    {
        "id": "14188486420036942950",
        "title": "公共厕所",
        "address": "西藏自治区拉萨市城关区鲁固三巷与鲁固四巷交叉口东南方向82米左右",
        "tel": "",
        "category": "基础设施:公共设施:公共厕所",
        "type": 0,
        "location": {
            "lat": 29.647531,
            "lng": 91.132829
        },
        "ad_info": {
            "adcode": 540102,
            "province": "西藏自治区",
            "city": "拉萨市",
            "district": "城关区"
        }
    },
    {
        "id": "3629931157217709912",
        "title": "公共厕所",
        "address": "西藏自治区拉萨市曲水县G318与达杰路交叉口西南方向995米左右",
        "tel": "",
        "category": "基础设施:公共设施:公共厕所",
        "type": 0,
        "location": {
            "lat": 29.257485,
            "lng": 90.535825
        },
        "ad_info": {
            "adcode": 540124,
            "province": "西藏自治区",
            "city": "拉萨市",
            "district": "曲水县"
        }
    },
    {
        "id": "3900790273175879196",
        "title": "公共厕所",
        "address": "西藏自治区拉萨市城关区八朗学二巷与林廓东路中段交叉口正西方向40米左右",
        "tel": "",
        "category": "基础设施:公共设施:公共厕所",
        "type": 0,
        "location": {
            "lat": 29.650548,
            "lng": 91.139969
        },
        "ad_info": {
            "adcode": 540102,
            "province": "西藏自治区",
            "city": "拉萨市",
            "district": "城关区"
        }
    },
    {
        "id": "4138315303667649105",
        "title": "公共厕所",
        "address": "西藏自治区拉萨市城关区娘热中路如意园内",
        "tel": "",
        "category": "基础设施:公共设施:公共厕所",
        "type": 0,
        "location": {
            "lat": 29.666852,
            "lng": 91.123788
        },
        "ad_info": {
            "adcode": 540102,
            "province": "西藏自治区",
            "city": "拉萨市",
            "district": "城关区"
        }
    },
    {
        "id": "12933413694566749062",
        "title": "公共厕所",
        "address": "西藏自治区拉萨市城关区娘热中路与娘热北路交叉口正北方向171米左右",
        "tel": "",
        "category": "基础设施:公共设施:公共厕所",
        "type": 0,
        "location": {
            "lat": 29.675967,
            "lng": 91.124695
        },
        "ad_info": {
            "adcode": 540102,
            "province": "西藏自治区",
            "city": "拉萨市",
            "district": "城关区"
        }
    },
    {
        "id": "15639415743797745567",
        "title": "公共厕所",
        "address": "西藏自治区拉萨市城关区木如巷与石桥巷交叉口西北方向31米左右",
        "tel": "",
        "category": "基础设施:公共设施:公共厕所",
        "type": 0,
        "location": {
            "lat": 29.654628,
            "lng": 91.136498
        },
        "ad_info": {
            "adcode": 540102,
            "province": "西藏自治区",
            "city": "拉萨市",
            "district": "城关区"
        }
    },
    {
        "id": "10802663266252333267",
        "title": "公共厕所",
        "address": "西藏自治区拉萨市堆龙德庆区察古大道与通站路交叉口东南方向92米左右",
        "tel": "",
        "category": "基础设施:公共设施:公共厕所",
        "type": 0,
        "location": {
            "lat": 29.628486,
            "lng": 91.083212
        },
        "ad_info": {
            "adcode": 540103,
            "province": "西藏自治区",
            "city": "拉萨市",
            "district": "堆龙德庆区"
        }
    },
    {
        "id": "10554883981686906658",
        "title": "公共厕所",
        "address": "西藏自治区拉萨市城关区军民路与色拉中路交叉口正西方向25米左右",
        "tel": "",
        "category": "基础设施:公共设施:公共厕所",
        "type": 0,
        "location": {
            "lat": 29.666936,
            "lng": 91.133964
        },
        "ad_info": {
            "adcode": 540102,
            "province": "西藏自治区",
            "city": "拉萨市",
            "district": "城关区"
        }
    },
    {
        "id": "635970647615395848",
        "title": "公共厕所",
        "address": "西藏自治区拉萨市堆龙德庆区1-1号路与香格里拉大街交叉口正南方向56米左右",
        "tel": "",
        "category": "基础设施:公共设施:公共厕所",
        "type": 0,
        "location": {
            "lat": 29.626431,
            "lng": 91.068062
        },
        "ad_info": {
            "adcode": 540103,
            "province": "西藏自治区",
            "city": "拉萨市",
            "district": "堆龙德庆区"
        }
    },
    {
        "id": "16862833369505874002",
        "title": "公共厕所",
        "address": "西藏自治区拉萨市城关区娘热中路与娘热北路交叉口正东方向463米左右",
        "tel": "",
        "category": "基础设施:公共设施:公共厕所",
        "type": 0,
        "location": {
            "lat": 29.674524,
            "lng": 91.128984
        },
        "ad_info": {
            "adcode": 540102,
            "province": "西藏自治区",
            "city": "拉萨市",
            "district": "城关区"
        }
    },
    {
        "id": "3412502124208962745",
        "title": "无障碍公共厕所",
        "address": "西藏自治区拉萨市城关区江冲路与纳如路交叉口西北方向36米左右",
        "tel": "",
        "category": "基础设施:公共设施:公共厕所",
        "type": 0,
        "location": {
            "lat": 29.655118,
            "lng": 91.169495
        },
        "ad_info": {
            "adcode": 540102,
            "province": "西藏自治区",
            "city": "拉萨市",
            "district": "城关区"
        }
    },
    {
        "id": "12130958697645179840",
        "title": "公共厕所",
        "address": "西藏自治区拉萨市堆龙德庆区东嘎镇东嘎东路堆龙检察院公交站",
        "tel": "",
        "category": "基础设施:公共设施:公共厕所",
        "type": 0,
        "location": {
            "lat": 29.645234,
            "lng": 91.003134
        },
        "ad_info": {
            "adcode": 540103,
            "province": "西藏自治区",
            "city": "拉萨市",
            "district": "堆龙德庆区"
        }
    },
    {
        "id": "1400734238233005685",
        "title": "公共厕所",
        "address": "西藏自治区拉萨市堆龙德庆区团结路与察古大道交叉口正南方向160米左右",
        "tel": "",
        "category": "基础设施:公共设施:公共厕所",
        "type": 0,
        "location": {
            "lat": 29.62198,
            "lng": 91.08545
        },
        "ad_info": {
            "adcode": 540103,
            "province": "西藏自治区",
            "city": "拉萨市",
            "district": "堆龙德庆区"
        }
    },
    {
        "id": "1452378133102886047",
        "title": "新鼎大酒店-洗手间",
        "address": "西藏自治区拉萨市城关区太阳岛中和国际城金珠二路8号",
        "tel": "",
        "category": "基础设施:公共设施:公共厕所",
        "type": 0,
        "location": {
            "lat": 29.64184,
            "lng": 91.1183
        },
        "ad_info": {
            "adcode": 540102,
            "province": "西藏自治区",
            "city": "拉萨市",
            "district": "城关区"
        }
    },
    {
        "id": "4803250764891972298",
        "title": "无障碍公共厕所",
        "address": "西藏自治区拉萨市城关区西藏第二人民医院-门诊部西北侧110米",
        "tel": "",
        "category": "基础设施:公共设施:公共厕所",
        "type": 0,
        "location": {
            "lat": 29.643768,
            "lng": 91.059991
        },
        "ad_info": {
            "adcode": 540102,
            "province": "西藏自治区",
            "city": "拉萨市",
            "district": "城关区"
        }
    },
    {
        "id": "12625706897812798647",
        "title": "无障碍公共厕所",
        "address": "西藏自治区拉萨市城关区欧珠诊所西南侧140米",
        "tel": "",
        "category": "基础设施:公共设施:公共厕所",
        "type": 0,
        "location": {
            "lat": 29.644431,
            "lng": 91.076476
        },
        "ad_info": {
            "adcode": 540102,
            "province": "西藏自治区",
            "city": "拉萨市",
            "district": "城关区"
        }
    },
    {
        "id": "9292736388079029787",
        "title": "公共厕所",
        "address": "西藏自治区拉萨市堆龙德庆区109国道附近",
        "tel": "",
        "category": "基础设施:公共设施:公共厕所",
        "type": 0,
        "location": {
            "lat": 29.964501,
            "lng": 90.712753
        },
        "ad_info": {
            "adcode": 540103,
            "province": "西藏自治区",
            "city": "拉萨市",
            "district": "堆龙德庆区"
        }
    },
    {
        "id": "16626113475501923909",
        "title": "无障碍公共厕所",
        "address": "西藏自治区拉萨市城关区东西大道与娘热南路交叉口正南方向126米左右",
        "tel": "",
        "category": "基础设施:公共设施:公共厕所",
        "type": 0,
        "location": {
            "lat": 29.659464,
            "lng": 91.124042
        },
        "ad_info": {
            "adcode": 540102,
            "province": "西藏自治区",
            "city": "拉萨市",
            "district": "城关区"
        }
    },
    {
        "id": "14004317737512901381",
        "title": "河北饭店-洗手间",
        "address": "西藏自治区拉萨市城关区朝阳路与环岛南路交叉口正东方向157米左右",
        "tel": "",
        "category": "基础设施:公共设施:公共厕所",
        "type": 0,
        "location": {
            "lat": 29.642581,
            "lng": 91.111883
        },
        "ad_info": {
            "adcode": 540102,
            "province": "西藏自治区",
            "city": "拉萨市",
            "district": "城关区"
        }
    },
    {
        "id": "15561891002727973695",
        "title": "宗角禄康公园公共厕所",
        "address": "西藏自治区拉萨市城关区林廓北路宗角禄康公园内",
        "tel": "",
        "category": "基础设施:公共设施:公共厕所",
        "type": 0,
        "location": {
            "lat": 29.658266,
            "lng": 91.121804
        },
        "ad_info": {
            "adcode": 540102,
            "province": "西藏自治区",
            "city": "拉萨市",
            "district": "城关区"
        }
    },
    {
        "id": "2005598486896777294",
        "title": "无障碍公共厕所",
        "address": "西藏自治区拉萨市城关区德吉路中段与德吉路南段交叉口正北方向50米左右",
        "tel": "",
        "category": "基础设施:公共设施:公共厕所",
        "type": 0,
        "location": {
            "lat": 29.651313,
            "lng": 91.106804
        },
        "ad_info": {
            "adcode": 540102,
            "province": "西藏自治区",
            "city": "拉萨市",
            "district": "城关区"
        }
    },
    {
        "id": "9887772325035753275",
        "title": "拉威国际酒店-洗手间",
        "address": "西藏自治区拉萨市城关区德吉路北段与江达岗东路交叉口东南方向48米左右",
        "tel": "",
        "category": "基础设施:公共设施:公共厕所",
        "type": 0,
        "location": {
            "lat": 29.659276,
            "lng": 91.109875
        },
        "ad_info": {
            "adcode": 540102,
            "province": "西藏自治区",
            "city": "拉萨市",
            "district": "城关区"
        }
    },
    {
        "id": "15370645084549753755",
        "title": "公共厕所",
        "address": "西藏自治区拉萨市城关区夺底中路与夺底南路交叉口西南方向46米左右",
        "tel": "",
        "category": "基础设施:公共设施:公共厕所",
        "type": 0,
        "location": {
            "lat": 29.663039,
            "lng": 91.14105
        },
        "ad_info": {
            "adcode": 540102,
            "province": "西藏自治区",
            "city": "拉萨市",
            "district": "城关区"
        }
    },
    {
        "id": "15077470640561689383",
        "title": "公共厕所",
        "address": "西藏自治区拉萨市城关区中国石油加油站(北京中路南)",
        "tel": "",
        "category": "基础设施:公共设施:公共厕所",
        "type": 0,
        "location": {
            "lat": 29.653675,
            "lng": 91.109485
        },
        "ad_info": {
            "adcode": 540102,
            "province": "西藏自治区",
            "city": "拉萨市",
            "district": "城关区"
        }
    },
    {
        "id": "5517171075252523466",
        "title": "服务区公共厕所",
        "address": "西藏自治区拉萨市曲水县尼达路与津贝路交叉口西北方向1038米左右",
        "tel": "",
        "category": "基础设施:公共设施:公共厕所",
        "type": 0,
        "location": {
            "lat": 29.444908,
            "lng": 90.947899
        },
        "ad_info": {
            "adcode": 540124,
            "province": "西藏自治区",
            "city": "拉萨市",
            "district": "曲水县"
        }
    },
    {
        "id": "15118928700310759712",
        "title": "无障碍公共厕所",
        "address": "西藏自治区拉萨市堆龙德庆区东嘎东路与团结路交叉口正西方向152米左右",
        "tel": "",
        "category": "基础设施:公共设施:公共厕所",
        "type": 0,
        "location": {
            "lat": 29.644729,
            "lng": 91.001517
        },
        "ad_info": {
            "adcode": 540103,
            "province": "西藏自治区",
            "city": "拉萨市",
            "district": "堆龙德庆区"
        }
    },
    {
        "id": "14476273926816926442",
        "title": "无障碍公共厕所",
        "address": "西藏自治区拉萨市城关区北京东路与朵森格路中段交叉口正北方向184米左右",
        "tel": "",
        "category": "基础设施:公共设施:公共厕所",
        "type": 0,
        "location": {
            "lat": 29.654222,
            "lng": 91.128982
        },
        "ad_info": {
            "adcode": 540102,
            "province": "西藏自治区",
            "city": "拉萨市",
            "district": "城关区"
        }
    },
    {
        "id": "9828533286015545616",
        "title": "无障碍公共厕所",
        "address": "西藏自治区拉萨市城关区尼吉花苑C区(纳金中路北)",
        "tel": "",
        "category": "基础设施:公共设施:公共厕所",
        "type": 0,
        "location": {
            "lat": 29.65757,
            "lng": 91.158448
        },
        "ad_info": {
            "adcode": 540102,
            "province": "西藏自治区",
            "city": "拉萨市",
            "district": "城关区"
        }
    },
    {
        "id": "8247611123006390643",
        "title": "西藏岷山饭店(拉萨)-洗手间",
        "address": "西藏自治区拉萨市城关区雪新村路西藏岷山饭店(雪新村店)",
        "tel": "",
        "category": "基础设施:公共设施:公共厕所",
        "type": 0,
        "location": {
            "lat": 29.660376,
            "lng": 91.117154
        },
        "ad_info": {
            "adcode": 540102,
            "province": "西藏自治区",
            "city": "拉萨市",
            "district": "城关区"
        }
    },
    {
        "id": "12574196751216519664",
        "title": "西藏赛康大酒店-洗手间",
        "address": "西藏自治区拉萨市城关区北京东路与朵森格路中段交叉口正西方向113米左右",
        "tel": "",
        "category": "基础设施:公共设施:公共厕所",
        "type": 0,
        "location": {
            "lat": 29.65281,
            "lng": 91.12772
        },
        "ad_info": {
            "adcode": 540102,
            "province": "西藏自治区",
            "city": "拉萨市",
            "district": "城关区"
        }
    },
    {
        "id": "16360754588956453861",
        "title": "公共厕所",
        "address": "西藏自治区拉萨市城关区文成大道藏戏林卡处",
        "tel": "",
        "category": "基础设施:公共设施:公共厕所",
        "type": 0,
        "location": {
            "lat": 29.621837,
            "lng": 91.142939
        },
        "ad_info": {
            "adcode": 540102,
            "province": "西藏自治区",
            "city": "拉萨市",
            "district": "城关区"
        }
    },
    {
        "id": "17450896422888571719",
        "title": "公共厕所",
        "address": "西藏自治区拉萨市城关区丹杰林巷与丹杰林路交叉口正西方向46米左右",
        "tel": "",
        "category": "基础设施:公共设施:公共厕所",
        "type": 0,
        "location": {
            "lat": 29.650837,
            "lng": 91.130612
        },
        "ad_info": {
            "adcode": 540102,
            "province": "西藏自治区",
            "city": "拉萨市",
            "district": "城关区"
        }
    },
    {
        "id": "15702066460945940665",
        "title": "公共厕所",
        "address": "西藏自治区拉萨市城关区嘎丹康萨二巷与策门林三巷交叉口东北方向17米左右",
        "tel": "",
        "category": "基础设施:公共设施:公共厕所",
        "type": 0,
        "location": {
            "lat": 29.654589,
            "lng": 91.132238
        },
        "ad_info": {
            "adcode": 540102,
            "province": "西藏自治区",
            "city": "拉萨市",
            "district": "城关区"
        }
    },
    {
        "id": "16379589983388034867",
        "title": "公共厕所",
        "address": "西藏自治区拉萨市墨竹工卡县工卡路与帮堆路交叉口正西方向124米左右",
        "tel": "",
        "category": "基础设施:公共设施:公共厕所",
        "type": 0,
        "location": {
            "lat": 29.833593,
            "lng": 91.727821
        },
        "ad_info": {
            "adcode": 540127,
            "province": "西藏自治区",
            "city": "拉萨市",
            "district": "墨竹工卡县"
        }
    },
    {
        "id": "9519820086195368174",
        "title": "公共厕所",
        "address": "西藏自治区拉萨市城关区刚坚拉萨饭店西南(吉日四巷南)",
        "tel": "",
        "category": "基础设施:公共设施:公共厕所",
        "type": 0,
        "location": {
            "lat": 29.651498,
            "lng": 91.136661
        },
        "ad_info": {
            "adcode": 540102,
            "province": "西藏自治区",
            "city": "拉萨市",
            "district": "城关区"
        }
    },
    {
        "id": "1237221512063723895",
        "title": "公共厕所",
        "address": "西藏自治区拉萨市堆龙德庆区G109与堆龙大道交叉口正东方向1005米左右",
        "tel": "",
        "category": "基础设施:公共设施:公共厕所",
        "type": 0,
        "location": {
            "lat": 29.683242,
            "lng": 90.901313
        },
        "ad_info": {
            "adcode": 540103,
            "province": "西藏自治区",
            "city": "拉萨市",
            "district": "堆龙德庆区"
        }
    },
    {
        "id": "5726137118210749444",
        "title": "公共厕所",
        "address": "西藏自治区拉萨市城关区北京中路35号布达拉宫广场(东南角)",
        "tel": "",
        "category": "基础设施:公共设施:公共厕所",
        "type": 0,
        "location": {
            "lat": 29.650364,
            "lng": 91.120041
        },
        "ad_info": {
            "adcode": 540102,
            "province": "西藏自治区",
            "city": "拉萨市",
            "district": "城关区"
        }
    },
    {
        "id": "753604984362219478",
        "title": "公共厕所",
        "address": "西藏自治区拉萨市城关区八廓街与宇拓路交叉口正西方向267米左右",
        "tel": "",
        "category": "基础设施:公共设施:公共厕所",
        "type": 0,
        "location": {
            "lat": 29.649908,
            "lng": 91.12608
        },
        "ad_info": {
            "adcode": 540102,
            "province": "西藏自治区",
            "city": "拉萨市",
            "district": "城关区"
        }
    },
    {
        "id": "10459304633418094440",
        "title": "公共厕所",
        "address": "西藏自治区拉萨市林周县林周大道南路与澎波东路交叉口正东方向71米左右",
        "tel": "",
        "category": "基础设施:公共设施:公共厕所",
        "type": 0,
        "location": {
            "lat": 29.888916,
            "lng": 91.270197
        },
        "ad_info": {
            "adcode": 540121,
            "province": "西藏自治区",
            "city": "拉萨市",
            "district": "林周县"
        }
    },
    {
        "id": "8806795493731307677",
        "title": "卫生间",
        "address": "西藏自治区拉萨市城关区林廓北路与温州商贸城步行街交叉口北40米",
        "tel": "",
        "category": "基础设施:公共设施:公共厕所",
        "type": 0,
        "location": {
            "lat": 29.658297,
            "lng": 91.131104
        },
        "ad_info": {
            "adcode": 540102,
            "province": "西藏自治区",
            "city": "拉萨市",
            "district": "城关区"
        }
    },
    {
        "id": "9651271767650225331",
        "title": "公共厕所",
        "address": "西藏自治区拉萨市城关区当巴路与金珠西路交叉口西南方向103米左右",
        "tel": "",
        "category": "基础设施:公共设施:公共厕所",
        "type": 0,
        "location": {
            "lat": 29.642709,
            "lng": 91.054445
        },
        "ad_info": {
            "adcode": 540102,
            "province": "西藏自治区",
            "city": "拉萨市",
            "district": "城关区"
        }
    },
    {
        "id": "13244349260211761874",
        "title": "公共厕所",
        "address": "西藏自治区拉萨市城关区娘热北路与慈松塘中路交叉口正东方向346米左右",
        "tel": "",
        "category": "基础设施:公共设施:公共厕所",
        "type": 0,
        "location": {
            "lat": 29.680598,
            "lng": 91.128213
        },
        "ad_info": {
            "adcode": 540102,
            "province": "西藏自治区",
            "city": "拉萨市",
            "district": "城关区"
        }
    },
    {
        "id": "8381303140343594676",
        "title": "公共厕所",
        "address": "西藏自治区拉萨市城关区林廓东路中段与林廓东路南段交叉口正西方向111米左右",
        "tel": "",
        "category": "基础设施:公共设施:公共厕所",
        "type": 0,
        "location": {
            "lat": 29.646508,
            "lng": 91.138689
        },
        "ad_info": {
            "adcode": 540102,
            "province": "西藏自治区",
            "city": "拉萨市",
            "district": "城关区"
        }
    },
    {
        "id": "4595507942606736337",
        "title": "公共厕所",
        "address": "西藏自治区拉萨市林周县拉林公路",
        "tel": "",
        "category": "基础设施:公共设施:公共厕所",
        "type": 0,
        "location": {
            "lat": 29.774035,
            "lng": 91.432359
        },
        "ad_info": {
            "adcode": 540121,
            "province": "西藏自治区",
            "city": "拉萨市",
            "district": "林周县"
        }
    },
    {
        "id": "1907021575580421052",
        "title": "公共厕所",
        "address": "西藏自治区拉萨市堆龙德庆区博达路与林琼岗路交叉口西南方向55米左右",
        "tel": "",
        "category": "基础设施:公共设施:公共厕所",
        "type": 0,
        "location": {
            "lat": 29.633296,
            "lng": 91.019736
        },
        "ad_info": {
            "adcode": 540103,
            "province": "西藏自治区",
            "city": "拉萨市",
            "district": "堆龙德庆区"
        }
    },
    {
        "id": "15632648961374843357",
        "title": "无障碍公共厕所",
        "address": "西藏自治区拉萨市城关区当热西路与鲁定北路交叉口西南方向48米左右",
        "tel": "",
        "category": "基础设施:公共设施:公共厕所",
        "type": 0,
        "location": {
            "lat": 29.660903,
            "lng": 91.081874
        },
        "ad_info": {
            "adcode": 540102,
            "province": "西藏自治区",
            "city": "拉萨市",
            "district": "城关区"
        }
    },
    {
        "id": "5856217449746210867",
        "title": "无障碍公共厕所",
        "address": "西藏自治区拉萨市堆龙德庆区一零九国道丰台小学隔壁正东方向40米",
        "tel": "",
        "category": "基础设施:公共设施:公共厕所",
        "type": 0,
        "location": {
            "lat": 29.65023,
            "lng": 91.000049
        },
        "ad_info": {
            "adcode": 540103,
            "province": "西藏自治区",
            "city": "拉萨市",
            "district": "堆龙德庆区"
        }
    },
    {
        "id": "11199707107561626605",
        "title": "无障碍公共厕所",
        "address": "西藏自治区拉萨市城关区小昭寺路与林廓北路交叉口正东方向48米左右",
        "tel": "",
        "category": "基础设施:公共设施:公共厕所",
        "type": 0,
        "location": {
            "lat": 29.657671,
            "lng": 91.133342
        },
        "ad_info": {
            "adcode": 540102,
            "province": "西藏自治区",
            "city": "拉萨市",
            "district": "城关区"
        }
    },
    {
        "id": "6027935079108017333",
        "title": "无障碍公共厕所",
        "address": "西藏自治区拉萨市城关区北京东路与林聚路北段交叉口西120米",
        "tel": "",
        "category": "基础设施:公共设施:公共厕所",
        "type": 0,
        "location": {
            "lat": 29.652056,
            "lng": 91.1436
        },
        "ad_info": {
            "adcode": 540102,
            "province": "西藏自治区",
            "city": "拉萨市",
            "district": "城关区"
        }
    },
    {
        "id": "11507258104676518449",
        "title": "公共厕所",
        "address": "西藏自治区拉萨市城关区北环路辅路与吉拉路辅路交叉口西南方向340米左右",
        "tel": "",
        "category": "基础设施:公共设施:公共厕所",
        "type": 0,
        "location": {
            "lat": 29.684075,
            "lng": 91.135232
        },
        "ad_info": {
            "adcode": 540102,
            "province": "西藏自治区",
            "city": "拉萨市",
            "district": "城关区"
        }
    },
    {
        "id": "7428486965727057715",
        "title": "公共厕所",
        "address": "西藏自治区拉萨市尼木县人民路与塔荣路交叉口正西方向62米左右",
        "tel": "",
        "category": "基础设施:公共设施:公共厕所",
        "type": 0,
        "location": {
            "lat": 29.431636,
            "lng": 90.164032
        },
        "ad_info": {
            "adcode": 540123,
            "province": "西藏自治区",
            "city": "拉萨市",
            "district": "尼木县"
        }
    },
    {
        "id": "16326352843164401738",
        "title": "公共厕所",
        "address": "西藏自治区拉萨市曲水县站前一路与通站二路交叉口东北方向28米左右",
        "tel": "",
        "category": "基础设施:公共设施:公共厕所",
        "type": 0,
        "location": {
            "lat": 29.347157,
            "lng": 90.697533
        },
        "ad_info": {
            "adcode": 540124,
            "province": "西藏自治区",
            "city": "拉萨市",
            "district": "曲水县"
        }
    },
    {
        "id": "5186364002460451926",
        "title": "公共厕所",
        "address": "西藏自治区拉萨市堆龙德庆区世纪大道21号",
        "tel": "",
        "category": "基础设施:公共设施:公共厕所",
        "type": 0,
        "location": {
            "lat": 29.62692,
            "lng": 91.069242
        },
        "ad_info": {
            "adcode": 540103,
            "province": "西藏自治区",
            "city": "拉萨市",
            "district": "堆龙德庆区"
        }
    },
    {
        "id": "2466901351152212018",
        "title": "公共厕所",
        "address": "西藏自治区拉萨市曲水县扬州路与雅江路交叉口正南方向94米左右",
        "tel": "",
        "category": "基础设施:公共设施:公共厕所",
        "type": 0,
        "location": {
            "lat": 29.349826,
            "lng": 90.737037
        },
        "ad_info": {
            "adcode": 540124,
            "province": "西藏自治区",
            "city": "拉萨市",
            "district": "曲水县"
        }
    },
    {
        "id": "5501990707655276920",
        "title": "公共厕所",
        "address": "西藏自治区拉萨市城关区藏大中路与藏大西路交叉口东南方向89米左右",
        "tel": "",
        "category": "基础设施:公共设施:公共厕所",
        "type": 0,
        "location": {
            "lat": 29.646156,
            "lng": 91.156284
        },
        "ad_info": {
            "adcode": 540102,
            "province": "西藏自治区",
            "city": "拉萨市",
            "district": "城关区"
        }
    },
    {
        "id": "15075178941764265168",
        "title": "无障碍公共厕所",
        "address": "西藏自治区拉萨市城关区塔玛东路与曲林路交叉口东南方向56米左右",
        "tel": "",
        "category": "基础设施:公共设施:公共厕所",
        "type": 0,
        "location": {
            "lat": 29.648648,
            "lng": 91.179911
        },
        "ad_info": {
            "adcode": 540102,
            "province": "西藏自治区",
            "city": "拉萨市",
            "district": "城关区"
        }
    },
    {
        "id": "140293085977845770",
        "title": "公共厕所",
        "address": "西藏自治区拉萨市墨竹工卡县斯布路与班禅牧场旅游线路交叉口正北方向692米左右",
        "tel": "",
        "category": "基础设施:公共设施:公共厕所",
        "type": 0,
        "location": {
            "lat": 29.687887,
            "lng": 91.829839
        },
        "ad_info": {
            "adcode": 540127,
            "province": "西藏自治区",
            "city": "拉萨市",
            "district": "墨竹工卡县"
        }
    },
    {
        "id": "11871534839883988358",
        "title": "公共厕所",
        "address": "西藏自治区拉萨市城关区电商产业园东南侧110米",
        "tel": "",
        "category": "基础设施:公共设施:公共厕所",
        "type": 0,
        "location": {
            "lat": 29.611965,
            "lng": 91.137455
        },
        "ad_info": {
            "adcode": 540102,
            "province": "西藏自治区",
            "city": "拉萨市",
            "district": "城关区"
        }
    },
    {
        "id": "18113864395122444857",
        "title": "公共厕所",
        "address": "西藏自治区拉萨市城关区扎基东路与扎基中路交叉口正西方向334米左右",
        "tel": "",
        "category": "基础设施:公共设施:公共厕所",
        "type": 0,
        "location": {
            "lat": 29.674088,
            "lng": 91.130893
        },
        "ad_info": {
            "adcode": 540102,
            "province": "西藏自治区",
            "city": "拉萨市",
            "district": "城关区"
        }
    },
    {
        "id": "10282123317081272175",
        "title": "公共厕所",
        "address": "西藏自治区拉萨市曲水县雅鲁藏布江大桥公安局达嘎派出所",
        "tel": "",
        "category": "基础设施:公共设施:公共厕所",
        "type": 0,
        "location": {
            "lat": 29.332082,
            "lng": 90.684234
        },
        "ad_info": {
            "adcode": 540124,
            "province": "西藏自治区",
            "city": "拉萨市",
            "district": "曲水县"
        }
    },
    {
        "id": "12616497395469939534",
        "title": "无障碍公共厕所",
        "address": "西藏自治区拉萨市城关区嘉措路与民族中路交叉口西北方向28米左右",
        "tel": "",
        "category": "基础设施:公共设施:公共厕所",
        "type": 0,
        "location": {
            "lat": 29.652909,
            "lng": 91.09731
        },
        "ad_info": {
            "adcode": 540102,
            "province": "西藏自治区",
            "city": "拉萨市",
            "district": "城关区"
        }
    },
    {
        "id": "539513690001026847",
        "title": "无障碍公共厕所",
        "address": "西藏自治区拉萨市城关区林聚南路16号老西藏大学后门",
        "tel": "",
        "category": "基础设施:公共设施:公共厕所",
        "type": 0,
        "location": {
            "lat": 29.644939,
            "lng": 91.144409
        },
        "ad_info": {
            "adcode": 540102,
            "province": "西藏自治区",
            "city": "拉萨市",
            "district": "城关区"
        }
    },
    {
        "id": "11604970874825236390",
        "title": "金谷饭店-洗手间",
        "address": "西藏自治区拉萨市城关区宇拓路13号(近拉萨百货大楼)",
        "tel": "",
        "category": "基础设施:公共设施:公共厕所",
        "type": 0,
        "location": {
            "lat": 29.650245,
            "lng": 91.12633
        },
        "ad_info": {
            "adcode": 540102,
            "province": "西藏自治区",
            "city": "拉萨市",
            "district": "城关区"
        }
    },
    {
        "id": "14049775926636028705",
        "title": "公共厕所",
        "address": "西藏自治区拉萨市城关区北京西路与当巴路交叉口正北方向124米左右",
        "tel": "",
        "category": "基础设施:公共设施:公共厕所",
        "type": 0,
        "location": {
            "lat": 29.662142,
            "lng": 91.059185
        },
        "ad_info": {
            "adcode": 540102,
            "province": "西藏自治区",
            "city": "拉萨市",
            "district": "城关区"
        }
    },
    {
        "id": "3186982317697460010",
        "title": "甘丹寺服务区公共厕所",
        "address": "西藏自治区拉萨市达孜区G4218林拉公路出口与甘丹寺服务区交叉口东100米",
        "tel": "",
        "category": "基础设施:公共设施:公共厕所",
        "type": 0,
        "location": {
            "lat": 29.787223,
            "lng": 91.505036
        },
        "ad_info": {
            "adcode": 540104,
            "province": "西藏自治区",
            "city": "拉萨市",
            "district": "达孜区"
        }
    },
    {
        "id": "15649781086794064230",
        "title": "公共厕所",
        "address": "西藏自治区拉萨市墨竹工卡县嘎则路与工卡路交叉口东南方向1158米左右",
        "tel": "",
        "category": "基础设施:公共设施:公共厕所",
        "type": 0,
        "location": {
            "lat": 29.827014,
            "lng": 91.749817
        },
        "ad_info": {
            "adcode": 540127,
            "province": "西藏自治区",
            "city": "拉萨市",
            "district": "墨竹工卡县"
        }
    },
    {
        "id": "9826550932151879378",
        "title": "无障碍公共厕所",
        "address": "西藏自治区拉萨市堆龙德庆区雪融出租房西北侧180米",
        "tel": "",
        "category": "基础设施:公共设施:公共厕所",
        "type": 0,
        "location": {
            "lat": 29.642139,
            "lng": 91.002236
        },
        "ad_info": {
            "adcode": 540103,
            "province": "西藏自治区",
            "city": "拉萨市",
            "district": "堆龙德庆区"
        }
    },
    {
        "id": "17899115823847728188",
        "title": "公共厕所",
        "address": "西藏自治区拉萨市林周县热日路",
        "tel": "",
        "category": "基础设施:公共设施:公共厕所",
        "type": 0,
        "location": {
            "lat": 30.090053,
            "lng": 91.53316
        },
        "ad_info": {
            "adcode": 540121,
            "province": "西藏自治区",
            "city": "拉萨市",
            "district": "林周县"
        }
    },
    {
        "id": "7371801147244495858",
        "title": "公共厕所",
        "address": "西藏自治区拉萨市墨竹工卡县南京路与工卡路交叉口正东方向87米左右",
        "tel": "",
        "category": "基础设施:公共设施:公共厕所",
        "type": 0,
        "location": {
            "lat": 29.833905,
            "lng": 91.734386
        },
        "ad_info": {
            "adcode": 540127,
            "province": "西藏自治区",
            "city": "拉萨市",
            "district": "墨竹工卡县"
        }
    },
    {
        "id": "7009718046773734719",
        "title": "公共厕所",
        "address": "西藏自治区拉萨市城关区领域小区东侧270米",
        "tel": "",
        "category": "基础设施:公共设施:公共厕所",
        "type": 0,
        "location": {
            "lat": 29.623846,
            "lng": 91.146624
        },
        "ad_info": {
            "adcode": 540102,
            "province": "西藏自治区",
            "city": "拉萨市",
            "district": "城关区"
        }
    },
    {
        "id": "1454449484776664009",
        "title": "公共厕所",
        "address": "西藏自治区拉萨市城关区江苏东路与贡布堂路交叉口东南方向35米左右",
        "tel": "",
        "category": "基础设施:公共设施:公共厕所",
        "type": 0,
        "location": {
            "lat": 29.644402,
            "lng": 91.150635
        },
        "ad_info": {
            "adcode": 540102,
            "province": "西藏自治区",
            "city": "拉萨市",
            "district": "城关区"
        }
    },
    {
        "id": "9819663079067419524",
        "title": "公共厕所",
        "address": "西藏自治区拉萨市尼木县人民路与巴古西路交叉口正东方向75米左右",
        "tel": "",
        "category": "基础设施:公共设施:公共厕所",
        "type": 0,
        "location": {
            "lat": 29.427732,
            "lng": 90.167489
        },
        "ad_info": {
            "adcode": 540123,
            "province": "西藏自治区",
            "city": "拉萨市",
            "district": "尼木县"
        }
    },
    {
        "id": "7419412819670651333",
        "title": "公共厕所",
        "address": "西藏自治区拉萨市城关区翁堆兴卡路与东孜苏路交叉口东60米",
        "tel": "",
        "category": "基础设施:公共设施:公共厕所",
        "type": 0,
        "location": {
            "lat": 29.648418,
            "lng": 91.13913
        },
        "ad_info": {
            "adcode": 540102,
            "province": "西藏自治区",
            "city": "拉萨市",
            "district": "城关区"
        }
    },
    {
        "id": "17393269425718366051",
        "title": "公共厕所",
        "address": "西藏自治区拉萨市堆龙德庆区二小路与堆龙大道交叉口西北方向539米左右",
        "tel": "",
        "category": "基础设施:公共设施:公共厕所",
        "type": 0,
        "location": {
            "lat": 29.663624,
            "lng": 90.950436
        },
        "ad_info": {
            "adcode": 540103,
            "province": "西藏自治区",
            "city": "拉萨市",
            "district": "堆龙德庆区"
        }
    },
    {
        "id": "9278285787513672504",
        "title": "公共厕所",
        "address": "西藏自治区拉萨市林周县澎波中路与澎波西路交叉口正东方向51米左右",
        "tel": "",
        "category": "基础设施:公共设施:公共厕所",
        "type": 0,
        "location": {
            "lat": 29.890009,
            "lng": 91.261097
        },
        "ad_info": {
            "adcode": 540121,
            "province": "西藏自治区",
            "city": "拉萨市",
            "district": "林周县"
        }
    },
    {
        "id": "8238386462292092274",
        "title": "公共厕所",
        "address": "西藏自治区拉萨市林周县202省道东50米",
        "tel": "",
        "category": "基础设施:公共设施:公共厕所",
        "type": 0,
        "location": {
            "lat": 29.930121,
            "lng": 91.244183
        },
        "ad_info": {
            "adcode": 540121,
            "province": "西藏自治区",
            "city": "拉萨市",
            "district": "林周县"
        }
    },
    {
        "id": "11290699245434693565",
        "title": "公共厕所",
        "address": "西藏自治区拉萨市当雄县纳木错自然保护区当雄县管理站",
        "tel": "",
        "category": "基础设施:公共设施:公共厕所",
        "type": 0,
        "location": {
            "lat": 30.544837,
            "lng": 91.129488
        },
        "ad_info": {
            "adcode": 540122,
            "province": "西藏自治区",
            "city": "拉萨市",
            "district": "当雄县"
        }
    },
    {
        "id": "9176496739643264759",
        "title": "公共卫生间",
        "address": "西藏自治区拉萨市城关区夺底中路与夺底北路交叉口正西方向264米左右",
        "tel": "",
        "category": "基础设施:公共设施:公共厕所",
        "type": 0,
        "location": {
            "lat": 29.673223,
            "lng": 91.142113
        },
        "ad_info": {
            "adcode": 540102,
            "province": "西藏自治区",
            "city": "拉萨市",
            "district": "城关区"
        }
    },
    {
        "id": "5034888639688725009",
        "title": "日多服务区公共厕所",
        "address": "西藏自治区拉萨市墨竹工卡县日多服务区加油站东北侧50米",
        "tel": "",
        "category": "基础设施:公共设施:公共厕所",
        "type": 0,
        "location": {
            "lat": 29.68977,
            "lng": 92.259148
        },
        "ad_info": {
            "adcode": 540127,
            "province": "西藏自治区",
            "city": "拉萨市",
            "district": "墨竹工卡县"
        }
    },
    {
        "id": "10926256966659615568",
        "title": "公共厕所",
        "address": "西藏自治区拉萨市堆龙德庆区东嘎镇堆龙大道区国税局",
        "tel": "",
        "category": "基础设施:公共设施:公共厕所",
        "type": 0,
        "location": {
            "lat": 29.647921,
            "lng": 91.00713
        },
        "ad_info": {
            "adcode": 540103,
            "province": "西藏自治区",
            "city": "拉萨市",
            "district": "堆龙德庆区"
        }
    },
    {
        "id": "11598155918709445310",
        "title": "西藏宾馆-洗手间",
        "address": "西藏自治区拉萨市城关区北京西路12号(罗布林卡北路与北京西路的交叉口)",
        "tel": "",
        "category": "基础设施:公共设施:公共厕所",
        "type": 0,
        "location": {
            "lat": 29.657147,
            "lng": 91.090392
        },
        "ad_info": {
            "adcode": 540102,
            "province": "西藏自治区",
            "city": "拉萨市",
            "district": "城关区"
        }
    },
    {
        "id": "11760350447471433225",
        "title": "公共厕所",
        "address": "西藏自治区拉萨市曲水县拉贡公路与拉贡路交叉口正东方向250米左右",
        "tel": "",
        "category": "基础设施:公共设施:公共厕所",
        "type": 0,
        "location": {
            "lat": 29.560654,
            "lng": 90.994954
        },
        "ad_info": {
            "adcode": 540124,
            "province": "西藏自治区",
            "city": "拉萨市",
            "district": "曲水县"
        }
    },
    {
        "id": "15211107877705718404",
        "title": "公共厕所",
        "address": "西藏自治区拉萨市堆龙德庆区团结路与拉贡大道交叉口东北方向323米左右",
        "tel": "",
        "category": "基础设施:公共设施:公共厕所",
        "type": 0,
        "location": {
            "lat": 29.632589,
            "lng": 91.003661
        },
        "ad_info": {
            "adcode": 540103,
            "province": "西藏自治区",
            "city": "拉萨市",
            "district": "堆龙德庆区"
        }
    },
    {
        "id": "8705314522282750160",
        "title": "公共厕所",
        "address": "西藏自治区拉萨市墨竹工卡县嘎则路与达塘林路交叉口正南方向26米左右",
        "tel": "",
        "category": "基础设施:公共设施:公共厕所",
        "type": 0,
        "location": {
            "lat": 29.847106,
            "lng": 91.745607
        },
        "ad_info": {
            "adcode": 540127,
            "province": "西藏自治区",
            "city": "拉萨市",
            "district": "墨竹工卡县"
        }
    },
    {
        "id": "3441240460607167159",
        "title": "公共厕所",
        "address": "西藏自治区拉萨市城关区布达拉宫广场西南侧170米",
        "tel": "",
        "category": "基础设施:公共设施:公共厕所",
        "type": 0,
        "location": {
            "lat": 29.649898,
            "lng": 91.11738
        },
        "ad_info": {
            "adcode": 540102,
            "province": "西藏自治区",
            "city": "拉萨市",
            "district": "城关区"
        }
    },
    {
        "id": "9350753653901320238",
        "title": "公共厕所",
        "address": "西藏自治区拉萨市城关区林廓西路铜牛公园(西侧)",
        "tel": "",
        "category": "基础设施:公共设施:公共厕所",
        "type": 0,
        "location": {
            "lat": 29.652287,
            "lng": 91.109735
        },
        "ad_info": {
            "adcode": 540102,
            "province": "西藏自治区",
            "city": "拉萨市",
            "district": "城关区"
        }
    },
    {
        "id": "11865222933327075310",
        "title": "公共厕所",
        "address": "西藏自治区拉萨市林周县连布村冲嘎组",
        "tel": "",
        "category": "基础设施:公共设施:公共厕所",
        "type": 0,
        "location": {
            "lat": 29.963535,
            "lng": 91.148693
        },
        "ad_info": {
            "adcode": 540121,
            "province": "西藏自治区",
            "city": "拉萨市",
            "district": "林周县"
        }
    },
    {
        "id": "7692640915677515382",
        "title": "公共厕所",
        "address": "西藏自治区拉萨市曲水县曲水县中学东南侧220米",
        "tel": "",
        "category": "基础设施:公共设施:公共厕所",
        "type": 0,
        "location": {
            "lat": 29.35329,
            "lng": 90.755981
        },
        "ad_info": {
            "adcode": 540124,
            "province": "西藏自治区",
            "city": "拉萨市",
            "district": "曲水县"
        }
    },
    {
        "id": "14260035047624152016",
        "title": "公共厕所",
        "address": "西藏自治区拉萨市墨竹工卡县达普寺西北侧120米",
        "tel": "",
        "category": "基础设施:公共设施:公共厕所",
        "type": 0,
        "location": {
            "lat": 29.880598,
            "lng": 91.828943
        },
        "ad_info": {
            "adcode": 540127,
            "province": "西藏自治区",
            "city": "拉萨市",
            "district": "墨竹工卡县"
        }
    },
    {
        "id": "7697001947065892403",
        "title": "公共厕所",
        "address": "西藏自治区拉萨市城关区勤学路西藏康城肿瘤医院",
        "tel": "",
        "category": "基础设施:公共设施:公共厕所",
        "type": 0,
        "location": {
            "lat": 29.64111,
            "lng": 91.210865
        },
        "ad_info": {
            "adcode": 540102,
            "province": "西藏自治区",
            "city": "拉萨市",
            "district": "城关区"
        }
    },
    {
        "id": "6735027507823235174",
        "title": "公共厕所",
        "address": "西藏自治区拉萨市堆龙德庆区圣地·财富广场2期东南侧190米",
        "tel": "",
        "category": "基础设施:公共设施:公共厕所",
        "type": 0,
        "location": {
            "lat": 29.630674,
            "lng": 91.083011
        },
        "ad_info": {
            "adcode": 540103,
            "province": "西藏自治区",
            "city": "拉萨市",
            "district": "堆龙德庆区"
        }
    },
    {
        "id": "17034399959522964032",
        "title": "公共厕所",
        "address": "西藏自治区拉萨市城关区夺底中路与夺底南路交叉口东南方向135米左右",
        "tel": "",
        "category": "基础设施:公共设施:公共厕所",
        "type": 0,
        "location": {
            "lat": 29.662708,
            "lng": 91.142436
        },
        "ad_info": {
            "adcode": 540102,
            "province": "西藏自治区",
            "city": "拉萨市",
            "district": "城关区"
        }
    },
    {
        "id": "10745597359683771501",
        "title": "公共厕所",
        "address": "西藏自治区拉萨市达孜区",
        "tel": "",
        "category": "基础设施:公共设施:公共厕所",
        "type": 0,
        "location": {
            "lat": 29.805054,
            "lng": 91.550247
        },
        "ad_info": {
            "adcode": 540104,
            "province": "西藏自治区",
            "city": "拉萨市",
            "district": "达孜区"
        }
    },
    {
        "id": "9064183477595679559",
        "title": "无障碍公共厕所",
        "address": "西藏自治区拉萨市城关区拉萨市环境保护局生活区南侧120米",
        "tel": "",
        "category": "基础设施:公共设施:公共厕所",
        "type": 0,
        "location": {
            "lat": 29.671022,
            "lng": 91.123598
        },
        "ad_info": {
            "adcode": 540102,
            "province": "西藏自治区",
            "city": "拉萨市",
            "district": "城关区"
        }
    },
    {
        "id": "5588087503881531724",
        "title": "公共厕所",
        "address": "西藏自治区拉萨市城关区东西大道与娘热南路交叉口东南方向35米左右",
        "tel": "",
        "category": "基础设施:公共设施:公共厕所",
        "type": 0,
        "location": {
            "lat": 29.66037,
            "lng": 91.124157
        },
        "ad_info": {
            "adcode": 540102,
            "province": "西藏自治区",
            "city": "拉萨市",
            "district": "城关区"
        }
    },
    {
        "id": "14627125122276766156",
        "title": "公共厕所",
        "address": "西藏自治区拉萨市城关区巴尔库路与当热西路交叉口西南方向11米左右",
        "tel": "",
        "category": "基础设施:公共设施:公共厕所",
        "type": 0,
        "location": {
            "lat": 29.671848,
            "lng": 91.118108
        },
        "ad_info": {
            "adcode": 540102,
            "province": "西藏自治区",
            "city": "拉萨市",
            "district": "城关区"
        }
    },
    {
        "id": "1857779654458042429",
        "title": "公共厕所",
        "address": "西藏自治区拉萨市当雄县109国道东50米",
        "tel": "",
        "category": "基础设施:公共设施:公共厕所",
        "type": 0,
        "location": {
            "lat": 30.263435,
            "lng": 90.679333
        },
        "ad_info": {
            "adcode": 540122,
            "province": "西藏自治区",
            "city": "拉萨市",
            "district": "当雄县"
        }
    },
    {
        "id": "10725878957904973708",
        "title": "公共厕所",
        "address": "西藏自治区拉萨市曲水县",
        "tel": "",
        "category": "基础设施:公共设施:公共厕所",
        "type": 0,
        "location": {
            "lat": 29.299524,
            "lng": 90.625251
        },
        "ad_info": {
            "adcode": 540124,
            "province": "西藏自治区",
            "city": "拉萨市",
            "district": "曲水县"
        }
    },
    {
        "id": "9440693985666310599",
        "title": "公共场所",
        "address": "西藏自治区拉萨市城关区罗布林卡路2号药王山观景台",
        "tel": "",
        "category": "基础设施:公共设施:公共厕所",
        "type": 0,
        "location": {
            "lat": 29.652295,
            "lng": 91.114875
        },
        "ad_info": {
            "adcode": 540102,
            "province": "西藏自治区",
            "city": "拉萨市",
            "district": "城关区"
        }
    },
    {
        "id": "13640475803856487522",
        "title": "公共厕所",
        "address": "西藏自治区拉萨市城关区团结路与雅砻路交叉口正南方向1440米左右",
        "tel": "",
        "category": "基础设施:公共设施:公共厕所",
        "type": 0,
        "location": {
            "lat": 29.607631,
            "lng": 91.251301
        },
        "ad_info": {
            "adcode": 540102,
            "province": "西藏自治区",
            "city": "拉萨市",
            "district": "城关区"
        }
    },
    {
        "id": "7664250633055913768",
        "title": "公共厕所",
        "address": "西藏自治区拉萨市墨竹工卡县帮堆路与直孔路交叉口正东方向124米左右",
        "tel": "",
        "category": "基础设施:公共设施:公共厕所",
        "type": 0,
        "location": {
            "lat": 29.837604,
            "lng": 91.730218
        },
        "ad_info": {
            "adcode": 540127,
            "province": "西藏自治区",
            "city": "拉萨市",
            "district": "墨竹工卡县"
        }
    },
    {
        "id": "14739208440074470684",
        "title": "卫生间",
        "address": "西藏自治区拉萨市城关区宇拓路8号百益百货F4",
        "tel": "",
        "category": "基础设施:公共设施:公共厕所",
        "type": 0,
        "location": {
            "lat": 29.649351,
            "lng": 91.123411
        },
        "ad_info": {
            "adcode": 540102,
            "province": "西藏自治区",
            "city": "拉萨市",
            "district": "城关区"
        }
    },
    {
        "id": "11168313742210210057",
        "title": "公共厕所",
        "address": "西藏自治区拉萨市当雄县余记老四川饭馆东北侧50米",
        "tel": "",
        "category": "基础设施:公共设施:公共厕所",
        "type": 0,
        "location": {
            "lat": 30.525675,
            "lng": 91.29323
        },
        "ad_info": {
            "adcode": 540122,
            "province": "西藏自治区",
            "city": "拉萨市",
            "district": "当雄县"
        }
    },
    {
        "id": "9491127347670485207",
        "title": "公共厕所",
        "address": "西藏自治区拉萨市城关区民族中路5号",
        "tel": "",
        "category": "基础设施:公共设施:公共厕所",
        "type": 0,
        "location": {
            "lat": 29.656354,
            "lng": 91.097458
        },
        "ad_info": {
            "adcode": 540102,
            "province": "西藏自治区",
            "city": "拉萨市",
            "district": "城关区"
        }
    },
    {
        "id": "17690253706258295045",
        "title": "公共厕所",
        "address": "西藏自治区拉萨市城关区江苏东路与贡布堂路交叉口西南方向312米左右",
        "tel": "",
        "category": "基础设施:公共设施:公共厕所",
        "type": 0,
        "location": {
            "lat": 29.642838,
            "lng": 91.147898
        },
        "ad_info": {
            "adcode": 540102,
            "province": "西藏自治区",
            "city": "拉萨市",
            "district": "城关区"
        }
    },
    {
        "id": "18331463766780816754",
        "title": "公共厕所",
        "address": "西藏自治区拉萨市城关区吉崩岗街道办事处卫生服务中心东南侧70米",
        "tel": "",
        "category": "基础设施:公共设施:公共厕所",
        "type": 0,
        "location": {
            "lat": 29.652996,
            "lng": 91.13424
        },
        "ad_info": {
            "adcode": 540102,
            "province": "西藏自治区",
            "city": "拉萨市",
            "district": "城关区"
        }
    },
    {
        "id": "14875913696384141321",
        "title": "公共厕所",
        "address": "西藏自治区拉萨市墨竹工卡县318国道与G4218林拉公路出口交叉口西120米",
        "tel": "",
        "category": "基础设施:公共设施:公共厕所",
        "type": 0,
        "location": {
            "lat": 29.833185,
            "lng": 91.71745
        },
        "ad_info": {
            "adcode": 540127,
            "province": "西藏自治区",
            "city": "拉萨市",
            "district": "墨竹工卡县"
        }
    },
    {
        "id": "17103081833610992661",
        "title": "公共卫生间",
        "address": "西藏自治区拉萨市墨竹工卡县南京路与扎雪路交叉口正西方向222米左右",
        "tel": "",
        "category": "基础设施:公共设施:公共厕所",
        "type": 0,
        "location": {
            "lat": 29.839807,
            "lng": 91.731386
        },
        "ad_info": {
            "adcode": 540127,
            "province": "西藏自治区",
            "city": "拉萨市",
            "district": "墨竹工卡县"
        }
    },
    {
        "id": "4585801869110975953",
        "title": "公共厕所",
        "address": "西藏自治区拉萨市曲水县Y122与津贝路交叉口西南方向753米左右",
        "tel": "",
        "category": "基础设施:公共设施:公共厕所",
        "type": 0,
        "location": {
            "lat": 29.446931,
            "lng": 90.953769
        },
        "ad_info": {
            "adcode": 540124,
            "province": "西藏自治区",
            "city": "拉萨市",
            "district": "曲水县"
        }
    },
    {
        "id": "15755724193480797586",
        "title": "当雄服务区公共厕所",
        "address": "西藏自治区拉萨市当雄县G6京藏高速与当雄服务区交叉口西260米",
        "tel": "",
        "category": "基础设施:公共设施:公共厕所",
        "type": 0,
        "location": {
            "lat": 30.467383,
            "lng": 91.115649
        },
        "ad_info": {
            "adcode": 540122,
            "province": "西藏自治区",
            "city": "拉萨市",
            "district": "当雄县"
        }
    },
    {
        "id": "17519900398824595521",
        "title": "公共厕所",
        "address": "西藏自治区拉萨市城关区西藏藏医药大学(南门)东侧",
        "tel": "",
        "category": "基础设施:公共设施:公共厕所",
        "type": 0,
        "location": {
            "lat": 29.664834,
            "lng": 91.126905
        },
        "ad_info": {
            "adcode": 540102,
            "province": "西藏自治区",
            "city": "拉萨市",
            "district": "城关区"
        }
    },
    {
        "id": "9294804245597782213",
        "title": "公共卫生间",
        "address": "西藏自治区拉萨市林周县强嘎乡中心小学东北侧80米",
        "tel": "",
        "category": "基础设施:公共设施:公共厕所",
        "type": 0,
        "location": {
            "lat": 29.947201,
            "lng": 91.137558
        },
        "ad_info": {
            "adcode": 540121,
            "province": "西藏自治区",
            "city": "拉萨市",
            "district": "林周县"
        }
    },
    {
        "id": "10745597359683771501",
        "title": "公共厕所",
        "address": "西藏自治区拉萨市达孜区",
        "tel": "",
        "category": "基础设施:公共设施:公共厕所",
        "type": 0,
        "location": {
            "lat": 29.805054,
            "lng": 91.550247
        },
        "ad_info": {
            "adcode": 540104,
            "province": "西藏自治区",
            "city": "拉萨市",
            "district": "达孜区"
        }
    },
    {
        "id": "9064183477595679559",
        "title": "无障碍公共厕所",
        "address": "西藏自治区拉萨市城关区拉萨市环境保护局生活区南侧120米",
        "tel": "",
        "category": "基础设施:公共设施:公共厕所",
        "type": 0,
        "location": {
            "lat": 29.671022,
            "lng": 91.123598
        },
        "ad_info": {
            "adcode": 540102,
            "province": "西藏自治区",
            "city": "拉萨市",
            "district": "城关区"
        }
    },
    {
        "id": "5588087503881531724",
        "title": "公共厕所",
        "address": "西藏自治区拉萨市城关区东西大道与娘热南路交叉口东南方向35米左右",
        "tel": "",
        "category": "基础设施:公共设施:公共厕所",
        "type": 0,
        "location": {
            "lat": 29.66037,
            "lng": 91.124157
        },
        "ad_info": {
            "adcode": 540102,
            "province": "西藏自治区",
            "city": "拉萨市",
            "district": "城关区"
        }
    },
    {
        "id": "14627125122276766156",
        "title": "公共厕所",
        "address": "西藏自治区拉萨市城关区巴尔库路与当热西路交叉口西南方向11米左右",
        "tel": "",
        "category": "基础设施:公共设施:公共厕所",
        "type": 0,
        "location": {
            "lat": 29.671848,
            "lng": 91.118108
        },
        "ad_info": {
            "adcode": 540102,
            "province": "西藏自治区",
            "city": "拉萨市",
            "district": "城关区"
        }
    },
    {
        "id": "1857779654458042429",
        "title": "公共厕所",
        "address": "西藏自治区拉萨市当雄县109国道东50米",
        "tel": "",
        "category": "基础设施:公共设施:公共厕所",
        "type": 0,
        "location": {
            "lat": 30.263435,
            "lng": 90.679333
        },
        "ad_info": {
            "adcode": 540122,
            "province": "西藏自治区",
            "city": "拉萨市",
            "district": "当雄县"
        }
    },
    {
        "id": "10725878957904973708",
        "title": "公共厕所",
        "address": "西藏自治区拉萨市曲水县",
        "tel": "",
        "category": "基础设施:公共设施:公共厕所",
        "type": 0,
        "location": {
            "lat": 29.299524,
            "lng": 90.625251
        },
        "ad_info": {
            "adcode": 540124,
            "province": "西藏自治区",
            "city": "拉萨市",
            "district": "曲水县"
        }
    },
    {
        "id": "9440693985666310599",
        "title": "公共场所",
        "address": "西藏自治区拉萨市城关区罗布林卡路2号药王山观景台",
        "tel": "",
        "category": "基础设施:公共设施:公共厕所",
        "type": 0,
        "location": {
            "lat": 29.652295,
            "lng": 91.114875
        },
        "ad_info": {
            "adcode": 540102,
            "province": "西藏自治区",
            "city": "拉萨市",
            "district": "城关区"
        }
    },
    {
        "id": "13640475803856487522",
        "title": "公共厕所",
        "address": "西藏自治区拉萨市城关区团结路与雅砻路交叉口正南方向1440米左右",
        "tel": "",
        "category": "基础设施:公共设施:公共厕所",
        "type": 0,
        "location": {
            "lat": 29.607631,
            "lng": 91.251301
        },
        "ad_info": {
            "adcode": 540102,
            "province": "西藏自治区",
            "city": "拉萨市",
            "district": "城关区"
        }
    },
    {
        "id": "7664250633055913768",
        "title": "公共厕所",
        "address": "西藏自治区拉萨市墨竹工卡县帮堆路与直孔路交叉口正东方向124米左右",
        "tel": "",
        "category": "基础设施:公共设施:公共厕所",
        "type": 0,
        "location": {
            "lat": 29.837604,
            "lng": 91.730218
        },
        "ad_info": {
            "adcode": 540127,
            "province": "西藏自治区",
            "city": "拉萨市",
            "district": "墨竹工卡县"
        }
    },
    {
        "id": "14739208440074470684",
        "title": "卫生间",
        "address": "西藏自治区拉萨市城关区宇拓路8号百益百货F4",
        "tel": "",
        "category": "基础设施:公共设施:公共厕所",
        "type": 0,
        "location": {
            "lat": 29.649351,
            "lng": 91.123411
        },
        "ad_info": {
            "adcode": 540102,
            "province": "西藏自治区",
            "city": "拉萨市",
            "district": "城关区"
        }
    },
    {
        "id": "11168313742210210057",
        "title": "公共厕所",
        "address": "西藏自治区拉萨市当雄县余记老四川饭馆东北侧50米",
        "tel": "",
        "category": "基础设施:公共设施:公共厕所",
        "type": 0,
        "location": {
            "lat": 30.525675,
            "lng": 91.29323
        },
        "ad_info": {
            "adcode": 540122,
            "province": "西藏自治区",
            "city": "拉萨市",
            "district": "当雄县"
        }
    },
    {
        "id": "9491127347670485207",
        "title": "公共厕所",
        "address": "西藏自治区拉萨市城关区民族中路5号",
        "tel": "",
        "category": "基础设施:公共设施:公共厕所",
        "type": 0,
        "location": {
            "lat": 29.656354,
            "lng": 91.097458
        },
        "ad_info": {
            "adcode": 540102,
            "province": "西藏自治区",
            "city": "拉萨市",
            "district": "城关区"
        }
    },
    {
        "id": "17690253706258295045",
        "title": "公共厕所",
        "address": "西藏自治区拉萨市城关区江苏东路与贡布堂路交叉口西南方向312米左右",
        "tel": "",
        "category": "基础设施:公共设施:公共厕所",
        "type": 0,
        "location": {
            "lat": 29.642838,
            "lng": 91.147898
        },
        "ad_info": {
            "adcode": 540102,
            "province": "西藏自治区",
            "city": "拉萨市",
            "district": "城关区"
        }
    },
    {
        "id": "18331463766780816754",
        "title": "公共厕所",
        "address": "西藏自治区拉萨市城关区吉崩岗街道办事处卫生服务中心东南侧70米",
        "tel": "",
        "category": "基础设施:公共设施:公共厕所",
        "type": 0,
        "location": {
            "lat": 29.652996,
            "lng": 91.13424
        },
        "ad_info": {
            "adcode": 540102,
            "province": "西藏自治区",
            "city": "拉萨市",
            "district": "城关区"
        }
    },
    {
        "id": "14875913696384141321",
        "title": "公共厕所",
        "address": "西藏自治区拉萨市墨竹工卡县318国道与G4218林拉公路出口交叉口西120米",
        "tel": "",
        "category": "基础设施:公共设施:公共厕所",
        "type": 0,
        "location": {
            "lat": 29.833185,
            "lng": 91.71745
        },
        "ad_info": {
            "adcode": 540127,
            "province": "西藏自治区",
            "city": "拉萨市",
            "district": "墨竹工卡县"
        }
    },
    {
        "id": "17103081833610992661",
        "title": "公共卫生间",
        "address": "西藏自治区拉萨市墨竹工卡县南京路与扎雪路交叉口正西方向222米左右",
        "tel": "",
        "category": "基础设施:公共设施:公共厕所",
        "type": 0,
        "location": {
            "lat": 29.839807,
            "lng": 91.731386
        },
        "ad_info": {
            "adcode": 540127,
            "province": "西藏自治区",
            "city": "拉萨市",
            "district": "墨竹工卡县"
        }
    },
    {
        "id": "4585801869110975953",
        "title": "公共厕所",
        "address": "西藏自治区拉萨市曲水县Y122与津贝路交叉口西南方向753米左右",
        "tel": "",
        "category": "基础设施:公共设施:公共厕所",
        "type": 0,
        "location": {
            "lat": 29.446931,
            "lng": 90.953769
        },
        "ad_info": {
            "adcode": 540124,
            "province": "西藏自治区",
            "city": "拉萨市",
            "district": "曲水县"
        }
    },
    {
        "id": "15755724193480797586",
        "title": "当雄服务区公共厕所",
        "address": "西藏自治区拉萨市当雄县G6京藏高速与当雄服务区交叉口西260米",
        "tel": "",
        "category": "基础设施:公共设施:公共厕所",
        "type": 0,
        "location": {
            "lat": 30.467383,
            "lng": 91.115649
        },
        "ad_info": {
            "adcode": 540122,
            "province": "西藏自治区",
            "city": "拉萨市",
            "district": "当雄县"
        }
    },
    {
        "id": "17519900398824595521",
        "title": "公共厕所",
        "address": "西藏自治区拉萨市城关区西藏藏医药大学(南门)东侧",
        "tel": "",
        "category": "基础设施:公共设施:公共厕所",
        "type": 0,
        "location": {
            "lat": 29.664834,
            "lng": 91.126905
        },
        "ad_info": {
            "adcode": 540102,
            "province": "西藏自治区",
            "city": "拉萨市",
            "district": "城关区"
        }
    },
    {
        "id": "9294804245597782213",
        "title": "公共卫生间",
        "address": "西藏自治区拉萨市林周县强嘎乡中心小学东北侧80米",
        "tel": "",
        "category": "基础设施:公共设施:公共厕所",
        "type": 0,
        "location": {
            "lat": 29.947201,
            "lng": 91.137558
        },
        "ad_info": {
            "adcode": 540121,
            "province": "西藏自治区",
            "city": "拉萨市",
            "district": "林周县"
        }
    },
    {
        "id": "10745597359683771501",
        "title": "公共厕所",
        "address": "西藏自治区拉萨市达孜区",
        "tel": "",
        "category": "基础设施:公共设施:公共厕所",
        "type": 0,
        "location": {
            "lat": 29.805054,
            "lng": 91.550247
        },
        "ad_info": {
            "adcode": 540104,
            "province": "西藏自治区",
            "city": "拉萨市",
            "district": "达孜区"
        }
    },
    {
        "id": "9064183477595679559",
        "title": "无障碍公共厕所",
        "address": "西藏自治区拉萨市城关区拉萨市环境保护局生活区南侧120米",
        "tel": "",
        "category": "基础设施:公共设施:公共厕所",
        "type": 0,
        "location": {
            "lat": 29.671022,
            "lng": 91.123598
        },
        "ad_info": {
            "adcode": 540102,
            "province": "西藏自治区",
            "city": "拉萨市",
            "district": "城关区"
        }
    },
    {
        "id": "5588087503881531724",
        "title": "公共厕所",
        "address": "西藏自治区拉萨市城关区东西大道与娘热南路交叉口东南方向35米左右",
        "tel": "",
        "category": "基础设施:公共设施:公共厕所",
        "type": 0,
        "location": {
            "lat": 29.66037,
            "lng": 91.124157
        },
        "ad_info": {
            "adcode": 540102,
            "province": "西藏自治区",
            "city": "拉萨市",
            "district": "城关区"
        }
    },
    {
        "id": "14627125122276766156",
        "title": "公共厕所",
        "address": "西藏自治区拉萨市城关区巴尔库路与当热西路交叉口西南方向11米左右",
        "tel": "",
        "category": "基础设施:公共设施:公共厕所",
        "type": 0,
        "location": {
            "lat": 29.671848,
            "lng": 91.118108
        },
        "ad_info": {
            "adcode": 540102,
            "province": "西藏自治区",
            "city": "拉萨市",
            "district": "城关区"
        }
    },
    {
        "id": "1857779654458042429",
        "title": "公共厕所",
        "address": "西藏自治区拉萨市当雄县109国道东50米",
        "tel": "",
        "category": "基础设施:公共设施:公共厕所",
        "type": 0,
        "location": {
            "lat": 30.263435,
            "lng": 90.679333
        },
        "ad_info": {
            "adcode": 540122,
            "province": "西藏自治区",
            "city": "拉萨市",
            "district": "当雄县"
        }
    },
    {
        "id": "10725878957904973708",
        "title": "公共厕所",
        "address": "西藏自治区拉萨市曲水县",
        "tel": "",
        "category": "基础设施:公共设施:公共厕所",
        "type": 0,
        "location": {
            "lat": 29.299524,
            "lng": 90.625251
        },
        "ad_info": {
            "adcode": 540124,
            "province": "西藏自治区",
            "city": "拉萨市",
            "district": "曲水县"
        }
    },
    {
        "id": "9440693985666310599",
        "title": "公共场所",
        "address": "西藏自治区拉萨市城关区罗布林卡路2号药王山观景台",
        "tel": "",
        "category": "基础设施:公共设施:公共厕所",
        "type": 0,
        "location": {
            "lat": 29.652295,
            "lng": 91.114875
        },
        "ad_info": {
            "adcode": 540102,
            "province": "西藏自治区",
            "city": "拉萨市",
            "district": "城关区"
        }
    },
    {
        "id": "13640475803856487522",
        "title": "公共厕所",
        "address": "西藏自治区拉萨市城关区团结路与雅砻路交叉口正南方向1440米左右",
        "tel": "",
        "category": "基础设施:公共设施:公共厕所",
        "type": 0,
        "location": {
            "lat": 29.607631,
            "lng": 91.251301
        },
        "ad_info": {
            "adcode": 540102,
            "province": "西藏自治区",
            "city": "拉萨市",
            "district": "城关区"
        }
    },
    {
        "id": "7664250633055913768",
        "title": "公共厕所",
        "address": "西藏自治区拉萨市墨竹工卡县帮堆路与直孔路交叉口正东方向124米左右",
        "tel": "",
        "category": "基础设施:公共设施:公共厕所",
        "type": 0,
        "location": {
            "lat": 29.837604,
            "lng": 91.730218
        },
        "ad_info": {
            "adcode": 540127,
            "province": "西藏自治区",
            "city": "拉萨市",
            "district": "墨竹工卡县"
        }
    },
    {
        "id": "14739208440074470684",
        "title": "卫生间",
        "address": "西藏自治区拉萨市城关区宇拓路8号百益百货F4",
        "tel": "",
        "category": "基础设施:公共设施:公共厕所",
        "type": 0,
        "location": {
            "lat": 29.649351,
            "lng": 91.123411
        },
        "ad_info": {
            "adcode": 540102,
            "province": "西藏自治区",
            "city": "拉萨市",
            "district": "城关区"
        }
    },
    {
        "id": "11168313742210210057",
        "title": "公共厕所",
        "address": "西藏自治区拉萨市当雄县余记老四川饭馆东北侧50米",
        "tel": "",
        "category": "基础设施:公共设施:公共厕所",
        "type": 0,
        "location": {
            "lat": 30.525675,
            "lng": 91.29323
        },
        "ad_info": {
            "adcode": 540122,
            "province": "西藏自治区",
            "city": "拉萨市",
            "district": "当雄县"
        }
    },
    {
        "id": "9491127347670485207",
        "title": "公共厕所",
        "address": "西藏自治区拉萨市城关区民族中路5号",
        "tel": "",
        "category": "基础设施:公共设施:公共厕所",
        "type": 0,
        "location": {
            "lat": 29.656354,
            "lng": 91.097458
        },
        "ad_info": {
            "adcode": 540102,
            "province": "西藏自治区",
            "city": "拉萨市",
            "district": "城关区"
        }
    },
    {
        "id": "17690253706258295045",
        "title": "公共厕所",
        "address": "西藏自治区拉萨市城关区江苏东路与贡布堂路交叉口西南方向312米左右",
        "tel": "",
        "category": "基础设施:公共设施:公共厕所",
        "type": 0,
        "location": {
            "lat": 29.642838,
            "lng": 91.147898
        },
        "ad_info": {
            "adcode": 540102,
            "province": "西藏自治区",
            "city": "拉萨市",
            "district": "城关区"
        }
    },
    {
        "id": "18331463766780816754",
        "title": "公共厕所",
        "address": "西藏自治区拉萨市城关区吉崩岗街道办事处卫生服务中心东南侧70米",
        "tel": "",
        "category": "基础设施:公共设施:公共厕所",
        "type": 0,
        "location": {
            "lat": 29.652996,
            "lng": 91.13424
        },
        "ad_info": {
            "adcode": 540102,
            "province": "西藏自治区",
            "city": "拉萨市",
            "district": "城关区"
        }
    },
    {
        "id": "14875913696384141321",
        "title": "公共厕所",
        "address": "西藏自治区拉萨市墨竹工卡县318国道与G4218林拉公路出口交叉口西120米",
        "tel": "",
        "category": "基础设施:公共设施:公共厕所",
        "type": 0,
        "location": {
            "lat": 29.833185,
            "lng": 91.71745
        },
        "ad_info": {
            "adcode": 540127,
            "province": "西藏自治区",
            "city": "拉萨市",
            "district": "墨竹工卡县"
        }
    },
    {
        "id": "17103081833610992661",
        "title": "公共卫生间",
        "address": "西藏自治区拉萨市墨竹工卡县南京路与扎雪路交叉口正西方向222米左右",
        "tel": "",
        "category": "基础设施:公共设施:公共厕所",
        "type": 0,
        "location": {
            "lat": 29.839807,
            "lng": 91.731386
        },
        "ad_info": {
            "adcode": 540127,
            "province": "西藏自治区",
            "city": "拉萨市",
            "district": "墨竹工卡县"
        }
    },
    {
        "id": "4585801869110975953",
        "title": "公共厕所",
        "address": "西藏自治区拉萨市曲水县Y122与津贝路交叉口西南方向753米左右",
        "tel": "",
        "category": "基础设施:公共设施:公共厕所",
        "type": 0,
        "location": {
            "lat": 29.446931,
            "lng": 90.953769
        },
        "ad_info": {
            "adcode": 540124,
            "province": "西藏自治区",
            "city": "拉萨市",
            "district": "曲水县"
        }
    },
    {
        "id": "15755724193480797586",
        "title": "当雄服务区公共厕所",
        "address": "西藏自治区拉萨市当雄县G6京藏高速与当雄服务区交叉口西260米",
        "tel": "",
        "category": "基础设施:公共设施:公共厕所",
        "type": 0,
        "location": {
            "lat": 30.467383,
            "lng": 91.115649
        },
        "ad_info": {
            "adcode": 540122,
            "province": "西藏自治区",
            "city": "拉萨市",
            "district": "当雄县"
        }
    },
    {
        "id": "17519900398824595521",
        "title": "公共厕所",
        "address": "西藏自治区拉萨市城关区西藏藏医药大学(南门)东侧",
        "tel": "",
        "category": "基础设施:公共设施:公共厕所",
        "type": 0,
        "location": {
            "lat": 29.664834,
            "lng": 91.126905
        },
        "ad_info": {
            "adcode": 540102,
            "province": "西藏自治区",
            "city": "拉萨市",
            "district": "城关区"
        }
    },
    {
        "id": "9294804245597782213",
        "title": "公共卫生间",
        "address": "西藏自治区拉萨市林周县强嘎乡中心小学东北侧80米",
        "tel": "",
        "category": "基础设施:公共设施:公共厕所",
        "type": 0,
        "location": {
            "lat": 29.947201,
            "lng": 91.137558
        },
        "ad_info": {
            "adcode": 540121,
            "province": "西藏自治区",
            "city": "拉萨市",
            "district": "林周县"
        }
    },
    {
        "id": "10745597359683771501",
        "title": "公共厕所",
        "address": "西藏自治区拉萨市达孜区",
        "tel": "",
        "category": "基础设施:公共设施:公共厕所",
        "type": 0,
        "location": {
            "lat": 29.805054,
            "lng": 91.550247
        },
        "ad_info": {
            "adcode": 540104,
            "province": "西藏自治区",
            "city": "拉萨市",
            "district": "达孜区"
        }
    },
    {
        "id": "9064183477595679559",
        "title": "无障碍公共厕所",
        "address": "西藏自治区拉萨市城关区拉萨市环境保护局生活区南侧120米",
        "tel": "",
        "category": "基础设施:公共设施:公共厕所",
        "type": 0,
        "location": {
            "lat": 29.671022,
            "lng": 91.123598
        },
        "ad_info": {
            "adcode": 540102,
            "province": "西藏自治区",
            "city": "拉萨市",
            "district": "城关区"
        }
    },
    {
        "id": "5588087503881531724",
        "title": "公共厕所",
        "address": "西藏自治区拉萨市城关区东西大道与娘热南路交叉口东南方向35米左右",
        "tel": "",
        "category": "基础设施:公共设施:公共厕所",
        "type": 0,
        "location": {
            "lat": 29.66037,
            "lng": 91.124157
        },
        "ad_info": {
            "adcode": 540102,
            "province": "西藏自治区",
            "city": "拉萨市",
            "district": "城关区"
        }
    },
    {
        "id": "14627125122276766156",
        "title": "公共厕所",
        "address": "西藏自治区拉萨市城关区巴尔库路与当热西路交叉口西南方向11米左右",
        "tel": "",
        "category": "基础设施:公共设施:公共厕所",
        "type": 0,
        "location": {
            "lat": 29.671848,
            "lng": 91.118108
        },
        "ad_info": {
            "adcode": 540102,
            "province": "西藏自治区",
            "city": "拉萨市",
            "district": "城关区"
        }
    },
    {
        "id": "1857779654458042429",
        "title": "公共厕所",
        "address": "西藏自治区拉萨市当雄县109国道东50米",
        "tel": "",
        "category": "基础设施:公共设施:公共厕所",
        "type": 0,
        "location": {
            "lat": 30.263435,
            "lng": 90.679333
        },
        "ad_info": {
            "adcode": 540122,
            "province": "西藏自治区",
            "city": "拉萨市",
            "district": "当雄县"
        }
    },
    {
        "id": "10725878957904973708",
        "title": "公共厕所",
        "address": "西藏自治区拉萨市曲水县",
        "tel": "",
        "category": "基础设施:公共设施:公共厕所",
        "type": 0,
        "location": {
            "lat": 29.299524,
            "lng": 90.625251
        },
        "ad_info": {
            "adcode": 540124,
            "province": "西藏自治区",
            "city": "拉萨市",
            "district": "曲水县"
        }
    },
    {
        "id": "9440693985666310599",
        "title": "公共场所",
        "address": "西藏自治区拉萨市城关区罗布林卡路2号药王山观景台",
        "tel": "",
        "category": "基础设施:公共设施:公共厕所",
        "type": 0,
        "location": {
            "lat": 29.652295,
            "lng": 91.114875
        },
        "ad_info": {
            "adcode": 540102,
            "province": "西藏自治区",
            "city": "拉萨市",
            "district": "城关区"
        }
    },
    {
        "id": "13640475803856487522",
        "title": "公共厕所",
        "address": "西藏自治区拉萨市城关区团结路与雅砻路交叉口正南方向1440米左右",
        "tel": "",
        "category": "基础设施:公共设施:公共厕所",
        "type": 0,
        "location": {
            "lat": 29.607631,
            "lng": 91.251301
        },
        "ad_info": {
            "adcode": 540102,
            "province": "西藏自治区",
            "city": "拉萨市",
            "district": "城关区"
        }
    },
    {
        "id": "7664250633055913768",
        "title": "公共厕所",
        "address": "西藏自治区拉萨市墨竹工卡县帮堆路与直孔路交叉口正东方向124米左右",
        "tel": "",
        "category": "基础设施:公共设施:公共厕所",
        "type": 0,
        "location": {
            "lat": 29.837604,
            "lng": 91.730218
        },
        "ad_info": {
            "adcode": 540127,
            "province": "西藏自治区",
            "city": "拉萨市",
            "district": "墨竹工卡县"
        }
    },
    {
        "id": "14739208440074470684",
        "title": "卫生间",
        "address": "西藏自治区拉萨市城关区宇拓路8号百益百货F4",
        "tel": "",
        "category": "基础设施:公共设施:公共厕所",
        "type": 0,
        "location": {
            "lat": 29.649351,
            "lng": 91.123411
        },
        "ad_info": {
            "adcode": 540102,
            "province": "西藏自治区",
            "city": "拉萨市",
            "district": "城关区"
        }
    },
    {
        "id": "11168313742210210057",
        "title": "公共厕所",
        "address": "西藏自治区拉萨市当雄县余记老四川饭馆东北侧50米",
        "tel": "",
        "category": "基础设施:公共设施:公共厕所",
        "type": 0,
        "location": {
            "lat": 30.525675,
            "lng": 91.29323
        },
        "ad_info": {
            "adcode": 540122,
            "province": "西藏自治区",
            "city": "拉萨市",
            "district": "当雄县"
        }
    },
    {
        "id": "9491127347670485207",
        "title": "公共厕所",
        "address": "西藏自治区拉萨市城关区民族中路5号",
        "tel": "",
        "category": "基础设施:公共设施:公共厕所",
        "type": 0,
        "location": {
            "lat": 29.656354,
            "lng": 91.097458
        },
        "ad_info": {
            "adcode": 540102,
            "province": "西藏自治区",
            "city": "拉萨市",
            "district": "城关区"
        }
    },
    {
        "id": "17690253706258295045",
        "title": "公共厕所",
        "address": "西藏自治区拉萨市城关区江苏东路与贡布堂路交叉口西南方向312米左右",
        "tel": "",
        "category": "基础设施:公共设施:公共厕所",
        "type": 0,
        "location": {
            "lat": 29.642838,
            "lng": 91.147898
        },
        "ad_info": {
            "adcode": 540102,
            "province": "西藏自治区",
            "city": "拉萨市",
            "district": "城关区"
        }
    },
    {
        "id": "18331463766780816754",
        "title": "公共厕所",
        "address": "西藏自治区拉萨市城关区吉崩岗街道办事处卫生服务中心东南侧70米",
        "tel": "",
        "category": "基础设施:公共设施:公共厕所",
        "type": 0,
        "location": {
            "lat": 29.652996,
            "lng": 91.13424
        },
        "ad_info": {
            "adcode": 540102,
            "province": "西藏自治区",
            "city": "拉萨市",
            "district": "城关区"
        }
    },
    {
        "id": "14875913696384141321",
        "title": "公共厕所",
        "address": "西藏自治区拉萨市墨竹工卡县318国道与G4218林拉公路出口交叉口西120米",
        "tel": "",
        "category": "基础设施:公共设施:公共厕所",
        "type": 0,
        "location": {
            "lat": 29.833185,
            "lng": 91.71745
        },
        "ad_info": {
            "adcode": 540127,
            "province": "西藏自治区",
            "city": "拉萨市",
            "district": "墨竹工卡县"
        }
    },
    {
        "id": "17103081833610992661",
        "title": "公共卫生间",
        "address": "西藏自治区拉萨市墨竹工卡县南京路与扎雪路交叉口正西方向222米左右",
        "tel": "",
        "category": "基础设施:公共设施:公共厕所",
        "type": 0,
        "location": {
            "lat": 29.839807,
            "lng": 91.731386
        },
        "ad_info": {
            "adcode": 540127,
            "province": "西藏自治区",
            "city": "拉萨市",
            "district": "墨竹工卡县"
        }
    },
    {
        "id": "4585801869110975953",
        "title": "公共厕所",
        "address": "西藏自治区拉萨市曲水县Y122与津贝路交叉口西南方向753米左右",
        "tel": "",
        "category": "基础设施:公共设施:公共厕所",
        "type": 0,
        "location": {
            "lat": 29.446931,
            "lng": 90.953769
        },
        "ad_info": {
            "adcode": 540124,
            "province": "西藏自治区",
            "city": "拉萨市",
            "district": "曲水县"
        }
    },
    {
        "id": "15755724193480797586",
        "title": "当雄服务区公共厕所",
        "address": "西藏自治区拉萨市当雄县G6京藏高速与当雄服务区交叉口西260米",
        "tel": "",
        "category": "基础设施:公共设施:公共厕所",
        "type": 0,
        "location": {
            "lat": 30.467383,
            "lng": 91.115649
        },
        "ad_info": {
            "adcode": 540122,
            "province": "西藏自治区",
            "city": "拉萨市",
            "district": "当雄县"
        }
    },
    {
        "id": "17519900398824595521",
        "title": "公共厕所",
        "address": "西藏自治区拉萨市城关区西藏藏医药大学(南门)东侧",
        "tel": "",
        "category": "基础设施:公共设施:公共厕所",
        "type": 0,
        "location": {
            "lat": 29.664834,
            "lng": 91.126905
        },
        "ad_info": {
            "adcode": 540102,
            "province": "西藏自治区",
            "city": "拉萨市",
            "district": "城关区"
        }
    },
    {
        "id": "9294804245597782213",
        "title": "公共卫生间",
        "address": "西藏自治区拉萨市林周县强嘎乡中心小学东北侧80米",
        "tel": "",
        "category": "基础设施:公共设施:公共厕所",
        "type": 0,
        "location": {
            "lat": 29.947201,
            "lng": 91.137558
        },
        "ad_info": {
            "adcode": 540121,
            "province": "西藏自治区",
            "city": "拉萨市",
            "district": "林周县"
        }
    },
    {
        "id": "10745597359683771501",
        "title": "公共厕所",
        "address": "西藏自治区拉萨市达孜区",
        "tel": "",
        "category": "基础设施:公共设施:公共厕所",
        "type": 0,
        "location": {
            "lat": 29.805054,
            "lng": 91.550247
        },
        "ad_info": {
            "adcode": 540104,
            "province": "西藏自治区",
            "city": "拉萨市",
            "district": "达孜区"
        }
    },
    {
        "id": "9064183477595679559",
        "title": "无障碍公共厕所",
        "address": "西藏自治区拉萨市城关区拉萨市环境保护局生活区南侧120米",
        "tel": "",
        "category": "基础设施:公共设施:公共厕所",
        "type": 0,
        "location": {
            "lat": 29.671022,
            "lng": 91.123598
        },
        "ad_info": {
            "adcode": 540102,
            "province": "西藏自治区",
            "city": "拉萨市",
            "district": "城关区"
        }
    },
    {
        "id": "5588087503881531724",
        "title": "公共厕所",
        "address": "西藏自治区拉萨市城关区东西大道与娘热南路交叉口东南方向35米左右",
        "tel": "",
        "category": "基础设施:公共设施:公共厕所",
        "type": 0,
        "location": {
            "lat": 29.66037,
            "lng": 91.124157
        },
        "ad_info": {
            "adcode": 540102,
            "province": "西藏自治区",
            "city": "拉萨市",
            "district": "城关区"
        }
    },
    {
        "id": "14627125122276766156",
        "title": "公共厕所",
        "address": "西藏自治区拉萨市城关区巴尔库路与当热西路交叉口西南方向11米左右",
        "tel": "",
        "category": "基础设施:公共设施:公共厕所",
        "type": 0,
        "location": {
            "lat": 29.671848,
            "lng": 91.118108
        },
        "ad_info": {
            "adcode": 540102,
            "province": "西藏自治区",
            "city": "拉萨市",
            "district": "城关区"
        }
    },
    {
        "id": "1857779654458042429",
        "title": "公共厕所",
        "address": "西藏自治区拉萨市当雄县109国道东50米",
        "tel": "",
        "category": "基础设施:公共设施:公共厕所",
        "type": 0,
        "location": {
            "lat": 30.263435,
            "lng": 90.679333
        },
        "ad_info": {
            "adcode": 540122,
            "province": "西藏自治区",
            "city": "拉萨市",
            "district": "当雄县"
        }
    },
    {
        "id": "10725878957904973708",
        "title": "公共厕所",
        "address": "西藏自治区拉萨市曲水县",
        "tel": "",
        "category": "基础设施:公共设施:公共厕所",
        "type": 0,
        "location": {
            "lat": 29.299524,
            "lng": 90.625251
        },
        "ad_info": {
            "adcode": 540124,
            "province": "西藏自治区",
            "city": "拉萨市",
            "district": "曲水县"
        }
    },
    {
        "id": "9440693985666310599",
        "title": "公共场所",
        "address": "西藏自治区拉萨市城关区罗布林卡路2号药王山观景台",
        "tel": "",
        "category": "基础设施:公共设施:公共厕所",
        "type": 0,
        "location": {
            "lat": 29.652295,
            "lng": 91.114875
        },
        "ad_info": {
            "adcode": 540102,
            "province": "西藏自治区",
            "city": "拉萨市",
            "district": "城关区"
        }
    },
    {
        "id": "13640475803856487522",
        "title": "公共厕所",
        "address": "西藏自治区拉萨市城关区团结路与雅砻路交叉口正南方向1440米左右",
        "tel": "",
        "category": "基础设施:公共设施:公共厕所",
        "type": 0,
        "location": {
            "lat": 29.607631,
            "lng": 91.251301
        },
        "ad_info": {
            "adcode": 540102,
            "province": "西藏自治区",
            "city": "拉萨市",
            "district": "城关区"
        }
    },
    {
        "id": "7664250633055913768",
        "title": "公共厕所",
        "address": "西藏自治区拉萨市墨竹工卡县帮堆路与直孔路交叉口正东方向124米左右",
        "tel": "",
        "category": "基础设施:公共设施:公共厕所",
        "type": 0,
        "location": {
            "lat": 29.837604,
            "lng": 91.730218
        },
        "ad_info": {
            "adcode": 540127,
            "province": "西藏自治区",
            "city": "拉萨市",
            "district": "墨竹工卡县"
        }
    },
    {
        "id": "14739208440074470684",
        "title": "卫生间",
        "address": "西藏自治区拉萨市城关区宇拓路8号百益百货F4",
        "tel": "",
        "category": "基础设施:公共设施:公共厕所",
        "type": 0,
        "location": {
            "lat": 29.649351,
            "lng": 91.123411
        },
        "ad_info": {
            "adcode": 540102,
            "province": "西藏自治区",
            "city": "拉萨市",
            "district": "城关区"
        }
    },
    {
        "id": "11168313742210210057",
        "title": "公共厕所",
        "address": "西藏自治区拉萨市当雄县余记老四川饭馆东北侧50米",
        "tel": "",
        "category": "基础设施:公共设施:公共厕所",
        "type": 0,
        "location": {
            "lat": 30.525675,
            "lng": 91.29323
        },
        "ad_info": {
            "adcode": 540122,
            "province": "西藏自治区",
            "city": "拉萨市",
            "district": "当雄县"
        }
    },
    {
        "id": "9491127347670485207",
        "title": "公共厕所",
        "address": "西藏自治区拉萨市城关区民族中路5号",
        "tel": "",
        "category": "基础设施:公共设施:公共厕所",
        "type": 0,
        "location": {
            "lat": 29.656354,
            "lng": 91.097458
        },
        "ad_info": {
            "adcode": 540102,
            "province": "西藏自治区",
            "city": "拉萨市",
            "district": "城关区"
        }
    },
    {
        "id": "17690253706258295045",
        "title": "公共厕所",
        "address": "西藏自治区拉萨市城关区江苏东路与贡布堂路交叉口西南方向312米左右",
        "tel": "",
        "category": "基础设施:公共设施:公共厕所",
        "type": 0,
        "location": {
            "lat": 29.642838,
            "lng": 91.147898
        },
        "ad_info": {
            "adcode": 540102,
            "province": "西藏自治区",
            "city": "拉萨市",
            "district": "城关区"
        }
    },
    {
        "id": "18331463766780816754",
        "title": "公共厕所",
        "address": "西藏自治区拉萨市城关区吉崩岗街道办事处卫生服务中心东南侧70米",
        "tel": "",
        "category": "基础设施:公共设施:公共厕所",
        "type": 0,
        "location": {
            "lat": 29.652996,
            "lng": 91.13424
        },
        "ad_info": {
            "adcode": 540102,
            "province": "西藏自治区",
            "city": "拉萨市",
            "district": "城关区"
        }
    },
    {
        "id": "14875913696384141321",
        "title": "公共厕所",
        "address": "西藏自治区拉萨市墨竹工卡县318国道与G4218林拉公路出口交叉口西120米",
        "tel": "",
        "category": "基础设施:公共设施:公共厕所",
        "type": 0,
        "location": {
            "lat": 29.833185,
            "lng": 91.71745
        },
        "ad_info": {
            "adcode": 540127,
            "province": "西藏自治区",
            "city": "拉萨市",
            "district": "墨竹工卡县"
        }
    },
    {
        "id": "17103081833610992661",
        "title": "公共卫生间",
        "address": "西藏自治区拉萨市墨竹工卡县南京路与扎雪路交叉口正西方向222米左右",
        "tel": "",
        "category": "基础设施:公共设施:公共厕所",
        "type": 0,
        "location": {
            "lat": 29.839807,
            "lng": 91.731386
        },
        "ad_info": {
            "adcode": 540127,
            "province": "西藏自治区",
            "city": "拉萨市",
            "district": "墨竹工卡县"
        }
    },
    {
        "id": "4585801869110975953",
        "title": "公共厕所",
        "address": "西藏自治区拉萨市曲水县Y122与津贝路交叉口西南方向753米左右",
        "tel": "",
        "category": "基础设施:公共设施:公共厕所",
        "type": 0,
        "location": {
            "lat": 29.446931,
            "lng": 90.953769
        },
        "ad_info": {
            "adcode": 540124,
            "province": "西藏自治区",
            "city": "拉萨市",
            "district": "曲水县"
        }
    },
    {
        "id": "15755724193480797586",
        "title": "当雄服务区公共厕所",
        "address": "西藏自治区拉萨市当雄县G6京藏高速与当雄服务区交叉口西260米",
        "tel": "",
        "category": "基础设施:公共设施:公共厕所",
        "type": 0,
        "location": {
            "lat": 30.467383,
            "lng": 91.115649
        },
        "ad_info": {
            "adcode": 540122,
            "province": "西藏自治区",
            "city": "拉萨市",
            "district": "当雄县"
        }
    },
    {
        "id": "17519900398824595521",
        "title": "公共厕所",
        "address": "西藏自治区拉萨市城关区西藏藏医药大学(南门)东侧",
        "tel": "",
        "category": "基础设施:公共设施:公共厕所",
        "type": 0,
        "location": {
            "lat": 29.664834,
            "lng": 91.126905
        },
        "ad_info": {
            "adcode": 540102,
            "province": "西藏自治区",
            "city": "拉萨市",
            "district": "城关区"
        }
    },
    {
        "id": "9294804245597782213",
        "title": "公共卫生间",
        "address": "西藏自治区拉萨市林周县强嘎乡中心小学东北侧80米",
        "tel": "",
        "category": "基础设施:公共设施:公共厕所",
        "type": 0,
        "location": {
            "lat": 29.947201,
            "lng": 91.137558
        },
        "ad_info": {
            "adcode": 540121,
            "province": "西藏自治区",
            "city": "拉萨市",
            "district": "林周县"
        }
    },
    {
        "id": "10745597359683771501",
        "title": "公共厕所",
        "address": "西藏自治区拉萨市达孜区",
        "tel": "",
        "category": "基础设施:公共设施:公共厕所",
        "type": 0,
        "location": {
            "lat": 29.805054,
            "lng": 91.550247
        },
        "ad_info": {
            "adcode": 540104,
            "province": "西藏自治区",
            "city": "拉萨市",
            "district": "达孜区"
        }
    },
    {
        "id": "9064183477595679559",
        "title": "无障碍公共厕所",
        "address": "西藏自治区拉萨市城关区拉萨市环境保护局生活区南侧120米",
        "tel": "",
        "category": "基础设施:公共设施:公共厕所",
        "type": 0,
        "location": {
            "lat": 29.671022,
            "lng": 91.123598
        },
        "ad_info": {
            "adcode": 540102,
            "province": "西藏自治区",
            "city": "拉萨市",
            "district": "城关区"
        }
    },
    {
        "id": "5588087503881531724",
        "title": "公共厕所",
        "address": "西藏自治区拉萨市城关区东西大道与娘热南路交叉口东南方向35米左右",
        "tel": "",
        "category": "基础设施:公共设施:公共厕所",
        "type": 0,
        "location": {
            "lat": 29.66037,
            "lng": 91.124157
        },
        "ad_info": {
            "adcode": 540102,
            "province": "西藏自治区",
            "city": "拉萨市",
            "district": "城关区"
        }
    },
    {
        "id": "14627125122276766156",
        "title": "公共厕所",
        "address": "西藏自治区拉萨市城关区巴尔库路与当热西路交叉口西南方向11米左右",
        "tel": "",
        "category": "基础设施:公共设施:公共厕所",
        "type": 0,
        "location": {
            "lat": 29.671848,
            "lng": 91.118108
        },
        "ad_info": {
            "adcode": 540102,
            "province": "西藏自治区",
            "city": "拉萨市",
            "district": "城关区"
        }
    },
    {
        "id": "1857779654458042429",
        "title": "公共厕所",
        "address": "西藏自治区拉萨市当雄县109国道东50米",
        "tel": "",
        "category": "基础设施:公共设施:公共厕所",
        "type": 0,
        "location": {
            "lat": 30.263435,
            "lng": 90.679333
        },
        "ad_info": {
            "adcode": 540122,
            "province": "西藏自治区",
            "city": "拉萨市",
            "district": "当雄县"
        }
    },
    {
        "id": "10725878957904973708",
        "title": "公共厕所",
        "address": "西藏自治区拉萨市曲水县",
        "tel": "",
        "category": "基础设施:公共设施:公共厕所",
        "type": 0,
        "location": {
            "lat": 29.299524,
            "lng": 90.625251
        },
        "ad_info": {
            "adcode": 540124,
            "province": "西藏自治区",
            "city": "拉萨市",
            "district": "曲水县"
        }
    },
    {
        "id": "9440693985666310599",
        "title": "公共场所",
        "address": "西藏自治区拉萨市城关区罗布林卡路2号药王山观景台",
        "tel": "",
        "category": "基础设施:公共设施:公共厕所",
        "type": 0,
        "location": {
            "lat": 29.652295,
            "lng": 91.114875
        },
        "ad_info": {
            "adcode": 540102,
            "province": "西藏自治区",
            "city": "拉萨市",
            "district": "城关区"
        }
    },
    {
        "id": "13640475803856487522",
        "title": "公共厕所",
        "address": "西藏自治区拉萨市城关区团结路与雅砻路交叉口正南方向1440米左右",
        "tel": "",
        "category": "基础设施:公共设施:公共厕所",
        "type": 0,
        "location": {
            "lat": 29.607631,
            "lng": 91.251301
        },
        "ad_info": {
            "adcode": 540102,
            "province": "西藏自治区",
            "city": "拉萨市",
            "district": "城关区"
        }
    },
    {
        "id": "7664250633055913768",
        "title": "公共厕所",
        "address": "西藏自治区拉萨市墨竹工卡县帮堆路与直孔路交叉口正东方向124米左右",
        "tel": "",
        "category": "基础设施:公共设施:公共厕所",
        "type": 0,
        "location": {
            "lat": 29.837604,
            "lng": 91.730218
        },
        "ad_info": {
            "adcode": 540127,
            "province": "西藏自治区",
            "city": "拉萨市",
            "district": "墨竹工卡县"
        }
    },
    {
        "id": "14739208440074470684",
        "title": "卫生间",
        "address": "西藏自治区拉萨市城关区宇拓路8号百益百货F4",
        "tel": "",
        "category": "基础设施:公共设施:公共厕所",
        "type": 0,
        "location": {
            "lat": 29.649351,
            "lng": 91.123411
        },
        "ad_info": {
            "adcode": 540102,
            "province": "西藏自治区",
            "city": "拉萨市",
            "district": "城关区"
        }
    },
    {
        "id": "11168313742210210057",
        "title": "公共厕所",
        "address": "西藏自治区拉萨市当雄县余记老四川饭馆东北侧50米",
        "tel": "",
        "category": "基础设施:公共设施:公共厕所",
        "type": 0,
        "location": {
            "lat": 30.525675,
            "lng": 91.29323
        },
        "ad_info": {
            "adcode": 540122,
            "province": "西藏自治区",
            "city": "拉萨市",
            "district": "当雄县"
        }
    },
    {
        "id": "9491127347670485207",
        "title": "公共厕所",
        "address": "西藏自治区拉萨市城关区民族中路5号",
        "tel": "",
        "category": "基础设施:公共设施:公共厕所",
        "type": 0,
        "location": {
            "lat": 29.656354,
            "lng": 91.097458
        },
        "ad_info": {
            "adcode": 540102,
            "province": "西藏自治区",
            "city": "拉萨市",
            "district": "城关区"
        }
    },
    {
        "id": "17690253706258295045",
        "title": "公共厕所",
        "address": "西藏自治区拉萨市城关区江苏东路与贡布堂路交叉口西南方向312米左右",
        "tel": "",
        "category": "基础设施:公共设施:公共厕所",
        "type": 0,
        "location": {
            "lat": 29.642838,
            "lng": 91.147898
        },
        "ad_info": {
            "adcode": 540102,
            "province": "西藏自治区",
            "city": "拉萨市",
            "district": "城关区"
        }
    },
    {
        "id": "18331463766780816754",
        "title": "公共厕所",
        "address": "西藏自治区拉萨市城关区吉崩岗街道办事处卫生服务中心东南侧70米",
        "tel": "",
        "category": "基础设施:公共设施:公共厕所",
        "type": 0,
        "location": {
            "lat": 29.652996,
            "lng": 91.13424
        },
        "ad_info": {
            "adcode": 540102,
            "province": "西藏自治区",
            "city": "拉萨市",
            "district": "城关区"
        }
    },
    {
        "id": "14875913696384141321",
        "title": "公共厕所",
        "address": "西藏自治区拉萨市墨竹工卡县318国道与G4218林拉公路出口交叉口西120米",
        "tel": "",
        "category": "基础设施:公共设施:公共厕所",
        "type": 0,
        "location": {
            "lat": 29.833185,
            "lng": 91.71745
        },
        "ad_info": {
            "adcode": 540127,
            "province": "西藏自治区",
            "city": "拉萨市",
            "district": "墨竹工卡县"
        }
    },
    {
        "id": "17103081833610992661",
        "title": "公共卫生间",
        "address": "西藏自治区拉萨市墨竹工卡县南京路与扎雪路交叉口正西方向222米左右",
        "tel": "",
        "category": "基础设施:公共设施:公共厕所",
        "type": 0,
        "location": {
            "lat": 29.839807,
            "lng": 91.731386
        },
        "ad_info": {
            "adcode": 540127,
            "province": "西藏自治区",
            "city": "拉萨市",
            "district": "墨竹工卡县"
        }
    },
    {
        "id": "4585801869110975953",
        "title": "公共厕所",
        "address": "西藏自治区拉萨市曲水县Y122与津贝路交叉口西南方向753米左右",
        "tel": "",
        "category": "基础设施:公共设施:公共厕所",
        "type": 0,
        "location": {
            "lat": 29.446931,
            "lng": 90.953769
        },
        "ad_info": {
            "adcode": 540124,
            "province": "西藏自治区",
            "city": "拉萨市",
            "district": "曲水县"
        }
    },
    {
        "id": "15755724193480797586",
        "title": "当雄服务区公共厕所",
        "address": "西藏自治区拉萨市当雄县G6京藏高速与当雄服务区交叉口西260米",
        "tel": "",
        "category": "基础设施:公共设施:公共厕所",
        "type": 0,
        "location": {
            "lat": 30.467383,
            "lng": 91.115649
        },
        "ad_info": {
            "adcode": 540122,
            "province": "西藏自治区",
            "city": "拉萨市",
            "district": "当雄县"
        }
    },
    {
        "id": "17519900398824595521",
        "title": "公共厕所",
        "address": "西藏自治区拉萨市城关区西藏藏医药大学(南门)东侧",
        "tel": "",
        "category": "基础设施:公共设施:公共厕所",
        "type": 0,
        "location": {
            "lat": 29.664834,
            "lng": 91.126905
        },
        "ad_info": {
            "adcode": 540102,
            "province": "西藏自治区",
            "city": "拉萨市",
            "district": "城关区"
        }
    },
    {
        "id": "9294804245597782213",
        "title": "公共卫生间",
        "address": "西藏自治区拉萨市林周县强嘎乡中心小学东北侧80米",
        "tel": "",
        "category": "基础设施:公共设施:公共厕所",
        "type": 0,
        "location": {
            "lat": 29.947201,
            "lng": 91.137558
        },
        "ad_info": {
            "adcode": 540121,
            "province": "西藏自治区",
            "city": "拉萨市",
            "district": "林周县"
        }
    },
    {
        "id": "10745597359683771501",
        "title": "公共厕所",
        "address": "西藏自治区拉萨市达孜区",
        "tel": "",
        "category": "基础设施:公共设施:公共厕所",
        "type": 0,
        "location": {
            "lat": 29.805054,
            "lng": 91.550247
        },
        "ad_info": {
            "adcode": 540104,
            "province": "西藏自治区",
            "city": "拉萨市",
            "district": "达孜区"
        }
    },
    {
        "id": "9064183477595679559",
        "title": "无障碍公共厕所",
        "address": "西藏自治区拉萨市城关区拉萨市环境保护局生活区南侧120米",
        "tel": "",
        "category": "基础设施:公共设施:公共厕所",
        "type": 0,
        "location": {
            "lat": 29.671022,
            "lng": 91.123598
        },
        "ad_info": {
            "adcode": 540102,
            "province": "西藏自治区",
            "city": "拉萨市",
            "district": "城关区"
        }
    },
    {
        "id": "5588087503881531724",
        "title": "公共厕所",
        "address": "西藏自治区拉萨市城关区东西大道与娘热南路交叉口东南方向35米左右",
        "tel": "",
        "category": "基础设施:公共设施:公共厕所",
        "type": 0,
        "location": {
            "lat": 29.66037,
            "lng": 91.124157
        },
        "ad_info": {
            "adcode": 540102,
            "province": "西藏自治区",
            "city": "拉萨市",
            "district": "城关区"
        }
    },
    {
        "id": "14627125122276766156",
        "title": "公共厕所",
        "address": "西藏自治区拉萨市城关区巴尔库路与当热西路交叉口西南方向11米左右",
        "tel": "",
        "category": "基础设施:公共设施:公共厕所",
        "type": 0,
        "location": {
            "lat": 29.671848,
            "lng": 91.118108
        },
        "ad_info": {
            "adcode": 540102,
            "province": "西藏自治区",
            "city": "拉萨市",
            "district": "城关区"
        }
    },
    {
        "id": "1857779654458042429",
        "title": "公共厕所",
        "address": "西藏自治区拉萨市当雄县109国道东50米",
        "tel": "",
        "category": "基础设施:公共设施:公共厕所",
        "type": 0,
        "location": {
            "lat": 30.263435,
            "lng": 90.679333
        },
        "ad_info": {
            "adcode": 540122,
            "province": "西藏自治区",
            "city": "拉萨市",
            "district": "当雄县"
        }
    },
    {
        "id": "10725878957904973708",
        "title": "公共厕所",
        "address": "西藏自治区拉萨市曲水县",
        "tel": "",
        "category": "基础设施:公共设施:公共厕所",
        "type": 0,
        "location": {
            "lat": 29.299524,
            "lng": 90.625251
        },
        "ad_info": {
            "adcode": 540124,
            "province": "西藏自治区",
            "city": "拉萨市",
            "district": "曲水县"
        }
    },
    {
        "id": "9440693985666310599",
        "title": "公共场所",
        "address": "西藏自治区拉萨市城关区罗布林卡路2号药王山观景台",
        "tel": "",
        "category": "基础设施:公共设施:公共厕所",
        "type": 0,
        "location": {
            "lat": 29.652295,
            "lng": 91.114875
        },
        "ad_info": {
            "adcode": 540102,
            "province": "西藏自治区",
            "city": "拉萨市",
            "district": "城关区"
        }
    },
    {
        "id": "13640475803856487522",
        "title": "公共厕所",
        "address": "西藏自治区拉萨市城关区团结路与雅砻路交叉口正南方向1440米左右",
        "tel": "",
        "category": "基础设施:公共设施:公共厕所",
        "type": 0,
        "location": {
            "lat": 29.607631,
            "lng": 91.251301
        },
        "ad_info": {
            "adcode": 540102,
            "province": "西藏自治区",
            "city": "拉萨市",
            "district": "城关区"
        }
    },
    {
        "id": "7664250633055913768",
        "title": "公共厕所",
        "address": "西藏自治区拉萨市墨竹工卡县帮堆路与直孔路交叉口正东方向124米左右",
        "tel": "",
        "category": "基础设施:公共设施:公共厕所",
        "type": 0,
        "location": {
            "lat": 29.837604,
            "lng": 91.730218
        },
        "ad_info": {
            "adcode": 540127,
            "province": "西藏自治区",
            "city": "拉萨市",
            "district": "墨竹工卡县"
        }
    },
    {
        "id": "14739208440074470684",
        "title": "卫生间",
        "address": "西藏自治区拉萨市城关区宇拓路8号百益百货F4",
        "tel": "",
        "category": "基础设施:公共设施:公共厕所",
        "type": 0,
        "location": {
            "lat": 29.649351,
            "lng": 91.123411
        },
        "ad_info": {
            "adcode": 540102,
            "province": "西藏自治区",
            "city": "拉萨市",
            "district": "城关区"
        }
    },
    {
        "id": "11168313742210210057",
        "title": "公共厕所",
        "address": "西藏自治区拉萨市当雄县余记老四川饭馆东北侧50米",
        "tel": "",
        "category": "基础设施:公共设施:公共厕所",
        "type": 0,
        "location": {
            "lat": 30.525675,
            "lng": 91.29323
        },
        "ad_info": {
            "adcode": 540122,
            "province": "西藏自治区",
            "city": "拉萨市",
            "district": "当雄县"
        }
    },
    {
        "id": "9491127347670485207",
        "title": "公共厕所",
        "address": "西藏自治区拉萨市城关区民族中路5号",
        "tel": "",
        "category": "基础设施:公共设施:公共厕所",
        "type": 0,
        "location": {
            "lat": 29.656354,
            "lng": 91.097458
        },
        "ad_info": {
            "adcode": 540102,
            "province": "西藏自治区",
            "city": "拉萨市",
            "district": "城关区"
        }
    },
    {
        "id": "17690253706258295045",
        "title": "公共厕所",
        "address": "西藏自治区拉萨市城关区江苏东路与贡布堂路交叉口西南方向312米左右",
        "tel": "",
        "category": "基础设施:公共设施:公共厕所",
        "type": 0,
        "location": {
            "lat": 29.642838,
            "lng": 91.147898
        },
        "ad_info": {
            "adcode": 540102,
            "province": "西藏自治区",
            "city": "拉萨市",
            "district": "城关区"
        }
    },
    {
        "id": "18331463766780816754",
        "title": "公共厕所",
        "address": "西藏自治区拉萨市城关区吉崩岗街道办事处卫生服务中心东南侧70米",
        "tel": "",
        "category": "基础设施:公共设施:公共厕所",
        "type": 0,
        "location": {
            "lat": 29.652996,
            "lng": 91.13424
        },
        "ad_info": {
            "adcode": 540102,
            "province": "西藏自治区",
            "city": "拉萨市",
            "district": "城关区"
        }
    },
    {
        "id": "14875913696384141321",
        "title": "公共厕所",
        "address": "西藏自治区拉萨市墨竹工卡县318国道与G4218林拉公路出口交叉口西120米",
        "tel": "",
        "category": "基础设施:公共设施:公共厕所",
        "type": 0,
        "location": {
            "lat": 29.833185,
            "lng": 91.71745
        },
        "ad_info": {
            "adcode": 540127,
            "province": "西藏自治区",
            "city": "拉萨市",
            "district": "墨竹工卡县"
        }
    },
    {
        "id": "17103081833610992661",
        "title": "公共卫生间",
        "address": "西藏自治区拉萨市墨竹工卡县南京路与扎雪路交叉口正西方向222米左右",
        "tel": "",
        "category": "基础设施:公共设施:公共厕所",
        "type": 0,
        "location": {
            "lat": 29.839807,
            "lng": 91.731386
        },
        "ad_info": {
            "adcode": 540127,
            "province": "西藏自治区",
            "city": "拉萨市",
            "district": "墨竹工卡县"
        }
    },
    {
        "id": "4585801869110975953",
        "title": "公共厕所",
        "address": "西藏自治区拉萨市曲水县Y122与津贝路交叉口西南方向753米左右",
        "tel": "",
        "category": "基础设施:公共设施:公共厕所",
        "type": 0,
        "location": {
            "lat": 29.446931,
            "lng": 90.953769
        },
        "ad_info": {
            "adcode": 540124,
            "province": "西藏自治区",
            "city": "拉萨市",
            "district": "曲水县"
        }
    },
    {
        "id": "15755724193480797586",
        "title": "当雄服务区公共厕所",
        "address": "西藏自治区拉萨市当雄县G6京藏高速与当雄服务区交叉口西260米",
        "tel": "",
        "category": "基础设施:公共设施:公共厕所",
        "type": 0,
        "location": {
            "lat": 30.467383,
            "lng": 91.115649
        },
        "ad_info": {
            "adcode": 540122,
            "province": "西藏自治区",
            "city": "拉萨市",
            "district": "当雄县"
        }
    },
    {
        "id": "17519900398824595521",
        "title": "公共厕所",
        "address": "西藏自治区拉萨市城关区西藏藏医药大学(南门)东侧",
        "tel": "",
        "category": "基础设施:公共设施:公共厕所",
        "type": 0,
        "location": {
            "lat": 29.664834,
            "lng": 91.126905
        },
        "ad_info": {
            "adcode": 540102,
            "province": "西藏自治区",
            "city": "拉萨市",
            "district": "城关区"
        }
    },
    {
        "id": "9294804245597782213",
        "title": "公共卫生间",
        "address": "西藏自治区拉萨市林周县强嘎乡中心小学东北侧80米",
        "tel": "",
        "category": "基础设施:公共设施:公共厕所",
        "type": 0,
        "location": {
            "lat": 29.947201,
            "lng": 91.137558
        },
        "ad_info": {
            "adcode": 540121,
            "province": "西藏自治区",
            "city": "拉萨市",
            "district": "林周县"
        }
    },
    {
        "id": "10745597359683771501",
        "title": "公共厕所",
        "address": "西藏自治区拉萨市达孜区",
        "tel": "",
        "category": "基础设施:公共设施:公共厕所",
        "type": 0,
        "location": {
            "lat": 29.805054,
            "lng": 91.550247
        },
        "ad_info": {
            "adcode": 540104,
            "province": "西藏自治区",
            "city": "拉萨市",
            "district": "达孜区"
        }
    },
    {
        "id": "9064183477595679559",
        "title": "无障碍公共厕所",
        "address": "西藏自治区拉萨市城关区拉萨市环境保护局生活区南侧120米",
        "tel": "",
        "category": "基础设施:公共设施:公共厕所",
        "type": 0,
        "location": {
            "lat": 29.671022,
            "lng": 91.123598
        },
        "ad_info": {
            "adcode": 540102,
            "province": "西藏自治区",
            "city": "拉萨市",
            "district": "城关区"
        }
    },
    {
        "id": "5588087503881531724",
        "title": "公共厕所",
        "address": "西藏自治区拉萨市城关区东西大道与娘热南路交叉口东南方向35米左右",
        "tel": "",
        "category": "基础设施:公共设施:公共厕所",
        "type": 0,
        "location": {
            "lat": 29.66037,
            "lng": 91.124157
        },
        "ad_info": {
            "adcode": 540102,
            "province": "西藏自治区",
            "city": "拉萨市",
            "district": "城关区"
        }
    },
    {
        "id": "14627125122276766156",
        "title": "公共厕所",
        "address": "西藏自治区拉萨市城关区巴尔库路与当热西路交叉口西南方向11米左右",
        "tel": "",
        "category": "基础设施:公共设施:公共厕所",
        "type": 0,
        "location": {
            "lat": 29.671848,
            "lng": 91.118108
        },
        "ad_info": {
            "adcode": 540102,
            "province": "西藏自治区",
            "city": "拉萨市",
            "district": "城关区"
        }
    },
    {
        "id": "1857779654458042429",
        "title": "公共厕所",
        "address": "西藏自治区拉萨市当雄县109国道东50米",
        "tel": "",
        "category": "基础设施:公共设施:公共厕所",
        "type": 0,
        "location": {
            "lat": 30.263435,
            "lng": 90.679333
        },
        "ad_info": {
            "adcode": 540122,
            "province": "西藏自治区",
            "city": "拉萨市",
            "district": "当雄县"
        }
    },
    {
        "id": "10725878957904973708",
        "title": "公共厕所",
        "address": "西藏自治区拉萨市曲水县",
        "tel": "",
        "category": "基础设施:公共设施:公共厕所",
        "type": 0,
        "location": {
            "lat": 29.299524,
            "lng": 90.625251
        },
        "ad_info": {
            "adcode": 540124,
            "province": "西藏自治区",
            "city": "拉萨市",
            "district": "曲水县"
        }
    },
    {
        "id": "9440693985666310599",
        "title": "公共场所",
        "address": "西藏自治区拉萨市城关区罗布林卡路2号药王山观景台",
        "tel": "",
        "category": "基础设施:公共设施:公共厕所",
        "type": 0,
        "location": {
            "lat": 29.652295,
            "lng": 91.114875
        },
        "ad_info": {
            "adcode": 540102,
            "province": "西藏自治区",
            "city": "拉萨市",
            "district": "城关区"
        }
    },
    {
        "id": "13640475803856487522",
        "title": "公共厕所",
        "address": "西藏自治区拉萨市城关区团结路与雅砻路交叉口正南方向1440米左右",
        "tel": "",
        "category": "基础设施:公共设施:公共厕所",
        "type": 0,
        "location": {
            "lat": 29.607631,
            "lng": 91.251301
        },
        "ad_info": {
            "adcode": 540102,
            "province": "西藏自治区",
            "city": "拉萨市",
            "district": "城关区"
        }
    },
    {
        "id": "7664250633055913768",
        "title": "公共厕所",
        "address": "西藏自治区拉萨市墨竹工卡县帮堆路与直孔路交叉口正东方向124米左右",
        "tel": "",
        "category": "基础设施:公共设施:公共厕所",
        "type": 0,
        "location": {
            "lat": 29.837604,
            "lng": 91.730218
        },
        "ad_info": {
            "adcode": 540127,
            "province": "西藏自治区",
            "city": "拉萨市",
            "district": "墨竹工卡县"
        }
    },
    {
        "id": "14739208440074470684",
        "title": "卫生间",
        "address": "西藏自治区拉萨市城关区宇拓路8号百益百货F4",
        "tel": "",
        "category": "基础设施:公共设施:公共厕所",
        "type": 0,
        "location": {
            "lat": 29.649351,
            "lng": 91.123411
        },
        "ad_info": {
            "adcode": 540102,
            "province": "西藏自治区",
            "city": "拉萨市",
            "district": "城关区"
        }
    },
    {
        "id": "11168313742210210057",
        "title": "公共厕所",
        "address": "西藏自治区拉萨市当雄县余记老四川饭馆东北侧50米",
        "tel": "",
        "category": "基础设施:公共设施:公共厕所",
        "type": 0,
        "location": {
            "lat": 30.525675,
            "lng": 91.29323
        },
        "ad_info": {
            "adcode": 540122,
            "province": "西藏自治区",
            "city": "拉萨市",
            "district": "当雄县"
        }
    },
    {
        "id": "9491127347670485207",
        "title": "公共厕所",
        "address": "西藏自治区拉萨市城关区民族中路5号",
        "tel": "",
        "category": "基础设施:公共设施:公共厕所",
        "type": 0,
        "location": {
            "lat": 29.656354,
            "lng": 91.097458
        },
        "ad_info": {
            "adcode": 540102,
            "province": "西藏自治区",
            "city": "拉萨市",
            "district": "城关区"
        }
    },
    {
        "id": "17690253706258295045",
        "title": "公共厕所",
        "address": "西藏自治区拉萨市城关区江苏东路与贡布堂路交叉口西南方向312米左右",
        "tel": "",
        "category": "基础设施:公共设施:公共厕所",
        "type": 0,
        "location": {
            "lat": 29.642838,
            "lng": 91.147898
        },
        "ad_info": {
            "adcode": 540102,
            "province": "西藏自治区",
            "city": "拉萨市",
            "district": "城关区"
        }
    },
    {
        "id": "18331463766780816754",
        "title": "公共厕所",
        "address": "西藏自治区拉萨市城关区吉崩岗街道办事处卫生服务中心东南侧70米",
        "tel": "",
        "category": "基础设施:公共设施:公共厕所",
        "type": 0,
        "location": {
            "lat": 29.652996,
            "lng": 91.13424
        },
        "ad_info": {
            "adcode": 540102,
            "province": "西藏自治区",
            "city": "拉萨市",
            "district": "城关区"
        }
    },
    {
        "id": "14875913696384141321",
        "title": "公共厕所",
        "address": "西藏自治区拉萨市墨竹工卡县318国道与G4218林拉公路出口交叉口西120米",
        "tel": "",
        "category": "基础设施:公共设施:公共厕所",
        "type": 0,
        "location": {
            "lat": 29.833185,
            "lng": 91.71745
        },
        "ad_info": {
            "adcode": 540127,
            "province": "西藏自治区",
            "city": "拉萨市",
            "district": "墨竹工卡县"
        }
    },
    {
        "id": "17103081833610992661",
        "title": "公共卫生间",
        "address": "西藏自治区拉萨市墨竹工卡县南京路与扎雪路交叉口正西方向222米左右",
        "tel": "",
        "category": "基础设施:公共设施:公共厕所",
        "type": 0,
        "location": {
            "lat": 29.839807,
            "lng": 91.731386
        },
        "ad_info": {
            "adcode": 540127,
            "province": "西藏自治区",
            "city": "拉萨市",
            "district": "墨竹工卡县"
        }
    },
    {
        "id": "4585801869110975953",
        "title": "公共厕所",
        "address": "西藏自治区拉萨市曲水县Y122与津贝路交叉口西南方向753米左右",
        "tel": "",
        "category": "基础设施:公共设施:公共厕所",
        "type": 0,
        "location": {
            "lat": 29.446931,
            "lng": 90.953769
        },
        "ad_info": {
            "adcode": 540124,
            "province": "西藏自治区",
            "city": "拉萨市",
            "district": "曲水县"
        }
    },
    {
        "id": "15755724193480797586",
        "title": "当雄服务区公共厕所",
        "address": "西藏自治区拉萨市当雄县G6京藏高速与当雄服务区交叉口西260米",
        "tel": "",
        "category": "基础设施:公共设施:公共厕所",
        "type": 0,
        "location": {
            "lat": 30.467383,
            "lng": 91.115649
        },
        "ad_info": {
            "adcode": 540122,
            "province": "西藏自治区",
            "city": "拉萨市",
            "district": "当雄县"
        }
    },
    {
        "id": "17519900398824595521",
        "title": "公共厕所",
        "address": "西藏自治区拉萨市城关区西藏藏医药大学(南门)东侧",
        "tel": "",
        "category": "基础设施:公共设施:公共厕所",
        "type": 0,
        "location": {
            "lat": 29.664834,
            "lng": 91.126905
        },
        "ad_info": {
            "adcode": 540102,
            "province": "西藏自治区",
            "city": "拉萨市",
            "district": "城关区"
        }
    },
    {
        "id": "9294804245597782213",
        "title": "公共卫生间",
        "address": "西藏自治区拉萨市林周县强嘎乡中心小学东北侧80米",
        "tel": "",
        "category": "基础设施:公共设施:公共厕所",
        "type": 0,
        "location": {
            "lat": 29.947201,
            "lng": 91.137558
        },
        "ad_info": {
            "adcode": 540121,
            "province": "西藏自治区",
            "city": "拉萨市",
            "district": "林周县"
        }
    }
]