[
    {
        "id": "5437774074158886788",
        "title": "公共厕所",
        "address": "四川省攀枝花市东区金海开元名都大酒店-会议中心东侧90米",
        "tel": "",
        "category": "基础设施:公共设施:公共厕所",
        "type": 0,
        "location": {
            "lat": 26.558244,
            "lng": 101.727862
        },
        "ad_info": {
            "adcode": 510402,
            "province": "四川省",
            "city": "攀枝花市",
            "district": "东区"
        }
    },
    {
        "id": "12752735713735457292",
        "title": "公共厕所",
        "address": "四川省攀枝花市东区攀枝花大道东段与鸿运巷交叉口东南方向131米左右",
        "tel": "",
        "category": "基础设施:公共设施:公共厕所",
        "type": 0,
        "location": {
            "lat": 26.572731,
            "lng": 101.7324
        },
        "ad_info": {
            "adcode": 510402,
            "province": "四川省",
            "city": "攀枝花市",
            "district": "东区"
        }
    },
    {
        "id": "9182446135314918393",
        "title": "公共厕所",
        "address": "四川省攀枝花市东区学园路与攀枝花大道东段交叉口正北方向98米左右",
        "tel": "",
        "category": "基础设施:公共设施:公共厕所",
        "type": 0,
        "location": {
            "lat": 26.575136,
            "lng": 101.730698
        },
        "ad_info": {
            "adcode": 510402,
            "province": "四川省",
            "city": "攀枝花市",
            "district": "东区"
        }
    },
    {
        "id": "895645634587778601",
        "title": "公共厕所",
        "address": "四川省攀枝花市仁和区莲花路与迤沙拉大道交叉口正东方向76米左右",
        "tel": "",
        "category": "基础设施:公共设施:公共厕所",
        "type": 0,
        "location": {
            "lat": 26.474522,
            "lng": 101.751093
        },
        "ad_info": {
            "adcode": 510411,
            "province": "四川省",
            "city": "攀枝花市",
            "district": "仁和区"
        }
    },
    {
        "id": "2952201950919887233",
        "title": "南山公共厕所",
        "address": "四川省攀枝花市仁和区东亭巷与攀枝花大道中段交叉口正南方向324米左右",
        "tel": "",
        "category": "基础设施:公共设施:公共厕所",
        "type": 0,
        "location": {
            "lat": 26.545791,
            "lng": 101.699527
        },
        "ad_info": {
            "adcode": 510411,
            "province": "四川省",
            "city": "攀枝花市",
            "district": "仁和区"
        }
    },
    {
        "id": "11828816011538842497",
        "title": "公共厕所",
        "address": "四川省攀枝花市东区攀枝花大道中段与益华路交叉口西南方向57米左右",
        "tel": "",
        "category": "基础设施:公共设施:公共厕所",
        "type": 0,
        "location": {
            "lat": 26.542649,
            "lng": 101.708322
        },
        "ad_info": {
            "adcode": 510402,
            "province": "四川省",
            "city": "攀枝花市",
            "district": "东区"
        }
    },
    {
        "id": "6915861081714237290",
        "title": "公共厕所",
        "address": "四川省攀枝花市仁和区小河桥与正德街交叉口正东方向63米左右",
        "tel": "",
        "category": "基础设施:公共设施:公共厕所",
        "type": 0,
        "location": {
            "lat": 26.490032,
            "lng": 101.737196
        },
        "ad_info": {
            "adcode": 510411,
            "province": "四川省",
            "city": "攀枝花市",
            "district": "仁和区"
        }
    },
    {
        "id": "13985282223902089019",
        "title": "公共厕所",
        "address": "四川省攀枝花市东区文畅巷与炳草岗大街交叉口西北方向28米左右",
        "tel": "",
        "category": "基础设施:公共设施:公共厕所",
        "type": 0,
        "location": {
            "lat": 26.580404,
            "lng": 101.714491
        },
        "ad_info": {
            "adcode": 510402,
            "province": "四川省",
            "city": "攀枝花市",
            "district": "东区"
        }
    },
    {
        "id": "1103255125750242573",
        "title": "公共厕所",
        "address": "四川省攀枝花市东区机场路上恒大酒店",
        "tel": "",
        "category": "基础设施:公共设施:公共厕所",
        "type": 0,
        "location": {
            "lat": 26.558056,
            "lng": 101.729658
        },
        "ad_info": {
            "adcode": 510402,
            "province": "四川省",
            "city": "攀枝花市",
            "district": "东区"
        }
    },
    {
        "id": "9701363946773451288",
        "title": "公共厕所",
        "address": "四川省攀枝花市东区攀枝花大道东段与鸿海巷交叉口东南方向213米左右",
        "tel": "",
        "category": "基础设施:公共设施:公共厕所",
        "type": 0,
        "location": {
            "lat": 26.572083,
            "lng": 101.728172
        },
        "ad_info": {
            "adcode": 510402,
            "province": "四川省",
            "city": "攀枝花市",
            "district": "东区"
        }
    },
    {
        "id": "4523285497186124373",
        "title": "公共厕所",
        "address": "四川省攀枝花市米易县南街与顺墙南街交叉口正东方向177米左右",
        "tel": "",
        "category": "基础设施:公共设施:公共厕所",
        "type": 0,
        "location": {
            "lat": 26.881585,
            "lng": 102.112716
        },
        "ad_info": {
            "adcode": 510421,
            "province": "四川省",
            "city": "攀枝花市",
            "district": "米易县"
        }
    },
    {
        "id": "7207090955978572355",
        "title": "公共厕所",
        "address": "四川省攀枝花市仁和区土城南街与土城街交叉口东北方向86米左右",
        "tel": "",
        "category": "基础设施:公共设施:公共厕所",
        "type": 0,
        "location": {
            "lat": 26.490904,
            "lng": 101.740806
        },
        "ad_info": {
            "adcode": 510411,
            "province": "四川省",
            "city": "攀枝花市",
            "district": "仁和区"
        }
    },
    {
        "id": "12438136773710273654",
        "title": "公共厕所",
        "address": "四川省攀枝花市米易县胜利路与顺墙南街交叉口正北方向64米左右",
        "tel": "",
        "category": "基础设施:公共设施:公共厕所",
        "type": 0,
        "location": {
            "lat": 26.873308,
            "lng": 102.112124
        },
        "ad_info": {
            "adcode": 510421,
            "province": "四川省",
            "city": "攀枝花市",
            "district": "米易县"
        }
    },
    {
        "id": "16294373409670137036",
        "title": "公共厕所",
        "address": "四川省攀枝花市东区大渡口街与攀枝花大道中段交叉口正南方向138米左右",
        "tel": "",
        "category": "基础设施:公共设施:公共厕所",
        "type": 0,
        "location": {
            "lat": 26.551307,
            "lng": 101.699134
        },
        "ad_info": {
            "adcode": 510402,
            "province": "四川省",
            "city": "攀枝花市",
            "district": "东区"
        }
    },
    {
        "id": "18317325785871563005",
        "title": "公共厕所",
        "address": "四川省攀枝花市仁和区彩虹路与彩霞巷交叉口正南方向155米左右",
        "tel": "",
        "category": "基础设施:公共设施:公共厕所",
        "type": 0,
        "location": {
            "lat": 26.54362,
            "lng": 101.850952
        },
        "ad_info": {
            "adcode": 510411,
            "province": "四川省",
            "city": "攀枝花市",
            "district": "仁和区"
        }
    },
    {
        "id": "2510066264395028620",
        "title": "公共厕所",
        "address": "四川省攀枝花市东区阳平路与阳秋巷交叉口西南方向185米左右",
        "tel": "",
        "category": "基础设施:公共设施:公共厕所",
        "type": 0,
        "location": {
            "lat": 26.568641,
            "lng": 101.734724
        },
        "ad_info": {
            "adcode": 510402,
            "province": "四川省",
            "city": "攀枝花市",
            "district": "东区"
        }
    },
    {
        "id": "5604141999115721297",
        "title": "公共厕所",
        "address": "四川省攀枝花市仁和区国潮风情步行街与宝兴北街交叉口西南方向168米左右",
        "tel": "",
        "category": "基础设施:公共设施:公共厕所",
        "type": 0,
        "location": {
            "lat": 26.499825,
            "lng": 101.731461
        },
        "ad_info": {
            "adcode": 510411,
            "province": "四川省",
            "city": "攀枝花市",
            "district": "仁和区"
        }
    },
    {
        "id": "6274446100700939026",
        "title": "公共厕所",
        "address": "四川省攀枝花市盐边县南街与大笮路交叉口正南方向41米左右",
        "tel": "",
        "category": "基础设施:公共设施:公共厕所",
        "type": 0,
        "location": {
            "lat": 26.890081,
            "lng": 101.5087
        },
        "ad_info": {
            "adcode": 510422,
            "province": "四川省",
            "city": "攀枝花市",
            "district": "盐边县"
        }
    },
    {
        "id": "2307560487412336055",
        "title": "公共厕所",
        "address": "四川省攀枝花市东区农业路与马家田路交叉口正南方向595米左右",
        "tel": "",
        "category": "基础设施:公共设施:公共厕所",
        "type": 0,
        "location": {
            "lat": 26.539483,
            "lng": 101.770451
        },
        "ad_info": {
            "adcode": 510402,
            "province": "四川省",
            "city": "攀枝花市",
            "district": "东区"
        }
    },
    {
        "id": "9506185840661995159",
        "title": "公共厕所",
        "address": "四川省攀枝花市仁和区和苑路与土城南街交叉口正南方向158米左右",
        "tel": "",
        "category": "基础设施:公共设施:公共厕所",
        "type": 0,
        "location": {
            "lat": 26.486123,
            "lng": 101.741913
        },
        "ad_info": {
            "adcode": 510411,
            "province": "四川省",
            "city": "攀枝花市",
            "district": "仁和区"
        }
    },
    {
        "id": "17586841867497805921",
        "title": "公共厕所",
        "address": "四川省攀枝花市东区G353与木棉路交叉口正北方向98米左右",
        "tel": "",
        "category": "基础设施:公共设施:公共厕所",
        "type": 0,
        "location": {
            "lat": 26.555358,
            "lng": 101.697144
        },
        "ad_info": {
            "adcode": 510402,
            "province": "四川省",
            "city": "攀枝花市",
            "district": "东区"
        }
    },
    {
        "id": "4702006193691145217",
        "title": "公共厕所",
        "address": "四川省攀枝花市东区金宇巷与金福南街交叉口正西方向115米左右",
        "tel": "",
        "category": "基础设施:公共设施:公共厕所",
        "type": 0,
        "location": {
            "lat": 26.53687,
            "lng": 101.713615
        },
        "ad_info": {
            "adcode": 510402,
            "province": "四川省",
            "city": "攀枝花市",
            "district": "东区"
        }
    },
    {
        "id": "4365281648134333047",
        "title": "公共厕所",
        "address": "四川省攀枝花市东区湖光西街与湖滨路交叉口正西方向50米左右",
        "tel": "",
        "category": "基础设施:公共设施:公共厕所",
        "type": 0,
        "location": {
            "lat": 26.581087,
            "lng": 101.724854
        },
        "ad_info": {
            "adcode": 510402,
            "province": "四川省",
            "city": "攀枝花市",
            "district": "东区"
        }
    },
    {
        "id": "12658378209618773432",
        "title": "公共厕所",
        "address": "四川省攀枝花市西区苏铁西路与通江路交叉口东南方向86米左右",
        "tel": "",
        "category": "基础设施:公共设施:公共厕所",
        "type": 0,
        "location": {
            "lat": 26.59589,
            "lng": 101.544066
        },
        "ad_info": {
            "adcode": 510403,
            "province": "四川省",
            "city": "攀枝花市",
            "district": "西区"
        }
    },
    {
        "id": "14517778330993721682",
        "title": "公共厕所",
        "address": "四川省攀枝花市仁和区仁和街与土城街交叉口正南方向27米左右",
        "tel": "",
        "category": "基础设施:公共设施:公共厕所",
        "type": 0,
        "location": {
            "lat": 26.491615,
            "lng": 101.741565
        },
        "ad_info": {
            "adcode": 510411,
            "province": "四川省",
            "city": "攀枝花市",
            "district": "仁和区"
        }
    },
    {
        "id": "1130015935309850535",
        "title": "公共厕所",
        "address": "四川省攀枝花市东区弄弄坪东路与枣子坪下街交叉口东南方向57米左右",
        "tel": "",
        "category": "基础设施:公共设施:公共厕所",
        "type": 0,
        "location": {
            "lat": 26.570901,
            "lng": 101.698406
        },
        "ad_info": {
            "adcode": 510402,
            "province": "四川省",
            "city": "攀枝花市",
            "district": "东区"
        }
    },
    {
        "id": "7763652283390017955",
        "title": "公共厕所",
        "address": "四川省攀枝花市东区创力巷与弄弄坪中路交叉口正西方向143米左右",
        "tel": "",
        "category": "基础设施:公共设施:公共厕所",
        "type": 0,
        "location": {
            "lat": 26.564611,
            "lng": 101.692732
        },
        "ad_info": {
            "adcode": 510402,
            "province": "四川省",
            "city": "攀枝花市",
            "district": "东区"
        }
    },
    {
        "id": "11914964866340656782",
        "title": "公共厕所",
        "address": "四川省攀枝花市东区S214与金歇路交叉口东北方向53米左右",
        "tel": "",
        "category": "基础设施:公共设施:公共厕所",
        "type": 0,
        "location": {
            "lat": 26.575512,
            "lng": 101.706836
        },
        "ad_info": {
            "adcode": 510402,
            "province": "四川省",
            "city": "攀枝花市",
            "district": "东区"
        }
    },
    {
        "id": "2259892286499817582",
        "title": "公共厕所",
        "address": "四川省攀枝花市米易县攀莲镇贤家村米易东站站前广场",
        "tel": "",
        "category": "基础设施:公共设施:公共厕所",
        "type": 0,
        "location": {
            "lat": 26.905831,
            "lng": 102.129461
        },
        "ad_info": {
            "adcode": 510421,
            "province": "四川省",
            "city": "攀枝花市",
            "district": "米易县"
        }
    },
    {
        "id": "7640943767740897462",
        "title": "公共厕所",
        "address": "四川省攀枝花市仁和区同德巷与联通街交叉口正东方向92米左右",
        "tel": "",
        "category": "基础设施:公共设施:公共厕所",
        "type": 0,
        "location": {
            "lat": 26.4964,
            "lng": 101.734315
        },
        "ad_info": {
            "adcode": 510411,
            "province": "四川省",
            "city": "攀枝花市",
            "district": "仁和区"
        }
    },
    {
        "id": "8795265522991820469",
        "title": "公共厕所",
        "address": "四川省攀枝花市仁和区迤沙拉历史文化景区",
        "tel": "",
        "category": "基础设施:公共设施:公共厕所",
        "type": 0,
        "location": {
            "lat": 26.217847,
            "lng": 101.872556
        },
        "ad_info": {
            "adcode": 510411,
            "province": "四川省",
            "city": "攀枝花市",
            "district": "仁和区"
        }
    },
    {
        "id": "18442154586807874002",
        "title": "公共厕所",
        "address": "四川省攀枝花市东区公园路与文青巷交叉口西北方向47米左右",
        "tel": "",
        "category": "基础设施:公共设施:公共厕所",
        "type": 0,
        "location": {
            "lat": 26.57851,
            "lng": 101.717628
        },
        "ad_info": {
            "adcode": 510402,
            "province": "四川省",
            "city": "攀枝花市",
            "district": "东区"
        }
    },
    {
        "id": "17246279931324836937",
        "title": "公共厕所",
        "address": "四川省攀枝花市米易县南街与文体路交叉口正南方向76米左右",
        "tel": "",
        "category": "基础设施:公共设施:公共厕所",
        "type": 0,
        "location": {
            "lat": 26.883854,
            "lng": 102.109576
        },
        "ad_info": {
            "adcode": 510421,
            "province": "四川省",
            "city": "攀枝花市",
            "district": "米易县"
        }
    },
    {
        "id": "4001121576718735034",
        "title": "公共厕所",
        "address": "四川省攀枝花市仁和区四川机电职业技术学院(金江校区)北侧310米",
        "tel": "",
        "category": "基础设施:公共设施:公共厕所",
        "type": 0,
        "location": {
            "lat": 26.556282,
            "lng": 101.844437
        },
        "ad_info": {
            "adcode": 510411,
            "province": "四川省",
            "city": "攀枝花市",
            "district": "仁和区"
        }
    },
    {
        "id": "11319727724965454498",
        "title": "公共厕所",
        "address": "四川省攀枝花市米易县北街与城中街交叉口正西方向45米左右",
        "tel": "",
        "category": "基础设施:公共设施:公共厕所",
        "type": 0,
        "location": {
            "lat": 26.885808,
            "lng": 102.11031
        },
        "ad_info": {
            "adcode": 510421,
            "province": "四川省",
            "city": "攀枝花市",
            "district": "米易县"
        }
    },
    {
        "id": "8533544770469658320",
        "title": "公共厕所",
        "address": "四川省攀枝花市东区攀枝花大道中段与益达巷交叉口西南方向195米左右",
        "tel": "",
        "category": "基础设施:公共设施:公共厕所",
        "type": 0,
        "location": {
            "lat": 26.539856,
            "lng": 101.708754
        },
        "ad_info": {
            "adcode": 510402,
            "province": "四川省",
            "city": "攀枝花市",
            "district": "东区"
        }
    },
    {
        "id": "14847739887411506701",
        "title": "公共厕所",
        "address": "四川省攀枝花市东区机场路攀枝花公园东门北侧",
        "tel": "",
        "category": "基础设施:公共设施:公共厕所",
        "type": 0,
        "location": {
            "lat": 26.571496,
            "lng": 101.725291
        },
        "ad_info": {
            "adcode": 510402,
            "province": "四川省",
            "city": "攀枝花市",
            "district": "东区"
        }
    },
    {
        "id": "13434947682551055636",
        "title": "公共厕所",
        "address": "四川省攀枝花市米易县新民巷与新隆巷交叉口正北方向37米左右",
        "tel": "",
        "category": "基础设施:公共设施:公共厕所",
        "type": 0,
        "location": {
            "lat": 26.889012,
            "lng": 102.111612
        },
        "ad_info": {
            "adcode": 510421,
            "province": "四川省",
            "city": "攀枝花市",
            "district": "米易县"
        }
    },
    {
        "id": "6991052717661429319",
        "title": "公共厕所",
        "address": "四川省攀枝花市东区钢城大道东段与隆庆东路交叉口东北方向104米左右",
        "tel": "",
        "category": "基础设施:公共设施:公共厕所",
        "type": 0,
        "location": {
            "lat": 26.598935,
            "lng": 101.78741
        },
        "ad_info": {
            "adcode": 510402,
            "province": "四川省",
            "city": "攀枝花市",
            "district": "东区"
        }
    },
    {
        "id": "10346302102912275736",
        "title": "公共厕所",
        "address": "四川省攀枝花市西区建树巷与苏铁中路交叉口西南方向22米左右",
        "tel": "",
        "category": "基础设施:公共设施:公共厕所",
        "type": 0,
        "location": {
            "lat": 26.596989,
            "lng": 101.639036
        },
        "ad_info": {
            "adcode": 510403,
            "province": "四川省",
            "city": "攀枝花市",
            "district": "西区"
        }
    },
    {
        "id": "4128074842112536025",
        "title": "公共厕所",
        "address": "四川省攀枝花市米易县普林路与迎晖路交叉口西北方向160米左右",
        "tel": "",
        "category": "基础设施:公共设施:公共厕所",
        "type": 0,
        "location": {
            "lat": 26.892066,
            "lng": 102.104473
        },
        "ad_info": {
            "adcode": 510421,
            "province": "四川省",
            "city": "攀枝花市",
            "district": "米易县"
        }
    },
    {
        "id": "14436177424691693717",
        "title": "公共厕所",
        "address": "四川省攀枝花市仁和区同德巷与联通街交叉口东北方向108米左右",
        "tel": "",
        "category": "基础设施:公共设施:公共厕所",
        "type": 0,
        "location": {
            "lat": 26.496645,
            "lng": 101.734397
        },
        "ad_info": {
            "adcode": 510411,
            "province": "四川省",
            "city": "攀枝花市",
            "district": "仁和区"
        }
    },
    {
        "id": "11248727978759333148",
        "title": "公共厕所",
        "address": "四川省攀枝花市东区兰谱路与隆庆路交叉口西北方向58米左右",
        "tel": "",
        "category": "基础设施:公共设施:公共厕所",
        "type": 0,
        "location": {
            "lat": 26.602083,
            "lng": 101.732658
        },
        "ad_info": {
            "adcode": 510402,
            "province": "四川省",
            "city": "攀枝花市",
            "district": "东区"
        }
    },
    {
        "id": "4091605648616806396",
        "title": "公共厕所",
        "address": "四川省攀枝花市仁和区同德巷与联通街交叉口东北方向74米左右",
        "tel": "",
        "category": "基础设施:公共设施:公共厕所",
        "type": 0,
        "location": {
            "lat": 26.496592,
            "lng": 101.734051
        },
        "ad_info": {
            "adcode": 510411,
            "province": "四川省",
            "city": "攀枝花市",
            "district": "仁和区"
        }
    },
    {
        "id": "3678662215248136062",
        "title": "公共厕所",
        "address": "四川省攀枝花市东区佳运巷与钢城大道中段交叉口西北方向382米左右",
        "tel": "",
        "category": "基础设施:公共设施:公共厕所",
        "type": 0,
        "location": {
            "lat": 26.581125,
            "lng": 101.738935
        },
        "ad_info": {
            "adcode": 510402,
            "province": "四川省",
            "city": "攀枝花市",
            "district": "东区"
        }
    },
    {
        "id": "17813877835717082698",
        "title": "公共厕所",
        "address": "四川省攀枝花市东区钢城大道中段405号",
        "tel": "",
        "category": "基础设施:公共设施:公共厕所",
        "type": 0,
        "location": {
            "lat": 26.55508,
            "lng": 101.69715
        },
        "ad_info": {
            "adcode": 510402,
            "province": "四川省",
            "city": "攀枝花市",
            "district": "东区"
        }
    },
    {
        "id": "14604271018471114903",
        "title": "公共厕所",
        "address": "四川省攀枝花市仁和区华西巷与虹桥巷交叉口西南方向450米左右",
        "tel": "",
        "category": "基础设施:公共设施:公共厕所",
        "type": 0,
        "location": {
            "lat": 26.523387,
            "lng": 101.714477
        },
        "ad_info": {
            "adcode": 510411,
            "province": "四川省",
            "city": "攀枝花市",
            "district": "仁和区"
        }
    },
    {
        "id": "1355216730183591372",
        "title": "公共厕所",
        "address": "四川省攀枝花市米易县丙垭路与安禹路交叉口西北方向126米左右",
        "tel": "",
        "category": "基础设施:公共设施:公共厕所",
        "type": 0,
        "location": {
            "lat": 26.815681,
            "lng": 102.035131
        },
        "ad_info": {
            "adcode": 510421,
            "province": "四川省",
            "city": "攀枝花市",
            "district": "米易县"
        }
    },
    {
        "id": "1235459828785379265",
        "title": "公共厕所",
        "address": "四川省攀枝花市仁和区仁德路与迤沙拉大道交叉口东南方向202米左右",
        "tel": "",
        "category": "基础设施:公共设施:公共厕所",
        "type": 0,
        "location": {
            "lat": 26.484428,
            "lng": 101.741064
        },
        "ad_info": {
            "adcode": 510411,
            "province": "四川省",
            "city": "攀枝花市",
            "district": "仁和区"
        }
    },
    {
        "id": "16385793158724737305",
        "title": "公共厕所",
        "address": "四川省攀枝花市仁和区迤沙拉大道中国石油南山加油站",
        "tel": "",
        "category": "基础设施:公共设施:公共厕所",
        "type": 0,
        "location": {
            "lat": 26.546546,
            "lng": 101.698706
        },
        "ad_info": {
            "adcode": 510411,
            "province": "四川省",
            "city": "攀枝花市",
            "district": "仁和区"
        }
    },
    {
        "id": "14797146137879937876",
        "title": "公共厕所",
        "address": "四川省攀枝花市仁和区小河桥与正德街交叉口正东方向19米左右",
        "tel": "",
        "category": "基础设施:公共设施:公共厕所",
        "type": 0,
        "location": {
            "lat": 26.489936,
            "lng": 101.736767
        },
        "ad_info": {
            "adcode": 510411,
            "province": "四川省",
            "city": "攀枝花市",
            "district": "仁和区"
        }
    },
    {
        "id": "7141264214698034182",
        "title": "公共厕所",
        "address": "四川省攀枝花市盐边县G227与大坪地三号桥交叉口正北方向65米左右",
        "tel": "",
        "category": "基础设施:公共设施:公共厕所",
        "type": 0,
        "location": {
            "lat": 26.6934,
            "lng": 101.850679
        },
        "ad_info": {
            "adcode": 510422,
            "province": "四川省",
            "city": "攀枝花市",
            "district": "盐边县"
        }
    },
    {
        "id": "17195427656060538848",
        "title": "公共厕所",
        "address": "四川省攀枝花市米易县中国邮政(得石邮政代办所)西北侧150米",
        "tel": "",
        "category": "基础设施:公共设施:公共厕所",
        "type": 0,
        "location": {
            "lat": 26.753766,
            "lng": 101.839467
        },
        "ad_info": {
            "adcode": 510421,
            "province": "四川省",
            "city": "攀枝花市",
            "district": "米易县"
        }
    },
    {
        "id": "16479165067708560561",
        "title": "公共厕所",
        "address": "四川省攀枝花市东区乐民巷与钢城大道东段交叉口正西方向154米左右",
        "tel": "",
        "category": "基础设施:公共设施:公共厕所",
        "type": 0,
        "location": {
            "lat": 26.600685,
            "lng": 101.792015
        },
        "ad_info": {
            "adcode": 510402,
            "province": "四川省",
            "city": "攀枝花市",
            "district": "东区"
        }
    },
    {
        "id": "8135471191992524478",
        "title": "公共厕所",
        "address": "四川省攀枝花市仁和区宝兴北街与联通街交叉口西南方向180米左右",
        "tel": "",
        "category": "基础设施:公共设施:公共厕所",
        "type": 0,
        "location": {
            "lat": 26.497786,
            "lng": 101.734142
        },
        "ad_info": {
            "adcode": 510411,
            "province": "四川省",
            "city": "攀枝花市",
            "district": "仁和区"
        }
    },
    {
        "id": "6212963426526833773",
        "title": "公共厕所",
        "address": "四川省攀枝花市东区金沙江大道东段中国石油倮果桥加油站",
        "tel": "",
        "category": "基础设施:公共设施:公共厕所",
        "type": 0,
        "location": {
            "lat": 26.594163,
            "lng": 101.783179
        },
        "ad_info": {
            "adcode": 510402,
            "province": "四川省",
            "city": "攀枝花市",
            "district": "东区"
        }
    },
    {
        "id": "5993020238980450375",
        "title": "公共厕所",
        "address": "四川省攀枝花市仁和区宝灵寺巷与迤沙拉大道交叉口正东方向303米左右",
        "tel": "",
        "category": "基础设施:公共设施:公共厕所",
        "type": 0,
        "location": {
            "lat": 26.503899,
            "lng": 101.725975
        },
        "ad_info": {
            "adcode": 510411,
            "province": "四川省",
            "city": "攀枝花市",
            "district": "仁和区"
        }
    },
    {
        "id": "9330724378658198280",
        "title": "公共厕所",
        "address": "四川省攀枝花市西区康家中路与清香坪街交叉口正东方向51米左右",
        "tel": "",
        "category": "基础设施:公共设施:公共厕所",
        "type": 0,
        "location": {
            "lat": 26.591419,
            "lng": 101.634581
        },
        "ad_info": {
            "adcode": 510403,
            "province": "四川省",
            "city": "攀枝花市",
            "district": "西区"
        }
    },
    {
        "id": "14895505766374075714",
        "title": "公共厕所",
        "address": "四川省攀枝花市仁和区正兴巷与正通巷交叉口正北方向21米左右",
        "tel": "",
        "category": "基础设施:公共设施:公共厕所",
        "type": 0,
        "location": {
            "lat": 26.49515,
            "lng": 101.737799
        },
        "ad_info": {
            "adcode": 510411,
            "province": "四川省",
            "city": "攀枝花市",
            "district": "仁和区"
        }
    },
    {
        "id": "8656372673975762059",
        "title": "公共厕所",
        "address": "四川省攀枝花市米易县S214与学府路上段交叉口正南方向553米左右",
        "tel": "",
        "category": "基础设施:公共设施:公共厕所",
        "type": 0,
        "location": {
            "lat": 27.052817,
            "lng": 102.175179
        },
        "ad_info": {
            "adcode": 510421,
            "province": "四川省",
            "city": "攀枝花市",
            "district": "米易县"
        }
    },
    {
        "id": "1988749190306242974",
        "title": "公共厕所",
        "address": "四川省攀枝花市米易县盐米路原海事所",
        "tel": "",
        "category": "基础设施:公共设施:公共厕所",
        "type": 0,
        "location": {
            "lat": 27.114725,
            "lng": 101.908257
        },
        "ad_info": {
            "adcode": 510421,
            "province": "四川省",
            "city": "攀枝花市",
            "district": "米易县"
        }
    },
    {
        "id": "15719563511788615358",
        "title": "公共厕所",
        "address": "四川省攀枝花市仁和区攀枝花大道南段1536号",
        "tel": "",
        "category": "基础设施:公共设施:公共厕所",
        "type": 0,
        "location": {
            "lat": 26.49316,
            "lng": 101.741391
        },
        "ad_info": {
            "adcode": 510411,
            "province": "四川省",
            "city": "攀枝花市",
            "district": "仁和区"
        }
    },
    {
        "id": "512062806556686049",
        "title": "公共厕所",
        "address": "四川省攀枝花市东区机场路",
        "tel": "",
        "category": "基础设施:公共设施:公共厕所",
        "type": 0,
        "location": {
            "lat": 26.525312,
            "lng": 101.784816
        },
        "ad_info": {
            "adcode": 510402,
            "province": "四川省",
            "city": "攀枝花市",
            "district": "东区"
        }
    },
    {
        "id": "16520880843724096634",
        "title": "公共厕所",
        "address": "四川省攀枝花市仁和区227国道与G5京昆高速入口交叉口北240米",
        "tel": "",
        "category": "基础设施:公共设施:公共厕所",
        "type": 0,
        "location": {
            "lat": 26.309862,
            "lng": 101.781556
        },
        "ad_info": {
            "adcode": 510411,
            "province": "四川省",
            "city": "攀枝花市",
            "district": "仁和区"
        }
    },
    {
        "id": "12966078133700206585",
        "title": "公共厕所",
        "address": "四川省攀枝花市仁和区G108与平地街交叉口正西方向53米左右",
        "tel": "",
        "category": "基础设施:公共设施:公共厕所",
        "type": 0,
        "location": {
            "lat": 26.196112,
            "lng": 101.830802
        },
        "ad_info": {
            "adcode": 510411,
            "province": "四川省",
            "city": "攀枝花市",
            "district": "仁和区"
        }
    },
    {
        "id": "1058032790288828216",
        "title": "公共厕所",
        "address": "四川省攀枝花市盐边县红格国际艺术创作营西北侧90米",
        "tel": "",
        "category": "基础设施:公共设施:公共厕所",
        "type": 0,
        "location": {
            "lat": 26.560085,
            "lng": 101.941994
        },
        "ad_info": {
            "adcode": 510422,
            "province": "四川省",
            "city": "攀枝花市",
            "district": "盐边县"
        }
    },
    {
        "id": "1820353960172910537",
        "title": "公共厕所",
        "address": "四川省攀枝花市米易县李三妹餐馆西南侧",
        "tel": "",
        "category": "基础设施:公共设施:公共厕所",
        "type": 0,
        "location": {
            "lat": 26.817206,
            "lng": 102.072569
        },
        "ad_info": {
            "adcode": 510421,
            "province": "四川省",
            "city": "攀枝花市",
            "district": "米易县"
        }
    },
    {
        "id": "17290085600073064348",
        "title": "公共厕所",
        "address": "四川省攀枝花市仁和区仁和街与土城街交叉口正南方向49米左右",
        "tel": "",
        "category": "基础设施:公共设施:公共厕所",
        "type": 0,
        "location": {
            "lat": 26.491447,
            "lng": 101.741313
        },
        "ad_info": {
            "adcode": 510411,
            "province": "四川省",
            "city": "攀枝花市",
            "district": "仁和区"
        }
    },
    {
        "id": "6423101489664467415",
        "title": "公共厕所",
        "address": "四川省攀枝花市米易县盐米路与迎宾大道交叉口正南方向297米左右",
        "tel": "",
        "category": "基础设施:公共设施:公共厕所",
        "type": 0,
        "location": {
            "lat": 26.89996,
            "lng": 102.112141
        },
        "ad_info": {
            "adcode": 510421,
            "province": "四川省",
            "city": "攀枝花市",
            "district": "米易县"
        }
    },
    {
        "id": "3501854838030649467",
        "title": "公共厕所",
        "address": "四川省攀枝花市仁和区仁拉路与土城街交叉口正北方向37米左右",
        "tel": "",
        "category": "基础设施:公共设施:公共厕所",
        "type": 0,
        "location": {
            "lat": 26.489825,
            "lng": 101.737946
        },
        "ad_info": {
            "adcode": 510411,
            "province": "四川省",
            "city": "攀枝花市",
            "district": "仁和区"
        }
    },
    {
        "id": "9144194531677542765",
        "title": "公共厕所",
        "address": "四川省攀枝花市米易县大坪北路与大坪环路交叉口正南方向124米左右",
        "tel": "",
        "category": "基础设施:公共设施:公共厕所",
        "type": 0,
        "location": {
            "lat": 26.889769,
            "lng": 102.10199
        },
        "ad_info": {
            "adcode": 510421,
            "province": "四川省",
            "city": "攀枝花市",
            "district": "米易县"
        }
    },
    {
        "id": "2999151668179890373",
        "title": "公共厕所",
        "address": "四川省攀枝花市米易县利民路与顺墙北街交叉口正南方向46米左右",
        "tel": "",
        "category": "基础设施:公共设施:公共厕所",
        "type": 0,
        "location": {
            "lat": 26.89571,
            "lng": 102.118608
        },
        "ad_info": {
            "adcode": 510421,
            "province": "四川省",
            "city": "攀枝花市",
            "district": "米易县"
        }
    },
    {
        "id": "11948295685994921011",
        "title": "公共厕所",
        "address": "四川省攀枝花市西区春益巷与苏铁中路交叉口西南方向115米左右",
        "tel": "",
        "category": "基础设施:公共设施:公共厕所",
        "type": 0,
        "location": {
            "lat": 26.599031,
            "lng": 101.615862
        },
        "ad_info": {
            "adcode": 510403,
            "province": "四川省",
            "city": "攀枝花市",
            "district": "西区"
        }
    },
    {
        "id": "12950974725153513888",
        "title": "公共厕所",
        "address": "四川省攀枝花市仁和区横五路与那总路交叉口东南方向848米左右",
        "tel": "",
        "category": "基础设施:公共设施:公共厕所",
        "type": 0,
        "location": {
            "lat": 26.449833,
            "lng": 101.763461
        },
        "ad_info": {
            "adcode": 510411,
            "province": "四川省",
            "city": "攀枝花市",
            "district": "仁和区"
        }
    },
    {
        "id": "5861503665494635173",
        "title": "公共厕所",
        "address": "四川省攀枝花市仁和区",
        "tel": "",
        "category": "基础设施:公共设施:公共厕所",
        "type": 0,
        "location": {
            "lat": 26.53509,
            "lng": 101.795775
        },
        "ad_info": {
            "adcode": 510411,
            "province": "四川省",
            "city": "攀枝花市",
            "district": "仁和区"
        }
    },
    {
        "id": "1891036686862728934",
        "title": "公共厕所",
        "address": "四川省攀枝花市西区清香坪东街与苏铁中路交叉口西南方向58米左右",
        "tel": "",
        "category": "基础设施:公共设施:公共厕所",
        "type": 0,
        "location": {
            "lat": 26.59653,
            "lng": 101.63992
        },
        "ad_info": {
            "adcode": 510403,
            "province": "四川省",
            "city": "攀枝花市",
            "district": "西区"
        }
    },
    {
        "id": "16851433432540567631",
        "title": "公共厕所",
        "address": "四川省攀枝花市东区五十四菜市场底楼",
        "tel": "",
        "category": "基础设施:公共设施:公共厕所",
        "type": 0,
        "location": {
            "lat": 26.536919,
            "lng": 101.712587
        },
        "ad_info": {
            "adcode": 510402,
            "province": "四川省",
            "city": "攀枝花市",
            "district": "东区"
        }
    },
    {
        "id": "686591428541716433",
        "title": "公共厕所",
        "address": "四川省攀枝花市米易县盐米路与迎宾大道交叉口正东方向45米左右",
        "tel": "",
        "category": "基础设施:公共设施:公共厕所",
        "type": 0,
        "location": {
            "lat": 26.902417,
            "lng": 102.113691
        },
        "ad_info": {
            "adcode": 510421,
            "province": "四川省",
            "city": "攀枝花市",
            "district": "米易县"
        }
    },
    {
        "id": "17348021754105723795",
        "title": "公共厕所",
        "address": "四川省攀枝花市盐边县昔格达大道与红格大道交叉口西南方向579米左右",
        "tel": "",
        "category": "基础设施:公共设施:公共厕所",
        "type": 0,
        "location": {
            "lat": 26.528248,
            "lng": 101.932588
        },
        "ad_info": {
            "adcode": 510422,
            "province": "四川省",
            "city": "攀枝花市",
            "district": "盐边县"
        }
    },
    {
        "id": "18385501320938965248",
        "title": "公共厕所",
        "address": "四川省攀枝花市仁和区太安巷与太平南路交叉口正南方向290米左右",
        "tel": "",
        "category": "基础设施:公共设施:公共厕所",
        "type": 0,
        "location": {
            "lat": 26.555074,
            "lng": 101.57133
        },
        "ad_info": {
            "adcode": 510411,
            "province": "四川省",
            "city": "攀枝花市",
            "district": "仁和区"
        }
    },
    {
        "id": "337634976002955416",
        "title": "公共厕所",
        "address": "四川省攀枝花市盐边县红格大道与红格街交叉口东南方向85米左右",
        "tel": "",
        "category": "基础设施:公共设施:公共厕所",
        "type": 0,
        "location": {
            "lat": 26.535512,
            "lng": 101.928747
        },
        "ad_info": {
            "adcode": 510422,
            "province": "四川省",
            "city": "攀枝花市",
            "district": "盐边县"
        }
    },
    {
        "id": "1999767708883613818",
        "title": "公共厕所",
        "address": "四川省攀枝花市仁和区216省道西50米",
        "tel": "",
        "category": "基础设施:公共设施:公共厕所",
        "type": 0,
        "location": {
            "lat": 26.659918,
            "lng": 101.577745
        },
        "ad_info": {
            "adcode": 510411,
            "province": "四川省",
            "city": "攀枝花市",
            "district": "仁和区"
        }
    },
    {
        "id": "16773677937256033186",
        "title": "公共厕所",
        "address": "四川省攀枝花市西区格萨拉大道与玉泉巷交叉口正北方向255米左右",
        "tel": "",
        "category": "基础设施:公共设施:公共厕所",
        "type": 0,
        "location": {
            "lat": 26.603142,
            "lng": 101.627827
        },
        "ad_info": {
            "adcode": 510403,
            "province": "四川省",
            "city": "攀枝花市",
            "district": "西区"
        }
    },
    {
        "id": "7703926729620290476",
        "title": "公共厕所",
        "address": "四川省攀枝花市盐边县新街与老街交叉口西南方向32米左右",
        "tel": "",
        "category": "基础设施:公共设施:公共厕所",
        "type": 0,
        "location": {
            "lat": 26.935457,
            "lng": 101.453773
        },
        "ad_info": {
            "adcode": 510422,
            "province": "四川省",
            "city": "攀枝花市",
            "district": "盐边县"
        }
    },
    {
        "id": "4951421084019077431",
        "title": "公共厕所",
        "address": "四川省攀枝花市西区百叶巷与苏铁中路交叉口西北方向57米左右",
        "tel": "",
        "category": "基础设施:公共设施:公共厕所",
        "type": 0,
        "location": {
            "lat": 26.597801,
            "lng": 101.629262
        },
        "ad_info": {
            "adcode": 510403,
            "province": "四川省",
            "city": "攀枝花市",
            "district": "西区"
        }
    },
    {
        "id": "9034035464554645406",
        "title": "公共厕所",
        "address": "四川省攀枝花市盐边县Y016与盐择路交叉口正东方向283米左右",
        "tel": "",
        "category": "基础设施:公共设施:公共厕所",
        "type": 0,
        "location": {
            "lat": 26.884226,
            "lng": 101.687177
        },
        "ad_info": {
            "adcode": 510422,
            "province": "四川省",
            "city": "攀枝花市",
            "district": "盐边县"
        }
    },
    {
        "id": "8926208469501554083",
        "title": "洗手间",
        "address": "四川省攀枝花市东区商业街与德阳巷交叉口东南方向77米左右",
        "tel": "",
        "category": "基础设施:公共设施:公共厕所",
        "type": 0,
        "location": {
            "lat": 26.580213,
            "lng": 101.717982
        },
        "ad_info": {
            "adcode": 510402,
            "province": "四川省",
            "city": "攀枝花市",
            "district": "东区"
        }
    },
    {
        "id": "10912917441183512616",
        "title": "公共厕所",
        "address": "四川省攀枝花市西区建福巷与格萨拉大道交叉口正西方向137米左右",
        "tel": "",
        "category": "基础设施:公共设施:公共厕所",
        "type": 0,
        "location": {
            "lat": 26.601407,
            "lng": 101.630142
        },
        "ad_info": {
            "adcode": 510403,
            "province": "四川省",
            "city": "攀枝花市",
            "district": "西区"
        }
    },
    {
        "id": "16868296710559033856",
        "title": "公共厕所",
        "address": "四川省攀枝花市盐边县安宁西路与西干道交叉口正西方向1013米左右",
        "tel": "",
        "category": "基础设施:公共设施:公共厕所",
        "type": 0,
        "location": {
            "lat": 26.584307,
            "lng": 101.835828
        },
        "ad_info": {
            "adcode": 510422,
            "province": "四川省",
            "city": "攀枝花市",
            "district": "盐边县"
        }
    },
    {
        "id": "8223050815870317762",
        "title": "公共厕所",
        "address": "四川省攀枝花市东区商业街与炳草岗商业步行街交叉口正西方向70米左右",
        "tel": "",
        "category": "基础设施:公共设施:公共厕所",
        "type": 0,
        "location": {
            "lat": 26.579506,
            "lng": 101.716725
        },
        "ad_info": {
            "adcode": 510402,
            "province": "四川省",
            "city": "攀枝花市",
            "district": "东区"
        }
    },
    {
        "id": "13767242375770100306",
        "title": "公共厕所",
        "address": "四川省攀枝花市西区苏铁西路与龙门巷交叉口正北方向653米左右",
        "tel": "",
        "category": "基础设施:公共设施:公共厕所",
        "type": 0,
        "location": {
            "lat": 26.617335,
            "lng": 101.519314
        },
        "ad_info": {
            "adcode": 510403,
            "province": "四川省",
            "city": "攀枝花市",
            "district": "西区"
        }
    },
    {
        "id": "8740344043327578283",
        "title": "公共厕所",
        "address": "四川省攀枝花市西区Y0403室",
        "tel": "",
        "category": "基础设施:公共设施:公共厕所",
        "type": 0,
        "location": {
            "lat": 26.585291,
            "lng": 101.607781
        },
        "ad_info": {
            "adcode": 510403,
            "province": "四川省",
            "city": "攀枝花市",
            "district": "西区"
        }
    },
    {
        "id": "4616152338695473900",
        "title": "公共厕所",
        "address": "四川省攀枝花市盐边县S216",
        "tel": "",
        "category": "基础设施:公共设施:公共厕所",
        "type": 0,
        "location": {
            "lat": 27.179045,
            "lng": 101.266235
        },
        "ad_info": {
            "adcode": 510422,
            "province": "四川省",
            "city": "攀枝花市",
            "district": "盐边县"
        }
    },
    {
        "id": "4865995500763618180",
        "title": "公共厕所",
        "address": "四川省攀枝花市西区苏铁西路与龙门巷交叉口东南方向551米左右",
        "tel": "",
        "category": "基础设施:公共设施:公共厕所",
        "type": 0,
        "location": {
            "lat": 26.600762,
            "lng": 101.528026
        },
        "ad_info": {
            "adcode": 510403,
            "province": "四川省",
            "city": "攀枝花市",
            "district": "西区"
        }
    },
    {
        "id": "4490284591806407809",
        "title": "公共厕所",
        "address": "四川省攀枝花市盐边县S216与望月路交叉口西北方向28米左右",
        "tel": "",
        "category": "基础设施:公共设施:公共厕所",
        "type": 0,
        "location": {
            "lat": 26.896212,
            "lng": 101.524898
        },
        "ad_info": {
            "adcode": 510422,
            "province": "四川省",
            "city": "攀枝花市",
            "district": "盐边县"
        }
    },
    {
        "id": "14238999888535661627",
        "title": "公共厕所",
        "address": "四川省攀枝花市仁和区宝兴南街与怡景巷交叉口正北方向62米左右",
        "tel": "",
        "category": "基础设施:公共设施:公共厕所",
        "type": 0,
        "location": {
            "lat": 26.497022,
            "lng": 101.737498
        },
        "ad_info": {
            "adcode": 510411,
            "province": "四川省",
            "city": "攀枝花市",
            "district": "仁和区"
        }
    },
    {
        "id": "5935517986726246401",
        "title": "公共厕所",
        "address": "四川省攀枝花市东区攀枝花大道东段与隆庆路交叉口正西方向67米左右",
        "tel": "",
        "category": "基础设施:公共设施:公共厕所",
        "type": 0,
        "location": {
            "lat": 26.570886,
            "lng": 101.749643
        },
        "ad_info": {
            "adcode": 510402,
            "province": "四川省",
            "city": "攀枝花市",
            "district": "东区"
        }
    },
    {
        "id": "15341808928570540816",
        "title": "公共厕所",
        "address": "四川省攀枝花市西区和平巷与河门口北街交叉口正东方向231米左右",
        "tel": "",
        "category": "基础设施:公共设施:公共厕所",
        "type": 0,
        "location": {
            "lat": 26.593957,
            "lng": 101.596323
        },
        "ad_info": {
            "adcode": 510403,
            "province": "四川省",
            "city": "攀枝花市",
            "district": "西区"
        }
    },
    {
        "id": "50293790341204729",
        "title": "公共厕所",
        "address": "四川省攀枝花市东区木棉路与长寿路交叉口西南方向107米左右",
        "tel": "",
        "category": "基础设施:公共设施:公共厕所",
        "type": 0,
        "location": {
            "lat": 26.568633,
            "lng": 101.702082
        },
        "ad_info": {
            "adcode": 510402,
            "province": "四川省",
            "city": "攀枝花市",
            "district": "东区"
        }
    },
    {
        "id": "7358110657742637742",
        "title": "公共厕所",
        "address": "四川省攀枝花市东区攀枝花大道中段与渡口立交一号桥交叉口正南方向81米左右",
        "tel": "",
        "category": "基础设施:公共设施:公共厕所",
        "type": 0,
        "location": {
            "lat": 26.554877,
            "lng": 101.700951
        },
        "ad_info": {
            "adcode": 510402,
            "province": "四川省",
            "city": "攀枝花市",
            "district": "东区"
        }
    },
    {
        "id": "17704419930388395932",
        "title": "公共厕所",
        "address": "四川省攀枝花市东区密地社区卫生服务中心(隆庆路北)",
        "tel": "",
        "category": "基础设施:公共设施:公共厕所",
        "type": 0,
        "location": {
            "lat": 26.581286,
            "lng": 101.750939
        },
        "ad_info": {
            "adcode": 510402,
            "province": "四川省",
            "city": "攀枝花市",
            "district": "东区"
        }
    },
    {
        "id": "15074849400942820811",
        "title": "巴斯菁公共厕所",
        "address": "四川省攀枝花市仁和区攀枝花大道南段与乐通路交叉口东南40米",
        "tel": "",
        "category": "基础设施:公共设施:公共厕所",
        "type": 0,
        "location": {
            "lat": 26.530145,
            "lng": 101.718905
        },
        "ad_info": {
            "adcode": 510411,
            "province": "四川省",
            "city": "攀枝花市",
            "district": "仁和区"
        }
    },
    {
        "id": "12937452072527499127",
        "title": "初心园公共厕所",
        "address": "四川省攀枝花市西区和平巷与河门口北街交叉口东北方向117米左右",
        "tel": "",
        "category": "基础设施:公共设施:公共厕所",
        "type": 0,
        "location": {
            "lat": 26.594757,
            "lng": 101.595026
        },
        "ad_info": {
            "adcode": 510403,
            "province": "四川省",
            "city": "攀枝花市",
            "district": "西区"
        }
    },
    {
        "id": "15026866773026042639",
        "title": "收费厕所",
        "address": "四川省攀枝花市米易县G227与文体路交叉口正南方向97米左右",
        "tel": "",
        "category": "基础设施:公共设施:公共厕所",
        "type": 0,
        "location": {
            "lat": 26.885133,
            "lng": 102.107543
        },
        "ad_info": {
            "adcode": 510421,
            "province": "四川省",
            "city": "攀枝花市",
            "district": "米易县"
        }
    },
    {
        "id": "9627973997037950317",
        "title": "公共厕所",
        "address": "四川省攀枝花市仁和区普达南路与炳仁路交叉口正南方向369米左右",
        "tel": "",
        "category": "基础设施:公共设施:公共厕所",
        "type": 0,
        "location": {
            "lat": 26.500072,
            "lng": 101.720351
        },
        "ad_info": {
            "adcode": 510411,
            "province": "四川省",
            "city": "攀枝花市",
            "district": "仁和区"
        }
    },
    {
        "id": "9086912126156565412",
        "title": "新视窗酒店连锁(攀枝花大道东段辅路)-洗手间",
        "address": "四川省攀枝花市东区攀枝花大道东段与竹雅巷交叉口正东方向53米左右",
        "tel": "",
        "category": "基础设施:公共设施:公共厕所",
        "type": 0,
        "location": {
            "lat": 26.576966,
            "lng": 101.724896
        },
        "ad_info": {
            "adcode": 510402,
            "province": "四川省",
            "city": "攀枝花市",
            "district": "东区"
        }
    },
    {
        "id": "6328312508542264317",
        "title": "公共厕所",
        "address": "四川省攀枝花市仁和区五摩路与迤沙拉大道交叉口正北方向31米左右",
        "tel": "",
        "category": "基础设施:公共设施:公共厕所",
        "type": 0,
        "location": {
            "lat": 26.534937,
            "lng": 101.70573
        },
        "ad_info": {
            "adcode": 510411,
            "province": "四川省",
            "city": "攀枝花市",
            "district": "仁和区"
        }
    },
    {
        "id": "10625689509317121465",
        "title": "攀枝花南服务区公共厕所",
        "address": "四川省攀枝花市仁和区攀大高速入口与攀枝花南服务区交叉口东北80米",
        "tel": "",
        "category": "基础设施:公共设施:公共厕所",
        "type": 0,
        "location": {
            "lat": 26.437033,
            "lng": 101.757574
        },
        "ad_info": {
            "adcode": 510411,
            "province": "四川省",
            "city": "攀枝花市",
            "district": "仁和区"
        }
    },
    {
        "id": "12847340303634521715",
        "title": "攀枝花服务区公共厕所",
        "address": "四川省攀枝花市盐边县G5京昆高速出口与攀枝花服务区交叉口西北100米",
        "tel": "",
        "category": "基础设施:公共设施:公共厕所",
        "type": 0,
        "location": {
            "lat": 26.576461,
            "lng": 101.870185
        },
        "ad_info": {
            "adcode": 510422,
            "province": "四川省",
            "city": "攀枝花市",
            "district": "盐边县"
        }
    },
    {
        "id": "13072754143678481836",
        "title": "攀枝花服务区公共厕所",
        "address": "四川省攀枝花市盐边县安宁路与钒钛大道交叉口正东方向1129米左右",
        "tel": "",
        "category": "基础设施:公共设施:公共厕所",
        "type": 0,
        "location": {
            "lat": 26.575043,
            "lng": 101.869711
        },
        "ad_info": {
            "adcode": 510422,
            "province": "四川省",
            "city": "攀枝花市",
            "district": "盐边县"
        }
    },
    {
        "id": "7955476143874375854",
        "title": "怡景阳光公共厕所",
        "address": "四川省攀枝花市仁和区仁和街与怡景巷交叉口正南方向33米左右",
        "tel": "",
        "category": "基础设施:公共设施:公共厕所",
        "type": 0,
        "location": {
            "lat": 26.496674,
            "lng": 101.738758
        },
        "ad_info": {
            "adcode": 510411,
            "province": "四川省",
            "city": "攀枝花市",
            "district": "仁和区"
        }
    },
    {
        "id": "12955309489658702192",
        "title": "大田停车区公共厕所",
        "address": "四川省攀枝花市仁和区G5京昆高速与大田停车区交叉口东北100米",
        "tel": "",
        "category": "基础设施:公共设施:公共厕所",
        "type": 0,
        "location": {
            "lat": 26.293268,
            "lng": 101.782849
        },
        "ad_info": {
            "adcode": 510411,
            "province": "四川省",
            "city": "攀枝花市",
            "district": "仁和区"
        }
    },
    {
        "id": "17807746405414244488",
        "title": "怡景阳光公共厕所",
        "address": "四川省攀枝花市仁和区同安巷怡景阳光小区",
        "tel": "",
        "category": "基础设施:公共设施:公共厕所",
        "type": 0,
        "location": {
            "lat": 26.496422,
            "lng": 101.738919
        },
        "ad_info": {
            "adcode": 510411,
            "province": "四川省",
            "city": "攀枝花市",
            "district": "仁和区"
        }
    },
    {
        "id": "6000047331458927321",
        "title": "东风小学旁公共厕所",
        "address": "四川省攀枝花市仁和区攀枝花大道南段与川沙路交叉口西北60米",
        "tel": "",
        "category": "基础设施:公共设施:公共厕所",
        "type": 0,
        "location": {
            "lat": 26.498067,
            "lng": 101.738982
        },
        "ad_info": {
            "adcode": 510411,
            "province": "四川省",
            "city": "攀枝花市",
            "district": "仁和区"
        }
    },
    {
        "id": "4317887876970165932",
        "title": "大田停车区公共厕所",
        "address": "四川省攀枝花市仁和区大田停车区与G5京昆高速交叉口西北80米",
        "tel": "",
        "category": "基础设施:公共设施:公共厕所",
        "type": 0,
        "location": {
            "lat": 26.293337,
            "lng": 101.781541
        },
        "ad_info": {
            "adcode": 510411,
            "province": "四川省",
            "city": "攀枝花市",
            "district": "仁和区"
        }
    },
    {
        "id": "6977496558208697527",
        "title": "五十一公共厕所",
        "address": "四川省攀枝花市仁和区攀枝花大道南段863",
        "tel": "",
        "category": "基础设施:公共设施:公共厕所",
        "type": 0,
        "location": {
            "lat": 26.51418,
            "lng": 101.72094
        },
        "ad_info": {
            "adcode": 510411,
            "province": "四川省",
            "city": "攀枝花市",
            "district": "仁和区"
        }
    },
    {
        "id": "14099157417621670511",
        "title": "旅游厕所",
        "address": "四川省攀枝花市盐边县S216",
        "tel": "",
        "category": "基础设施:公共设施:公共厕所",
        "type": 0,
        "location": {
            "lat": 27.140173,
            "lng": 101.276557
        },
        "ad_info": {
            "adcode": 510422,
            "province": "四川省",
            "city": "攀枝花市",
            "district": "盐边县"
        }
    },
    {
        "id": "6262774377561757132",
        "title": "攀枝花西服务区公共厕所",
        "address": "四川省攀枝花市仁和区石龙坝立交桥与蓉丽高速交叉口正东方向1378米左右",
        "tel": "",
        "category": "基础设施:公共设施:公共厕所",
        "type": 0,
        "location": {
            "lat": 26.559125,
            "lng": 101.402642
        },
        "ad_info": {
            "adcode": 510411,
            "province": "四川省",
            "city": "攀枝花市",
            "district": "仁和区"
        }
    },
    {
        "id": "16037229388780320692",
        "title": "米易服务区公共厕所",
        "address": "四川省攀枝花市米易县石油蜀道能源米易服务区加油站北侧",
        "tel": "",
        "category": "基础设施:公共设施:公共厕所",
        "type": 0,
        "location": {
            "lat": 26.864125,
            "lng": 102.098432
        },
        "ad_info": {
            "adcode": 510421,
            "province": "四川省",
            "city": "攀枝花市",
            "district": "米易县"
        }
    },
    {
        "id": "1750930401868309295",
        "title": "旅游厕所",
        "address": "四川省攀枝花市盐边县千年树山庄经营部东南侧120米",
        "tel": "",
        "category": "基础设施:公共设施:公共厕所",
        "type": 0,
        "location": {
            "lat": 26.769294,
            "lng": 101.524154
        },
        "ad_info": {
            "adcode": 510422,
            "province": "四川省",
            "city": "攀枝花市",
            "district": "盐边县"
        }
    },
    {
        "id": "6324029784059202575",
        "title": "公共厕所",
        "address": "四川省攀枝花市米易县X093(盐米路)",
        "tel": "",
        "category": "基础设施:公共设施:公共厕所",
        "type": 0,
        "location": {
            "lat": 26.933771,
            "lng": 102.079722
        },
        "ad_info": {
            "adcode": 510421,
            "province": "四川省",
            "city": "攀枝花市",
            "district": "米易县"
        }
    },
    {
        "id": "6771891622884002924",
        "title": "公共厕所",
        "address": "四川省攀枝花市西区建福巷与格萨拉大道交叉口东北方向320米左右",
        "tel": "",
        "category": "基础设施:公共设施:公共厕所",
        "type": 0,
        "location": {
            "lat": 26.603389,
            "lng": 101.633629
        },
        "ad_info": {
            "adcode": 510403,
            "province": "四川省",
            "city": "攀枝花市",
            "district": "西区"
        }
    },
    {
        "id": "8600230026244378729",
        "title": "米易服务区公共厕所",
        "address": "四川省攀枝花市米易县凤凰大道与高阳路交叉口西南方向933米左右",
        "tel": "",
        "category": "基础设施:公共设施:公共厕所",
        "type": 0,
        "location": {
            "lat": 26.864113,
            "lng": 102.100003
        },
        "ad_info": {
            "adcode": 510421,
            "province": "四川省",
            "city": "攀枝花市",
            "district": "米易县"
        }
    },
    {
        "id": "11340197136900471909",
        "title": "公共厕所",
        "address": "四川省攀枝花市米易县清桐路与育才路交叉口东北方向110米左右",
        "tel": "",
        "category": "基础设施:公共设施:公共厕所",
        "type": 0,
        "location": {
            "lat": 26.893682,
            "lng": 102.112061
        },
        "ad_info": {
            "adcode": 510421,
            "province": "四川省",
            "city": "攀枝花市",
            "district": "米易县"
        }
    },
    {
        "id": "8579859891293964460",
        "title": "公共厕所",
        "address": "四川省攀枝花市仁和区金沙江大道东段辅路与三堆子大桥交叉口西360米",
        "tel": "",
        "category": "基础设施:公共设施:公共厕所",
        "type": 0,
        "location": {
            "lat": 26.574992,
            "lng": 101.839285
        },
        "ad_info": {
            "adcode": 510411,
            "province": "四川省",
            "city": "攀枝花市",
            "district": "仁和区"
        }
    },
    {
        "id": "7731923531838688350",
        "title": "公共厕所",
        "address": "四川省攀枝花市西区河门口北街与苏铁中路交叉口正东方向79米左右",
        "tel": "",
        "category": "基础设施:公共设施:公共厕所",
        "type": 0,
        "location": {
            "lat": 26.591723,
            "lng": 101.595741
        },
        "ad_info": {
            "adcode": 510403,
            "province": "四川省",
            "city": "攀枝花市",
            "district": "西区"
        }
    },
    {
        "id": "6960015905742969709",
        "title": "公共厕所",
        "address": "四川省攀枝花市东区三线大道与三线大道北段交叉口正北方向547米左右",
        "tel": "",
        "category": "基础设施:公共设施:公共厕所",
        "type": 0,
        "location": {
            "lat": 26.551817,
            "lng": 101.740846
        },
        "ad_info": {
            "adcode": 510402,
            "province": "四川省",
            "city": "攀枝花市",
            "district": "东区"
        }
    },
    {
        "id": "6465318715429272416",
        "title": "公共厕所",
        "address": "四川省攀枝花市仁和区攀枝花大道南段与沙沟路交叉口正南方向188米左右",
        "tel": "",
        "category": "基础设施:公共设施:公共厕所",
        "type": 0,
        "location": {
            "lat": 26.482515,
            "lng": 101.746335
        },
        "ad_info": {
            "adcode": 510411,
            "province": "四川省",
            "city": "攀枝花市",
            "district": "仁和区"
        }
    },
    {
        "id": "13169974026479616246",
        "title": "安宁明珠大酒店-洗手间",
        "address": "四川省攀枝花市米易县人民路与向阳路交叉口东南方向111米左右",
        "tel": "",
        "category": "基础设施:公共设施:公共厕所",
        "type": 0,
        "location": {
            "lat": 26.895249,
            "lng": 102.114611
        },
        "ad_info": {
            "adcode": 510421,
            "province": "四川省",
            "city": "攀枝花市",
            "district": "米易县"
        }
    },
    {
        "id": "10515830678332635905",
        "title": "公共厕所",
        "address": "四川省攀枝花市盐边县盐择路",
        "tel": "",
        "category": "基础设施:公共设施:公共厕所",
        "type": 0,
        "location": {
            "lat": 27.017513,
            "lng": 101.534844
        },
        "ad_info": {
            "adcode": 510422,
            "province": "四川省",
            "city": "攀枝花市",
            "district": "盐边县"
        }
    },
    {
        "id": "9306242940742966954",
        "title": "公共厕所",
        "address": "四川省攀枝花市东区西海岸生活广场1号楼",
        "tel": "",
        "category": "基础设施:公共设施:公共厕所",
        "type": 0,
        "location": {
            "lat": 26.584292,
            "lng": 101.720452
        },
        "ad_info": {
            "adcode": 510402,
            "province": "四川省",
            "city": "攀枝花市",
            "district": "东区"
        }
    },
    {
        "id": "9338823276831641005",
        "title": "公共厕所",
        "address": "四川省攀枝花市仁和区彩霞巷与钒钛东路(北段)交叉口西南80米",
        "tel": "",
        "category": "基础设施:公共设施:公共厕所",
        "type": 0,
        "location": {
            "lat": 26.544549,
            "lng": 101.849825
        },
        "ad_info": {
            "adcode": 510411,
            "province": "四川省",
            "city": "攀枝花市",
            "district": "仁和区"
        }
    },
    {
        "id": "16052808543031679960",
        "title": "公共厕所",
        "address": "四川省攀枝花市东区金沙江大道东段与钛白路交叉口西北方向338米左右",
        "tel": "",
        "category": "基础设施:公共设施:公共厕所",
        "type": 0,
        "location": {
            "lat": 26.578972,
            "lng": 101.760361
        },
        "ad_info": {
            "adcode": 510402,
            "province": "四川省",
            "city": "攀枝花市",
            "district": "东区"
        }
    },
    {
        "id": "13901894776824729440",
        "title": "公共厕所",
        "address": "四川省攀枝花市仁和区左岸咖啡(仁和文化广场东南)",
        "tel": "",
        "category": "基础设施:公共设施:公共厕所",
        "type": 0,
        "location": {
            "lat": 26.498029,
            "lng": 101.733921
        },
        "ad_info": {
            "adcode": 510411,
            "province": "四川省",
            "city": "攀枝花市",
            "district": "仁和区"
        }
    },
    {
        "id": "8032317638492084887",
        "title": "公共厕所",
        "address": "四川省攀枝花市盐边县东环北路与红星路交叉口西南方向36米左右",
        "tel": "",
        "category": "基础设施:公共设施:公共厕所",
        "type": 0,
        "location": {
            "lat": 26.679925,
            "lng": 101.856535
        },
        "ad_info": {
            "adcode": 510422,
            "province": "四川省",
            "city": "攀枝花市",
            "district": "盐边县"
        }
    },
    {
        "id": "11933511205251747944",
        "title": "公共厕所",
        "address": "四川省攀枝花市东区新亚街与新民路交叉口正西方向213米左右",
        "tel": "",
        "category": "基础设施:公共设施:公共厕所",
        "type": 0,
        "location": {
            "lat": 26.59472,
            "lng": 101.738648
        },
        "ad_info": {
            "adcode": 510402,
            "province": "四川省",
            "city": "攀枝花市",
            "district": "东区"
        }
    },
    {
        "id": "4225005273613612676",
        "title": "攀枝花诚兴达酒店洗手间",
        "address": "四川省攀枝花市东区榕树街33号攀枝花诚兴达酒店大厅内",
        "tel": "",
        "category": "基础设施:公共设施:公共厕所",
        "type": 0,
        "location": {
            "lat": 26.581809,
            "lng": 101.716372
        },
        "ad_info": {
            "adcode": 510402,
            "province": "四川省",
            "city": "攀枝花市",
            "district": "东区"
        }
    },
    {
        "id": "9149624613666223725",
        "title": "公共厕所",
        "address": "四川省攀枝花市盐边县G353与S310交叉口正南方向72米",
        "tel": "",
        "category": "基础设施:公共设施:公共厕所",
        "type": 0,
        "location": {
            "lat": 26.560526,
            "lng": 101.892335
        },
        "ad_info": {
            "adcode": 510422,
            "province": "四川省",
            "city": "攀枝花市",
            "district": "盐边县"
        }
    },
    {
        "id": "1978491000813016344",
        "title": "公共厕所",
        "address": "四川省攀枝花市米易县G227与橄榄河桥交叉口正北方向1144米左右",
        "tel": "",
        "category": "基础设施:公共设施:公共厕所",
        "type": 0,
        "location": {
            "lat": 26.82848,
            "lng": 102.076866
        },
        "ad_info": {
            "adcode": 510421,
            "province": "四川省",
            "city": "攀枝花市",
            "district": "米易县"
        }
    },
    {
        "id": "12537991889910337291",
        "title": "公共厕所",
        "address": "四川省攀枝花市东区弄弄坪中路红星幼儿园南侧约100米",
        "tel": "",
        "category": "基础设施:公共设施:公共厕所",
        "type": 0,
        "location": {
            "lat": 26.565895,
            "lng": 101.693784
        },
        "ad_info": {
            "adcode": 510402,
            "province": "四川省",
            "city": "攀枝花市",
            "district": "东区"
        }
    },
    {
        "id": "4220399325811182118",
        "title": "公共厕所",
        "address": "四川省攀枝花市米易县G227与垭口街交叉口正南方向82米左右",
        "tel": "",
        "category": "基础设施:公共设施:公共厕所",
        "type": 0,
        "location": {
            "lat": 26.792311,
            "lng": 102.001044
        },
        "ad_info": {
            "adcode": 510421,
            "province": "四川省",
            "city": "攀枝花市",
            "district": "米易县"
        }
    },
    {
        "id": "15638306892296870909",
        "title": "公共厕所",
        "address": "四川省攀枝花市东区宝华路与宝蓝巷交叉口西南方向63米左右",
        "tel": "",
        "category": "基础设施:公共设施:公共厕所",
        "type": 0,
        "location": {
            "lat": 26.581211,
            "lng": 101.753152
        },
        "ad_info": {
            "adcode": 510402,
            "province": "四川省",
            "city": "攀枝花市",
            "district": "东区"
        }
    },
    {
        "id": "2893350709064320364",
        "title": "公共厕所",
        "address": "四川省攀枝花市东区望达巷与枣子坪上街交叉口正北方向173米左右",
        "tel": "",
        "category": "基础设施:公共设施:公共厕所",
        "type": 0,
        "location": {
            "lat": 26.58236,
            "lng": 101.69735
        },
        "ad_info": {
            "adcode": 510402,
            "province": "四川省",
            "city": "攀枝花市",
            "district": "东区"
        }
    },
    {
        "id": "16576668258658039270",
        "title": "公共厕所",
        "address": "四川省攀枝花市米易县人民路睿龙花园",
        "tel": "",
        "category": "基础设施:公共设施:公共厕所",
        "type": 0,
        "location": {
            "lat": 26.896428,
            "lng": 102.106911
        },
        "ad_info": {
            "adcode": 510421,
            "province": "四川省",
            "city": "攀枝花市",
            "district": "米易县"
        }
    },
    {
        "id": "687728807379281429",
        "title": "公共厕所",
        "address": "四川省攀枝花市仁和区金沙江大道西段与钢城大道西段交叉口正北方向384米左右",
        "tel": "",
        "category": "基础设施:公共设施:公共厕所",
        "type": 0,
        "location": {
            "lat": 26.567543,
            "lng": 101.661335
        },
        "ad_info": {
            "adcode": 510411,
            "province": "四川省",
            "city": "攀枝花市",
            "district": "仁和区"
        }
    },
    {
        "id": "7895698172949964997",
        "title": "公共厕所",
        "address": "四川省攀枝花市东区三线大道北段与公园东路交叉口正南方向165米左右",
        "tel": "",
        "category": "基础设施:公共设施:公共厕所",
        "type": 0,
        "location": {
            "lat": 26.569392,
            "lng": 101.725291
        },
        "ad_info": {
            "adcode": 510402,
            "province": "四川省",
            "city": "攀枝花市",
            "district": "东区"
        }
    },
    {
        "id": "13165945016041939458",
        "title": "公共厕所",
        "address": "四川省攀枝花市盐边县S216与新街交叉口东北方向104米左右",
        "tel": "",
        "category": "基础设施:公共设施:公共厕所",
        "type": 0,
        "location": {
            "lat": 26.934727,
            "lng": 101.457431
        },
        "ad_info": {
            "adcode": 510422,
            "province": "四川省",
            "city": "攀枝花市",
            "district": "盐边县"
        }
    },
    {
        "id": "2367070706417044661",
        "title": "公共厕所",
        "address": "四川省攀枝花市仁和区弯腰树运业有限公司12号商住楼",
        "tel": "",
        "category": "基础设施:公共设施:公共厕所",
        "type": 0,
        "location": {
            "lat": 26.526403,
            "lng": 101.717967
        },
        "ad_info": {
            "adcode": 510411,
            "province": "四川省",
            "city": "攀枝花市",
            "district": "仁和区"
        }
    },
    {
        "id": "10369530921005270987",
        "title": "公共厕所",
        "address": "四川省攀枝花市仁和区宝灵寺巷与迤沙拉大道交叉口东南方向264米左右",
        "tel": "",
        "category": "基础设施:公共设施:公共厕所",
        "type": 0,
        "location": {
            "lat": 26.501232,
            "lng": 101.725099
        },
        "ad_info": {
            "adcode": 510411,
            "province": "四川省",
            "city": "攀枝花市",
            "district": "仁和区"
        }
    },
    {
        "id": "8944551913932987229",
        "title": "公共厕所",
        "address": "四川省攀枝花市仁和区联通街与迤沙拉大道交叉口正北方向116米左右",
        "tel": "",
        "category": "基础设施:公共设施:公共厕所",
        "type": 0,
        "location": {
            "lat": 26.496246,
            "lng": 101.732008
        },
        "ad_info": {
            "adcode": 510411,
            "province": "四川省",
            "city": "攀枝花市",
            "district": "仁和区"
        }
    },
    {
        "id": "5285642200369884185",
        "title": "公共厕所",
        "address": "四川省攀枝花市盐边县东城街与中环南路交叉口正西方向57米左右",
        "tel": "",
        "category": "基础设施:公共设施:公共厕所",
        "type": 0,
        "location": {
            "lat": 26.677144,
            "lng": 101.850958
        },
        "ad_info": {
            "adcode": 510422,
            "province": "四川省",
            "city": "攀枝花市",
            "district": "盐边县"
        }
    },
    {
        "id": "14684830440854905001",
        "title": "公共厕所",
        "address": "四川省攀枝花市盐边县G353与和爱板桥交叉口正西方向117米左右",
        "tel": "",
        "category": "基础设施:公共设施:公共厕所",
        "type": 0,
        "location": {
            "lat": 26.484313,
            "lng": 102.032107
        },
        "ad_info": {
            "adcode": 510422,
            "province": "四川省",
            "city": "攀枝花市",
            "district": "盐边县"
        }
    },
    {
        "id": "16500814530033020528",
        "title": "公共厕所",
        "address": "四川省攀枝花市东区大花地南路与弄弄坪中路交叉口正东方向179米左右",
        "tel": "",
        "category": "基础设施:公共设施:公共厕所",
        "type": 0,
        "location": {
            "lat": 26.564278,
            "lng": 101.688005
        },
        "ad_info": {
            "adcode": 510402,
            "province": "四川省",
            "city": "攀枝花市",
            "district": "东区"
        }
    },
    {
        "id": "14852526870766075017",
        "title": "公共厕所",
        "address": "四川省攀枝花市西区百叶巷与苏铁中路交叉口正南方向39米左右",
        "tel": "",
        "category": "基础设施:公共设施:公共厕所",
        "type": 0,
        "location": {
            "lat": 26.597201,
            "lng": 101.629621
        },
        "ad_info": {
            "adcode": 510403,
            "province": "四川省",
            "city": "攀枝花市",
            "district": "西区"
        }
    },
    {
        "id": "18228016490121813108",
        "title": "公共厕所",
        "address": "四川省攀枝花市米易县安居路与盐米路交叉口东南方向191米左右",
        "tel": "",
        "category": "基础设施:公共设施:公共厕所",
        "type": 0,
        "location": {
            "lat": 26.906947,
            "lng": 102.117692
        },
        "ad_info": {
            "adcode": 510421,
            "province": "四川省",
            "city": "攀枝花市",
            "district": "米易县"
        }
    },
    {
        "id": "116898203699500063",
        "title": "公共厕所",
        "address": "四川省攀枝花市东区天马巷与宝华路交叉口东南方向392米左右",
        "tel": "",
        "category": "基础设施:公共设施:公共厕所",
        "type": 0,
        "location": {
            "lat": 26.580955,
            "lng": 101.757462
        },
        "ad_info": {
            "adcode": 510402,
            "province": "四川省",
            "city": "攀枝花市",
            "district": "东区"
        }
    },
    {
        "id": "11305061376050648032",
        "title": "公共厕所",
        "address": "四川省攀枝花市东区攀枝花大道东段与鸿运巷交叉口东北方向93米左右",
        "tel": "",
        "category": "基础设施:公共设施:公共厕所",
        "type": 0,
        "location": {
            "lat": 26.57418,
            "lng": 101.732172
        },
        "ad_info": {
            "adcode": 510402,
            "province": "四川省",
            "city": "攀枝花市",
            "district": "东区"
        }
    },
    {
        "id": "6311550875450599322",
        "title": "攀枝花西服务区公共厕所",
        "address": "四川省攀枝花市仁和区石龙坝立交桥与蓉丽高速交叉口正东方向1335米左右",
        "tel": "",
        "category": "基础设施:公共设施:公共厕所",
        "type": 0,
        "location": {
            "lat": 26.55757,
            "lng": 101.401962
        },
        "ad_info": {
            "adcode": 510411,
            "province": "四川省",
            "city": "攀枝花市",
            "district": "仁和区"
        }
    },
    {
        "id": "10678824748341071499",
        "title": "公共厕所",
        "address": "四川省攀枝花市米易县利民路与安宁路交叉口正北方向230米左右",
        "tel": "",
        "category": "基础设施:公共设施:公共厕所",
        "type": 0,
        "location": {
            "lat": 26.90107,
            "lng": 102.116373
        },
        "ad_info": {
            "adcode": 510421,
            "province": "四川省",
            "city": "攀枝花市",
            "district": "米易县"
        }
    },
    {
        "id": "9833723022346847419",
        "title": "公共厕所",
        "address": "四川省攀枝花市东区攀枝花大道东段与竹雅巷交叉口西南方向293米左右",
        "tel": "",
        "category": "基础设施:公共设施:公共厕所",
        "type": 0,
        "location": {
            "lat": 26.575486,
            "lng": 101.721839
        },
        "ad_info": {
            "adcode": 510402,
            "province": "四川省",
            "city": "攀枝花市",
            "district": "东区"
        }
    },
    {
        "id": "4289168037598608371",
        "title": "公共厕所",
        "address": "四川省攀枝花市仁和区总发中学北侧130米",
        "tel": "",
        "category": "基础设施:公共设施:公共厕所",
        "type": 0,
        "location": {
            "lat": 26.444591,
            "lng": 101.766203
        },
        "ad_info": {
            "adcode": 510411,
            "province": "四川省",
            "city": "攀枝花市",
            "district": "仁和区"
        }
    },
    {
        "id": "2240729797514490903",
        "title": "公共厕所",
        "address": "四川省攀枝花市东区佳兴路与佳联路交叉口正北方向352米左右",
        "tel": "",
        "category": "基础设施:公共设施:公共厕所",
        "type": 0,
        "location": {
            "lat": 26.567786,
            "lng": 101.72751
        },
        "ad_info": {
            "adcode": 510402,
            "province": "四川省",
            "city": "攀枝花市",
            "district": "东区"
        }
    },
    {
        "id": "16442386232843759173",
        "title": "公共厕所",
        "address": "四川省攀枝花市仁和区华芝路与攀枝花大道南段交叉口东北方向49米左右",
        "tel": "",
        "category": "基础设施:公共设施:公共厕所",
        "type": 0,
        "location": {
            "lat": 26.506651,
            "lng": 101.732716
        },
        "ad_info": {
            "adcode": 510411,
            "province": "四川省",
            "city": "攀枝花市",
            "district": "仁和区"
        }
    },
    {
        "id": "4010404050496247490",
        "title": "卫生间",
        "address": "四川省攀枝花市米易县河熙北路教师园区-南区",
        "tel": "",
        "category": "基础设施:公共设施:公共厕所",
        "type": 0,
        "location": {
            "lat": 26.888829,
            "lng": 102.105781
        },
        "ad_info": {
            "adcode": 510421,
            "province": "四川省",
            "city": "攀枝花市",
            "district": "米易县"
        }
    }
]