[
    {
        "id": "14404945114306413159",
        "title": "公共厕所",
        "address": "云南省文山壮族苗族自治州文山市开化南路与泰康西路交叉口正东方向91米左右",
        "tel": "",
        "category": "基础设施:公共设施:公共厕所",
        "type": 0,
        "location": {
            "lat": 23.3518,
            "lng": 104.265453
        },
        "ad_info": {
            "adcode": 532601,
            "province": "云南省",
            "city": "文山壮族苗族自治州",
            "district": "文山市"
        }
    },
    {
        "id": "13019599382215390454",
        "title": "公共厕所",
        "address": "云南省文山壮族苗族自治州文山市开化中路147号双赢酒店旁",
        "tel": "",
        "category": "基础设施:公共设施:公共厕所",
        "type": 0,
        "location": {
            "lat": 23.363936,
            "lng": 104.248003
        },
        "ad_info": {
            "adcode": 532601,
            "province": "云南省",
            "city": "文山壮族苗族自治州",
            "district": "文山市"
        }
    },
    {
        "id": "9814544073129125950",
        "title": "公共厕所",
        "address": "云南省文山壮族苗族自治州文山市开化北路交警大队旁",
        "tel": "",
        "category": "基础设施:公共设施:公共厕所",
        "type": 0,
        "location": {
            "lat": 23.379383,
            "lng": 104.216441
        },
        "ad_info": {
            "adcode": 532601,
            "province": "云南省",
            "city": "文山壮族苗族自治州",
            "district": "文山市"
        }
    },
    {
        "id": "12593319613894606175",
        "title": "公共厕所",
        "address": "云南省文山壮族苗族自治州文山市开化北路100号",
        "tel": "",
        "category": "基础设施:公共设施:公共厕所",
        "type": 0,
        "location": {
            "lat": 23.378641,
            "lng": 104.224134
        },
        "ad_info": {
            "adcode": 532601,
            "province": "云南省",
            "city": "文山壮族苗族自治州",
            "district": "文山市"
        }
    },
    {
        "id": "16774708724376129849",
        "title": "公共厕所",
        "address": "云南省文山壮族苗族自治州文山市七花北路与龙海路交叉口正北方向74米左右",
        "tel": "",
        "category": "基础设施:公共设施:公共厕所",
        "type": 0,
        "location": {
            "lat": 23.381298,
            "lng": 104.227252
        },
        "ad_info": {
            "adcode": 532601,
            "province": "云南省",
            "city": "文山壮族苗族自治州",
            "district": "文山市"
        }
    },
    {
        "id": "15811078017322321936",
        "title": "公共厕所",
        "address": "云南省文山壮族苗族自治州文山市开化北路与民欢路交叉口正西方向145米左右",
        "tel": "",
        "category": "基础设施:公共设施:公共厕所",
        "type": 0,
        "location": {
            "lat": 23.376768,
            "lng": 104.223847
        },
        "ad_info": {
            "adcode": 532601,
            "province": "云南省",
            "city": "文山壮族苗族自治州",
            "district": "文山市"
        }
    },
    {
        "id": "17744159236521283494",
        "title": "公共厕所",
        "address": "云南省文山壮族苗族自治州文山市新闻三路与普阳西路交叉口东南方向50米左右",
        "tel": "",
        "category": "基础设施:公共设施:公共厕所",
        "type": 0,
        "location": {
            "lat": 23.3807,
            "lng": 104.24463
        },
        "ad_info": {
            "adcode": 532601,
            "province": "云南省",
            "city": "文山壮族苗族自治州",
            "district": "文山市"
        }
    },
    {
        "id": "12456857015019651334",
        "title": "公共厕所",
        "address": "云南省文山壮族苗族自治州文山市第三小学门口",
        "tel": "",
        "category": "基础设施:公共设施:公共厕所",
        "type": 0,
        "location": {
            "lat": 23.361806,
            "lng": 104.253361
        },
        "ad_info": {
            "adcode": 532601,
            "province": "云南省",
            "city": "文山壮族苗族自治州",
            "district": "文山市"
        }
    },
    {
        "id": "2657135745597027366",
        "title": "公共厕所",
        "address": "云南省文山壮族苗族自治州富宁县普厅北路与陇端巷交叉口正北方向23米左右",
        "tel": "",
        "category": "基础设施:公共设施:公共厕所",
        "type": 0,
        "location": {
            "lat": 23.626445,
            "lng": 105.628721
        },
        "ad_info": {
            "adcode": 532628,
            "province": "云南省",
            "city": "文山壮族苗族自治州",
            "district": "富宁县"
        }
    },
    {
        "id": "13430416998835935900",
        "title": "公共厕所",
        "address": "云南省文山壮族苗族自治州文山市普阳东路26号",
        "tel": "",
        "category": "基础设施:公共设施:公共厕所",
        "type": 0,
        "location": {
            "lat": 23.393941,
            "lng": 104.233084
        },
        "ad_info": {
            "adcode": 532601,
            "province": "云南省",
            "city": "文山壮族苗族自治州",
            "district": "文山市"
        }
    },
    {
        "id": "11216450123299179495",
        "title": "公共厕所",
        "address": "云南省文山壮族苗族自治州文山市望华路1号",
        "tel": "",
        "category": "基础设施:公共设施:公共厕所",
        "type": 0,
        "location": {
            "lat": 23.375715,
            "lng": 104.248249
        },
        "ad_info": {
            "adcode": 532601,
            "province": "云南省",
            "city": "文山壮族苗族自治州",
            "district": "文山市"
        }
    },
    {
        "id": "5965268298747816651",
        "title": "公共厕所",
        "address": "云南省文山壮族苗族自治州文山市文昌路与高登路交叉口正东方向456米左右",
        "tel": "",
        "category": "基础设施:公共设施:公共厕所",
        "type": 0,
        "location": {
            "lat": 23.396863,
            "lng": 104.239881
        },
        "ad_info": {
            "adcode": 532601,
            "province": "云南省",
            "city": "文山壮族苗族自治州",
            "district": "文山市"
        }
    },
    {
        "id": "15014167040310006166",
        "title": "公共厕所",
        "address": "云南省文山壮族苗族自治州文山市永华路与金石路交叉口正南方向35米左右",
        "tel": "",
        "category": "基础设施:公共设施:公共厕所",
        "type": 0,
        "location": {
            "lat": 23.38284,
            "lng": 104.227
        },
        "ad_info": {
            "adcode": 532601,
            "province": "云南省",
            "city": "文山壮族苗族自治州",
            "district": "文山市"
        }
    },
    {
        "id": "14899799577814329180",
        "title": "公共厕所",
        "address": "云南省文山壮族苗族自治州文山市开化中路与文新西路交叉口东北方向216米左右",
        "tel": "",
        "category": "基础设施:公共设施:公共厕所",
        "type": 0,
        "location": {
            "lat": 23.373364,
            "lng": 104.23947
        },
        "ad_info": {
            "adcode": 532601,
            "province": "云南省",
            "city": "文山壮族苗族自治州",
            "district": "文山市"
        }
    },
    {
        "id": "2045327036724426256",
        "title": "公共厕所",
        "address": "云南省文山壮族苗族自治州丘北县水岸荷苑东南侧260米",
        "tel": "",
        "category": "基础设施:公共设施:公共厕所",
        "type": 0,
        "location": {
            "lat": 24.046692,
            "lng": 104.163187
        },
        "ad_info": {
            "adcode": 532626,
            "province": "云南省",
            "city": "文山壮族苗族自治州",
            "district": "丘北县"
        }
    },
    {
        "id": "8277267507274078794",
        "title": "公共厕所",
        "address": "云南省文山壮族苗族自治州文山市建禾东路与建禾西路交叉口正南方向167米左右",
        "tel": "",
        "category": "基础设施:公共设施:公共厕所",
        "type": 0,
        "location": {
            "lat": 23.361358,
            "lng": 104.250445
        },
        "ad_info": {
            "adcode": 532601,
            "province": "云南省",
            "city": "文山壮族苗族自治州",
            "district": "文山市"
        }
    },
    {
        "id": "7465520113952276649",
        "title": "公共厕所",
        "address": "云南省文山壮族苗族自治州文山市七花南路与凤凰路交叉口正南方向185米左右",
        "tel": "",
        "category": "基础设施:公共设施:公共厕所",
        "type": 0,
        "location": {
            "lat": 23.3785,
            "lng": 104.237259
        },
        "ad_info": {
            "adcode": 532601,
            "province": "云南省",
            "city": "文山壮族苗族自治州",
            "district": "文山市"
        }
    },
    {
        "id": "136177991645954469",
        "title": "公共厕所",
        "address": "云南省文山壮族苗族自治州文山市瑞民路与白药路交叉口西北方向332米左右",
        "tel": "",
        "category": "基础设施:公共设施:公共厕所",
        "type": 0,
        "location": {
            "lat": 23.285958,
            "lng": 104.275028
        },
        "ad_info": {
            "adcode": 532601,
            "province": "云南省",
            "city": "文山壮族苗族自治州",
            "district": "文山市"
        }
    },
    {
        "id": "13645500773531729037",
        "title": "公共厕所",
        "address": "云南省文山壮族苗族自治州丘北县重阳街33正东方向160米",
        "tel": "",
        "category": "基础设施:公共设施:公共厕所",
        "type": 0,
        "location": {
            "lat": 24.039669,
            "lng": 104.189674
        },
        "ad_info": {
            "adcode": 532626,
            "province": "云南省",
            "city": "文山壮族苗族自治州",
            "district": "丘北县"
        }
    },
    {
        "id": "17300339304151285169",
        "title": "公共厕所",
        "address": "云南省文山壮族苗族自治州文山市振兴路2-e-03号泰民家园旁",
        "tel": "",
        "category": "基础设施:公共设施:公共厕所",
        "type": 0,
        "location": {
            "lat": 23.341024,
            "lng": 104.254109
        },
        "ad_info": {
            "adcode": 532601,
            "province": "云南省",
            "city": "文山壮族苗族自治州",
            "district": "文山市"
        }
    },
    {
        "id": "10889574331275776243",
        "title": "公共厕所",
        "address": "云南省文山壮族苗族自治州文山市土库房小区南路与土库房小区西路交叉口西南方向35米左右",
        "tel": "",
        "category": "基础设施:公共设施:公共厕所",
        "type": 0,
        "location": {
            "lat": 23.372663,
            "lng": 104.229598
        },
        "ad_info": {
            "adcode": 532601,
            "province": "云南省",
            "city": "文山壮族苗族自治州",
            "district": "文山市"
        }
    },
    {
        "id": "4795431067004517164",
        "title": "公共厕所",
        "address": "云南省文山壮族苗族自治州广南县北坛路与西街交叉口正北方向251米左右",
        "tel": "",
        "category": "基础设施:公共设施:公共厕所",
        "type": 0,
        "location": {
            "lat": 24.050554,
            "lng": 105.062866
        },
        "ad_info": {
            "adcode": 532627,
            "province": "云南省",
            "city": "文山壮族苗族自治州",
            "district": "广南县"
        }
    },
    {
        "id": "15265405735513023544",
        "title": "公共厕所",
        "address": "云南省文山壮族苗族自治州文山市东郊路与泰康中路交叉口正北方向139米左右",
        "tel": "",
        "category": "基础设施:公共设施:公共厕所",
        "type": 0,
        "location": {
            "lat": 23.357646,
            "lng": 104.272722
        },
        "ad_info": {
            "adcode": 532601,
            "province": "云南省",
            "city": "文山壮族苗族自治州",
            "district": "文山市"
        }
    },
    {
        "id": "15455633426899755285",
        "title": "公共厕所",
        "address": "云南省文山壮族苗族自治州丘北县常青路与环城西路交叉口东南方向78米左右",
        "tel": "",
        "category": "基础设施:公共设施:公共厕所",
        "type": 0,
        "location": {
            "lat": 24.0433,
            "lng": 104.190894
        },
        "ad_info": {
            "adcode": 532626,
            "province": "云南省",
            "city": "文山壮族苗族自治州",
            "district": "丘北县"
        }
    },
    {
        "id": "6504210339280154843",
        "title": "公共厕所",
        "address": "云南省文山壮族苗族自治州文山市凤凰路65号",
        "tel": "",
        "category": "基础设施:公共设施:公共厕所",
        "type": 0,
        "location": {
            "lat": 23.396492,
            "lng": 104.22086
        },
        "ad_info": {
            "adcode": 532601,
            "province": "云南省",
            "city": "文山壮族苗族自治州",
            "district": "文山市"
        }
    },
    {
        "id": "12070017314156611951",
        "title": "公共厕所",
        "address": "云南省文山壮族苗族自治州文山市开化中路与普阳西路交叉口西北方向84米左右",
        "tel": "",
        "category": "基础设施:公共设施:公共厕所",
        "type": 0,
        "location": {
            "lat": 23.370093,
            "lng": 104.242399
        },
        "ad_info": {
            "adcode": 532601,
            "province": "云南省",
            "city": "文山壮族苗族自治州",
            "district": "文山市"
        }
    },
    {
        "id": "8866916265832760874",
        "title": "公共厕所",
        "address": "云南省文山壮族苗族自治州文山市文山体育中心(友谊西路150米)",
        "tel": "",
        "category": "基础设施:公共设施:公共厕所",
        "type": 0,
        "location": {
            "lat": 23.349297,
            "lng": 104.255392
        },
        "ad_info": {
            "adcode": 532601,
            "province": "云南省",
            "city": "文山壮族苗族自治州",
            "district": "文山市"
        }
    },
    {
        "id": "2350026030194188487",
        "title": "公共厕所",
        "address": "云南省文山壮族苗族自治州马关县林海路79号",
        "tel": "",
        "category": "基础设施:公共设施:公共厕所",
        "type": 0,
        "location": {
            "lat": 23.017501,
            "lng": 104.401455
        },
        "ad_info": {
            "adcode": 532625,
            "province": "云南省",
            "city": "文山壮族苗族自治州",
            "district": "马关县"
        }
    },
    {
        "id": "7046944045298832389",
        "title": "公共厕所",
        "address": "云南省文山壮族苗族自治州文山市七花北路伤四中学校旁",
        "tel": "",
        "category": "基础设施:公共设施:公共厕所",
        "type": 0,
        "location": {
            "lat": 23.383492,
            "lng": 104.218202
        },
        "ad_info": {
            "adcode": 532601,
            "province": "云南省",
            "city": "文山壮族苗族自治州",
            "district": "文山市"
        }
    },
    {
        "id": "6615200011699561152",
        "title": "公共厕所",
        "address": "云南省文山壮族苗族自治州文山市七花南路与凤凰路交叉口东北方向50米左右",
        "tel": "",
        "category": "基础设施:公共设施:公共厕所",
        "type": 0,
        "location": {
            "lat": 23.380444,
            "lng": 104.237152
        },
        "ad_info": {
            "adcode": 532601,
            "province": "云南省",
            "city": "文山壮族苗族自治州",
            "district": "文山市"
        }
    },
    {
        "id": "7369473609658317271",
        "title": "公共厕所",
        "address": "云南省文山壮族苗族自治州文山市河滨路4号",
        "tel": "",
        "category": "基础设施:公共设施:公共厕所",
        "type": 0,
        "location": {
            "lat": 23.365873,
            "lng": 104.248815
        },
        "ad_info": {
            "adcode": 532601,
            "province": "云南省",
            "city": "文山壮族苗族自治州",
            "district": "文山市"
        }
    },
    {
        "id": "4947889750698149916",
        "title": "公共厕所",
        "address": "云南省文山壮族苗族自治州文山市七花南路277号礼光一桥旁",
        "tel": "",
        "category": "基础设施:公共设施:公共厕所",
        "type": 0,
        "location": {
            "lat": 23.382838,
            "lng": 104.244915
        },
        "ad_info": {
            "adcode": 532601,
            "province": "云南省",
            "city": "文山壮族苗族自治州",
            "district": "文山市"
        }
    },
    {
        "id": "17099209065304765943",
        "title": "公共厕所",
        "address": "云南省文山壮族苗族自治州文山市河西路51号",
        "tel": "",
        "category": "基础设施:公共设施:公共厕所",
        "type": 0,
        "location": {
            "lat": 23.36681,
            "lng": 104.243215
        },
        "ad_info": {
            "adcode": 532601,
            "province": "云南省",
            "city": "文山壮族苗族自治州",
            "district": "文山市"
        }
    },
    {
        "id": "7170615034996432579",
        "title": "公共厕所",
        "address": "云南省文山壮族苗族自治州文山市文山实验小学(南校区)",
        "tel": "",
        "category": "基础设施:公共设施:公共厕所",
        "type": 0,
        "location": {
            "lat": 23.335902,
            "lng": 104.257121
        },
        "ad_info": {
            "adcode": 532601,
            "province": "云南省",
            "city": "文山壮族苗族自治州",
            "district": "文山市"
        }
    },
    {
        "id": "13582316581203283261",
        "title": "公共厕所",
        "address": "云南省文山壮族苗族自治州文山市凤凰路与华龙南路交叉口正北方向92米左右",
        "tel": "",
        "category": "基础设施:公共设施:公共厕所",
        "type": 0,
        "location": {
            "lat": 23.397847,
            "lng": 104.22312
        },
        "ad_info": {
            "adcode": 532601,
            "province": "云南省",
            "city": "文山壮族苗族自治州",
            "district": "文山市"
        }
    },
    {
        "id": "13678097695536481051",
        "title": "公共厕所",
        "address": "云南省文山壮族苗族自治州文山市安平西路与环城西路交叉口正东方向258米左右",
        "tel": "",
        "category": "基础设施:公共设施:公共厕所",
        "type": 0,
        "location": {
            "lat": 23.369776,
            "lng": 104.226991
        },
        "ad_info": {
            "adcode": 532601,
            "province": "云南省",
            "city": "文山壮族苗族自治州",
            "district": "文山市"
        }
    },
    {
        "id": "18254453857083109430",
        "title": "公共厕所",
        "address": "云南省文山壮族苗族自治州文山市振兴路文山体育中心",
        "tel": "",
        "category": "基础设施:公共设施:公共厕所",
        "type": 0,
        "location": {
            "lat": 23.348755,
            "lng": 104.254589
        },
        "ad_info": {
            "adcode": 532601,
            "province": "云南省",
            "city": "文山壮族苗族自治州",
            "district": "文山市"
        }
    },
    {
        "id": "9319915021167073161",
        "title": "公共厕所",
        "address": "云南省文山壮族苗族自治州文山市开化南路与新平路交叉口正东方向190米左右",
        "tel": "",
        "category": "基础设施:公共设施:公共厕所",
        "type": 0,
        "location": {
            "lat": 23.353115,
            "lng": 104.274703
        },
        "ad_info": {
            "adcode": 532601,
            "province": "云南省",
            "city": "文山壮族苗族自治州",
            "district": "文山市"
        }
    },
    {
        "id": "15352485703626990289",
        "title": "公共厕所",
        "address": "云南省文山壮族苗族自治州丘北县政通路与椒莲路交叉口西南方向58米左右",
        "tel": "",
        "category": "基础设施:公共设施:公共厕所",
        "type": 0,
        "location": {
            "lat": 24.052534,
            "lng": 104.170488
        },
        "ad_info": {
            "adcode": 532626,
            "province": "云南省",
            "city": "文山壮族苗族自治州",
            "district": "丘北县"
        }
    },
    {
        "id": "482499718526237441",
        "title": "公共厕所",
        "address": "云南省文山壮族苗族自治州广南县广南大道与桃源路交叉口正北方向86米左右",
        "tel": "",
        "category": "基础设施:公共设施:公共厕所",
        "type": 0,
        "location": {
            "lat": 24.054876,
            "lng": 105.047203
        },
        "ad_info": {
            "adcode": 532627,
            "province": "云南省",
            "city": "文山壮族苗族自治州",
            "district": "广南县"
        }
    },
    {
        "id": "9736182615345675151",
        "title": "公共厕所",
        "address": "云南省文山壮族苗族自治州文山市新闻路119号",
        "tel": "",
        "category": "基础设施:公共设施:公共厕所",
        "type": 0,
        "location": {
            "lat": 23.388376,
            "lng": 104.240893
        },
        "ad_info": {
            "adcode": 532601,
            "province": "云南省",
            "city": "文山壮族苗族自治州",
            "district": "文山市"
        }
    },
    {
        "id": "5500716412809950249",
        "title": "公共厕所",
        "address": "云南省文山壮族苗族自治州西畴县XH36与小小段交叉口西北方向71米左右",
        "tel": "",
        "category": "基础设施:公共设施:公共厕所",
        "type": 0,
        "location": {
            "lat": 23.256157,
            "lng": 104.479532
        },
        "ad_info": {
            "adcode": 532623,
            "province": "云南省",
            "city": "文山壮族苗族自治州",
            "district": "西畴县"
        }
    },
    {
        "id": "8890466962670189470",
        "title": "公共厕所",
        "address": "云南省文山壮族苗族自治州文山市Y062与文都线交叉口东南方向129米左右",
        "tel": "",
        "category": "基础设施:公共设施:公共厕所",
        "type": 0,
        "location": {
            "lat": 23.192376,
            "lng": 104.301241
        },
        "ad_info": {
            "adcode": 532601,
            "province": "云南省",
            "city": "文山壮族苗族自治州",
            "district": "文山市"
        }
    },
    {
        "id": "10795773978432148046",
        "title": "公共厕所",
        "address": "云南省文山壮族苗族自治州文山市新闻路与普阳东路交叉口西南方向186米左右",
        "tel": "",
        "category": "基础设施:公共设施:公共厕所",
        "type": 0,
        "location": {
            "lat": 23.384631,
            "lng": 104.239201
        },
        "ad_info": {
            "adcode": 532601,
            "province": "云南省",
            "city": "文山壮族苗族自治州",
            "district": "文山市"
        }
    },
    {
        "id": "115149037654254239",
        "title": "公共厕所",
        "address": "云南省文山壮族苗族自治州文山市开化南路与泰康西路交叉口东南方向150米左右",
        "tel": "",
        "category": "基础设施:公共设施:公共厕所",
        "type": 0,
        "location": {
            "lat": 23.351238,
            "lng": 104.265753
        },
        "ad_info": {
            "adcode": 532601,
            "province": "云南省",
            "city": "文山壮族苗族自治州",
            "district": "文山市"
        }
    },
    {
        "id": "9745117539724615270",
        "title": "公共厕所",
        "address": "云南省文山壮族苗族自治州丘北县",
        "tel": "",
        "category": "基础设施:公共设施:公共厕所",
        "type": 0,
        "location": {
            "lat": 24.232869,
            "lng": 104.364473
        },
        "ad_info": {
            "adcode": 532626,
            "province": "云南省",
            "city": "文山壮族苗族自治州",
            "district": "丘北县"
        }
    },
    {
        "id": "10337347103333059921",
        "title": "公共厕所",
        "address": "云南省文山壮族苗族自治州丘北县S206与凤尾桥交叉口正南方向146米左右",
        "tel": "",
        "category": "基础设施:公共设施:公共厕所",
        "type": 0,
        "location": {
            "lat": 24.337314,
            "lng": 104.312296
        },
        "ad_info": {
            "adcode": 532626,
            "province": "云南省",
            "city": "文山壮族苗族自治州",
            "district": "丘北县"
        }
    },
    {
        "id": "17653259388365691705",
        "title": "公共厕所",
        "address": "云南省文山壮族苗族自治州广南县北坛路与北宁路交叉口西北方向295米左右",
        "tel": "",
        "category": "基础设施:公共设施:公共厕所",
        "type": 0,
        "location": {
            "lat": 24.055388,
            "lng": 105.060446
        },
        "ad_info": {
            "adcode": 532627,
            "province": "云南省",
            "city": "文山壮族苗族自治州",
            "district": "广南县"
        }
    },
    {
        "id": "5240917740872583489",
        "title": "公共厕所",
        "address": "云南省文山壮族苗族自治州广南县北宁路与莲城北路交叉口正南方向38米左右",
        "tel": "",
        "category": "基础设施:公共设施:公共厕所",
        "type": 0,
        "location": {
            "lat": 24.053962,
            "lng": 105.066332
        },
        "ad_info": {
            "adcode": 532627,
            "province": "云南省",
            "city": "文山壮族苗族自治州",
            "district": "广南县"
        }
    },
    {
        "id": "7805550698827404483",
        "title": "公共厕所",
        "address": "云南省文山壮族苗族自治州广南县东街与南街交叉口正北方向68米左右",
        "tel": "",
        "category": "基础设施:公共设施:公共厕所",
        "type": 0,
        "location": {
            "lat": 24.046911,
            "lng": 105.065746
        },
        "ad_info": {
            "adcode": 532627,
            "province": "云南省",
            "city": "文山壮族苗族自治州",
            "district": "广南县"
        }
    },
    {
        "id": "1363257861798172410",
        "title": "公共厕所",
        "address": "云南省文山壮族苗族自治州麻栗坡县临江路与河滨路交叉口东北方向114米左右",
        "tel": "",
        "category": "基础设施:公共设施:公共厕所",
        "type": 0,
        "location": {
            "lat": 23.125068,
            "lng": 104.702163
        },
        "ad_info": {
            "adcode": 532624,
            "province": "云南省",
            "city": "文山壮族苗族自治州",
            "district": "麻栗坡县"
        }
    },
    {
        "id": "11234300892300688302",
        "title": "公共厕所",
        "address": "云南省文山壮族苗族自治州麻栗坡县X378与芭船段交叉口东南方向127米左右",
        "tel": "",
        "category": "基础设施:公共设施:公共厕所",
        "type": 0,
        "location": {
            "lat": 22.947456,
            "lng": 104.841413
        },
        "ad_info": {
            "adcode": 532624,
            "province": "云南省",
            "city": "文山壮族苗族自治州",
            "district": "麻栗坡县"
        }
    },
    {
        "id": "2686736497153498635",
        "title": "公共厕所",
        "address": "云南省文山壮族苗族自治州马关县石中路与马中路交叉口正东方向269米左右",
        "tel": "",
        "category": "基础设施:公共设施:公共厕所",
        "type": 0,
        "location": {
            "lat": 23.004413,
            "lng": 104.398999
        },
        "ad_info": {
            "adcode": 532625,
            "province": "云南省",
            "city": "文山壮族苗族自治州",
            "district": "马关县"
        }
    },
    {
        "id": "4550636671287513352",
        "title": "公共厕所",
        "address": "云南省文山壮族苗族自治州麻栗坡县麻潘段与麻锅线交叉口西北方向224米左右",
        "tel": "",
        "category": "基础设施:公共设施:公共厕所",
        "type": 0,
        "location": {
            "lat": 23.127345,
            "lng": 104.710988
        },
        "ad_info": {
            "adcode": 532624,
            "province": "云南省",
            "city": "文山壮族苗族自治州",
            "district": "麻栗坡县"
        }
    },
    {
        "id": "4900280094000947107",
        "title": "公共厕所",
        "address": "云南省文山壮族苗族自治州丘北县",
        "tel": "",
        "category": "基础设施:公共设施:公共厕所",
        "type": 0,
        "location": {
            "lat": 24.237345,
            "lng": 104.364575
        },
        "ad_info": {
            "adcode": 532626,
            "province": "云南省",
            "city": "文山壮族苗族自治州",
            "district": "丘北县"
        }
    },
    {
        "id": "6683566281919503305",
        "title": "公共厕所",
        "address": "云南省文山壮族苗族自治州广南县广南大道与莲城路交叉口东北方向52米左右",
        "tel": "",
        "category": "基础设施:公共设施:公共厕所",
        "type": 0,
        "location": {
            "lat": 24.052032,
            "lng": 105.036846
        },
        "ad_info": {
            "adcode": 532627,
            "province": "云南省",
            "city": "文山壮族苗族自治州",
            "district": "广南县"
        }
    },
    {
        "id": "14027390635444831274",
        "title": "公共厕所",
        "address": "云南省文山壮族苗族自治州马关县文都线与骏城路交叉口东南方向47米左右",
        "tel": "",
        "category": "基础设施:公共设施:公共厕所",
        "type": 0,
        "location": {
            "lat": 23.036784,
            "lng": 104.384463
        },
        "ad_info": {
            "adcode": 532625,
            "province": "云南省",
            "city": "文山壮族苗族自治州",
            "district": "马关县"
        }
    },
    {
        "id": "948631287889028351",
        "title": "公共厕所",
        "address": "云南省文山壮族苗族自治州富宁县东风路与文体路交叉口正西方向89米左右",
        "tel": "",
        "category": "基础设施:公共设施:公共厕所",
        "type": 0,
        "location": {
            "lat": 23.624146,
            "lng": 105.6352
        },
        "ad_info": {
            "adcode": 532628,
            "province": "云南省",
            "city": "文山壮族苗族自治州",
            "district": "富宁县"
        }
    },
    {
        "id": "6787596538187924197",
        "title": "公共厕所",
        "address": "云南省文山壮族苗族自治州麻栗坡县X351与文天线交叉口东北方向1231米左右",
        "tel": "",
        "category": "基础设施:公共设施:公共厕所",
        "type": 0,
        "location": {
            "lat": 23.141761,
            "lng": 104.700272
        },
        "ad_info": {
            "adcode": 532624,
            "province": "云南省",
            "city": "文山壮族苗族自治州",
            "district": "麻栗坡县"
        }
    },
    {
        "id": "14273940426447658947",
        "title": "公共厕所",
        "address": "云南省文山壮族苗族自治州广南县广南大道与铜鼓路交叉口东南方向150米左右",
        "tel": "",
        "category": "基础设施:公共设施:公共厕所",
        "type": 0,
        "location": {
            "lat": 24.053288,
            "lng": 105.054162
        },
        "ad_info": {
            "adcode": 532627,
            "province": "云南省",
            "city": "文山壮族苗族自治州",
            "district": "广南县"
        }
    },
    {
        "id": "16742621940351115539",
        "title": "公共厕所",
        "address": "云南省文山壮族苗族自治州富宁县新华街与玉泉路交叉口东北方向26米左右",
        "tel": "",
        "category": "基础设施:公共设施:公共厕所",
        "type": 0,
        "location": {
            "lat": 23.621952,
            "lng": 105.621757
        },
        "ad_info": {
            "adcode": 532628,
            "province": "云南省",
            "city": "文山壮族苗族自治州",
            "district": "富宁县"
        }
    },
    {
        "id": "16178570975882104269",
        "title": "公共厕所",
        "address": "云南省文山壮族苗族自治州广南县莲城西路与莲城路交叉口东北方向183米左右",
        "tel": "",
        "category": "基础设施:公共设施:公共厕所",
        "type": 0,
        "location": {
            "lat": 24.051807,
            "lng": 105.041025
        },
        "ad_info": {
            "adcode": 532627,
            "province": "云南省",
            "city": "文山壮族苗族自治州",
            "district": "广南县"
        }
    },
    {
        "id": "16467082153688663820",
        "title": "公共厕所",
        "address": "云南省文山壮族苗族自治州马关县信合路与园中西路交叉口正南方向549米左右",
        "tel": "",
        "category": "基础设施:公共设施:公共厕所",
        "type": 0,
        "location": {
            "lat": 22.997797,
            "lng": 104.384705
        },
        "ad_info": {
            "adcode": 532625,
            "province": "云南省",
            "city": "文山壮族苗族自治州",
            "district": "马关县"
        }
    },
    {
        "id": "12118569017418819075",
        "title": "公共厕所",
        "address": "云南省文山壮族苗族自治州马关县板子街与永安路交叉口正南方向82米左右",
        "tel": "",
        "category": "基础设施:公共设施:公共厕所",
        "type": 0,
        "location": {
            "lat": 23.010031,
            "lng": 104.402011
        },
        "ad_info": {
            "adcode": 532625,
            "province": "云南省",
            "city": "文山壮族苗族自治州",
            "district": "马关县"
        }
    },
    {
        "id": "18273999106343746496",
        "title": "公共厕所",
        "address": "云南省文山壮族苗族自治州富宁县孟洞段与洞那线交叉口正南方向582米左右",
        "tel": "",
        "category": "基础设施:公共设施:公共厕所",
        "type": 0,
        "location": {
            "lat": 23.902806,
            "lng": 105.905006
        },
        "ad_info": {
            "adcode": 532628,
            "province": "云南省",
            "city": "文山壮族苗族自治州",
            "district": "富宁县"
        }
    },
    {
        "id": "4103694815144164330",
        "title": "休闲广场公共厕所",
        "address": "云南省文山壮族苗族自治州文山市河滨路125号",
        "tel": "",
        "category": "基础设施:公共设施:公共厕所",
        "type": 0,
        "location": {
            "lat": 23.36706,
            "lng": 104.253736
        },
        "ad_info": {
            "adcode": 532601,
            "province": "云南省",
            "city": "文山壮族苗族自治州",
            "district": "文山市"
        }
    },
    {
        "id": "2054585056564475293",
        "title": "公共厕所管理间",
        "address": "云南省文山壮族苗族自治州文山市建禾西路与沿河路交叉口正北方向48米左右",
        "tel": "",
        "category": "基础设施:公共设施:公共厕所",
        "type": 0,
        "location": {
            "lat": 23.361199,
            "lng": 104.248868
        },
        "ad_info": {
            "adcode": 532601,
            "province": "云南省",
            "city": "文山壮族苗族自治州",
            "district": "文山市"
        }
    },
    {
        "id": "76003820129939523",
        "title": "公共厕所",
        "address": "云南省文山壮族苗族自治州富宁县仁和路与园丁路交叉口东北方向213米左右",
        "tel": "",
        "category": "基础设施:公共设施:公共厕所",
        "type": 0,
        "location": {
            "lat": 23.63182,
            "lng": 105.623162
        },
        "ad_info": {
            "adcode": 532628,
            "province": "云南省",
            "city": "文山壮族苗族自治州",
            "district": "富宁县"
        }
    },
    {
        "id": "3787271207203511126",
        "title": "公共厕所",
        "address": "云南省文山壮族苗族自治州广南县广南大道与珠西公路交叉口东北方向135米左右",
        "tel": "",
        "category": "基础设施:公共设施:公共厕所",
        "type": 0,
        "location": {
            "lat": 24.049611,
            "lng": 105.03247
        },
        "ad_info": {
            "adcode": 532627,
            "province": "云南省",
            "city": "文山壮族苗族自治州",
            "district": "广南县"
        }
    },
    {
        "id": "14127054961601623249",
        "title": "公共厕所",
        "address": "云南省文山壮族苗族自治州富宁县G323与国那线交叉口东北方向973米左右",
        "tel": "",
        "category": "基础设施:公共设施:公共厕所",
        "type": 0,
        "location": {
            "lat": 23.637577,
            "lng": 105.791518
        },
        "ad_info": {
            "adcode": 532628,
            "province": "云南省",
            "city": "文山壮族苗族自治州",
            "district": "富宁县"
        }
    },
    {
        "id": "7641692765755265222",
        "title": "公共厕所",
        "address": "云南省文山壮族苗族自治州富宁县归龙段与龙泉路交叉口正北方向224米左右",
        "tel": "",
        "category": "基础设施:公共设施:公共厕所",
        "type": 0,
        "location": {
            "lat": 23.652888,
            "lng": 105.853373
        },
        "ad_info": {
            "adcode": 532628,
            "province": "云南省",
            "city": "文山壮族苗族自治州",
            "district": "富宁县"
        }
    },
    {
        "id": "16591180402471188836",
        "title": "公共厕所",
        "address": "云南省文山壮族苗族自治州文山市沙坝北路与西华路交叉口东南方向22米左右",
        "tel": "",
        "category": "基础设施:公共设施:公共厕所",
        "type": 0,
        "location": {
            "lat": 23.362245,
            "lng": 104.242576
        },
        "ad_info": {
            "adcode": 532601,
            "province": "云南省",
            "city": "文山壮族苗族自治州",
            "district": "文山市"
        }
    },
    {
        "id": "6568524837490985032",
        "title": "公共厕所",
        "address": "云南省文山壮族苗族自治州广南县小法段与打董线交叉口正北方向1303米左右",
        "tel": "",
        "category": "基础设施:公共设施:公共厕所",
        "type": 0,
        "location": {
            "lat": 24.218534,
            "lng": 105.083074
        },
        "ad_info": {
            "adcode": 532627,
            "province": "云南省",
            "city": "文山壮族苗族自治州",
            "district": "广南县"
        }
    },
    {
        "id": "16293405751106504761",
        "title": "公共厕所",
        "address": "云南省文山壮族苗族自治州广南县X350与Y101交叉口正北方向504米左右",
        "tel": "",
        "category": "基础设施:公共设施:公共厕所",
        "type": 0,
        "location": {
            "lat": 24.076965,
            "lng": 105.023291
        },
        "ad_info": {
            "adcode": 532627,
            "province": "云南省",
            "city": "文山壮族苗族自治州",
            "district": "广南县"
        }
    },
    {
        "id": "8411652177451982458",
        "title": "公共厕所",
        "address": "云南省文山壮族苗族自治州马关县信合路与园中西路交叉口东南方向626米左右",
        "tel": "",
        "category": "基础设施:公共设施:公共厕所",
        "type": 0,
        "location": {
            "lat": 22.997485,
            "lng": 104.385721
        },
        "ad_info": {
            "adcode": 532625,
            "province": "云南省",
            "city": "文山壮族苗族自治州",
            "district": "马关县"
        }
    },
    {
        "id": "3190821265479594900",
        "title": "公共厕所",
        "address": "云南省文山壮族苗族自治州广南县Y090与珠西公路交叉口正北方向448米左右",
        "tel": "",
        "category": "基础设施:公共设施:公共厕所",
        "type": 0,
        "location": {
            "lat": 23.971718,
            "lng": 104.989091
        },
        "ad_info": {
            "adcode": 532627,
            "province": "云南省",
            "city": "文山壮族苗族自治州",
            "district": "广南县"
        }
    },
    {
        "id": "6587877269555532671",
        "title": "清凉洞A级旅游公共厕所",
        "address": "云南省文山壮族苗族自治州麻栗坡县楼红段与船猫段交叉口西北方向1907米左右",
        "tel": "",
        "category": "基础设施:公共设施:公共厕所",
        "type": 0,
        "location": {
            "lat": 22.9734,
            "lng": 104.80556
        },
        "ad_info": {
            "adcode": 532624,
            "province": "云南省",
            "city": "文山壮族苗族自治州",
            "district": "麻栗坡县"
        }
    },
    {
        "id": "1129704160952433260",
        "title": "公共厕所",
        "address": "云南省文山壮族苗族自治州马关县石兴路与马兴线交叉口正西方向158米左右",
        "tel": "",
        "category": "基础设施:公共设施:公共厕所",
        "type": 0,
        "location": {
            "lat": 23.005442,
            "lng": 104.402133
        },
        "ad_info": {
            "adcode": 532625,
            "province": "云南省",
            "city": "文山壮族苗族自治州",
            "district": "马关县"
        }
    },
    {
        "id": "2553930182699191095",
        "title": "奇石滩A级旅游公共厕所",
        "address": "云南省文山壮族苗族自治州麻栗坡县文天线与簿曼段交叉口东南方向930米左右",
        "tel": "",
        "category": "基础设施:公共设施:公共厕所",
        "type": 0,
        "location": {
            "lat": 22.97837,
            "lng": 104.79403
        },
        "ad_info": {
            "adcode": 532624,
            "province": "云南省",
            "city": "文山壮族苗族自治州",
            "district": "麻栗坡县"
        }
    },
    {
        "id": "9909696861270853821",
        "title": "公共厕所",
        "address": "云南省文山壮族苗族自治州广南县小法段与珠西公路交叉口正南方向118米左右",
        "tel": "",
        "category": "基础设施:公共设施:公共厕所",
        "type": 0,
        "location": {
            "lat": 24.081893,
            "lng": 105.05319
        },
        "ad_info": {
            "adcode": 532627,
            "province": "云南省",
            "city": "文山壮族苗族自治州",
            "district": "广南县"
        }
    },
    {
        "id": "10843877476699680298",
        "title": "公共厕所",
        "address": "云南省文山壮族苗族自治州马关县G219与骏城路交叉口东北方向52米左右",
        "tel": "",
        "category": "基础设施:公共设施:公共厕所",
        "type": 0,
        "location": {
            "lat": 23.022355,
            "lng": 104.394348
        },
        "ad_info": {
            "adcode": 532625,
            "province": "云南省",
            "city": "文山壮族苗族自治州",
            "district": "马关县"
        }
    },
    {
        "id": "12548631411735983664",
        "title": "公共厕所",
        "address": "云南省文山壮族苗族自治州广南县环城南路与珠西公路交叉口正西方向670米左右",
        "tel": "",
        "category": "基础设施:公共设施:公共厕所",
        "type": 0,
        "location": {
            "lat": 24.046312,
            "lng": 105.023374
        },
        "ad_info": {
            "adcode": 532627,
            "province": "云南省",
            "city": "文山壮族苗族自治州",
            "district": "广南县"
        }
    },
    {
        "id": "10905705819374564660",
        "title": "真空环保厕所",
        "address": "云南省文山壮族苗族自治州文山市文山市第七中学西侧120米",
        "tel": "",
        "category": "基础设施:公共设施:公共厕所",
        "type": 0,
        "location": {
            "lat": 23.40518,
            "lng": 104.23002
        },
        "ad_info": {
            "adcode": 532601,
            "province": "云南省",
            "city": "文山壮族苗族自治州",
            "district": "文山市"
        }
    },
    {
        "id": "9450952392728185144",
        "title": "河滨市场1楼公共厕所",
        "address": "云南省文山壮族苗族自治州文山市东风路67号",
        "tel": "",
        "category": "基础设施:公共设施:公共厕所",
        "type": 0,
        "location": {
            "lat": 23.366392,
            "lng": 104.25142
        },
        "ad_info": {
            "adcode": 532601,
            "province": "云南省",
            "city": "文山壮族苗族自治州",
            "district": "文山市"
        }
    },
    {
        "id": "17648637069975449088",
        "title": "珠街服务区公共厕所",
        "address": "云南省文山壮族苗族自治州广南县珠街服务区",
        "tel": "",
        "category": "基础设施:公共设施:公共厕所",
        "type": 0,
        "location": {
            "lat": 23.736843,
            "lng": 104.95546
        },
        "ad_info": {
            "adcode": 532627,
            "province": "云南省",
            "city": "文山壮族苗族自治州",
            "district": "广南县"
        }
    },
    {
        "id": "1635639385095443801",
        "title": "盘龙森林公园公共厕所",
        "address": "云南省文山壮族苗族自治州文山市巴厘岛小区西北100米(开化南路南)",
        "tel": "",
        "category": "基础设施:公共设施:公共厕所",
        "type": 0,
        "location": {
            "lat": 23.350813,
            "lng": 104.263615
        },
        "ad_info": {
            "adcode": 532601,
            "province": "云南省",
            "city": "文山壮族苗族自治州",
            "district": "文山市"
        }
    },
    {
        "id": "1539116460142894688",
        "title": "公共厕所",
        "address": "云南省文山壮族苗族自治州广南县北坛路与西街交叉口正东方向122米左右",
        "tel": "",
        "category": "基础设施:公共设施:公共厕所",
        "type": 0,
        "location": {
            "lat": 24.04875,
            "lng": 105.064831
        },
        "ad_info": {
            "adcode": 532627,
            "province": "云南省",
            "city": "文山壮族苗族自治州",
            "district": "广南县"
        }
    },
    {
        "id": "15868812388920907149",
        "title": "公共厕所",
        "address": "云南省文山壮族苗族自治州广南县北宁路247号",
        "tel": "",
        "category": "基础设施:公共设施:公共厕所",
        "type": 0,
        "location": {
            "lat": 24.054337,
            "lng": 105.050274
        },
        "ad_info": {
            "adcode": 532627,
            "province": "云南省",
            "city": "文山壮族苗族自治州",
            "district": "广南县"
        }
    },
    {
        "id": "2625557217735930781",
        "title": "八宝服务区公共厕所",
        "address": "云南省文山壮族苗族自治州广南县G80广昆高速与八宝服务区交叉口东北120米",
        "tel": "",
        "category": "基础设施:公共设施:公共厕所",
        "type": 0,
        "location": {
            "lat": 23.720688,
            "lng": 105.405979
        },
        "ad_info": {
            "adcode": 532627,
            "province": "云南省",
            "city": "文山壮族苗族自治州",
            "district": "广南县"
        }
    },
    {
        "id": "7696427523740087632",
        "title": "公共厕所",
        "address": "云南省文山壮族苗族自治州砚山县嘉禾二路与嘉禾路交叉口东南方向32米左右",
        "tel": "",
        "category": "基础设施:公共设施:公共厕所",
        "type": 0,
        "location": {
            "lat": 23.612479,
            "lng": 104.343491
        },
        "ad_info": {
            "adcode": 532622,
            "province": "云南省",
            "city": "文山壮族苗族自治州",
            "district": "砚山县"
        }
    },
    {
        "id": "17871491218132170464",
        "title": "归朝服务区公共厕所",
        "address": "云南省文山壮族苗族自治州富宁县G323与基木段交叉口东南方向157米左右",
        "tel": "",
        "category": "基础设施:公共设施:公共厕所",
        "type": 0,
        "location": {
            "lat": 23.640603,
            "lng": 105.814254
        },
        "ad_info": {
            "adcode": 532628,
            "province": "云南省",
            "city": "文山壮族苗族自治州",
            "district": "富宁县"
        }
    },
    {
        "id": "15361433978529452257",
        "title": "归朝服务区公共厕所",
        "address": "云南省文山壮族苗族自治州富宁县归朝服务区内",
        "tel": "",
        "category": "基础设施:公共设施:公共厕所",
        "type": 0,
        "location": {
            "lat": 23.639579,
            "lng": 105.817754
        },
        "ad_info": {
            "adcode": 532628,
            "province": "云南省",
            "city": "文山壮族苗族自治州",
            "district": "富宁县"
        }
    },
    {
        "id": "17579663702772072382",
        "title": "加水检修站公共厕所",
        "address": "云南省文山壮族苗族自治州富宁县G80广昆高速与加水检修站交叉口北140米",
        "tel": "",
        "category": "基础设施:公共设施:公共厕所",
        "type": 0,
        "location": {
            "lat": 23.715851,
            "lng": 105.909076
        },
        "ad_info": {
            "adcode": 532628,
            "province": "云南省",
            "city": "文山壮族苗族自治州",
            "district": "富宁县"
        }
    },
    {
        "id": "2753584244261987742",
        "title": "龙留服务区公共厕所",
        "address": "云南省文山壮族苗族自治州富宁县合那高速与那石高速交叉口西北方向260米左右",
        "tel": "",
        "category": "基础设施:公共设施:公共厕所",
        "type": 0,
        "location": {
            "lat": 23.437477,
            "lng": 105.73698
        },
        "ad_info": {
            "adcode": 532628,
            "province": "云南省",
            "city": "文山壮族苗族自治州",
            "district": "富宁县"
        }
    },
    {
        "id": "12013428740012864966",
        "title": "公共厕所",
        "address": "云南省文山壮族苗族自治州砚山县江那南路与砚华东路交叉口正南方向342米左右",
        "tel": "",
        "category": "基础设施:公共设施:公共厕所",
        "type": 0,
        "location": {
            "lat": 23.609067,
            "lng": 104.350126
        },
        "ad_info": {
            "adcode": 532622,
            "province": "云南省",
            "city": "文山壮族苗族自治州",
            "district": "砚山县"
        }
    },
    {
        "id": "8602927060932357224",
        "title": "公共厕所",
        "address": "云南省文山壮族苗族自治州砚山县G323与城者段交叉口西南方向49米左右",
        "tel": "",
        "category": "基础设施:公共设施:公共厕所",
        "type": 0,
        "location": {
            "lat": 23.673212,
            "lng": 104.416112
        },
        "ad_info": {
            "adcode": 532622,
            "province": "云南省",
            "city": "文山壮族苗族自治州",
            "district": "砚山县"
        }
    },
    {
        "id": "15557871404262179069",
        "title": "珠街服务区公共厕所",
        "address": "云南省文山壮族苗族自治州广南县G80广昆高速与珠街服务区交叉口西120米",
        "tel": "",
        "category": "基础设施:公共设施:公共厕所",
        "type": 0,
        "location": {
            "lat": 23.73543,
            "lng": 104.954915
        },
        "ad_info": {
            "adcode": 532627,
            "province": "云南省",
            "city": "文山壮族苗族自治州",
            "district": "广南县"
        }
    },
    {
        "id": "11241524928122202989",
        "title": "公共厕所",
        "address": "云南省文山壮族苗族自治州砚山县G323与S209交叉口东南方向44米左右",
        "tel": "",
        "category": "基础设施:公共设施:公共厕所",
        "type": 0,
        "location": {
            "lat": 23.74516,
            "lng": 103.792836
        },
        "ad_info": {
            "adcode": 532622,
            "province": "云南省",
            "city": "文山壮族苗族自治州",
            "district": "砚山县"
        }
    },
    {
        "id": "1443812735137873864",
        "title": "公共厕所",
        "address": "云南省文山壮族苗族自治州砚山县S323与达文路交叉口正北方向181米左右",
        "tel": "",
        "category": "基础设施:公共设施:公共厕所",
        "type": 0,
        "location": {
            "lat": 23.600855,
            "lng": 104.33648
        },
        "ad_info": {
            "adcode": 532622,
            "province": "云南省",
            "city": "文山壮族苗族自治州",
            "district": "砚山县"
        }
    },
    {
        "id": "1857034169147198393",
        "title": "公共厕所",
        "address": "云南省文山壮族苗族自治州砚山县振江路与新丰路交叉口正南方向17米左右",
        "tel": "",
        "category": "基础设施:公共设施:公共厕所",
        "type": 0,
        "location": {
            "lat": 23.607257,
            "lng": 104.33736
        },
        "ad_info": {
            "adcode": 532622,
            "province": "云南省",
            "city": "文山壮族苗族自治州",
            "district": "砚山县"
        }
    },
    {
        "id": "15124512597549784450",
        "title": "公共厕所",
        "address": "云南省文山壮族苗族自治州砚山县振江路与砚华中路交叉口东南方向55米左右",
        "tel": "",
        "category": "基础设施:公共设施:公共厕所",
        "type": 0,
        "location": {
            "lat": 23.606792,
            "lng": 104.339232
        },
        "ad_info": {
            "adcode": 532622,
            "province": "云南省",
            "city": "文山壮族苗族自治州",
            "district": "砚山县"
        }
    },
    {
        "id": "3795281409317681367",
        "title": "公共厕所",
        "address": "云南省文山壮族苗族自治州砚山县小稼段与稼依段交叉口正西方向1047米左右",
        "tel": "",
        "category": "基础设施:公共设施:公共厕所",
        "type": 0,
        "location": {
            "lat": 23.71843,
            "lng": 103.93887
        },
        "ad_info": {
            "adcode": 532622,
            "province": "云南省",
            "city": "文山壮族苗族自治州",
            "district": "砚山县"
        }
    },
    {
        "id": "11297624754614892636",
        "title": "公共厕所",
        "address": "云南省文山壮族苗族自治州砚山县书院街与小外革中路交叉口东北方向69米左右",
        "tel": "",
        "category": "基础设施:公共设施:公共厕所",
        "type": 0,
        "location": {
            "lat": 23.605153,
            "lng": 104.33353
        },
        "ad_info": {
            "adcode": 532622,
            "province": "云南省",
            "city": "文山壮族苗族自治州",
            "district": "砚山县"
        }
    },
    {
        "id": "6697590539015565689",
        "title": "公共厕所",
        "address": "云南省文山壮族苗族自治州砚山县Y043与通广路交叉口正东方向21米左右",
        "tel": "",
        "category": "基础设施:公共设施:公共厕所",
        "type": 0,
        "location": {
            "lat": 23.603432,
            "lng": 104.339469
        },
        "ad_info": {
            "adcode": 532622,
            "province": "云南省",
            "city": "文山壮族苗族自治州",
            "district": "砚山县"
        }
    },
    {
        "id": "4431735754584516778",
        "title": "公共厕所",
        "address": "云南省文山壮族苗族自治州砚山县广昆高速与红新立交交叉口正西方向606米左右",
        "tel": "",
        "category": "基础设施:公共设施:公共厕所",
        "type": 0,
        "location": {
            "lat": 23.753249,
            "lng": 103.793774
        },
        "ad_info": {
            "adcode": 532622,
            "province": "云南省",
            "city": "文山壮族苗族自治州",
            "district": "砚山县"
        }
    },
    {
        "id": "17764213807159723687",
        "title": "公共厕所",
        "address": "云南省文山壮族苗族自治州砚山县G323与XH19交叉口西南方向198米左右",
        "tel": "",
        "category": "基础设施:公共设施:公共厕所",
        "type": 0,
        "location": {
            "lat": 23.699932,
            "lng": 104.43285
        },
        "ad_info": {
            "adcode": 532622,
            "province": "云南省",
            "city": "文山壮族苗族自治州",
            "district": "砚山县"
        }
    },
    {
        "id": "5822590002427226295",
        "title": "公共厕所",
        "address": "云南省文山壮族苗族自治州砚山县G323与Y011交叉口东南方向94米左右",
        "tel": "",
        "category": "基础设施:公共设施:公共厕所",
        "type": 0,
        "location": {
            "lat": 23.771923,
            "lng": 103.664349
        },
        "ad_info": {
            "adcode": 532622,
            "province": "云南省",
            "city": "文山壮族苗族自治州",
            "district": "砚山县"
        }
    },
    {
        "id": "6821996015900501088",
        "title": "公共厕所",
        "address": "云南省文山壮族苗族自治州砚山县小海湾坝生态湿地西北侧90米",
        "tel": "",
        "category": "基础设施:公共设施:公共厕所",
        "type": 0,
        "location": {
            "lat": 23.624142,
            "lng": 104.357672
        },
        "ad_info": {
            "adcode": 532622,
            "province": "云南省",
            "city": "文山壮族苗族自治州",
            "district": "砚山县"
        }
    },
    {
        "id": "335747272056091291",
        "title": "公共厕所",
        "address": "云南省文山壮族苗族自治州砚山县振江路与锦山一巷交叉口西南方向53米左右",
        "tel": "",
        "category": "基础设施:公共设施:公共厕所",
        "type": 0,
        "location": {
            "lat": 23.60738,
            "lng": 104.34279
        },
        "ad_info": {
            "adcode": 532622,
            "province": "云南省",
            "city": "文山壮族苗族自治州",
            "district": "砚山县"
        }
    },
    {
        "id": "10620125031661023330",
        "title": "公共厕所",
        "address": "云南省文山壮族苗族自治州砚山县砚华东路与锦山二巷交叉口正东方向25米左右",
        "tel": "",
        "category": "基础设施:公共设施:公共厕所",
        "type": 0,
        "location": {
            "lat": 23.610963,
            "lng": 104.346896
        },
        "ad_info": {
            "adcode": 532622,
            "province": "云南省",
            "city": "文山壮族苗族自治州",
            "district": "砚山县"
        }
    },
    {
        "id": "6184317275322344822",
        "title": "公共厕所",
        "address": "云南省文山壮族苗族自治州砚山县七乡大道与建设北路交叉口东北方向46米左右",
        "tel": "",
        "category": "基础设施:公共设施:公共厕所",
        "type": 0,
        "location": {
            "lat": 23.6166,
            "lng": 104.340257
        },
        "ad_info": {
            "adcode": 532622,
            "province": "云南省",
            "city": "文山壮族苗族自治州",
            "district": "砚山县"
        }
    },
    {
        "id": "6335432467396221992",
        "title": "公共厕所",
        "address": "云南省文山壮族苗族自治州砚山县嘉禾三路50号",
        "tel": "",
        "category": "基础设施:公共设施:公共厕所",
        "type": 0,
        "location": {
            "lat": 23.614115,
            "lng": 104.344052
        },
        "ad_info": {
            "adcode": 532622,
            "province": "云南省",
            "city": "文山壮族苗族自治州",
            "district": "砚山县"
        }
    },
    {
        "id": "11299373712434483045",
        "title": "公共厕所",
        "address": "云南省文山壮族苗族自治州砚山县广昆高速与红新立交交叉口东南方向849米左右",
        "tel": "",
        "category": "基础设施:公共设施:公共厕所",
        "type": 0,
        "location": {
            "lat": 23.744988,
            "lng": 103.812896
        },
        "ad_info": {
            "adcode": 532622,
            "province": "云南省",
            "city": "文山壮族苗族自治州",
            "district": "砚山县"
        }
    },
    {
        "id": "18199393987739696291",
        "title": "公共厕所",
        "address": "云南省文山壮族苗族自治州砚山县振江路与砚华中路交叉口正南方向195米左右",
        "tel": "",
        "category": "基础设施:公共设施:公共厕所",
        "type": 0,
        "location": {
            "lat": 23.605238,
            "lng": 104.338474
        },
        "ad_info": {
            "adcode": 532622,
            "province": "云南省",
            "city": "文山壮族苗族自治州",
            "district": "砚山县"
        }
    },
    {
        "id": "9391308142744360251",
        "title": "珠街服务区公共厕所",
        "address": "云南省文山壮族苗族自治州广南县G80广昆高速与珠街服务区交叉口东南160米",
        "tel": "",
        "category": "基础设施:公共设施:公共厕所",
        "type": 0,
        "location": {
            "lat": 23.735828,
            "lng": 104.954429
        },
        "ad_info": {
            "adcode": 532627,
            "province": "云南省",
            "city": "文山壮族苗族自治州",
            "district": "广南县"
        }
    },
    {
        "id": "13366510970455457877",
        "title": "公共厕所",
        "address": "云南省文山壮族苗族自治州砚山县砚华东路52号",
        "tel": "",
        "category": "基础设施:公共设施:公共厕所",
        "type": 0,
        "location": {
            "lat": 23.609075,
            "lng": 104.343054
        },
        "ad_info": {
            "adcode": 532622,
            "province": "云南省",
            "city": "文山壮族苗族自治州",
            "district": "砚山县"
        }
    },
    {
        "id": "6223871040235626498",
        "title": "平远街服务区公共厕所",
        "address": "云南省文山壮族苗族自治州砚山县G323与XH14交叉口东北方向807米左右",
        "tel": "",
        "category": "基础设施:公共设施:公共厕所",
        "type": 0,
        "location": {
            "lat": 23.765101,
            "lng": 103.774848
        },
        "ad_info": {
            "adcode": 532622,
            "province": "云南省",
            "city": "文山壮族苗族自治州",
            "district": "砚山县"
        }
    },
    {
        "id": "3360921108431473814",
        "title": "公共厕所",
        "address": "云南省文山壮族苗族自治州文山市新闻一路与新闻路交叉口东北方向75米左右",
        "tel": "",
        "category": "基础设施:公共设施:公共厕所",
        "type": 0,
        "location": {
            "lat": 23.378163,
            "lng": 104.24418
        },
        "ad_info": {
            "adcode": 532601,
            "province": "云南省",
            "city": "文山壮族苗族自治州",
            "district": "文山市"
        }
    },
    {
        "id": "5483476734634079443",
        "title": "公共厕所",
        "address": "云南省文山壮族苗族自治州丘北县普炭路与迎宾路交叉口正南方向71米左右",
        "tel": "",
        "category": "基础设施:公共设施:公共厕所",
        "type": 0,
        "location": {
            "lat": 24.048654,
            "lng": 104.158785
        },
        "ad_info": {
            "adcode": 532626,
            "province": "云南省",
            "city": "文山壮族苗族自治州",
            "district": "丘北县"
        }
    },
    {
        "id": "7613907388525660335",
        "title": "公共厕所",
        "address": "云南省文山壮族苗族自治州西畴县人民路与和谐路交叉口西南方向22米左右",
        "tel": "",
        "category": "基础设施:公共设施:公共厕所",
        "type": 0,
        "location": {
            "lat": 23.436268,
            "lng": 104.671491
        },
        "ad_info": {
            "adcode": 532623,
            "province": "云南省",
            "city": "文山壮族苗族自治州",
            "district": "西畴县"
        }
    },
    {
        "id": "6374501411545994077",
        "title": "公共厕所",
        "address": "云南省文山壮族苗族自治州文山市东沙路与建禾东路交叉口正西方向45米左右",
        "tel": "",
        "category": "基础设施:公共设施:公共厕所",
        "type": 0,
        "location": {
            "lat": 23.364659,
            "lng": 104.25773
        },
        "ad_info": {
            "adcode": 532601,
            "province": "云南省",
            "city": "文山壮族苗族自治州",
            "district": "文山市"
        }
    },
    {
        "id": "17803683195663270402",
        "title": "公共厕所",
        "address": "云南省文山壮族苗族自治州麻栗坡县X351与文天线交叉口东北方向1105米左右",
        "tel": "",
        "category": "基础设施:公共设施:公共厕所",
        "type": 0,
        "location": {
            "lat": 23.138553,
            "lng": 104.701978
        },
        "ad_info": {
            "adcode": 532624,
            "province": "云南省",
            "city": "文山壮族苗族自治州",
            "district": "麻栗坡县"
        }
    },
    {
        "id": "4716847993493506019",
        "title": "公共厕所",
        "address": "云南省文山壮族苗族自治州文山市文山滇南中医院东南侧60米",
        "tel": "",
        "category": "基础设施:公共设施:公共厕所",
        "type": 0,
        "location": {
            "lat": 23.35978,
            "lng": 104.255863
        },
        "ad_info": {
            "adcode": 532601,
            "province": "云南省",
            "city": "文山壮族苗族自治州",
            "district": "文山市"
        }
    },
    {
        "id": "6762643082968323761",
        "title": "老山主峰旅游公共厕所",
        "address": "云南省文山壮族苗族自治州麻栗坡县天保镇猛硐乡麻栗坡英雄老山圣地景区内",
        "tel": "",
        "category": "基础设施:公共设施:公共厕所",
        "type": 0,
        "location": {
            "lat": 22.91433,
            "lng": 104.8103
        },
        "ad_info": {
            "adcode": 532624,
            "province": "云南省",
            "city": "文山壮族苗族自治州",
            "district": "麻栗坡县"
        }
    },
    {
        "id": "14625124507162310822",
        "title": "公共厕所",
        "address": "云南省文山壮族苗族自治州文山市开化北路与西华路交叉口西北方向238米左右",
        "tel": "",
        "category": "基础设施:公共设施:公共厕所",
        "type": 0,
        "location": {
            "lat": 23.385402,
            "lng": 104.20451
        },
        "ad_info": {
            "adcode": 532601,
            "province": "云南省",
            "city": "文山壮族苗族自治州",
            "district": "文山市"
        }
    },
    {
        "id": "13040257751072804057",
        "title": "公共厕所",
        "address": "云南省文山壮族苗族自治州文山市凤凰路与龙海路交叉口东南方向254米左右",
        "tel": "",
        "category": "基础设施:公共设施:公共厕所",
        "type": 0,
        "location": {
            "lat": 23.382885,
            "lng": 104.234228
        },
        "ad_info": {
            "adcode": 532601,
            "province": "云南省",
            "city": "文山壮族苗族自治州",
            "district": "文山市"
        }
    },
    {
        "id": "14548000916183822721",
        "title": "公共厕所",
        "address": "云南省文山壮族苗族自治州马关县石兴路与马兴线交叉口东北方向275米左右",
        "tel": "",
        "category": "基础设施:公共设施:公共厕所",
        "type": 0,
        "location": {
            "lat": 23.007225,
            "lng": 104.405586
        },
        "ad_info": {
            "adcode": 532625,
            "province": "云南省",
            "city": "文山壮族苗族自治州",
            "district": "马关县"
        }
    },
    {
        "id": "12927206728694676449",
        "title": "公共厕所",
        "address": "云南省文山壮族苗族自治州麻栗坡县临江路与临溪路交叉口东北方向36米左右",
        "tel": "",
        "category": "基础设施:公共设施:公共厕所",
        "type": 0,
        "location": {
            "lat": 23.122998,
            "lng": 104.70786
        },
        "ad_info": {
            "adcode": 532624,
            "province": "云南省",
            "city": "文山壮族苗族自治州",
            "district": "麻栗坡县"
        }
    },
    {
        "id": "10432373972733479324",
        "title": "温浏乡公共厕所",
        "address": "云南省文山壮族苗族自治州丘北县",
        "tel": "",
        "category": "基础设施:公共设施:公共厕所",
        "type": 0,
        "location": {
            "lat": 24.284752,
            "lng": 104.424676
        },
        "ad_info": {
            "adcode": 532626,
            "province": "云南省",
            "city": "文山壮族苗族自治州",
            "district": "丘北县"
        }
    },
    {
        "id": "13433431705831540020",
        "title": "公共厕所",
        "address": "云南省文山壮族苗族自治州麻栗坡县麻栗坡县人民医院西北侧100米",
        "tel": "",
        "category": "基础设施:公共设施:公共厕所",
        "type": 0,
        "location": {
            "lat": 23.130891,
            "lng": 104.709831
        },
        "ad_info": {
            "adcode": 532624,
            "province": "云南省",
            "city": "文山壮族苗族自治州",
            "district": "麻栗坡县"
        }
    },
    {
        "id": "958612609066668280",
        "title": "公共厕所",
        "address": "云南省文山壮族苗族自治州马关县园中西路与马中路交叉口东北方向238米左右",
        "tel": "",
        "category": "基础设施:公共设施:公共厕所",
        "type": 0,
        "location": {
            "lat": 23.007571,
            "lng": 104.396711
        },
        "ad_info": {
            "adcode": 532625,
            "province": "云南省",
            "city": "文山壮族苗族自治州",
            "district": "马关县"
        }
    },
    {
        "id": "8029585016241140859",
        "title": "公共厕所",
        "address": "云南省文山壮族苗族自治州马关县铜锡路与锌锡路交叉口西北方向24米左右",
        "tel": "",
        "category": "基础设施:公共设施:公共厕所",
        "type": 0,
        "location": {
            "lat": 22.897723,
            "lng": 104.52422
        },
        "ad_info": {
            "adcode": 532625,
            "province": "云南省",
            "city": "文山壮族苗族自治州",
            "district": "马关县"
        }
    },
    {
        "id": "10092779612094787281",
        "title": "公共厕所",
        "address": "云南省文山壮族苗族自治州砚山县通广路与锦山路交叉口正东方向300米左右",
        "tel": "",
        "category": "基础设施:公共设施:公共厕所",
        "type": 0,
        "location": {
            "lat": 23.606271,
            "lng": 104.347323
        },
        "ad_info": {
            "adcode": 532622,
            "province": "云南省",
            "city": "文山壮族苗族自治州",
            "district": "砚山县"
        }
    },
    {
        "id": "3608762880455723417",
        "title": "炭房服务区公共厕所",
        "address": "云南省文山壮族苗族自治州砚山县G80广昆高速与炭房服务区交叉口西480米",
        "tel": "",
        "category": "基础设施:公共设施:公共厕所",
        "type": 0,
        "location": {
            "lat": 23.715659,
            "lng": 104.154392
        },
        "ad_info": {
            "adcode": 532622,
            "province": "云南省",
            "city": "文山壮族苗族自治州",
            "district": "砚山县"
        }
    },
    {
        "id": "6762456186113920344",
        "title": "公共厕所",
        "address": "云南省文山壮族苗族自治州富宁县",
        "tel": "",
        "category": "基础设施:公共设施:公共厕所",
        "type": 0,
        "location": {
            "lat": 23.859421,
            "lng": 105.614224
        },
        "ad_info": {
            "adcode": 532628,
            "province": "云南省",
            "city": "文山壮族苗族自治州",
            "district": "富宁县"
        }
    },
    {
        "id": "9126991251577922250",
        "title": "公共厕所",
        "address": "云南省文山壮族苗族自治州富宁县",
        "tel": "",
        "category": "基础设施:公共设施:公共厕所",
        "type": 0,
        "location": {
            "lat": 23.639902,
            "lng": 105.550418
        },
        "ad_info": {
            "adcode": 532628,
            "province": "云南省",
            "city": "文山壮族苗族自治州",
            "district": "富宁县"
        }
    },
    {
        "id": "5450254968622318113",
        "title": "公共厕所",
        "address": "云南省文山壮族苗族自治州麻栗坡县奋进路与磨柏段交叉口西南方向526米左右",
        "tel": "",
        "category": "基础设施:公共设施:公共厕所",
        "type": 0,
        "location": {
            "lat": 23.15089,
            "lng": 104.69286
        },
        "ad_info": {
            "adcode": 532624,
            "province": "云南省",
            "city": "文山壮族苗族自治州",
            "district": "麻栗坡县"
        }
    },
    {
        "id": "144109300773343137",
        "title": "公共厕所",
        "address": "云南省文山壮族苗族自治州文山市石海路与西华路交叉口正东方向235米左右",
        "tel": "",
        "category": "基础设施:公共设施:公共厕所",
        "type": 0,
        "location": {
            "lat": 23.374322,
            "lng": 104.222016
        },
        "ad_info": {
            "adcode": 532601,
            "province": "云南省",
            "city": "文山壮族苗族自治州",
            "district": "文山市"
        }
    },
    {
        "id": "2969920159703667124",
        "title": "公共厕所",
        "address": "云南省文山壮族苗族自治州西畴县第一中学知行院东侧60米",
        "tel": "",
        "category": "基础设施:公共设施:公共厕所",
        "type": 0,
        "location": {
            "lat": 23.449866,
            "lng": 104.687293
        },
        "ad_info": {
            "adcode": 532623,
            "province": "云南省",
            "city": "文山壮族苗族自治州",
            "district": "西畴县"
        }
    },
    {
        "id": "8476525281884962207",
        "title": "公共厕所",
        "address": "云南省文山壮族苗族自治州文山市S209与S210交叉口正东方向845米左右",
        "tel": "",
        "category": "基础设施:公共设施:公共厕所",
        "type": 0,
        "location": {
            "lat": 23.439541,
            "lng": 104.144655
        },
        "ad_info": {
            "adcode": 532601,
            "province": "云南省",
            "city": "文山壮族苗族自治州",
            "district": "文山市"
        }
    },
    {
        "id": "15685657700035405623",
        "title": "公共厕所",
        "address": "云南省文山壮族苗族自治州砚山县X353与砚华西路交叉口正西方向195米左右",
        "tel": "",
        "category": "基础设施:公共设施:公共厕所",
        "type": 0,
        "location": {
            "lat": 23.606375,
            "lng": 104.317558
        },
        "ad_info": {
            "adcode": 532622,
            "province": "云南省",
            "city": "文山壮族苗族自治州",
            "district": "砚山县"
        }
    },
    {
        "id": "2863611868954701504",
        "title": "公共厕所",
        "address": "云南省文山壮族苗族自治州砚山县振江路与砚华中路交叉口东南方向14米左右",
        "tel": "",
        "category": "基础设施:公共设施:公共厕所",
        "type": 0,
        "location": {
            "lat": 23.606911,
            "lng": 104.338848
        },
        "ad_info": {
            "adcode": 532622,
            "province": "云南省",
            "city": "文山壮族苗族自治州",
            "district": "砚山县"
        }
    },
    {
        "id": "11070879415753646684",
        "title": "公共厕所",
        "address": "云南省文山壮族苗族自治州文山市友谊路与和谐路交叉口西北方向98米左右",
        "tel": "",
        "category": "基础设施:公共设施:公共厕所",
        "type": 0,
        "location": {
            "lat": 23.351377,
            "lng": 104.257157
        },
        "ad_info": {
            "adcode": 532601,
            "province": "云南省",
            "city": "文山壮族苗族自治州",
            "district": "文山市"
        }
    },
    {
        "id": "2389513168614076696",
        "title": "公共厕所",
        "address": "云南省文山壮族苗族自治州马关县崇文路与盛平街交叉口东北方向222米左右",
        "tel": "",
        "category": "基础设施:公共设施:公共厕所",
        "type": 0,
        "location": {
            "lat": 23.012762,
            "lng": 104.38105
        },
        "ad_info": {
            "adcode": 532625,
            "province": "云南省",
            "city": "文山壮族苗族自治州",
            "district": "马关县"
        }
    },
    {
        "id": "17916224073614026501",
        "title": "西正街公共厕所",
        "address": "云南省文山壮族苗族自治州文山市文华路与西正街交叉口正北方向37米左右",
        "tel": "",
        "category": "基础设施:公共设施:公共厕所",
        "type": 0,
        "location": {
            "lat": 23.370857,
            "lng": 104.251291
        },
        "ad_info": {
            "adcode": 532601,
            "province": "云南省",
            "city": "文山壮族苗族自治州",
            "district": "文山市"
        }
    },
    {
        "id": "9991235108995492874",
        "title": "无障碍公共厕所",
        "address": "云南省文山壮族苗族自治州广南县南秀路与波妈路交叉口正北方向313米左右",
        "tel": "",
        "category": "基础设施:公共设施:公共厕所",
        "type": 0,
        "location": {
            "lat": 24.050788,
            "lng": 105.043312
        },
        "ad_info": {
            "adcode": 532627,
            "province": "云南省",
            "city": "文山壮族苗族自治州",
            "district": "广南县"
        }
    },
    {
        "id": "16045260047046271081",
        "title": "公共厕所",
        "address": "云南省文山壮族苗族自治州富宁县",
        "tel": "",
        "category": "基础设施:公共设施:公共厕所",
        "type": 0,
        "location": {
            "lat": 23.709545,
            "lng": 105.853605
        },
        "ad_info": {
            "adcode": 532628,
            "province": "云南省",
            "city": "文山壮族苗族自治州",
            "district": "富宁县"
        }
    },
    {
        "id": "15742119922133703563",
        "title": "公共厕所",
        "address": "云南省文山壮族苗族自治州文山市S209与花二段交叉口正东方向249米左右",
        "tel": "",
        "category": "基础设施:公共设施:公共厕所",
        "type": 0,
        "location": {
            "lat": 23.548164,
            "lng": 103.98303
        },
        "ad_info": {
            "adcode": 532601,
            "province": "云南省",
            "city": "文山壮族苗族自治州",
            "district": "文山市"
        }
    },
    {
        "id": "14952050059169431396",
        "title": "公共厕所",
        "address": "云南省文山壮族苗族自治州广南县X350与那汪线交叉口东南方向460米左右",
        "tel": "",
        "category": "基础设施:公共设施:公共厕所",
        "type": 0,
        "location": {
            "lat": 24.11383,
            "lng": 104.986154
        },
        "ad_info": {
            "adcode": 532627,
            "province": "云南省",
            "city": "文山壮族苗族自治州",
            "district": "广南县"
        }
    },
    {
        "id": "15601235733908692104",
        "title": "公共厕所",
        "address": "云南省文山壮族苗族自治州富宁县迎宾路与马市街交叉口东南方向38米左右",
        "tel": "",
        "category": "基础设施:公共设施:公共厕所",
        "type": 0,
        "location": {
            "lat": 23.627002,
            "lng": 105.620441
        },
        "ad_info": {
            "adcode": 532628,
            "province": "云南省",
            "city": "文山壮族苗族自治州",
            "district": "富宁县"
        }
    },
    {
        "id": "5613961663772329480",
        "title": "公共厕所",
        "address": "云南省文山壮族苗族自治州砚山县华宇路与祥平路交叉口正西方向297米左右",
        "tel": "",
        "category": "基础设施:公共设施:公共厕所",
        "type": 0,
        "location": {
            "lat": 23.745466,
            "lng": 103.783007
        },
        "ad_info": {
            "adcode": 532622,
            "province": "云南省",
            "city": "文山壮族苗族自治州",
            "district": "砚山县"
        }
    },
    {
        "id": "854497274889392616",
        "title": "公共厕所",
        "address": "云南省文山壮族苗族自治州广南县广南大道与环城路交叉口正南方向325米左右",
        "tel": "",
        "category": "基础设施:公共设施:公共厕所",
        "type": 0,
        "location": {
            "lat": 24.051395,
            "lng": 105.073851
        },
        "ad_info": {
            "adcode": 532627,
            "province": "云南省",
            "city": "文山壮族苗族自治州",
            "district": "广南县"
        }
    },
    {
        "id": "5740756510633980488",
        "title": "公共厕所",
        "address": "云南省文山壮族苗族自治州文山市S210",
        "tel": "",
        "category": "基础设施:公共设施:公共厕所",
        "type": 0,
        "location": {
            "lat": 23.438183,
            "lng": 104.146323
        },
        "ad_info": {
            "adcode": 532601,
            "province": "云南省",
            "city": "文山壮族苗族自治州",
            "district": "文山市"
        }
    },
    {
        "id": "5245679136086546640",
        "title": "公共厕所",
        "address": "云南省文山壮族苗族自治州西畴县中国石化上新民加油站东侧130米",
        "tel": "",
        "category": "基础设施:公共设施:公共厕所",
        "type": 0,
        "location": {
            "lat": 23.430379,
            "lng": 104.664147
        },
        "ad_info": {
            "adcode": 532623,
            "province": "云南省",
            "city": "文山壮族苗族自治州",
            "district": "西畴县"
        }
    },
    {
        "id": "3240649331797114571",
        "title": "公共厕所",
        "address": "云南省文山壮族苗族自治州文山市东文路与大龙潭交叉口正南方向198米左右",
        "tel": "",
        "category": "基础设施:公共设施:公共厕所",
        "type": 0,
        "location": {
            "lat": 23.353479,
            "lng": 104.279214
        },
        "ad_info": {
            "adcode": 532601,
            "province": "云南省",
            "city": "文山壮族苗族自治州",
            "district": "文山市"
        }
    },
    {
        "id": "15252077885443898747",
        "title": "公共厕所",
        "address": "云南省文山壮族苗族自治州砚山县七乡大道与嘉禾四路交叉口东南方向27米左右",
        "tel": "",
        "category": "基础设施:公共设施:公共厕所",
        "type": 0,
        "location": {
            "lat": 23.616131,
            "lng": 104.346818
        },
        "ad_info": {
            "adcode": 532622,
            "province": "云南省",
            "city": "文山壮族苗族自治州",
            "district": "砚山县"
        }
    },
    {
        "id": "13774192129707052404",
        "title": "丘北音乐广场公共厕所",
        "address": "云南省文山壮族苗族自治州丘北县普者黑大街247号",
        "tel": "",
        "category": "基础设施:公共设施:公共厕所",
        "type": 0,
        "location": {
            "lat": 24.037001,
            "lng": 104.183519
        },
        "ad_info": {
            "adcode": 532626,
            "province": "云南省",
            "city": "文山壮族苗族自治州",
            "district": "丘北县"
        }
    },
    {
        "id": "5143709034318178979",
        "title": "公共厕所",
        "address": "云南省文山壮族苗族自治州西畴县S210(文天线)",
        "tel": "",
        "category": "基础设施:公共设施:公共厕所",
        "type": 0,
        "location": {
            "lat": 23.245672,
            "lng": 104.570987
        },
        "ad_info": {
            "adcode": 532623,
            "province": "云南省",
            "city": "文山壮族苗族自治州",
            "district": "西畴县"
        }
    },
    {
        "id": "5571793449261014148",
        "title": "公共厕所",
        "address": "云南省文山壮族苗族自治州文山市S209与平马高速交叉口西北方向1953米左右",
        "tel": "",
        "category": "基础设施:公共设施:公共厕所",
        "type": 0,
        "location": {
            "lat": 23.62928,
            "lng": 103.858974
        },
        "ad_info": {
            "adcode": 532601,
            "province": "云南省",
            "city": "文山壮族苗族自治州",
            "district": "文山市"
        }
    },
    {
        "id": "4463037121115403511",
        "title": "公共厕所",
        "address": "云南省文山壮族苗族自治州麻栗坡县麻卡段与麻栗坡连接线交叉口正南方向194米左右",
        "tel": "",
        "category": "基础设施:公共设施:公共厕所",
        "type": 0,
        "location": {
            "lat": 23.119492,
            "lng": 104.71188
        },
        "ad_info": {
            "adcode": 532624,
            "province": "云南省",
            "city": "文山壮族苗族自治州",
            "district": "麻栗坡县"
        }
    },
    {
        "id": "9820211364913729436",
        "title": "公共厕所",
        "address": "云南省文山壮族苗族自治州砚山县Y056与达文路交叉口东北方向451米左右",
        "tel": "",
        "category": "基础设施:公共设施:公共厕所",
        "type": 0,
        "location": {
            "lat": 23.592796,
            "lng": 104.33297
        },
        "ad_info": {
            "adcode": 532622,
            "province": "云南省",
            "city": "文山壮族苗族自治州",
            "district": "砚山县"
        }
    },
    {
        "id": "7715760650307440791",
        "title": "公共厕所",
        "address": "云南省文山壮族苗族自治州砚山县G80广昆高速与红新立交交叉口东北80米",
        "tel": "",
        "category": "基础设施:公共设施:公共厕所",
        "type": 0,
        "location": {
            "lat": 23.753195,
            "lng": 103.80027
        },
        "ad_info": {
            "adcode": 532622,
            "province": "云南省",
            "city": "文山壮族苗族自治州",
            "district": "砚山县"
        }
    },
    {
        "id": "14886841576069509738",
        "title": "公共厕所",
        "address": "云南省文山壮族苗族自治州砚山县兴业中路与兴业路交叉口正东方向454米左右",
        "tel": "",
        "category": "基础设施:公共设施:公共厕所",
        "type": 0,
        "location": {
            "lat": 23.655506,
            "lng": 104.349705
        },
        "ad_info": {
            "adcode": 532622,
            "province": "云南省",
            "city": "文山壮族苗族自治州",
            "district": "砚山县"
        }
    },
    {
        "id": "33111486327534476",
        "title": "公共厕所",
        "address": "云南省文山壮族苗族自治州文山市普阳西路与秀峰路交叉口西北方向41米左右",
        "tel": "",
        "category": "基础设施:公共设施:公共厕所",
        "type": 0,
        "location": {
            "lat": 23.367766,
            "lng": 104.241443
        },
        "ad_info": {
            "adcode": 532601,
            "province": "云南省",
            "city": "文山壮族苗族自治州",
            "district": "文山市"
        }
    },
    {
        "id": "1416615370262459173",
        "title": "公共厕所",
        "address": "云南省文山壮族苗族自治州丘北县S312与丘广路交叉口正东方向315米左右",
        "tel": "",
        "category": "基础设施:公共设施:公共厕所",
        "type": 0,
        "location": {
            "lat": 24.05422,
            "lng": 104.202303
        },
        "ad_info": {
            "adcode": 532626,
            "province": "云南省",
            "city": "文山壮族苗族自治州",
            "district": "丘北县"
        }
    },
    {
        "id": "16257688230884819330",
        "title": "公共厕所",
        "address": "云南省文山壮族苗族自治州马关县G219与骏城路交叉口正西方向53米左右",
        "tel": "",
        "category": "基础设施:公共设施:公共厕所",
        "type": 0,
        "location": {
            "lat": 23.022113,
            "lng": 104.393442
        },
        "ad_info": {
            "adcode": 532625,
            "province": "云南省",
            "city": "文山壮族苗族自治州",
            "district": "马关县"
        }
    },
    {
        "id": "3458533414921326386",
        "title": "公共厕所",
        "address": "云南省文山壮族苗族自治州丘北县S206与凤尾桥交叉口正北方向60米左右",
        "tel": "",
        "category": "基础设施:公共设施:公共厕所",
        "type": 0,
        "location": {
            "lat": 24.339142,
            "lng": 104.312102
        },
        "ad_info": {
            "adcode": 532626,
            "province": "云南省",
            "city": "文山壮族苗族自治州",
            "district": "丘北县"
        }
    },
    {
        "id": "14887341254518142902",
        "title": "公共厕所",
        "address": "云南省文山壮族苗族自治州文山市普阳东路与龙海路交叉口正东方向67米左右",
        "tel": "",
        "category": "基础设施:公共设施:公共厕所",
        "type": 0,
        "location": {
            "lat": 23.388113,
            "lng": 104.238671
        },
        "ad_info": {
            "adcode": 532601,
            "province": "云南省",
            "city": "文山壮族苗族自治州",
            "district": "文山市"
        }
    },
    {
        "id": "6318306899178033283",
        "title": "公共厕所",
        "address": "云南省文山壮族苗族自治州文山市344县道东100米",
        "tel": "",
        "category": "基础设施:公共设施:公共厕所",
        "type": 0,
        "location": {
            "lat": 23.24336,
            "lng": 104.101565
        },
        "ad_info": {
            "adcode": 532601,
            "province": "云南省",
            "city": "文山壮族苗族自治州",
            "district": "文山市"
        }
    },
    {
        "id": "2234299047680276214",
        "title": "公共厕所",
        "address": "云南省文山壮族苗族自治州麻栗坡县凤凰路与文天线交叉口正北方向470米左右",
        "tel": "",
        "category": "基础设施:公共设施:公共厕所",
        "type": 0,
        "location": {
            "lat": 23.162839,
            "lng": 104.677012
        },
        "ad_info": {
            "adcode": 532624,
            "province": "云南省",
            "city": "文山壮族苗族自治州",
            "district": "麻栗坡县"
        }
    },
    {
        "id": "11355522086268202357",
        "title": "公共厕所",
        "address": "云南省文山壮族苗族自治州马关县S209与文都线交叉口东北方向520米左右",
        "tel": "",
        "category": "基础设施:公共设施:公共厕所",
        "type": 0,
        "location": {
            "lat": 22.998633,
            "lng": 104.396967
        },
        "ad_info": {
            "adcode": 532625,
            "province": "云南省",
            "city": "文山壮族苗族自治州",
            "district": "马关县"
        }
    },
    {
        "id": "13678271683917239200",
        "title": "公共厕所",
        "address": "云南省文山壮族苗族自治州丘北县东湖路与锦华路交叉口正西方向21米左右",
        "tel": "",
        "category": "基础设施:公共设施:公共厕所",
        "type": 0,
        "location": {
            "lat": 24.036627,
            "lng": 104.196012
        },
        "ad_info": {
            "adcode": 532626,
            "province": "云南省",
            "city": "文山壮族苗族自治州",
            "district": "丘北县"
        }
    },
    {
        "id": "10945081565491404063",
        "title": "公共厕所",
        "address": "云南省文山壮族苗族自治州文山市学海巷与河滨路交叉口正北方向137米左右",
        "tel": "",
        "category": "基础设施:公共设施:公共厕所",
        "type": 0,
        "location": {
            "lat": 23.370043,
            "lng": 104.255683
        },
        "ad_info": {
            "adcode": 532601,
            "province": "云南省",
            "city": "文山壮族苗族自治州",
            "district": "文山市"
        }
    },
    {
        "id": "10675455261173542967",
        "title": "公共厕所",
        "address": "云南省文山壮族苗族自治州砚山县G323与Y018交叉口西北方向653米左右",
        "tel": "",
        "category": "基础设施:公共设施:公共厕所",
        "type": 0,
        "location": {
            "lat": 23.735527,
            "lng": 104.184687
        },
        "ad_info": {
            "adcode": 532622,
            "province": "云南省",
            "city": "文山壮族苗族自治州",
            "district": "砚山县"
        }
    },
    {
        "id": "14414482966209929797",
        "title": "公共厕所",
        "address": "云南省文山壮族苗族自治州砚山县G248与岔幕段交叉口正西方向121米左右",
        "tel": "",
        "category": "基础设施:公共设施:公共厕所",
        "type": 0,
        "location": {
            "lat": 23.723296,
            "lng": 104.185951
        },
        "ad_info": {
            "adcode": 532622,
            "province": "云南省",
            "city": "文山壮族苗族自治州",
            "district": "砚山县"
        }
    },
    {
        "id": "7401580252277359084",
        "title": "公共厕所",
        "address": "云南省文山壮族苗族自治州文山市开化中路151号",
        "tel": "",
        "category": "基础设施:公共设施:公共厕所",
        "type": 0,
        "location": {
            "lat": 23.362828,
            "lng": 104.249089
        },
        "ad_info": {
            "adcode": 532601,
            "province": "云南省",
            "city": "文山壮族苗族自治州",
            "district": "文山市"
        }
    },
    {
        "id": "7926512646038381645",
        "title": "炭房社区碳兴路公共厕所服务区",
        "address": "云南省文山壮族苗族自治州砚山县普炭公路与普炭路交叉口西南方向276米左右",
        "tel": "",
        "category": "基础设施:公共设施:公共厕所",
        "type": 0,
        "location": {
            "lat": 23.739237,
            "lng": 104.194919
        },
        "ad_info": {
            "adcode": 532622,
            "province": "云南省",
            "city": "文山壮族苗族自治州",
            "district": "砚山县"
        }
    },
    {
        "id": "7290547457973172239",
        "title": "阿科六组公共厕所",
        "address": "云南省文山壮族苗族自治州广南县G246广场旁边",
        "tel": "",
        "category": "基础设施:公共设施:公共厕所",
        "type": 0,
        "location": {
            "lat": 24.262634,
            "lng": 105.084007
        },
        "ad_info": {
            "adcode": 532627,
            "province": "云南省",
            "city": "文山壮族苗族自治州",
            "district": "广南县"
        }
    },
    {
        "id": "1414831706742595180",
        "title": "珠街镇小阿章村小干坝公共卫生厕所",
        "address": "云南省文山壮族苗族自治州广南县",
        "tel": "",
        "category": "基础设施:公共设施:公共厕所",
        "type": 0,
        "location": {
            "lat": 23.715369,
            "lng": 105.019707
        },
        "ad_info": {
            "adcode": 532627,
            "province": "云南省",
            "city": "文山壮族苗族自治州",
            "district": "广南县"
        }
    },
    {
        "id": "8202574437910433085",
        "title": "砚山停车区公共厕所",
        "address": "云南省文山壮族苗族自治州砚山县广昆高速砚山停车区",
        "tel": "",
        "category": "基础设施:公共设施:公共厕所",
        "type": 0,
        "location": {
            "lat": 23.663634,
            "lng": 104.343687
        },
        "ad_info": {
            "adcode": 532622,
            "province": "云南省",
            "city": "文山壮族苗族自治州",
            "district": "砚山县"
        }
    },
    {
        "id": "4650814589831279967",
        "title": "公共厕所",
        "address": "云南省文山壮族苗族自治州丘北县文翠路与普者黑大街交叉口正西方向263米左右",
        "tel": "",
        "category": "基础设施:公共设施:公共厕所",
        "type": 0,
        "location": {
            "lat": 24.036216,
            "lng": 104.188669
        },
        "ad_info": {
            "adcode": 532626,
            "province": "云南省",
            "city": "文山壮族苗族自治州",
            "district": "丘北县"
        }
    },
    {
        "id": "1127768695258692910",
        "title": "公共厕所",
        "address": "云南省文山壮族苗族自治州丘北县普炭公路与普炭路交叉口正西方向97米左右",
        "tel": "",
        "category": "基础设施:公共设施:公共厕所",
        "type": 0,
        "location": {
            "lat": 23.875943,
            "lng": 104.205739
        },
        "ad_info": {
            "adcode": 532626,
            "province": "云南省",
            "city": "文山壮族苗族自治州",
            "district": "丘北县"
        }
    },
    {
        "id": "7808404074677563596",
        "title": "公共厕所",
        "address": "云南省文山壮族苗族自治州马关县鸿永钢材西北侧60米",
        "tel": "",
        "category": "基础设施:公共设施:公共厕所",
        "type": 0,
        "location": {
            "lat": 23.103065,
            "lng": 104.069345
        },
        "ad_info": {
            "adcode": 532625,
            "province": "云南省",
            "city": "文山壮族苗族自治州",
            "district": "马关县"
        }
    },
    {
        "id": "1782816262129511838",
        "title": "六诏加水站公共厕所",
        "address": "云南省文山壮族苗族自治州砚山县广昆高速",
        "tel": "",
        "category": "基础设施:公共设施:公共厕所",
        "type": 0,
        "location": {
            "lat": 23.668816,
            "lng": 104.538629
        },
        "ad_info": {
            "adcode": 532622,
            "province": "云南省",
            "city": "文山壮族苗族自治州",
            "district": "砚山县"
        }
    },
    {
        "id": "8032568922022441914",
        "title": "公共厕所",
        "address": "云南省文山壮族苗族自治州广南县北宁路与莲城北路交叉口正南方向68米左右",
        "tel": "",
        "category": "基础设施:公共设施:公共厕所",
        "type": 0,
        "location": {
            "lat": 24.053705,
            "lng": 105.066276
        },
        "ad_info": {
            "adcode": 532627,
            "province": "云南省",
            "city": "文山壮族苗族自治州",
            "district": "广南县"
        }
    },
    {
        "id": "6104331901973916214",
        "title": "传习馆公共厕所",
        "address": "云南省文山壮族苗族自治州西畴县G246与马土段交叉口西北方向1244米左右",
        "tel": "",
        "category": "基础设施:公共设施:公共厕所",
        "type": 0,
        "location": {
            "lat": 23.485144,
            "lng": 104.700563
        },
        "ad_info": {
            "adcode": 532623,
            "province": "云南省",
            "city": "文山壮族苗族自治州",
            "district": "西畴县"
        }
    },
    {
        "id": "4124779687756907462",
        "title": "公共厕所",
        "address": "云南省文山壮族苗族自治州广南县广南县疾病预防控制中心南侧210米",
        "tel": "",
        "category": "基础设施:公共设施:公共厕所",
        "type": 0,
        "location": {
            "lat": 24.051032,
            "lng": 105.039435
        },
        "ad_info": {
            "adcode": 532627,
            "province": "云南省",
            "city": "文山壮族苗族自治州",
            "district": "广南县"
        }
    },
    {
        "id": "13949164216368946755",
        "title": "公共厕所",
        "address": "云南省文山壮族苗族自治州文山市下沙坝小区东路与沿河路交叉口西北方向39米左右",
        "tel": "",
        "category": "基础设施:公共设施:公共厕所",
        "type": 0,
        "location": {
            "lat": 23.35962,
            "lng": 104.259301
        },
        "ad_info": {
            "adcode": 532601,
            "province": "云南省",
            "city": "文山壮族苗族自治州",
            "district": "文山市"
        }
    },
    {
        "id": "7911100762211783970",
        "title": "公共厕所",
        "address": "云南省文山壮族苗族自治州麻栗坡县大新段与熊大段交叉口东北方向485米左右",
        "tel": "",
        "category": "基础设施:公共设施:公共厕所",
        "type": 0,
        "location": {
            "lat": 23.108216,
            "lng": 104.592917
        },
        "ad_info": {
            "adcode": 532624,
            "province": "云南省",
            "city": "文山壮族苗族自治州",
            "district": "麻栗坡县"
        }
    },
    {
        "id": "3007037712510641131",
        "title": "那洒加水站公共厕所",
        "address": "云南省文山壮族苗族自治州广南县G80广昆高速与那洒加水站交叉口西440米",
        "tel": "",
        "category": "基础设施:公共设施:公共厕所",
        "type": 0,
        "location": {
            "lat": 23.712796,
            "lng": 104.745839
        },
        "ad_info": {
            "adcode": 532627,
            "province": "云南省",
            "city": "文山壮族苗族自治州",
            "district": "广南县"
        }
    },
    {
        "id": "5790666700396924408",
        "title": "马关服务区公共厕所",
        "address": "云南省文山壮族苗族自治州马关县马关服务区与S21文马高速交叉口南180米",
        "tel": "",
        "category": "基础设施:公共设施:公共厕所",
        "type": 0,
        "location": {
            "lat": 23.042169,
            "lng": 104.362929
        },
        "ad_info": {
            "adcode": 532625,
            "province": "云南省",
            "city": "文山壮族苗族自治州",
            "district": "马关县"
        }
    },
    {
        "id": "9808935963373619730",
        "title": "公共厕所",
        "address": "云南省文山壮族苗族自治州广南县S312与西洋桥交叉口东北方向1225米左右",
        "tel": "",
        "category": "基础设施:公共设施:公共厕所",
        "type": 0,
        "location": {
            "lat": 23.890753,
            "lng": 105.34223
        },
        "ad_info": {
            "adcode": 532627,
            "province": "云南省",
            "city": "文山壮族苗族自治州",
            "district": "广南县"
        }
    },
    {
        "id": "5960218711689463142",
        "title": "公共厕所",
        "address": "云南省文山壮族苗族自治州广南县南秀路与较场路交叉口正东方向211米左右",
        "tel": "",
        "category": "基础设施:公共设施:公共厕所",
        "type": 0,
        "location": {
            "lat": 24.04542,
            "lng": 105.059996
        },
        "ad_info": {
            "adcode": 532627,
            "province": "云南省",
            "city": "文山壮族苗族自治州",
            "district": "广南县"
        }
    },
    {
        "id": "10152415659029142278",
        "title": "公共厕所",
        "address": "云南省文山壮族苗族自治州富宁县佳源超市(富宁花甲店)西北侧140米",
        "tel": "",
        "category": "基础设施:公共设施:公共厕所",
        "type": 0,
        "location": {
            "lat": 23.856438,
            "lng": 105.615642
        },
        "ad_info": {
            "adcode": 532628,
            "province": "云南省",
            "city": "文山壮族苗族自治州",
            "district": "富宁县"
        }
    },
    {
        "id": "6350922334320456873",
        "title": "洗手台",
        "address": "云南省文山壮族苗族自治州文山市联通公司旁75号",
        "tel": "",
        "category": "基础设施:公共设施:公共厕所",
        "type": 0,
        "location": {
            "lat": 23.373057,
            "lng": 104.235858
        },
        "ad_info": {
            "adcode": 532601,
            "province": "云南省",
            "city": "文山壮族苗族自治州",
            "district": "文山市"
        }
    },
    {
        "id": "9093967927631320302",
        "title": "洗手台",
        "address": "云南省文山壮族苗族自治州文山市安平东路19号",
        "tel": "",
        "category": "基础设施:公共设施:公共厕所",
        "type": 0,
        "location": {
            "lat": 23.375714,
            "lng": 104.247023
        },
        "ad_info": {
            "adcode": 532601,
            "province": "云南省",
            "city": "文山壮族苗族自治州",
            "district": "文山市"
        }
    },
    {
        "id": "5436917591188313287",
        "title": "公共厕所",
        "address": "云南省文山壮族苗族自治州丘北县Y041与新树段交叉口正东方向154米左右",
        "tel": "",
        "category": "基础设施:公共设施:公共厕所",
        "type": 0,
        "location": {
            "lat": 23.878557,
            "lng": 104.102898
        },
        "ad_info": {
            "adcode": 532626,
            "province": "云南省",
            "city": "文山壮族苗族自治州",
            "district": "丘北县"
        }
    },
    {
        "id": "274567547249536680",
        "title": "公共厕所",
        "address": "云南省文山壮族苗族自治州丘北县中云石化丘北景星加油站北侧280米",
        "tel": "",
        "category": "基础设施:公共设施:公共厕所",
        "type": 0,
        "location": {
            "lat": 24.09763,
            "lng": 104.086154
        },
        "ad_info": {
            "adcode": 532626,
            "province": "云南省",
            "city": "文山壮族苗族自治州",
            "district": "丘北县"
        }
    },
    {
        "id": "7818934919146839057",
        "title": "公共厕所",
        "address": "云南省文山壮族苗族自治州文山市Y053与Y055交叉口正南方向225米左右",
        "tel": "",
        "category": "基础设施:公共设施:公共厕所",
        "type": 0,
        "location": {
            "lat": 23.197133,
            "lng": 104.016337
        },
        "ad_info": {
            "adcode": 532601,
            "province": "云南省",
            "city": "文山壮族苗族自治州",
            "district": "文山市"
        }
    },
    {
        "id": "3060689582740765097",
        "title": "公共厕所",
        "address": "云南省文山壮族苗族自治州麻栗坡县河滨路11号",
        "tel": "",
        "category": "基础设施:公共设施:公共厕所",
        "type": 0,
        "location": {
            "lat": 23.127732,
            "lng": 104.701743
        },
        "ad_info": {
            "adcode": 532624,
            "province": "云南省",
            "city": "文山壮族苗族自治州",
            "district": "麻栗坡县"
        }
    },
    {
        "id": "4650814589831279967",
        "title": "公共厕所",
        "address": "云南省文山壮族苗族自治州丘北县文翠路与普者黑大街交叉口正西方向263米左右",
        "tel": "",
        "category": "基础设施:公共设施:公共厕所",
        "type": 0,
        "location": {
            "lat": 24.036216,
            "lng": 104.188669
        },
        "ad_info": {
            "adcode": 532626,
            "province": "云南省",
            "city": "文山壮族苗族自治州",
            "district": "丘北县"
        }
    },
    {
        "id": "1127768695258692910",
        "title": "公共厕所",
        "address": "云南省文山壮族苗族自治州丘北县普炭公路与普炭路交叉口正西方向97米左右",
        "tel": "",
        "category": "基础设施:公共设施:公共厕所",
        "type": 0,
        "location": {
            "lat": 23.875943,
            "lng": 104.205739
        },
        "ad_info": {
            "adcode": 532626,
            "province": "云南省",
            "city": "文山壮族苗族自治州",
            "district": "丘北县"
        }
    },
    {
        "id": "7808404074677563596",
        "title": "公共厕所",
        "address": "云南省文山壮族苗族自治州马关县鸿永钢材西北侧60米",
        "tel": "",
        "category": "基础设施:公共设施:公共厕所",
        "type": 0,
        "location": {
            "lat": 23.103065,
            "lng": 104.069345
        },
        "ad_info": {
            "adcode": 532625,
            "province": "云南省",
            "city": "文山壮族苗族自治州",
            "district": "马关县"
        }
    },
    {
        "id": "1782816262129511838",
        "title": "六诏加水站公共厕所",
        "address": "云南省文山壮族苗族自治州砚山县广昆高速",
        "tel": "",
        "category": "基础设施:公共设施:公共厕所",
        "type": 0,
        "location": {
            "lat": 23.668816,
            "lng": 104.538629
        },
        "ad_info": {
            "adcode": 532622,
            "province": "云南省",
            "city": "文山壮族苗族自治州",
            "district": "砚山县"
        }
    },
    {
        "id": "8032568922022441914",
        "title": "公共厕所",
        "address": "云南省文山壮族苗族自治州广南县北宁路与莲城北路交叉口正南方向68米左右",
        "tel": "",
        "category": "基础设施:公共设施:公共厕所",
        "type": 0,
        "location": {
            "lat": 24.053705,
            "lng": 105.066276
        },
        "ad_info": {
            "adcode": 532627,
            "province": "云南省",
            "city": "文山壮族苗族自治州",
            "district": "广南县"
        }
    },
    {
        "id": "6104331901973916214",
        "title": "传习馆公共厕所",
        "address": "云南省文山壮族苗族自治州西畴县G246与马土段交叉口西北方向1244米左右",
        "tel": "",
        "category": "基础设施:公共设施:公共厕所",
        "type": 0,
        "location": {
            "lat": 23.485144,
            "lng": 104.700563
        },
        "ad_info": {
            "adcode": 532623,
            "province": "云南省",
            "city": "文山壮族苗族自治州",
            "district": "西畴县"
        }
    },
    {
        "id": "4124779687756907462",
        "title": "公共厕所",
        "address": "云南省文山壮族苗族自治州广南县广南县疾病预防控制中心南侧210米",
        "tel": "",
        "category": "基础设施:公共设施:公共厕所",
        "type": 0,
        "location": {
            "lat": 24.051032,
            "lng": 105.039435
        },
        "ad_info": {
            "adcode": 532627,
            "province": "云南省",
            "city": "文山壮族苗族自治州",
            "district": "广南县"
        }
    },
    {
        "id": "13949164216368946755",
        "title": "公共厕所",
        "address": "云南省文山壮族苗族自治州文山市下沙坝小区东路与沿河路交叉口西北方向39米左右",
        "tel": "",
        "category": "基础设施:公共设施:公共厕所",
        "type": 0,
        "location": {
            "lat": 23.35962,
            "lng": 104.259301
        },
        "ad_info": {
            "adcode": 532601,
            "province": "云南省",
            "city": "文山壮族苗族自治州",
            "district": "文山市"
        }
    },
    {
        "id": "7911100762211783970",
        "title": "公共厕所",
        "address": "云南省文山壮族苗族自治州麻栗坡县大新段与熊大段交叉口东北方向485米左右",
        "tel": "",
        "category": "基础设施:公共设施:公共厕所",
        "type": 0,
        "location": {
            "lat": 23.108216,
            "lng": 104.592917
        },
        "ad_info": {
            "adcode": 532624,
            "province": "云南省",
            "city": "文山壮族苗族自治州",
            "district": "麻栗坡县"
        }
    },
    {
        "id": "3007037712510641131",
        "title": "那洒加水站公共厕所",
        "address": "云南省文山壮族苗族自治州广南县G80广昆高速与那洒加水站交叉口西440米",
        "tel": "",
        "category": "基础设施:公共设施:公共厕所",
        "type": 0,
        "location": {
            "lat": 23.712796,
            "lng": 104.745839
        },
        "ad_info": {
            "adcode": 532627,
            "province": "云南省",
            "city": "文山壮族苗族自治州",
            "district": "广南县"
        }
    },
    {
        "id": "5790666700396924408",
        "title": "马关服务区公共厕所",
        "address": "云南省文山壮族苗族自治州马关县马关服务区与S21文马高速交叉口南180米",
        "tel": "",
        "category": "基础设施:公共设施:公共厕所",
        "type": 0,
        "location": {
            "lat": 23.042169,
            "lng": 104.362929
        },
        "ad_info": {
            "adcode": 532625,
            "province": "云南省",
            "city": "文山壮族苗族自治州",
            "district": "马关县"
        }
    },
    {
        "id": "9808935963373619730",
        "title": "公共厕所",
        "address": "云南省文山壮族苗族自治州广南县S312与西洋桥交叉口东北方向1225米左右",
        "tel": "",
        "category": "基础设施:公共设施:公共厕所",
        "type": 0,
        "location": {
            "lat": 23.890753,
            "lng": 105.34223
        },
        "ad_info": {
            "adcode": 532627,
            "province": "云南省",
            "city": "文山壮族苗族自治州",
            "district": "广南县"
        }
    },
    {
        "id": "5960218711689463142",
        "title": "公共厕所",
        "address": "云南省文山壮族苗族自治州广南县南秀路与较场路交叉口正东方向211米左右",
        "tel": "",
        "category": "基础设施:公共设施:公共厕所",
        "type": 0,
        "location": {
            "lat": 24.04542,
            "lng": 105.059996
        },
        "ad_info": {
            "adcode": 532627,
            "province": "云南省",
            "city": "文山壮族苗族自治州",
            "district": "广南县"
        }
    },
    {
        "id": "10152415659029142278",
        "title": "公共厕所",
        "address": "云南省文山壮族苗族自治州富宁县佳源超市(富宁花甲店)西北侧140米",
        "tel": "",
        "category": "基础设施:公共设施:公共厕所",
        "type": 0,
        "location": {
            "lat": 23.856438,
            "lng": 105.615642
        },
        "ad_info": {
            "adcode": 532628,
            "province": "云南省",
            "city": "文山壮族苗族自治州",
            "district": "富宁县"
        }
    },
    {
        "id": "6350922334320456873",
        "title": "洗手台",
        "address": "云南省文山壮族苗族自治州文山市联通公司旁75号",
        "tel": "",
        "category": "基础设施:公共设施:公共厕所",
        "type": 0,
        "location": {
            "lat": 23.373057,
            "lng": 104.235858
        },
        "ad_info": {
            "adcode": 532601,
            "province": "云南省",
            "city": "文山壮族苗族自治州",
            "district": "文山市"
        }
    },
    {
        "id": "9093967927631320302",
        "title": "洗手台",
        "address": "云南省文山壮族苗族自治州文山市安平东路19号",
        "tel": "",
        "category": "基础设施:公共设施:公共厕所",
        "type": 0,
        "location": {
            "lat": 23.375714,
            "lng": 104.247023
        },
        "ad_info": {
            "adcode": 532601,
            "province": "云南省",
            "city": "文山壮族苗族自治州",
            "district": "文山市"
        }
    },
    {
        "id": "5436917591188313287",
        "title": "公共厕所",
        "address": "云南省文山壮族苗族自治州丘北县Y041与新树段交叉口正东方向154米左右",
        "tel": "",
        "category": "基础设施:公共设施:公共厕所",
        "type": 0,
        "location": {
            "lat": 23.878557,
            "lng": 104.102898
        },
        "ad_info": {
            "adcode": 532626,
            "province": "云南省",
            "city": "文山壮族苗族自治州",
            "district": "丘北县"
        }
    },
    {
        "id": "274567547249536680",
        "title": "公共厕所",
        "address": "云南省文山壮族苗族自治州丘北县中云石化丘北景星加油站北侧280米",
        "tel": "",
        "category": "基础设施:公共设施:公共厕所",
        "type": 0,
        "location": {
            "lat": 24.09763,
            "lng": 104.086154
        },
        "ad_info": {
            "adcode": 532626,
            "province": "云南省",
            "city": "文山壮族苗族自治州",
            "district": "丘北县"
        }
    },
    {
        "id": "7818934919146839057",
        "title": "公共厕所",
        "address": "云南省文山壮族苗族自治州文山市Y053与Y055交叉口正南方向225米左右",
        "tel": "",
        "category": "基础设施:公共设施:公共厕所",
        "type": 0,
        "location": {
            "lat": 23.197133,
            "lng": 104.016337
        },
        "ad_info": {
            "adcode": 532601,
            "province": "云南省",
            "city": "文山壮族苗族自治州",
            "district": "文山市"
        }
    },
    {
        "id": "3060689582740765097",
        "title": "公共厕所",
        "address": "云南省文山壮族苗族自治州麻栗坡县河滨路11号",
        "tel": "",
        "category": "基础设施:公共设施:公共厕所",
        "type": 0,
        "location": {
            "lat": 23.127732,
            "lng": 104.701743
        },
        "ad_info": {
            "adcode": 532624,
            "province": "云南省",
            "city": "文山壮族苗族自治州",
            "district": "麻栗坡县"
        }
    },
    {
        "id": "4650814589831279967",
        "title": "公共厕所",
        "address": "云南省文山壮族苗族自治州丘北县文翠路与普者黑大街交叉口正西方向263米左右",
        "tel": "",
        "category": "基础设施:公共设施:公共厕所",
        "type": 0,
        "location": {
            "lat": 24.036216,
            "lng": 104.188669
        },
        "ad_info": {
            "adcode": 532626,
            "province": "云南省",
            "city": "文山壮族苗族自治州",
            "district": "丘北县"
        }
    },
    {
        "id": "1127768695258692910",
        "title": "公共厕所",
        "address": "云南省文山壮族苗族自治州丘北县普炭公路与普炭路交叉口正西方向97米左右",
        "tel": "",
        "category": "基础设施:公共设施:公共厕所",
        "type": 0,
        "location": {
            "lat": 23.875943,
            "lng": 104.205739
        },
        "ad_info": {
            "adcode": 532626,
            "province": "云南省",
            "city": "文山壮族苗族自治州",
            "district": "丘北县"
        }
    },
    {
        "id": "7808404074677563596",
        "title": "公共厕所",
        "address": "云南省文山壮族苗族自治州马关县鸿永钢材西北侧60米",
        "tel": "",
        "category": "基础设施:公共设施:公共厕所",
        "type": 0,
        "location": {
            "lat": 23.103065,
            "lng": 104.069345
        },
        "ad_info": {
            "adcode": 532625,
            "province": "云南省",
            "city": "文山壮族苗族自治州",
            "district": "马关县"
        }
    },
    {
        "id": "1782816262129511838",
        "title": "六诏加水站公共厕所",
        "address": "云南省文山壮族苗族自治州砚山县广昆高速",
        "tel": "",
        "category": "基础设施:公共设施:公共厕所",
        "type": 0,
        "location": {
            "lat": 23.668816,
            "lng": 104.538629
        },
        "ad_info": {
            "adcode": 532622,
            "province": "云南省",
            "city": "文山壮族苗族自治州",
            "district": "砚山县"
        }
    },
    {
        "id": "8032568922022441914",
        "title": "公共厕所",
        "address": "云南省文山壮族苗族自治州广南县北宁路与莲城北路交叉口正南方向68米左右",
        "tel": "",
        "category": "基础设施:公共设施:公共厕所",
        "type": 0,
        "location": {
            "lat": 24.053705,
            "lng": 105.066276
        },
        "ad_info": {
            "adcode": 532627,
            "province": "云南省",
            "city": "文山壮族苗族自治州",
            "district": "广南县"
        }
    },
    {
        "id": "6104331901973916214",
        "title": "传习馆公共厕所",
        "address": "云南省文山壮族苗族自治州西畴县G246与马土段交叉口西北方向1244米左右",
        "tel": "",
        "category": "基础设施:公共设施:公共厕所",
        "type": 0,
        "location": {
            "lat": 23.485144,
            "lng": 104.700563
        },
        "ad_info": {
            "adcode": 532623,
            "province": "云南省",
            "city": "文山壮族苗族自治州",
            "district": "西畴县"
        }
    },
    {
        "id": "4124779687756907462",
        "title": "公共厕所",
        "address": "云南省文山壮族苗族自治州广南县广南县疾病预防控制中心南侧210米",
        "tel": "",
        "category": "基础设施:公共设施:公共厕所",
        "type": 0,
        "location": {
            "lat": 24.051032,
            "lng": 105.039435
        },
        "ad_info": {
            "adcode": 532627,
            "province": "云南省",
            "city": "文山壮族苗族自治州",
            "district": "广南县"
        }
    },
    {
        "id": "13949164216368946755",
        "title": "公共厕所",
        "address": "云南省文山壮族苗族自治州文山市下沙坝小区东路与沿河路交叉口西北方向39米左右",
        "tel": "",
        "category": "基础设施:公共设施:公共厕所",
        "type": 0,
        "location": {
            "lat": 23.35962,
            "lng": 104.259301
        },
        "ad_info": {
            "adcode": 532601,
            "province": "云南省",
            "city": "文山壮族苗族自治州",
            "district": "文山市"
        }
    },
    {
        "id": "7911100762211783970",
        "title": "公共厕所",
        "address": "云南省文山壮族苗族自治州麻栗坡县大新段与熊大段交叉口东北方向485米左右",
        "tel": "",
        "category": "基础设施:公共设施:公共厕所",
        "type": 0,
        "location": {
            "lat": 23.108216,
            "lng": 104.592917
        },
        "ad_info": {
            "adcode": 532624,
            "province": "云南省",
            "city": "文山壮族苗族自治州",
            "district": "麻栗坡县"
        }
    },
    {
        "id": "3007037712510641131",
        "title": "那洒加水站公共厕所",
        "address": "云南省文山壮族苗族自治州广南县G80广昆高速与那洒加水站交叉口西440米",
        "tel": "",
        "category": "基础设施:公共设施:公共厕所",
        "type": 0,
        "location": {
            "lat": 23.712796,
            "lng": 104.745839
        },
        "ad_info": {
            "adcode": 532627,
            "province": "云南省",
            "city": "文山壮族苗族自治州",
            "district": "广南县"
        }
    },
    {
        "id": "5790666700396924408",
        "title": "马关服务区公共厕所",
        "address": "云南省文山壮族苗族自治州马关县马关服务区与S21文马高速交叉口南180米",
        "tel": "",
        "category": "基础设施:公共设施:公共厕所",
        "type": 0,
        "location": {
            "lat": 23.042169,
            "lng": 104.362929
        },
        "ad_info": {
            "adcode": 532625,
            "province": "云南省",
            "city": "文山壮族苗族自治州",
            "district": "马关县"
        }
    },
    {
        "id": "9808935963373619730",
        "title": "公共厕所",
        "address": "云南省文山壮族苗族自治州广南县S312与西洋桥交叉口东北方向1225米左右",
        "tel": "",
        "category": "基础设施:公共设施:公共厕所",
        "type": 0,
        "location": {
            "lat": 23.890753,
            "lng": 105.34223
        },
        "ad_info": {
            "adcode": 532627,
            "province": "云南省",
            "city": "文山壮族苗族自治州",
            "district": "广南县"
        }
    },
    {
        "id": "5960218711689463142",
        "title": "公共厕所",
        "address": "云南省文山壮族苗族自治州广南县南秀路与较场路交叉口正东方向211米左右",
        "tel": "",
        "category": "基础设施:公共设施:公共厕所",
        "type": 0,
        "location": {
            "lat": 24.04542,
            "lng": 105.059996
        },
        "ad_info": {
            "adcode": 532627,
            "province": "云南省",
            "city": "文山壮族苗族自治州",
            "district": "广南县"
        }
    },
    {
        "id": "10152415659029142278",
        "title": "公共厕所",
        "address": "云南省文山壮族苗族自治州富宁县佳源超市(富宁花甲店)西北侧140米",
        "tel": "",
        "category": "基础设施:公共设施:公共厕所",
        "type": 0,
        "location": {
            "lat": 23.856438,
            "lng": 105.615642
        },
        "ad_info": {
            "adcode": 532628,
            "province": "云南省",
            "city": "文山壮族苗族自治州",
            "district": "富宁县"
        }
    },
    {
        "id": "6350922334320456873",
        "title": "洗手台",
        "address": "云南省文山壮族苗族自治州文山市联通公司旁75号",
        "tel": "",
        "category": "基础设施:公共设施:公共厕所",
        "type": 0,
        "location": {
            "lat": 23.373057,
            "lng": 104.235858
        },
        "ad_info": {
            "adcode": 532601,
            "province": "云南省",
            "city": "文山壮族苗族自治州",
            "district": "文山市"
        }
    },
    {
        "id": "9093967927631320302",
        "title": "洗手台",
        "address": "云南省文山壮族苗族自治州文山市安平东路19号",
        "tel": "",
        "category": "基础设施:公共设施:公共厕所",
        "type": 0,
        "location": {
            "lat": 23.375714,
            "lng": 104.247023
        },
        "ad_info": {
            "adcode": 532601,
            "province": "云南省",
            "city": "文山壮族苗族自治州",
            "district": "文山市"
        }
    },
    {
        "id": "5436917591188313287",
        "title": "公共厕所",
        "address": "云南省文山壮族苗族自治州丘北县Y041与新树段交叉口正东方向154米左右",
        "tel": "",
        "category": "基础设施:公共设施:公共厕所",
        "type": 0,
        "location": {
            "lat": 23.878557,
            "lng": 104.102898
        },
        "ad_info": {
            "adcode": 532626,
            "province": "云南省",
            "city": "文山壮族苗族自治州",
            "district": "丘北县"
        }
    },
    {
        "id": "274567547249536680",
        "title": "公共厕所",
        "address": "云南省文山壮族苗族自治州丘北县中云石化丘北景星加油站北侧280米",
        "tel": "",
        "category": "基础设施:公共设施:公共厕所",
        "type": 0,
        "location": {
            "lat": 24.09763,
            "lng": 104.086154
        },
        "ad_info": {
            "adcode": 532626,
            "province": "云南省",
            "city": "文山壮族苗族自治州",
            "district": "丘北县"
        }
    },
    {
        "id": "7818934919146839057",
        "title": "公共厕所",
        "address": "云南省文山壮族苗族自治州文山市Y053与Y055交叉口正南方向225米左右",
        "tel": "",
        "category": "基础设施:公共设施:公共厕所",
        "type": 0,
        "location": {
            "lat": 23.197133,
            "lng": 104.016337
        },
        "ad_info": {
            "adcode": 532601,
            "province": "云南省",
            "city": "文山壮族苗族自治州",
            "district": "文山市"
        }
    },
    {
        "id": "3060689582740765097",
        "title": "公共厕所",
        "address": "云南省文山壮族苗族自治州麻栗坡县河滨路11号",
        "tel": "",
        "category": "基础设施:公共设施:公共厕所",
        "type": 0,
        "location": {
            "lat": 23.127732,
            "lng": 104.701743
        },
        "ad_info": {
            "adcode": 532624,
            "province": "云南省",
            "city": "文山壮族苗族自治州",
            "district": "麻栗坡县"
        }
    },
    {
        "id": "4650814589831279967",
        "title": "公共厕所",
        "address": "云南省文山壮族苗族自治州丘北县文翠路与普者黑大街交叉口正西方向263米左右",
        "tel": "",
        "category": "基础设施:公共设施:公共厕所",
        "type": 0,
        "location": {
            "lat": 24.036216,
            "lng": 104.188669
        },
        "ad_info": {
            "adcode": 532626,
            "province": "云南省",
            "city": "文山壮族苗族自治州",
            "district": "丘北县"
        }
    },
    {
        "id": "1127768695258692910",
        "title": "公共厕所",
        "address": "云南省文山壮族苗族自治州丘北县普炭公路与普炭路交叉口正西方向97米左右",
        "tel": "",
        "category": "基础设施:公共设施:公共厕所",
        "type": 0,
        "location": {
            "lat": 23.875943,
            "lng": 104.205739
        },
        "ad_info": {
            "adcode": 532626,
            "province": "云南省",
            "city": "文山壮族苗族自治州",
            "district": "丘北县"
        }
    },
    {
        "id": "7808404074677563596",
        "title": "公共厕所",
        "address": "云南省文山壮族苗族自治州马关县鸿永钢材西北侧60米",
        "tel": "",
        "category": "基础设施:公共设施:公共厕所",
        "type": 0,
        "location": {
            "lat": 23.103065,
            "lng": 104.069345
        },
        "ad_info": {
            "adcode": 532625,
            "province": "云南省",
            "city": "文山壮族苗族自治州",
            "district": "马关县"
        }
    },
    {
        "id": "1782816262129511838",
        "title": "六诏加水站公共厕所",
        "address": "云南省文山壮族苗族自治州砚山县广昆高速",
        "tel": "",
        "category": "基础设施:公共设施:公共厕所",
        "type": 0,
        "location": {
            "lat": 23.668816,
            "lng": 104.538629
        },
        "ad_info": {
            "adcode": 532622,
            "province": "云南省",
            "city": "文山壮族苗族自治州",
            "district": "砚山县"
        }
    },
    {
        "id": "8032568922022441914",
        "title": "公共厕所",
        "address": "云南省文山壮族苗族自治州广南县北宁路与莲城北路交叉口正南方向68米左右",
        "tel": "",
        "category": "基础设施:公共设施:公共厕所",
        "type": 0,
        "location": {
            "lat": 24.053705,
            "lng": 105.066276
        },
        "ad_info": {
            "adcode": 532627,
            "province": "云南省",
            "city": "文山壮族苗族自治州",
            "district": "广南县"
        }
    },
    {
        "id": "6104331901973916214",
        "title": "传习馆公共厕所",
        "address": "云南省文山壮族苗族自治州西畴县G246与马土段交叉口西北方向1244米左右",
        "tel": "",
        "category": "基础设施:公共设施:公共厕所",
        "type": 0,
        "location": {
            "lat": 23.485144,
            "lng": 104.700563
        },
        "ad_info": {
            "adcode": 532623,
            "province": "云南省",
            "city": "文山壮族苗族自治州",
            "district": "西畴县"
        }
    },
    {
        "id": "4124779687756907462",
        "title": "公共厕所",
        "address": "云南省文山壮族苗族自治州广南县广南县疾病预防控制中心南侧210米",
        "tel": "",
        "category": "基础设施:公共设施:公共厕所",
        "type": 0,
        "location": {
            "lat": 24.051032,
            "lng": 105.039435
        },
        "ad_info": {
            "adcode": 532627,
            "province": "云南省",
            "city": "文山壮族苗族自治州",
            "district": "广南县"
        }
    },
    {
        "id": "13949164216368946755",
        "title": "公共厕所",
        "address": "云南省文山壮族苗族自治州文山市下沙坝小区东路与沿河路交叉口西北方向39米左右",
        "tel": "",
        "category": "基础设施:公共设施:公共厕所",
        "type": 0,
        "location": {
            "lat": 23.35962,
            "lng": 104.259301
        },
        "ad_info": {
            "adcode": 532601,
            "province": "云南省",
            "city": "文山壮族苗族自治州",
            "district": "文山市"
        }
    },
    {
        "id": "7911100762211783970",
        "title": "公共厕所",
        "address": "云南省文山壮族苗族自治州麻栗坡县大新段与熊大段交叉口东北方向485米左右",
        "tel": "",
        "category": "基础设施:公共设施:公共厕所",
        "type": 0,
        "location": {
            "lat": 23.108216,
            "lng": 104.592917
        },
        "ad_info": {
            "adcode": 532624,
            "province": "云南省",
            "city": "文山壮族苗族自治州",
            "district": "麻栗坡县"
        }
    },
    {
        "id": "3007037712510641131",
        "title": "那洒加水站公共厕所",
        "address": "云南省文山壮族苗族自治州广南县G80广昆高速与那洒加水站交叉口西440米",
        "tel": "",
        "category": "基础设施:公共设施:公共厕所",
        "type": 0,
        "location": {
            "lat": 23.712796,
            "lng": 104.745839
        },
        "ad_info": {
            "adcode": 532627,
            "province": "云南省",
            "city": "文山壮族苗族自治州",
            "district": "广南县"
        }
    },
    {
        "id": "5790666700396924408",
        "title": "马关服务区公共厕所",
        "address": "云南省文山壮族苗族自治州马关县马关服务区与S21文马高速交叉口南180米",
        "tel": "",
        "category": "基础设施:公共设施:公共厕所",
        "type": 0,
        "location": {
            "lat": 23.042169,
            "lng": 104.362929
        },
        "ad_info": {
            "adcode": 532625,
            "province": "云南省",
            "city": "文山壮族苗族自治州",
            "district": "马关县"
        }
    },
    {
        "id": "9808935963373619730",
        "title": "公共厕所",
        "address": "云南省文山壮族苗族自治州广南县S312与西洋桥交叉口东北方向1225米左右",
        "tel": "",
        "category": "基础设施:公共设施:公共厕所",
        "type": 0,
        "location": {
            "lat": 23.890753,
            "lng": 105.34223
        },
        "ad_info": {
            "adcode": 532627,
            "province": "云南省",
            "city": "文山壮族苗族自治州",
            "district": "广南县"
        }
    },
    {
        "id": "5960218711689463142",
        "title": "公共厕所",
        "address": "云南省文山壮族苗族自治州广南县南秀路与较场路交叉口正东方向211米左右",
        "tel": "",
        "category": "基础设施:公共设施:公共厕所",
        "type": 0,
        "location": {
            "lat": 24.04542,
            "lng": 105.059996
        },
        "ad_info": {
            "adcode": 532627,
            "province": "云南省",
            "city": "文山壮族苗族自治州",
            "district": "广南县"
        }
    },
    {
        "id": "10152415659029142278",
        "title": "公共厕所",
        "address": "云南省文山壮族苗族自治州富宁县佳源超市(富宁花甲店)西北侧140米",
        "tel": "",
        "category": "基础设施:公共设施:公共厕所",
        "type": 0,
        "location": {
            "lat": 23.856438,
            "lng": 105.615642
        },
        "ad_info": {
            "adcode": 532628,
            "province": "云南省",
            "city": "文山壮族苗族自治州",
            "district": "富宁县"
        }
    },
    {
        "id": "6350922334320456873",
        "title": "洗手台",
        "address": "云南省文山壮族苗族自治州文山市联通公司旁75号",
        "tel": "",
        "category": "基础设施:公共设施:公共厕所",
        "type": 0,
        "location": {
            "lat": 23.373057,
            "lng": 104.235858
        },
        "ad_info": {
            "adcode": 532601,
            "province": "云南省",
            "city": "文山壮族苗族自治州",
            "district": "文山市"
        }
    },
    {
        "id": "9093967927631320302",
        "title": "洗手台",
        "address": "云南省文山壮族苗族自治州文山市安平东路19号",
        "tel": "",
        "category": "基础设施:公共设施:公共厕所",
        "type": 0,
        "location": {
            "lat": 23.375714,
            "lng": 104.247023
        },
        "ad_info": {
            "adcode": 532601,
            "province": "云南省",
            "city": "文山壮族苗族自治州",
            "district": "文山市"
        }
    },
    {
        "id": "5436917591188313287",
        "title": "公共厕所",
        "address": "云南省文山壮族苗族自治州丘北县Y041与新树段交叉口正东方向154米左右",
        "tel": "",
        "category": "基础设施:公共设施:公共厕所",
        "type": 0,
        "location": {
            "lat": 23.878557,
            "lng": 104.102898
        },
        "ad_info": {
            "adcode": 532626,
            "province": "云南省",
            "city": "文山壮族苗族自治州",
            "district": "丘北县"
        }
    },
    {
        "id": "274567547249536680",
        "title": "公共厕所",
        "address": "云南省文山壮族苗族自治州丘北县中云石化丘北景星加油站北侧280米",
        "tel": "",
        "category": "基础设施:公共设施:公共厕所",
        "type": 0,
        "location": {
            "lat": 24.09763,
            "lng": 104.086154
        },
        "ad_info": {
            "adcode": 532626,
            "province": "云南省",
            "city": "文山壮族苗族自治州",
            "district": "丘北县"
        }
    },
    {
        "id": "7818934919146839057",
        "title": "公共厕所",
        "address": "云南省文山壮族苗族自治州文山市Y053与Y055交叉口正南方向225米左右",
        "tel": "",
        "category": "基础设施:公共设施:公共厕所",
        "type": 0,
        "location": {
            "lat": 23.197133,
            "lng": 104.016337
        },
        "ad_info": {
            "adcode": 532601,
            "province": "云南省",
            "city": "文山壮族苗族自治州",
            "district": "文山市"
        }
    },
    {
        "id": "3060689582740765097",
        "title": "公共厕所",
        "address": "云南省文山壮族苗族自治州麻栗坡县河滨路11号",
        "tel": "",
        "category": "基础设施:公共设施:公共厕所",
        "type": 0,
        "location": {
            "lat": 23.127732,
            "lng": 104.701743
        },
        "ad_info": {
            "adcode": 532624,
            "province": "云南省",
            "city": "文山壮族苗族自治州",
            "district": "麻栗坡县"
        }
    },
    {
        "id": "4650814589831279967",
        "title": "公共厕所",
        "address": "云南省文山壮族苗族自治州丘北县文翠路与普者黑大街交叉口正西方向263米左右",
        "tel": "",
        "category": "基础设施:公共设施:公共厕所",
        "type": 0,
        "location": {
            "lat": 24.036216,
            "lng": 104.188669
        },
        "ad_info": {
            "adcode": 532626,
            "province": "云南省",
            "city": "文山壮族苗族自治州",
            "district": "丘北县"
        }
    },
    {
        "id": "1127768695258692910",
        "title": "公共厕所",
        "address": "云南省文山壮族苗族自治州丘北县普炭公路与普炭路交叉口正西方向97米左右",
        "tel": "",
        "category": "基础设施:公共设施:公共厕所",
        "type": 0,
        "location": {
            "lat": 23.875943,
            "lng": 104.205739
        },
        "ad_info": {
            "adcode": 532626,
            "province": "云南省",
            "city": "文山壮族苗族自治州",
            "district": "丘北县"
        }
    },
    {
        "id": "7808404074677563596",
        "title": "公共厕所",
        "address": "云南省文山壮族苗族自治州马关县鸿永钢材西北侧60米",
        "tel": "",
        "category": "基础设施:公共设施:公共厕所",
        "type": 0,
        "location": {
            "lat": 23.103065,
            "lng": 104.069345
        },
        "ad_info": {
            "adcode": 532625,
            "province": "云南省",
            "city": "文山壮族苗族自治州",
            "district": "马关县"
        }
    },
    {
        "id": "1782816262129511838",
        "title": "六诏加水站公共厕所",
        "address": "云南省文山壮族苗族自治州砚山县广昆高速",
        "tel": "",
        "category": "基础设施:公共设施:公共厕所",
        "type": 0,
        "location": {
            "lat": 23.668816,
            "lng": 104.538629
        },
        "ad_info": {
            "adcode": 532622,
            "province": "云南省",
            "city": "文山壮族苗族自治州",
            "district": "砚山县"
        }
    },
    {
        "id": "8032568922022441914",
        "title": "公共厕所",
        "address": "云南省文山壮族苗族自治州广南县北宁路与莲城北路交叉口正南方向68米左右",
        "tel": "",
        "category": "基础设施:公共设施:公共厕所",
        "type": 0,
        "location": {
            "lat": 24.053705,
            "lng": 105.066276
        },
        "ad_info": {
            "adcode": 532627,
            "province": "云南省",
            "city": "文山壮族苗族自治州",
            "district": "广南县"
        }
    },
    {
        "id": "6104331901973916214",
        "title": "传习馆公共厕所",
        "address": "云南省文山壮族苗族自治州西畴县G246与马土段交叉口西北方向1244米左右",
        "tel": "",
        "category": "基础设施:公共设施:公共厕所",
        "type": 0,
        "location": {
            "lat": 23.485144,
            "lng": 104.700563
        },
        "ad_info": {
            "adcode": 532623,
            "province": "云南省",
            "city": "文山壮族苗族自治州",
            "district": "西畴县"
        }
    },
    {
        "id": "4124779687756907462",
        "title": "公共厕所",
        "address": "云南省文山壮族苗族自治州广南县广南县疾病预防控制中心南侧210米",
        "tel": "",
        "category": "基础设施:公共设施:公共厕所",
        "type": 0,
        "location": {
            "lat": 24.051032,
            "lng": 105.039435
        },
        "ad_info": {
            "adcode": 532627,
            "province": "云南省",
            "city": "文山壮族苗族自治州",
            "district": "广南县"
        }
    },
    {
        "id": "13949164216368946755",
        "title": "公共厕所",
        "address": "云南省文山壮族苗族自治州文山市下沙坝小区东路与沿河路交叉口西北方向39米左右",
        "tel": "",
        "category": "基础设施:公共设施:公共厕所",
        "type": 0,
        "location": {
            "lat": 23.35962,
            "lng": 104.259301
        },
        "ad_info": {
            "adcode": 532601,
            "province": "云南省",
            "city": "文山壮族苗族自治州",
            "district": "文山市"
        }
    },
    {
        "id": "7911100762211783970",
        "title": "公共厕所",
        "address": "云南省文山壮族苗族自治州麻栗坡县大新段与熊大段交叉口东北方向485米左右",
        "tel": "",
        "category": "基础设施:公共设施:公共厕所",
        "type": 0,
        "location": {
            "lat": 23.108216,
            "lng": 104.592917
        },
        "ad_info": {
            "adcode": 532624,
            "province": "云南省",
            "city": "文山壮族苗族自治州",
            "district": "麻栗坡县"
        }
    },
    {
        "id": "3007037712510641131",
        "title": "那洒加水站公共厕所",
        "address": "云南省文山壮族苗族自治州广南县G80广昆高速与那洒加水站交叉口西440米",
        "tel": "",
        "category": "基础设施:公共设施:公共厕所",
        "type": 0,
        "location": {
            "lat": 23.712796,
            "lng": 104.745839
        },
        "ad_info": {
            "adcode": 532627,
            "province": "云南省",
            "city": "文山壮族苗族自治州",
            "district": "广南县"
        }
    },
    {
        "id": "5790666700396924408",
        "title": "马关服务区公共厕所",
        "address": "云南省文山壮族苗族自治州马关县马关服务区与S21文马高速交叉口南180米",
        "tel": "",
        "category": "基础设施:公共设施:公共厕所",
        "type": 0,
        "location": {
            "lat": 23.042169,
            "lng": 104.362929
        },
        "ad_info": {
            "adcode": 532625,
            "province": "云南省",
            "city": "文山壮族苗族自治州",
            "district": "马关县"
        }
    },
    {
        "id": "9808935963373619730",
        "title": "公共厕所",
        "address": "云南省文山壮族苗族自治州广南县S312与西洋桥交叉口东北方向1225米左右",
        "tel": "",
        "category": "基础设施:公共设施:公共厕所",
        "type": 0,
        "location": {
            "lat": 23.890753,
            "lng": 105.34223
        },
        "ad_info": {
            "adcode": 532627,
            "province": "云南省",
            "city": "文山壮族苗族自治州",
            "district": "广南县"
        }
    },
    {
        "id": "5960218711689463142",
        "title": "公共厕所",
        "address": "云南省文山壮族苗族自治州广南县南秀路与较场路交叉口正东方向211米左右",
        "tel": "",
        "category": "基础设施:公共设施:公共厕所",
        "type": 0,
        "location": {
            "lat": 24.04542,
            "lng": 105.059996
        },
        "ad_info": {
            "adcode": 532627,
            "province": "云南省",
            "city": "文山壮族苗族自治州",
            "district": "广南县"
        }
    },
    {
        "id": "10152415659029142278",
        "title": "公共厕所",
        "address": "云南省文山壮族苗族自治州富宁县佳源超市(富宁花甲店)西北侧140米",
        "tel": "",
        "category": "基础设施:公共设施:公共厕所",
        "type": 0,
        "location": {
            "lat": 23.856438,
            "lng": 105.615642
        },
        "ad_info": {
            "adcode": 532628,
            "province": "云南省",
            "city": "文山壮族苗族自治州",
            "district": "富宁县"
        }
    },
    {
        "id": "6350922334320456873",
        "title": "洗手台",
        "address": "云南省文山壮族苗族自治州文山市联通公司旁75号",
        "tel": "",
        "category": "基础设施:公共设施:公共厕所",
        "type": 0,
        "location": {
            "lat": 23.373057,
            "lng": 104.235858
        },
        "ad_info": {
            "adcode": 532601,
            "province": "云南省",
            "city": "文山壮族苗族自治州",
            "district": "文山市"
        }
    },
    {
        "id": "9093967927631320302",
        "title": "洗手台",
        "address": "云南省文山壮族苗族自治州文山市安平东路19号",
        "tel": "",
        "category": "基础设施:公共设施:公共厕所",
        "type": 0,
        "location": {
            "lat": 23.375714,
            "lng": 104.247023
        },
        "ad_info": {
            "adcode": 532601,
            "province": "云南省",
            "city": "文山壮族苗族自治州",
            "district": "文山市"
        }
    },
    {
        "id": "5436917591188313287",
        "title": "公共厕所",
        "address": "云南省文山壮族苗族自治州丘北县Y041与新树段交叉口正东方向154米左右",
        "tel": "",
        "category": "基础设施:公共设施:公共厕所",
        "type": 0,
        "location": {
            "lat": 23.878557,
            "lng": 104.102898
        },
        "ad_info": {
            "adcode": 532626,
            "province": "云南省",
            "city": "文山壮族苗族自治州",
            "district": "丘北县"
        }
    },
    {
        "id": "274567547249536680",
        "title": "公共厕所",
        "address": "云南省文山壮族苗族自治州丘北县中云石化丘北景星加油站北侧280米",
        "tel": "",
        "category": "基础设施:公共设施:公共厕所",
        "type": 0,
        "location": {
            "lat": 24.09763,
            "lng": 104.086154
        },
        "ad_info": {
            "adcode": 532626,
            "province": "云南省",
            "city": "文山壮族苗族自治州",
            "district": "丘北县"
        }
    },
    {
        "id": "7818934919146839057",
        "title": "公共厕所",
        "address": "云南省文山壮族苗族自治州文山市Y053与Y055交叉口正南方向225米左右",
        "tel": "",
        "category": "基础设施:公共设施:公共厕所",
        "type": 0,
        "location": {
            "lat": 23.197133,
            "lng": 104.016337
        },
        "ad_info": {
            "adcode": 532601,
            "province": "云南省",
            "city": "文山壮族苗族自治州",
            "district": "文山市"
        }
    },
    {
        "id": "3060689582740765097",
        "title": "公共厕所",
        "address": "云南省文山壮族苗族自治州麻栗坡县河滨路11号",
        "tel": "",
        "category": "基础设施:公共设施:公共厕所",
        "type": 0,
        "location": {
            "lat": 23.127732,
            "lng": 104.701743
        },
        "ad_info": {
            "adcode": 532624,
            "province": "云南省",
            "city": "文山壮族苗族自治州",
            "district": "麻栗坡县"
        }
    },
    {
        "id": "4650814589831279967",
        "title": "公共厕所",
        "address": "云南省文山壮族苗族自治州丘北县文翠路与普者黑大街交叉口正西方向263米左右",
        "tel": "",
        "category": "基础设施:公共设施:公共厕所",
        "type": 0,
        "location": {
            "lat": 24.036216,
            "lng": 104.188669
        },
        "ad_info": {
            "adcode": 532626,
            "province": "云南省",
            "city": "文山壮族苗族自治州",
            "district": "丘北县"
        }
    },
    {
        "id": "1127768695258692910",
        "title": "公共厕所",
        "address": "云南省文山壮族苗族自治州丘北县普炭公路与普炭路交叉口正西方向97米左右",
        "tel": "",
        "category": "基础设施:公共设施:公共厕所",
        "type": 0,
        "location": {
            "lat": 23.875943,
            "lng": 104.205739
        },
        "ad_info": {
            "adcode": 532626,
            "province": "云南省",
            "city": "文山壮族苗族自治州",
            "district": "丘北县"
        }
    },
    {
        "id": "7808404074677563596",
        "title": "公共厕所",
        "address": "云南省文山壮族苗族自治州马关县鸿永钢材西北侧60米",
        "tel": "",
        "category": "基础设施:公共设施:公共厕所",
        "type": 0,
        "location": {
            "lat": 23.103065,
            "lng": 104.069345
        },
        "ad_info": {
            "adcode": 532625,
            "province": "云南省",
            "city": "文山壮族苗族自治州",
            "district": "马关县"
        }
    },
    {
        "id": "1782816262129511838",
        "title": "六诏加水站公共厕所",
        "address": "云南省文山壮族苗族自治州砚山县广昆高速",
        "tel": "",
        "category": "基础设施:公共设施:公共厕所",
        "type": 0,
        "location": {
            "lat": 23.668816,
            "lng": 104.538629
        },
        "ad_info": {
            "adcode": 532622,
            "province": "云南省",
            "city": "文山壮族苗族自治州",
            "district": "砚山县"
        }
    },
    {
        "id": "8032568922022441914",
        "title": "公共厕所",
        "address": "云南省文山壮族苗族自治州广南县北宁路与莲城北路交叉口正南方向68米左右",
        "tel": "",
        "category": "基础设施:公共设施:公共厕所",
        "type": 0,
        "location": {
            "lat": 24.053705,
            "lng": 105.066276
        },
        "ad_info": {
            "adcode": 532627,
            "province": "云南省",
            "city": "文山壮族苗族自治州",
            "district": "广南县"
        }
    },
    {
        "id": "6104331901973916214",
        "title": "传习馆公共厕所",
        "address": "云南省文山壮族苗族自治州西畴县G246与马土段交叉口西北方向1244米左右",
        "tel": "",
        "category": "基础设施:公共设施:公共厕所",
        "type": 0,
        "location": {
            "lat": 23.485144,
            "lng": 104.700563
        },
        "ad_info": {
            "adcode": 532623,
            "province": "云南省",
            "city": "文山壮族苗族自治州",
            "district": "西畴县"
        }
    },
    {
        "id": "4124779687756907462",
        "title": "公共厕所",
        "address": "云南省文山壮族苗族自治州广南县广南县疾病预防控制中心南侧210米",
        "tel": "",
        "category": "基础设施:公共设施:公共厕所",
        "type": 0,
        "location": {
            "lat": 24.051032,
            "lng": 105.039435
        },
        "ad_info": {
            "adcode": 532627,
            "province": "云南省",
            "city": "文山壮族苗族自治州",
            "district": "广南县"
        }
    },
    {
        "id": "13949164216368946755",
        "title": "公共厕所",
        "address": "云南省文山壮族苗族自治州文山市下沙坝小区东路与沿河路交叉口西北方向39米左右",
        "tel": "",
        "category": "基础设施:公共设施:公共厕所",
        "type": 0,
        "location": {
            "lat": 23.35962,
            "lng": 104.259301
        },
        "ad_info": {
            "adcode": 532601,
            "province": "云南省",
            "city": "文山壮族苗族自治州",
            "district": "文山市"
        }
    },
    {
        "id": "7911100762211783970",
        "title": "公共厕所",
        "address": "云南省文山壮族苗族自治州麻栗坡县大新段与熊大段交叉口东北方向485米左右",
        "tel": "",
        "category": "基础设施:公共设施:公共厕所",
        "type": 0,
        "location": {
            "lat": 23.108216,
            "lng": 104.592917
        },
        "ad_info": {
            "adcode": 532624,
            "province": "云南省",
            "city": "文山壮族苗族自治州",
            "district": "麻栗坡县"
        }
    },
    {
        "id": "3007037712510641131",
        "title": "那洒加水站公共厕所",
        "address": "云南省文山壮族苗族自治州广南县G80广昆高速与那洒加水站交叉口西440米",
        "tel": "",
        "category": "基础设施:公共设施:公共厕所",
        "type": 0,
        "location": {
            "lat": 23.712796,
            "lng": 104.745839
        },
        "ad_info": {
            "adcode": 532627,
            "province": "云南省",
            "city": "文山壮族苗族自治州",
            "district": "广南县"
        }
    },
    {
        "id": "5790666700396924408",
        "title": "马关服务区公共厕所",
        "address": "云南省文山壮族苗族自治州马关县马关服务区与S21文马高速交叉口南180米",
        "tel": "",
        "category": "基础设施:公共设施:公共厕所",
        "type": 0,
        "location": {
            "lat": 23.042169,
            "lng": 104.362929
        },
        "ad_info": {
            "adcode": 532625,
            "province": "云南省",
            "city": "文山壮族苗族自治州",
            "district": "马关县"
        }
    },
    {
        "id": "9808935963373619730",
        "title": "公共厕所",
        "address": "云南省文山壮族苗族自治州广南县S312与西洋桥交叉口东北方向1225米左右",
        "tel": "",
        "category": "基础设施:公共设施:公共厕所",
        "type": 0,
        "location": {
            "lat": 23.890753,
            "lng": 105.34223
        },
        "ad_info": {
            "adcode": 532627,
            "province": "云南省",
            "city": "文山壮族苗族自治州",
            "district": "广南县"
        }
    },
    {
        "id": "5960218711689463142",
        "title": "公共厕所",
        "address": "云南省文山壮族苗族自治州广南县南秀路与较场路交叉口正东方向211米左右",
        "tel": "",
        "category": "基础设施:公共设施:公共厕所",
        "type": 0,
        "location": {
            "lat": 24.04542,
            "lng": 105.059996
        },
        "ad_info": {
            "adcode": 532627,
            "province": "云南省",
            "city": "文山壮族苗族自治州",
            "district": "广南县"
        }
    },
    {
        "id": "10152415659029142278",
        "title": "公共厕所",
        "address": "云南省文山壮族苗族自治州富宁县佳源超市(富宁花甲店)西北侧140米",
        "tel": "",
        "category": "基础设施:公共设施:公共厕所",
        "type": 0,
        "location": {
            "lat": 23.856438,
            "lng": 105.615642
        },
        "ad_info": {
            "adcode": 532628,
            "province": "云南省",
            "city": "文山壮族苗族自治州",
            "district": "富宁县"
        }
    },
    {
        "id": "6350922334320456873",
        "title": "洗手台",
        "address": "云南省文山壮族苗族自治州文山市联通公司旁75号",
        "tel": "",
        "category": "基础设施:公共设施:公共厕所",
        "type": 0,
        "location": {
            "lat": 23.373057,
            "lng": 104.235858
        },
        "ad_info": {
            "adcode": 532601,
            "province": "云南省",
            "city": "文山壮族苗族自治州",
            "district": "文山市"
        }
    },
    {
        "id": "9093967927631320302",
        "title": "洗手台",
        "address": "云南省文山壮族苗族自治州文山市安平东路19号",
        "tel": "",
        "category": "基础设施:公共设施:公共厕所",
        "type": 0,
        "location": {
            "lat": 23.375714,
            "lng": 104.247023
        },
        "ad_info": {
            "adcode": 532601,
            "province": "云南省",
            "city": "文山壮族苗族自治州",
            "district": "文山市"
        }
    },
    {
        "id": "5436917591188313287",
        "title": "公共厕所",
        "address": "云南省文山壮族苗族自治州丘北县Y041与新树段交叉口正东方向154米左右",
        "tel": "",
        "category": "基础设施:公共设施:公共厕所",
        "type": 0,
        "location": {
            "lat": 23.878557,
            "lng": 104.102898
        },
        "ad_info": {
            "adcode": 532626,
            "province": "云南省",
            "city": "文山壮族苗族自治州",
            "district": "丘北县"
        }
    },
    {
        "id": "274567547249536680",
        "title": "公共厕所",
        "address": "云南省文山壮族苗族自治州丘北县中云石化丘北景星加油站北侧280米",
        "tel": "",
        "category": "基础设施:公共设施:公共厕所",
        "type": 0,
        "location": {
            "lat": 24.09763,
            "lng": 104.086154
        },
        "ad_info": {
            "adcode": 532626,
            "province": "云南省",
            "city": "文山壮族苗族自治州",
            "district": "丘北县"
        }
    },
    {
        "id": "7818934919146839057",
        "title": "公共厕所",
        "address": "云南省文山壮族苗族自治州文山市Y053与Y055交叉口正南方向225米左右",
        "tel": "",
        "category": "基础设施:公共设施:公共厕所",
        "type": 0,
        "location": {
            "lat": 23.197133,
            "lng": 104.016337
        },
        "ad_info": {
            "adcode": 532601,
            "province": "云南省",
            "city": "文山壮族苗族自治州",
            "district": "文山市"
        }
    },
    {
        "id": "3060689582740765097",
        "title": "公共厕所",
        "address": "云南省文山壮族苗族自治州麻栗坡县河滨路11号",
        "tel": "",
        "category": "基础设施:公共设施:公共厕所",
        "type": 0,
        "location": {
            "lat": 23.127732,
            "lng": 104.701743
        },
        "ad_info": {
            "adcode": 532624,
            "province": "云南省",
            "city": "文山壮族苗族自治州",
            "district": "麻栗坡县"
        }
    },
    {
        "id": "4650814589831279967",
        "title": "公共厕所",
        "address": "云南省文山壮族苗族自治州丘北县文翠路与普者黑大街交叉口正西方向263米左右",
        "tel": "",
        "category": "基础设施:公共设施:公共厕所",
        "type": 0,
        "location": {
            "lat": 24.036216,
            "lng": 104.188669
        },
        "ad_info": {
            "adcode": 532626,
            "province": "云南省",
            "city": "文山壮族苗族自治州",
            "district": "丘北县"
        }
    },
    {
        "id": "1127768695258692910",
        "title": "公共厕所",
        "address": "云南省文山壮族苗族自治州丘北县普炭公路与普炭路交叉口正西方向97米左右",
        "tel": "",
        "category": "基础设施:公共设施:公共厕所",
        "type": 0,
        "location": {
            "lat": 23.875943,
            "lng": 104.205739
        },
        "ad_info": {
            "adcode": 532626,
            "province": "云南省",
            "city": "文山壮族苗族自治州",
            "district": "丘北县"
        }
    },
    {
        "id": "7808404074677563596",
        "title": "公共厕所",
        "address": "云南省文山壮族苗族自治州马关县鸿永钢材西北侧60米",
        "tel": "",
        "category": "基础设施:公共设施:公共厕所",
        "type": 0,
        "location": {
            "lat": 23.103065,
            "lng": 104.069345
        },
        "ad_info": {
            "adcode": 532625,
            "province": "云南省",
            "city": "文山壮族苗族自治州",
            "district": "马关县"
        }
    },
    {
        "id": "1782816262129511838",
        "title": "六诏加水站公共厕所",
        "address": "云南省文山壮族苗族自治州砚山县广昆高速",
        "tel": "",
        "category": "基础设施:公共设施:公共厕所",
        "type": 0,
        "location": {
            "lat": 23.668816,
            "lng": 104.538629
        },
        "ad_info": {
            "adcode": 532622,
            "province": "云南省",
            "city": "文山壮族苗族自治州",
            "district": "砚山县"
        }
    },
    {
        "id": "8032568922022441914",
        "title": "公共厕所",
        "address": "云南省文山壮族苗族自治州广南县北宁路与莲城北路交叉口正南方向68米左右",
        "tel": "",
        "category": "基础设施:公共设施:公共厕所",
        "type": 0,
        "location": {
            "lat": 24.053705,
            "lng": 105.066276
        },
        "ad_info": {
            "adcode": 532627,
            "province": "云南省",
            "city": "文山壮族苗族自治州",
            "district": "广南县"
        }
    },
    {
        "id": "6104331901973916214",
        "title": "传习馆公共厕所",
        "address": "云南省文山壮族苗族自治州西畴县G246与马土段交叉口西北方向1244米左右",
        "tel": "",
        "category": "基础设施:公共设施:公共厕所",
        "type": 0,
        "location": {
            "lat": 23.485144,
            "lng": 104.700563
        },
        "ad_info": {
            "adcode": 532623,
            "province": "云南省",
            "city": "文山壮族苗族自治州",
            "district": "西畴县"
        }
    },
    {
        "id": "4124779687756907462",
        "title": "公共厕所",
        "address": "云南省文山壮族苗族自治州广南县广南县疾病预防控制中心南侧210米",
        "tel": "",
        "category": "基础设施:公共设施:公共厕所",
        "type": 0,
        "location": {
            "lat": 24.051032,
            "lng": 105.039435
        },
        "ad_info": {
            "adcode": 532627,
            "province": "云南省",
            "city": "文山壮族苗族自治州",
            "district": "广南县"
        }
    },
    {
        "id": "13949164216368946755",
        "title": "公共厕所",
        "address": "云南省文山壮族苗族自治州文山市下沙坝小区东路与沿河路交叉口西北方向39米左右",
        "tel": "",
        "category": "基础设施:公共设施:公共厕所",
        "type": 0,
        "location": {
            "lat": 23.35962,
            "lng": 104.259301
        },
        "ad_info": {
            "adcode": 532601,
            "province": "云南省",
            "city": "文山壮族苗族自治州",
            "district": "文山市"
        }
    },
    {
        "id": "7911100762211783970",
        "title": "公共厕所",
        "address": "云南省文山壮族苗族自治州麻栗坡县大新段与熊大段交叉口东北方向485米左右",
        "tel": "",
        "category": "基础设施:公共设施:公共厕所",
        "type": 0,
        "location": {
            "lat": 23.108216,
            "lng": 104.592917
        },
        "ad_info": {
            "adcode": 532624,
            "province": "云南省",
            "city": "文山壮族苗族自治州",
            "district": "麻栗坡县"
        }
    },
    {
        "id": "3007037712510641131",
        "title": "那洒加水站公共厕所",
        "address": "云南省文山壮族苗族自治州广南县G80广昆高速与那洒加水站交叉口西440米",
        "tel": "",
        "category": "基础设施:公共设施:公共厕所",
        "type": 0,
        "location": {
            "lat": 23.712796,
            "lng": 104.745839
        },
        "ad_info": {
            "adcode": 532627,
            "province": "云南省",
            "city": "文山壮族苗族自治州",
            "district": "广南县"
        }
    },
    {
        "id": "5790666700396924408",
        "title": "马关服务区公共厕所",
        "address": "云南省文山壮族苗族自治州马关县马关服务区与S21文马高速交叉口南180米",
        "tel": "",
        "category": "基础设施:公共设施:公共厕所",
        "type": 0,
        "location": {
            "lat": 23.042169,
            "lng": 104.362929
        },
        "ad_info": {
            "adcode": 532625,
            "province": "云南省",
            "city": "文山壮族苗族自治州",
            "district": "马关县"
        }
    },
    {
        "id": "9808935963373619730",
        "title": "公共厕所",
        "address": "云南省文山壮族苗族自治州广南县S312与西洋桥交叉口东北方向1225米左右",
        "tel": "",
        "category": "基础设施:公共设施:公共厕所",
        "type": 0,
        "location": {
            "lat": 23.890753,
            "lng": 105.34223
        },
        "ad_info": {
            "adcode": 532627,
            "province": "云南省",
            "city": "文山壮族苗族自治州",
            "district": "广南县"
        }
    },
    {
        "id": "5960218711689463142",
        "title": "公共厕所",
        "address": "云南省文山壮族苗族自治州广南县南秀路与较场路交叉口正东方向211米左右",
        "tel": "",
        "category": "基础设施:公共设施:公共厕所",
        "type": 0,
        "location": {
            "lat": 24.04542,
            "lng": 105.059996
        },
        "ad_info": {
            "adcode": 532627,
            "province": "云南省",
            "city": "文山壮族苗族自治州",
            "district": "广南县"
        }
    },
    {
        "id": "10152415659029142278",
        "title": "公共厕所",
        "address": "云南省文山壮族苗族自治州富宁县佳源超市(富宁花甲店)西北侧140米",
        "tel": "",
        "category": "基础设施:公共设施:公共厕所",
        "type": 0,
        "location": {
            "lat": 23.856438,
            "lng": 105.615642
        },
        "ad_info": {
            "adcode": 532628,
            "province": "云南省",
            "city": "文山壮族苗族自治州",
            "district": "富宁县"
        }
    },
    {
        "id": "6350922334320456873",
        "title": "洗手台",
        "address": "云南省文山壮族苗族自治州文山市联通公司旁75号",
        "tel": "",
        "category": "基础设施:公共设施:公共厕所",
        "type": 0,
        "location": {
            "lat": 23.373057,
            "lng": 104.235858
        },
        "ad_info": {
            "adcode": 532601,
            "province": "云南省",
            "city": "文山壮族苗族自治州",
            "district": "文山市"
        }
    },
    {
        "id": "9093967927631320302",
        "title": "洗手台",
        "address": "云南省文山壮族苗族自治州文山市安平东路19号",
        "tel": "",
        "category": "基础设施:公共设施:公共厕所",
        "type": 0,
        "location": {
            "lat": 23.375714,
            "lng": 104.247023
        },
        "ad_info": {
            "adcode": 532601,
            "province": "云南省",
            "city": "文山壮族苗族自治州",
            "district": "文山市"
        }
    },
    {
        "id": "5436917591188313287",
        "title": "公共厕所",
        "address": "云南省文山壮族苗族自治州丘北县Y041与新树段交叉口正东方向154米左右",
        "tel": "",
        "category": "基础设施:公共设施:公共厕所",
        "type": 0,
        "location": {
            "lat": 23.878557,
            "lng": 104.102898
        },
        "ad_info": {
            "adcode": 532626,
            "province": "云南省",
            "city": "文山壮族苗族自治州",
            "district": "丘北县"
        }
    },
    {
        "id": "274567547249536680",
        "title": "公共厕所",
        "address": "云南省文山壮族苗族自治州丘北县中云石化丘北景星加油站北侧280米",
        "tel": "",
        "category": "基础设施:公共设施:公共厕所",
        "type": 0,
        "location": {
            "lat": 24.09763,
            "lng": 104.086154
        },
        "ad_info": {
            "adcode": 532626,
            "province": "云南省",
            "city": "文山壮族苗族自治州",
            "district": "丘北县"
        }
    },
    {
        "id": "7818934919146839057",
        "title": "公共厕所",
        "address": "云南省文山壮族苗族自治州文山市Y053与Y055交叉口正南方向225米左右",
        "tel": "",
        "category": "基础设施:公共设施:公共厕所",
        "type": 0,
        "location": {
            "lat": 23.197133,
            "lng": 104.016337
        },
        "ad_info": {
            "adcode": 532601,
            "province": "云南省",
            "city": "文山壮族苗族自治州",
            "district": "文山市"
        }
    },
    {
        "id": "3060689582740765097",
        "title": "公共厕所",
        "address": "云南省文山壮族苗族自治州麻栗坡县河滨路11号",
        "tel": "",
        "category": "基础设施:公共设施:公共厕所",
        "type": 0,
        "location": {
            "lat": 23.127732,
            "lng": 104.701743
        },
        "ad_info": {
            "adcode": 532624,
            "province": "云南省",
            "city": "文山壮族苗族自治州",
            "district": "麻栗坡县"
        }
    },
    {
        "id": "4650814589831279967",
        "title": "公共厕所",
        "address": "云南省文山壮族苗族自治州丘北县文翠路与普者黑大街交叉口正西方向263米左右",
        "tel": "",
        "category": "基础设施:公共设施:公共厕所",
        "type": 0,
        "location": {
            "lat": 24.036216,
            "lng": 104.188669
        },
        "ad_info": {
            "adcode": 532626,
            "province": "云南省",
            "city": "文山壮族苗族自治州",
            "district": "丘北县"
        }
    },
    {
        "id": "1127768695258692910",
        "title": "公共厕所",
        "address": "云南省文山壮族苗族自治州丘北县普炭公路与普炭路交叉口正西方向97米左右",
        "tel": "",
        "category": "基础设施:公共设施:公共厕所",
        "type": 0,
        "location": {
            "lat": 23.875943,
            "lng": 104.205739
        },
        "ad_info": {
            "adcode": 532626,
            "province": "云南省",
            "city": "文山壮族苗族自治州",
            "district": "丘北县"
        }
    },
    {
        "id": "7808404074677563596",
        "title": "公共厕所",
        "address": "云南省文山壮族苗族自治州马关县鸿永钢材西北侧60米",
        "tel": "",
        "category": "基础设施:公共设施:公共厕所",
        "type": 0,
        "location": {
            "lat": 23.103065,
            "lng": 104.069345
        },
        "ad_info": {
            "adcode": 532625,
            "province": "云南省",
            "city": "文山壮族苗族自治州",
            "district": "马关县"
        }
    },
    {
        "id": "1782816262129511838",
        "title": "六诏加水站公共厕所",
        "address": "云南省文山壮族苗族自治州砚山县广昆高速",
        "tel": "",
        "category": "基础设施:公共设施:公共厕所",
        "type": 0,
        "location": {
            "lat": 23.668816,
            "lng": 104.538629
        },
        "ad_info": {
            "adcode": 532622,
            "province": "云南省",
            "city": "文山壮族苗族自治州",
            "district": "砚山县"
        }
    },
    {
        "id": "8032568922022441914",
        "title": "公共厕所",
        "address": "云南省文山壮族苗族自治州广南县北宁路与莲城北路交叉口正南方向68米左右",
        "tel": "",
        "category": "基础设施:公共设施:公共厕所",
        "type": 0,
        "location": {
            "lat": 24.053705,
            "lng": 105.066276
        },
        "ad_info": {
            "adcode": 532627,
            "province": "云南省",
            "city": "文山壮族苗族自治州",
            "district": "广南县"
        }
    },
    {
        "id": "6104331901973916214",
        "title": "传习馆公共厕所",
        "address": "云南省文山壮族苗族自治州西畴县G246与马土段交叉口西北方向1244米左右",
        "tel": "",
        "category": "基础设施:公共设施:公共厕所",
        "type": 0,
        "location": {
            "lat": 23.485144,
            "lng": 104.700563
        },
        "ad_info": {
            "adcode": 532623,
            "province": "云南省",
            "city": "文山壮族苗族自治州",
            "district": "西畴县"
        }
    },
    {
        "id": "4124779687756907462",
        "title": "公共厕所",
        "address": "云南省文山壮族苗族自治州广南县广南县疾病预防控制中心南侧210米",
        "tel": "",
        "category": "基础设施:公共设施:公共厕所",
        "type": 0,
        "location": {
            "lat": 24.051032,
            "lng": 105.039435
        },
        "ad_info": {
            "adcode": 532627,
            "province": "云南省",
            "city": "文山壮族苗族自治州",
            "district": "广南县"
        }
    },
    {
        "id": "13949164216368946755",
        "title": "公共厕所",
        "address": "云南省文山壮族苗族自治州文山市下沙坝小区东路与沿河路交叉口西北方向39米左右",
        "tel": "",
        "category": "基础设施:公共设施:公共厕所",
        "type": 0,
        "location": {
            "lat": 23.35962,
            "lng": 104.259301
        },
        "ad_info": {
            "adcode": 532601,
            "province": "云南省",
            "city": "文山壮族苗族自治州",
            "district": "文山市"
        }
    },
    {
        "id": "7911100762211783970",
        "title": "公共厕所",
        "address": "云南省文山壮族苗族自治州麻栗坡县大新段与熊大段交叉口东北方向485米左右",
        "tel": "",
        "category": "基础设施:公共设施:公共厕所",
        "type": 0,
        "location": {
            "lat": 23.108216,
            "lng": 104.592917
        },
        "ad_info": {
            "adcode": 532624,
            "province": "云南省",
            "city": "文山壮族苗族自治州",
            "district": "麻栗坡县"
        }
    },
    {
        "id": "3007037712510641131",
        "title": "那洒加水站公共厕所",
        "address": "云南省文山壮族苗族自治州广南县G80广昆高速与那洒加水站交叉口西440米",
        "tel": "",
        "category": "基础设施:公共设施:公共厕所",
        "type": 0,
        "location": {
            "lat": 23.712796,
            "lng": 104.745839
        },
        "ad_info": {
            "adcode": 532627,
            "province": "云南省",
            "city": "文山壮族苗族自治州",
            "district": "广南县"
        }
    },
    {
        "id": "5790666700396924408",
        "title": "马关服务区公共厕所",
        "address": "云南省文山壮族苗族自治州马关县马关服务区与S21文马高速交叉口南180米",
        "tel": "",
        "category": "基础设施:公共设施:公共厕所",
        "type": 0,
        "location": {
            "lat": 23.042169,
            "lng": 104.362929
        },
        "ad_info": {
            "adcode": 532625,
            "province": "云南省",
            "city": "文山壮族苗族自治州",
            "district": "马关县"
        }
    },
    {
        "id": "9808935963373619730",
        "title": "公共厕所",
        "address": "云南省文山壮族苗族自治州广南县S312与西洋桥交叉口东北方向1225米左右",
        "tel": "",
        "category": "基础设施:公共设施:公共厕所",
        "type": 0,
        "location": {
            "lat": 23.890753,
            "lng": 105.34223
        },
        "ad_info": {
            "adcode": 532627,
            "province": "云南省",
            "city": "文山壮族苗族自治州",
            "district": "广南县"
        }
    },
    {
        "id": "5960218711689463142",
        "title": "公共厕所",
        "address": "云南省文山壮族苗族自治州广南县南秀路与较场路交叉口正东方向211米左右",
        "tel": "",
        "category": "基础设施:公共设施:公共厕所",
        "type": 0,
        "location": {
            "lat": 24.04542,
            "lng": 105.059996
        },
        "ad_info": {
            "adcode": 532627,
            "province": "云南省",
            "city": "文山壮族苗族自治州",
            "district": "广南县"
        }
    },
    {
        "id": "10152415659029142278",
        "title": "公共厕所",
        "address": "云南省文山壮族苗族自治州富宁县佳源超市(富宁花甲店)西北侧140米",
        "tel": "",
        "category": "基础设施:公共设施:公共厕所",
        "type": 0,
        "location": {
            "lat": 23.856438,
            "lng": 105.615642
        },
        "ad_info": {
            "adcode": 532628,
            "province": "云南省",
            "city": "文山壮族苗族自治州",
            "district": "富宁县"
        }
    },
    {
        "id": "6350922334320456873",
        "title": "洗手台",
        "address": "云南省文山壮族苗族自治州文山市联通公司旁75号",
        "tel": "",
        "category": "基础设施:公共设施:公共厕所",
        "type": 0,
        "location": {
            "lat": 23.373057,
            "lng": 104.235858
        },
        "ad_info": {
            "adcode": 532601,
            "province": "云南省",
            "city": "文山壮族苗族自治州",
            "district": "文山市"
        }
    },
    {
        "id": "9093967927631320302",
        "title": "洗手台",
        "address": "云南省文山壮族苗族自治州文山市安平东路19号",
        "tel": "",
        "category": "基础设施:公共设施:公共厕所",
        "type": 0,
        "location": {
            "lat": 23.375714,
            "lng": 104.247023
        },
        "ad_info": {
            "adcode": 532601,
            "province": "云南省",
            "city": "文山壮族苗族自治州",
            "district": "文山市"
        }
    },
    {
        "id": "5436917591188313287",
        "title": "公共厕所",
        "address": "云南省文山壮族苗族自治州丘北县Y041与新树段交叉口正东方向154米左右",
        "tel": "",
        "category": "基础设施:公共设施:公共厕所",
        "type": 0,
        "location": {
            "lat": 23.878557,
            "lng": 104.102898
        },
        "ad_info": {
            "adcode": 532626,
            "province": "云南省",
            "city": "文山壮族苗族自治州",
            "district": "丘北县"
        }
    },
    {
        "id": "274567547249536680",
        "title": "公共厕所",
        "address": "云南省文山壮族苗族自治州丘北县中云石化丘北景星加油站北侧280米",
        "tel": "",
        "category": "基础设施:公共设施:公共厕所",
        "type": 0,
        "location": {
            "lat": 24.09763,
            "lng": 104.086154
        },
        "ad_info": {
            "adcode": 532626,
            "province": "云南省",
            "city": "文山壮族苗族自治州",
            "district": "丘北县"
        }
    },
    {
        "id": "7818934919146839057",
        "title": "公共厕所",
        "address": "云南省文山壮族苗族自治州文山市Y053与Y055交叉口正南方向225米左右",
        "tel": "",
        "category": "基础设施:公共设施:公共厕所",
        "type": 0,
        "location": {
            "lat": 23.197133,
            "lng": 104.016337
        },
        "ad_info": {
            "adcode": 532601,
            "province": "云南省",
            "city": "文山壮族苗族自治州",
            "district": "文山市"
        }
    },
    {
        "id": "3060689582740765097",
        "title": "公共厕所",
        "address": "云南省文山壮族苗族自治州麻栗坡县河滨路11号",
        "tel": "",
        "category": "基础设施:公共设施:公共厕所",
        "type": 0,
        "location": {
            "lat": 23.127732,
            "lng": 104.701743
        },
        "ad_info": {
            "adcode": 532624,
            "province": "云南省",
            "city": "文山壮族苗族自治州",
            "district": "麻栗坡县"
        }
    },
    {
        "id": "4650814589831279967",
        "title": "公共厕所",
        "address": "云南省文山壮族苗族自治州丘北县文翠路与普者黑大街交叉口正西方向263米左右",
        "tel": "",
        "category": "基础设施:公共设施:公共厕所",
        "type": 0,
        "location": {
            "lat": 24.036216,
            "lng": 104.188669
        },
        "ad_info": {
            "adcode": 532626,
            "province": "云南省",
            "city": "文山壮族苗族自治州",
            "district": "丘北县"
        }
    },
    {
        "id": "1127768695258692910",
        "title": "公共厕所",
        "address": "云南省文山壮族苗族自治州丘北县普炭公路与普炭路交叉口正西方向97米左右",
        "tel": "",
        "category": "基础设施:公共设施:公共厕所",
        "type": 0,
        "location": {
            "lat": 23.875943,
            "lng": 104.205739
        },
        "ad_info": {
            "adcode": 532626,
            "province": "云南省",
            "city": "文山壮族苗族自治州",
            "district": "丘北县"
        }
    },
    {
        "id": "7808404074677563596",
        "title": "公共厕所",
        "address": "云南省文山壮族苗族自治州马关县鸿永钢材西北侧60米",
        "tel": "",
        "category": "基础设施:公共设施:公共厕所",
        "type": 0,
        "location": {
            "lat": 23.103065,
            "lng": 104.069345
        },
        "ad_info": {
            "adcode": 532625,
            "province": "云南省",
            "city": "文山壮族苗族自治州",
            "district": "马关县"
        }
    },
    {
        "id": "1782816262129511838",
        "title": "六诏加水站公共厕所",
        "address": "云南省文山壮族苗族自治州砚山县广昆高速",
        "tel": "",
        "category": "基础设施:公共设施:公共厕所",
        "type": 0,
        "location": {
            "lat": 23.668816,
            "lng": 104.538629
        },
        "ad_info": {
            "adcode": 532622,
            "province": "云南省",
            "city": "文山壮族苗族自治州",
            "district": "砚山县"
        }
    },
    {
        "id": "8032568922022441914",
        "title": "公共厕所",
        "address": "云南省文山壮族苗族自治州广南县北宁路与莲城北路交叉口正南方向68米左右",
        "tel": "",
        "category": "基础设施:公共设施:公共厕所",
        "type": 0,
        "location": {
            "lat": 24.053705,
            "lng": 105.066276
        },
        "ad_info": {
            "adcode": 532627,
            "province": "云南省",
            "city": "文山壮族苗族自治州",
            "district": "广南县"
        }
    },
    {
        "id": "6104331901973916214",
        "title": "传习馆公共厕所",
        "address": "云南省文山壮族苗族自治州西畴县G246与马土段交叉口西北方向1244米左右",
        "tel": "",
        "category": "基础设施:公共设施:公共厕所",
        "type": 0,
        "location": {
            "lat": 23.485144,
            "lng": 104.700563
        },
        "ad_info": {
            "adcode": 532623,
            "province": "云南省",
            "city": "文山壮族苗族自治州",
            "district": "西畴县"
        }
    },
    {
        "id": "4124779687756907462",
        "title": "公共厕所",
        "address": "云南省文山壮族苗族自治州广南县广南县疾病预防控制中心南侧210米",
        "tel": "",
        "category": "基础设施:公共设施:公共厕所",
        "type": 0,
        "location": {
            "lat": 24.051032,
            "lng": 105.039435
        },
        "ad_info": {
            "adcode": 532627,
            "province": "云南省",
            "city": "文山壮族苗族自治州",
            "district": "广南县"
        }
    },
    {
        "id": "13949164216368946755",
        "title": "公共厕所",
        "address": "云南省文山壮族苗族自治州文山市下沙坝小区东路与沿河路交叉口西北方向39米左右",
        "tel": "",
        "category": "基础设施:公共设施:公共厕所",
        "type": 0,
        "location": {
            "lat": 23.35962,
            "lng": 104.259301
        },
        "ad_info": {
            "adcode": 532601,
            "province": "云南省",
            "city": "文山壮族苗族自治州",
            "district": "文山市"
        }
    },
    {
        "id": "7911100762211783970",
        "title": "公共厕所",
        "address": "云南省文山壮族苗族自治州麻栗坡县大新段与熊大段交叉口东北方向485米左右",
        "tel": "",
        "category": "基础设施:公共设施:公共厕所",
        "type": 0,
        "location": {
            "lat": 23.108216,
            "lng": 104.592917
        },
        "ad_info": {
            "adcode": 532624,
            "province": "云南省",
            "city": "文山壮族苗族自治州",
            "district": "麻栗坡县"
        }
    },
    {
        "id": "3007037712510641131",
        "title": "那洒加水站公共厕所",
        "address": "云南省文山壮族苗族自治州广南县G80广昆高速与那洒加水站交叉口西440米",
        "tel": "",
        "category": "基础设施:公共设施:公共厕所",
        "type": 0,
        "location": {
            "lat": 23.712796,
            "lng": 104.745839
        },
        "ad_info": {
            "adcode": 532627,
            "province": "云南省",
            "city": "文山壮族苗族自治州",
            "district": "广南县"
        }
    },
    {
        "id": "5790666700396924408",
        "title": "马关服务区公共厕所",
        "address": "云南省文山壮族苗族自治州马关县马关服务区与S21文马高速交叉口南180米",
        "tel": "",
        "category": "基础设施:公共设施:公共厕所",
        "type": 0,
        "location": {
            "lat": 23.042169,
            "lng": 104.362929
        },
        "ad_info": {
            "adcode": 532625,
            "province": "云南省",
            "city": "文山壮族苗族自治州",
            "district": "马关县"
        }
    },
    {
        "id": "9808935963373619730",
        "title": "公共厕所",
        "address": "云南省文山壮族苗族自治州广南县S312与西洋桥交叉口东北方向1225米左右",
        "tel": "",
        "category": "基础设施:公共设施:公共厕所",
        "type": 0,
        "location": {
            "lat": 23.890753,
            "lng": 105.34223
        },
        "ad_info": {
            "adcode": 532627,
            "province": "云南省",
            "city": "文山壮族苗族自治州",
            "district": "广南县"
        }
    },
    {
        "id": "5960218711689463142",
        "title": "公共厕所",
        "address": "云南省文山壮族苗族自治州广南县南秀路与较场路交叉口正东方向211米左右",
        "tel": "",
        "category": "基础设施:公共设施:公共厕所",
        "type": 0,
        "location": {
            "lat": 24.04542,
            "lng": 105.059996
        },
        "ad_info": {
            "adcode": 532627,
            "province": "云南省",
            "city": "文山壮族苗族自治州",
            "district": "广南县"
        }
    },
    {
        "id": "10152415659029142278",
        "title": "公共厕所",
        "address": "云南省文山壮族苗族自治州富宁县佳源超市(富宁花甲店)西北侧140米",
        "tel": "",
        "category": "基础设施:公共设施:公共厕所",
        "type": 0,
        "location": {
            "lat": 23.856438,
            "lng": 105.615642
        },
        "ad_info": {
            "adcode": 532628,
            "province": "云南省",
            "city": "文山壮族苗族自治州",
            "district": "富宁县"
        }
    },
    {
        "id": "6350922334320456873",
        "title": "洗手台",
        "address": "云南省文山壮族苗族自治州文山市联通公司旁75号",
        "tel": "",
        "category": "基础设施:公共设施:公共厕所",
        "type": 0,
        "location": {
            "lat": 23.373057,
            "lng": 104.235858
        },
        "ad_info": {
            "adcode": 532601,
            "province": "云南省",
            "city": "文山壮族苗族自治州",
            "district": "文山市"
        }
    },
    {
        "id": "9093967927631320302",
        "title": "洗手台",
        "address": "云南省文山壮族苗族自治州文山市安平东路19号",
        "tel": "",
        "category": "基础设施:公共设施:公共厕所",
        "type": 0,
        "location": {
            "lat": 23.375714,
            "lng": 104.247023
        },
        "ad_info": {
            "adcode": 532601,
            "province": "云南省",
            "city": "文山壮族苗族自治州",
            "district": "文山市"
        }
    },
    {
        "id": "5436917591188313287",
        "title": "公共厕所",
        "address": "云南省文山壮族苗族自治州丘北县Y041与新树段交叉口正东方向154米左右",
        "tel": "",
        "category": "基础设施:公共设施:公共厕所",
        "type": 0,
        "location": {
            "lat": 23.878557,
            "lng": 104.102898
        },
        "ad_info": {
            "adcode": 532626,
            "province": "云南省",
            "city": "文山壮族苗族自治州",
            "district": "丘北县"
        }
    },
    {
        "id": "274567547249536680",
        "title": "公共厕所",
        "address": "云南省文山壮族苗族自治州丘北县中云石化丘北景星加油站北侧280米",
        "tel": "",
        "category": "基础设施:公共设施:公共厕所",
        "type": 0,
        "location": {
            "lat": 24.09763,
            "lng": 104.086154
        },
        "ad_info": {
            "adcode": 532626,
            "province": "云南省",
            "city": "文山壮族苗族自治州",
            "district": "丘北县"
        }
    },
    {
        "id": "7818934919146839057",
        "title": "公共厕所",
        "address": "云南省文山壮族苗族自治州文山市Y053与Y055交叉口正南方向225米左右",
        "tel": "",
        "category": "基础设施:公共设施:公共厕所",
        "type": 0,
        "location": {
            "lat": 23.197133,
            "lng": 104.016337
        },
        "ad_info": {
            "adcode": 532601,
            "province": "云南省",
            "city": "文山壮族苗族自治州",
            "district": "文山市"
        }
    },
    {
        "id": "3060689582740765097",
        "title": "公共厕所",
        "address": "云南省文山壮族苗族自治州麻栗坡县河滨路11号",
        "tel": "",
        "category": "基础设施:公共设施:公共厕所",
        "type": 0,
        "location": {
            "lat": 23.127732,
            "lng": 104.701743
        },
        "ad_info": {
            "adcode": 532624,
            "province": "云南省",
            "city": "文山壮族苗族自治州",
            "district": "麻栗坡县"
        }
    },
    {
        "id": "4650814589831279967",
        "title": "公共厕所",
        "address": "云南省文山壮族苗族自治州丘北县文翠路与普者黑大街交叉口正西方向263米左右",
        "tel": "",
        "category": "基础设施:公共设施:公共厕所",
        "type": 0,
        "location": {
            "lat": 24.036216,
            "lng": 104.188669
        },
        "ad_info": {
            "adcode": 532626,
            "province": "云南省",
            "city": "文山壮族苗族自治州",
            "district": "丘北县"
        }
    },
    {
        "id": "1127768695258692910",
        "title": "公共厕所",
        "address": "云南省文山壮族苗族自治州丘北县普炭公路与普炭路交叉口正西方向97米左右",
        "tel": "",
        "category": "基础设施:公共设施:公共厕所",
        "type": 0,
        "location": {
            "lat": 23.875943,
            "lng": 104.205739
        },
        "ad_info": {
            "adcode": 532626,
            "province": "云南省",
            "city": "文山壮族苗族自治州",
            "district": "丘北县"
        }
    },
    {
        "id": "7808404074677563596",
        "title": "公共厕所",
        "address": "云南省文山壮族苗族自治州马关县鸿永钢材西北侧60米",
        "tel": "",
        "category": "基础设施:公共设施:公共厕所",
        "type": 0,
        "location": {
            "lat": 23.103065,
            "lng": 104.069345
        },
        "ad_info": {
            "adcode": 532625,
            "province": "云南省",
            "city": "文山壮族苗族自治州",
            "district": "马关县"
        }
    },
    {
        "id": "1782816262129511838",
        "title": "六诏加水站公共厕所",
        "address": "云南省文山壮族苗族自治州砚山县广昆高速",
        "tel": "",
        "category": "基础设施:公共设施:公共厕所",
        "type": 0,
        "location": {
            "lat": 23.668816,
            "lng": 104.538629
        },
        "ad_info": {
            "adcode": 532622,
            "province": "云南省",
            "city": "文山壮族苗族自治州",
            "district": "砚山县"
        }
    },
    {
        "id": "8032568922022441914",
        "title": "公共厕所",
        "address": "云南省文山壮族苗族自治州广南县北宁路与莲城北路交叉口正南方向68米左右",
        "tel": "",
        "category": "基础设施:公共设施:公共厕所",
        "type": 0,
        "location": {
            "lat": 24.053705,
            "lng": 105.066276
        },
        "ad_info": {
            "adcode": 532627,
            "province": "云南省",
            "city": "文山壮族苗族自治州",
            "district": "广南县"
        }
    },
    {
        "id": "6104331901973916214",
        "title": "传习馆公共厕所",
        "address": "云南省文山壮族苗族自治州西畴县G246与马土段交叉口西北方向1244米左右",
        "tel": "",
        "category": "基础设施:公共设施:公共厕所",
        "type": 0,
        "location": {
            "lat": 23.485144,
            "lng": 104.700563
        },
        "ad_info": {
            "adcode": 532623,
            "province": "云南省",
            "city": "文山壮族苗族自治州",
            "district": "西畴县"
        }
    },
    {
        "id": "4124779687756907462",
        "title": "公共厕所",
        "address": "云南省文山壮族苗族自治州广南县广南县疾病预防控制中心南侧210米",
        "tel": "",
        "category": "基础设施:公共设施:公共厕所",
        "type": 0,
        "location": {
            "lat": 24.051032,
            "lng": 105.039435
        },
        "ad_info": {
            "adcode": 532627,
            "province": "云南省",
            "city": "文山壮族苗族自治州",
            "district": "广南县"
        }
    },
    {
        "id": "13949164216368946755",
        "title": "公共厕所",
        "address": "云南省文山壮族苗族自治州文山市下沙坝小区东路与沿河路交叉口西北方向39米左右",
        "tel": "",
        "category": "基础设施:公共设施:公共厕所",
        "type": 0,
        "location": {
            "lat": 23.35962,
            "lng": 104.259301
        },
        "ad_info": {
            "adcode": 532601,
            "province": "云南省",
            "city": "文山壮族苗族自治州",
            "district": "文山市"
        }
    },
    {
        "id": "7911100762211783970",
        "title": "公共厕所",
        "address": "云南省文山壮族苗族自治州麻栗坡县大新段与熊大段交叉口东北方向485米左右",
        "tel": "",
        "category": "基础设施:公共设施:公共厕所",
        "type": 0,
        "location": {
            "lat": 23.108216,
            "lng": 104.592917
        },
        "ad_info": {
            "adcode": 532624,
            "province": "云南省",
            "city": "文山壮族苗族自治州",
            "district": "麻栗坡县"
        }
    },
    {
        "id": "3007037712510641131",
        "title": "那洒加水站公共厕所",
        "address": "云南省文山壮族苗族自治州广南县G80广昆高速与那洒加水站交叉口西440米",
        "tel": "",
        "category": "基础设施:公共设施:公共厕所",
        "type": 0,
        "location": {
            "lat": 23.712796,
            "lng": 104.745839
        },
        "ad_info": {
            "adcode": 532627,
            "province": "云南省",
            "city": "文山壮族苗族自治州",
            "district": "广南县"
        }
    },
    {
        "id": "5790666700396924408",
        "title": "马关服务区公共厕所",
        "address": "云南省文山壮族苗族自治州马关县马关服务区与S21文马高速交叉口南180米",
        "tel": "",
        "category": "基础设施:公共设施:公共厕所",
        "type": 0,
        "location": {
            "lat": 23.042169,
            "lng": 104.362929
        },
        "ad_info": {
            "adcode": 532625,
            "province": "云南省",
            "city": "文山壮族苗族自治州",
            "district": "马关县"
        }
    },
    {
        "id": "9808935963373619730",
        "title": "公共厕所",
        "address": "云南省文山壮族苗族自治州广南县S312与西洋桥交叉口东北方向1225米左右",
        "tel": "",
        "category": "基础设施:公共设施:公共厕所",
        "type": 0,
        "location": {
            "lat": 23.890753,
            "lng": 105.34223
        },
        "ad_info": {
            "adcode": 532627,
            "province": "云南省",
            "city": "文山壮族苗族自治州",
            "district": "广南县"
        }
    },
    {
        "id": "5960218711689463142",
        "title": "公共厕所",
        "address": "云南省文山壮族苗族自治州广南县南秀路与较场路交叉口正东方向211米左右",
        "tel": "",
        "category": "基础设施:公共设施:公共厕所",
        "type": 0,
        "location": {
            "lat": 24.04542,
            "lng": 105.059996
        },
        "ad_info": {
            "adcode": 532627,
            "province": "云南省",
            "city": "文山壮族苗族自治州",
            "district": "广南县"
        }
    },
    {
        "id": "10152415659029142278",
        "title": "公共厕所",
        "address": "云南省文山壮族苗族自治州富宁县佳源超市(富宁花甲店)西北侧140米",
        "tel": "",
        "category": "基础设施:公共设施:公共厕所",
        "type": 0,
        "location": {
            "lat": 23.856438,
            "lng": 105.615642
        },
        "ad_info": {
            "adcode": 532628,
            "province": "云南省",
            "city": "文山壮族苗族自治州",
            "district": "富宁县"
        }
    },
    {
        "id": "6350922334320456873",
        "title": "洗手台",
        "address": "云南省文山壮族苗族自治州文山市联通公司旁75号",
        "tel": "",
        "category": "基础设施:公共设施:公共厕所",
        "type": 0,
        "location": {
            "lat": 23.373057,
            "lng": 104.235858
        },
        "ad_info": {
            "adcode": 532601,
            "province": "云南省",
            "city": "文山壮族苗族自治州",
            "district": "文山市"
        }
    },
    {
        "id": "9093967927631320302",
        "title": "洗手台",
        "address": "云南省文山壮族苗族自治州文山市安平东路19号",
        "tel": "",
        "category": "基础设施:公共设施:公共厕所",
        "type": 0,
        "location": {
            "lat": 23.375714,
            "lng": 104.247023
        },
        "ad_info": {
            "adcode": 532601,
            "province": "云南省",
            "city": "文山壮族苗族自治州",
            "district": "文山市"
        }
    },
    {
        "id": "5436917591188313287",
        "title": "公共厕所",
        "address": "云南省文山壮族苗族自治州丘北县Y041与新树段交叉口正东方向154米左右",
        "tel": "",
        "category": "基础设施:公共设施:公共厕所",
        "type": 0,
        "location": {
            "lat": 23.878557,
            "lng": 104.102898
        },
        "ad_info": {
            "adcode": 532626,
            "province": "云南省",
            "city": "文山壮族苗族自治州",
            "district": "丘北县"
        }
    },
    {
        "id": "274567547249536680",
        "title": "公共厕所",
        "address": "云南省文山壮族苗族自治州丘北县中云石化丘北景星加油站北侧280米",
        "tel": "",
        "category": "基础设施:公共设施:公共厕所",
        "type": 0,
        "location": {
            "lat": 24.09763,
            "lng": 104.086154
        },
        "ad_info": {
            "adcode": 532626,
            "province": "云南省",
            "city": "文山壮族苗族自治州",
            "district": "丘北县"
        }
    },
    {
        "id": "7818934919146839057",
        "title": "公共厕所",
        "address": "云南省文山壮族苗族自治州文山市Y053与Y055交叉口正南方向225米左右",
        "tel": "",
        "category": "基础设施:公共设施:公共厕所",
        "type": 0,
        "location": {
            "lat": 23.197133,
            "lng": 104.016337
        },
        "ad_info": {
            "adcode": 532601,
            "province": "云南省",
            "city": "文山壮族苗族自治州",
            "district": "文山市"
        }
    },
    {
        "id": "3060689582740765097",
        "title": "公共厕所",
        "address": "云南省文山壮族苗族自治州麻栗坡县河滨路11号",
        "tel": "",
        "category": "基础设施:公共设施:公共厕所",
        "type": 0,
        "location": {
            "lat": 23.127732,
            "lng": 104.701743
        },
        "ad_info": {
            "adcode": 532624,
            "province": "云南省",
            "city": "文山壮族苗族自治州",
            "district": "麻栗坡县"
        }
    }
]