[
    {
        "id": "13749883901850655325",
        "title": "公共厕所",
        "address": "海南省文昌市文铜路与新兴路交叉口正东方向60米左右",
        "tel": "",
        "category": "基础设施:公共设施:公共厕所",
        "type": 0,
        "location": {
            "lat": 19.649066,
            "lng": 110.969071
        },
        "ad_info": {
            "adcode": 469005,
            "province": "海南省",
            "city": "",
            "district": "文昌市"
        }
    },
    {
        "id": "14007832708347105524",
        "title": "公共厕所",
        "address": "海南省文昌市潭兴三路与潭府路交叉口东北方向16米左右",
        "tel": "",
        "category": "基础设施:公共设施:公共厕所",
        "type": 0,
        "location": {
            "lat": 19.710185,
            "lng": 110.734192
        },
        "ad_info": {
            "adcode": 469005,
            "province": "海南省",
            "city": "",
            "district": "文昌市"
        }
    },
    {
        "id": "7478536118855642196",
        "title": "公共厕所",
        "address": "海南省文昌市庆龄路与文兴路交叉口正东方向145米左右",
        "tel": "",
        "category": "基础设施:公共设施:公共厕所",
        "type": 0,
        "location": {
            "lat": 19.619197,
            "lng": 110.761317
        },
        "ad_info": {
            "adcode": 469005,
            "province": "海南省",
            "city": "",
            "district": "文昌市"
        }
    },
    {
        "id": "2481035239629075381",
        "title": "公共厕所",
        "address": "海南省文昌市教育东路与文中二里交叉口西南方向135米左右",
        "tel": "",
        "category": "基础设施:公共设施:公共厕所",
        "type": 0,
        "location": {
            "lat": 19.598326,
            "lng": 110.767691
        },
        "ad_info": {
            "adcode": 469005,
            "province": "海南省",
            "city": "",
            "district": "文昌市"
        }
    },
    {
        "id": "11193753483762026240",
        "title": "公共厕所",
        "address": "海南省文昌市东风路与沿江南路交叉口西南方向30米左右",
        "tel": "",
        "category": "基础设施:公共设施:公共厕所",
        "type": 0,
        "location": {
            "lat": 19.614558,
            "lng": 110.754642
        },
        "ad_info": {
            "adcode": 469005,
            "province": "海南省",
            "city": "",
            "district": "文昌市"
        }
    },
    {
        "id": "1417486774036040495",
        "title": "公共厕所",
        "address": "海南省文昌市文建七横路与文建路交叉口西北方向59米左右",
        "tel": "",
        "category": "基础设施:公共设施:公共厕所",
        "type": 0,
        "location": {
            "lat": 19.59449,
            "lng": 110.75895
        },
        "ad_info": {
            "adcode": 469005,
            "province": "海南省",
            "city": "",
            "district": "文昌市"
        }
    },
    {
        "id": "15371209535243199323",
        "title": "公共厕所",
        "address": "海南省文昌市城新里与文岭里交叉口东北方向107米左右",
        "tel": "",
        "category": "基础设施:公共设施:公共厕所",
        "type": 0,
        "location": {
            "lat": 19.614911,
            "lng": 110.751361
        },
        "ad_info": {
            "adcode": 469005,
            "province": "海南省",
            "city": "",
            "district": "文昌市"
        }
    },
    {
        "id": "16176603447070168452",
        "title": "公共厕所",
        "address": "海南省文昌市诗和远方路与逸龙东路交叉口东北方向256米左右",
        "tel": "",
        "category": "基础设施:公共设施:公共厕所",
        "type": 0,
        "location": {
            "lat": 19.538756,
            "lng": 110.823313
        },
        "ad_info": {
            "adcode": 469005,
            "province": "海南省",
            "city": "",
            "district": "文昌市"
        }
    },
    {
        "id": "6023444262498649760",
        "title": "公共厕所",
        "address": "海南省文昌市文城镇文蔚路20号",
        "tel": "",
        "category": "基础设施:公共设施:公共厕所",
        "type": 0,
        "location": {
            "lat": 19.585589,
            "lng": 110.75545
        },
        "ad_info": {
            "adcode": 469005,
            "province": "海南省",
            "city": "",
            "district": "文昌市"
        }
    },
    {
        "id": "10435535887904566391",
        "title": "公共厕所",
        "address": "海南省文昌市X183与乌东路交叉口正南方向54米左右",
        "tel": "",
        "category": "基础设施:公共设施:公共厕所",
        "type": 0,
        "location": {
            "lat": 19.596317,
            "lng": 110.913846
        },
        "ad_info": {
            "adcode": 469005,
            "province": "海南省",
            "city": "",
            "district": "文昌市"
        }
    },
    {
        "id": "14366699976950859493",
        "title": "公共厕所",
        "address": "海南省文昌市新兴一路与锦北路交叉口东南方向56米左右",
        "tel": "",
        "category": "基础设施:公共设施:公共厕所",
        "type": 0,
        "location": {
            "lat": 20.0016,
            "lng": 110.694928
        },
        "ad_info": {
            "adcode": 469005,
            "province": "海南省",
            "city": "",
            "district": "文昌市"
        }
    },
    {
        "id": "3364674777109763437",
        "title": "公共厕所",
        "address": "海南省文昌市会建三横路与会建路交叉口东北方向38米左右",
        "tel": "",
        "category": "基础设施:公共设施:公共厕所",
        "type": 0,
        "location": {
            "lat": 19.462471,
            "lng": 110.73532
        },
        "ad_info": {
            "adcode": 469005,
            "province": "海南省",
            "city": "",
            "district": "文昌市"
        }
    },
    {
        "id": "1077171414016274382",
        "title": "公共厕所",
        "address": "海南省文昌市椰乡路与码头一横路交叉口西北方向115米左右",
        "tel": "",
        "category": "基础设施:公共设施:公共厕所",
        "type": 0,
        "location": {
            "lat": 19.575263,
            "lng": 110.856728
        },
        "ad_info": {
            "adcode": 469005,
            "province": "海南省",
            "city": "",
            "district": "文昌市"
        }
    },
    {
        "id": "13130675119508530136",
        "title": "公共厕所",
        "address": "海南省文昌市东路镇约亭开发区琼文街184号",
        "tel": "",
        "category": "基础设施:公共设施:公共厕所",
        "type": 0,
        "location": {
            "lat": 19.794785,
            "lng": 110.700125
        },
        "ad_info": {
            "adcode": 469005,
            "province": "海南省",
            "city": "",
            "district": "文昌市"
        }
    },
    {
        "id": "3115792932501651151",
        "title": "公共厕所",
        "address": "海南省文昌市S206与海南环岛旅游公路交叉口正东方向653米左右",
        "tel": "",
        "category": "基础设施:公共设施:公共厕所",
        "type": 0,
        "location": {
            "lat": 19.872713,
            "lng": 110.922662
        },
        "ad_info": {
            "adcode": 469005,
            "province": "海南省",
            "city": "",
            "district": "文昌市"
        }
    },
    {
        "id": "3729108853343254614",
        "title": "公共厕所",
        "address": "海南省文昌市文城镇文清大道283号",
        "tel": "",
        "category": "基础设施:公共设施:公共厕所",
        "type": 0,
        "location": {
            "lat": 19.553096,
            "lng": 110.785047
        },
        "ad_info": {
            "adcode": 469005,
            "province": "海南省",
            "city": "",
            "district": "文昌市"
        }
    },
    {
        "id": "5486294740038688425",
        "title": "公共厕所",
        "address": "海南省文昌市北街与南街交叉口正北方向89米左右",
        "tel": "",
        "category": "基础设施:公共设施:公共厕所",
        "type": 0,
        "location": {
            "lat": 19.536461,
            "lng": 110.744973
        },
        "ad_info": {
            "adcode": 469005,
            "province": "海南省",
            "city": "",
            "district": "文昌市"
        }
    },
    {
        "id": "11790114260438913706",
        "title": "公共厕所",
        "address": "海南省文昌市清澜路与渔港路交叉口东260米",
        "tel": "",
        "category": "基础设施:公共设施:公共厕所",
        "type": 0,
        "location": {
            "lat": 19.563834,
            "lng": 110.824622
        },
        "ad_info": {
            "adcode": 469005,
            "province": "海南省",
            "city": "",
            "district": "文昌市"
        }
    },
    {
        "id": "16020461588957594956",
        "title": "公共厕所",
        "address": "海南省文昌市文蓬路与海榆路交叉口正西方向65米左右",
        "tel": "",
        "category": "基础设施:公共设施:公共厕所",
        "type": 0,
        "location": {
            "lat": 19.53525,
            "lng": 110.53976
        },
        "ad_info": {
            "adcode": 469005,
            "province": "海南省",
            "city": "",
            "district": "文昌市"
        }
    },
    {
        "id": "14700518393963330079",
        "title": "公共厕所",
        "address": "海南省文昌市洒镇月亮湾起步区",
        "tel": "",
        "category": "基础设施:公共设施:公共厕所",
        "type": 0,
        "location": {
            "lat": 19.766715,
            "lng": 110.987989
        },
        "ad_info": {
            "adcode": 469005,
            "province": "海南省",
            "city": "",
            "district": "文昌市"
        }
    },
    {
        "id": "5605000533247547005",
        "title": "公共厕所",
        "address": "海南省文昌市文铜路与福绵北路交叉口东北方向23米左右",
        "tel": "",
        "category": "基础设施:公共设施:公共厕所",
        "type": 0,
        "location": {
            "lat": 19.655538,
            "lng": 110.95364
        },
        "ad_info": {
            "adcode": 469005,
            "province": "海南省",
            "city": "",
            "district": "文昌市"
        }
    },
    {
        "id": "13365435380559532344",
        "title": "公共厕所",
        "address": "海南省文昌市平安路与罗飞路交叉口正东方向68米左右",
        "tel": "",
        "category": "基础设施:公共设施:公共厕所",
        "type": 0,
        "location": {
            "lat": 19.97195,
            "lng": 110.640042
        },
        "ad_info": {
            "adcode": 469005,
            "province": "海南省",
            "city": "",
            "district": "文昌市"
        }
    },
    {
        "id": "6673394181006476973",
        "title": "公共厕所",
        "address": "海南省文昌市航天大道198号",
        "tel": "",
        "category": "基础设施:公共设施:公共厕所",
        "type": 0,
        "location": {
            "lat": 19.568659,
            "lng": 110.788847
        },
        "ad_info": {
            "adcode": 469005,
            "province": "海南省",
            "city": "",
            "district": "文昌市"
        }
    },
    {
        "id": "5912214633960037405",
        "title": "公共厕所",
        "address": "海南省文昌市英城互通与迎宾路交叉口正东方向374米左右",
        "tel": "",
        "category": "基础设施:公共设施:公共厕所",
        "type": 0,
        "location": {
            "lat": 19.628537,
            "lng": 110.72973
        },
        "ad_info": {
            "adcode": 469005,
            "province": "海南省",
            "city": "",
            "district": "文昌市"
        }
    },
    {
        "id": "11858408311737703897",
        "title": "公共厕所",
        "address": "海南省文昌市孝先路与昌盛路交叉口西北方向43米左右",
        "tel": "",
        "category": "基础设施:公共设施:公共厕所",
        "type": 0,
        "location": {
            "lat": 19.928349,
            "lng": 110.877075
        },
        "ad_info": {
            "adcode": 469005,
            "province": "海南省",
            "city": "",
            "district": "文昌市"
        }
    },
    {
        "id": "675911724429138946",
        "title": "公共厕所",
        "address": "海南省文昌市南阳路与新南路交叉口东南方向432米左右",
        "tel": "",
        "category": "基础设施:公共设施:公共厕所",
        "type": 0,
        "location": {
            "lat": 19.563538,
            "lng": 110.658418
        },
        "ad_info": {
            "adcode": 469005,
            "province": "海南省",
            "city": "",
            "district": "文昌市"
        }
    },
    {
        "id": "17106705465642521367",
        "title": "公共厕所",
        "address": "海南省文昌市S203与文教路交叉口西南方向463米左右",
        "tel": "",
        "category": "基础设施:公共设施:公共厕所",
        "type": 0,
        "location": {
            "lat": 19.664623,
            "lng": 110.90047
        },
        "ad_info": {
            "adcode": 469005,
            "province": "海南省",
            "city": "",
            "district": "文昌市"
        }
    },
    {
        "id": "11250338288624395842",
        "title": "公共厕所",
        "address": "海南省文昌市白金路268号",
        "tel": "",
        "category": "基础设施:公共设施:公共厕所",
        "type": 0,
        "location": {
            "lat": 19.530775,
            "lng": 110.812498
        },
        "ad_info": {
            "adcode": 469005,
            "province": "海南省",
            "city": "",
            "district": "文昌市"
        }
    },
    {
        "id": "16487103206661842193",
        "title": "公共厕所",
        "address": "海南省文昌市东兴三路与东航路交叉口正东方向152米左右",
        "tel": "",
        "category": "基础设施:公共设施:公共厕所",
        "type": 0,
        "location": {
            "lat": 19.6589,
            "lng": 110.857595
        },
        "ad_info": {
            "adcode": 469005,
            "province": "海南省",
            "city": "",
            "district": "文昌市"
        }
    },
    {
        "id": "4920161775494037031",
        "title": "公共厕所",
        "address": "海南省文昌市旅游大道35号",
        "tel": "",
        "category": "基础设施:公共设施:公共厕所",
        "type": 0,
        "location": {
            "lat": 19.5397,
            "lng": 110.825218
        },
        "ad_info": {
            "adcode": 469005,
            "province": "海南省",
            "city": "",
            "district": "文昌市"
        }
    },
    {
        "id": "707833333587480576",
        "title": "环保智能公共厕所",
        "address": "海南省文昌市渔新路与渝新街交叉口西北方向21米左右",
        "tel": "",
        "category": "基础设施:公共设施:公共厕所",
        "type": 0,
        "location": {
            "lat": 20.025804,
            "lng": 110.578545
        },
        "ad_info": {
            "adcode": 469005,
            "province": "海南省",
            "city": "",
            "district": "文昌市"
        }
    },
    {
        "id": "13805323273065059408",
        "title": "和平南路公共厕所",
        "address": "海南省文昌市和平南路1号",
        "tel": "",
        "category": "基础设施:公共设施:公共厕所",
        "type": 0,
        "location": {
            "lat": 19.611508,
            "lng": 110.754531
        },
        "ad_info": {
            "adcode": 469005,
            "province": "海南省",
            "city": "",
            "district": "文昌市"
        }
    },
    {
        "id": "15130708566522174464",
        "title": "铺前木兰湾停车场公共厕所",
        "address": "海南省文昌市环岛旅游公路主线木兰湾段左进步行道50米处",
        "tel": "",
        "category": "基础设施:公共设施:公共厕所",
        "type": 0,
        "location": {
            "lat": 20.1531,
            "lng": 110.690779
        },
        "ad_info": {
            "adcode": 469005,
            "province": "海南省",
            "city": "",
            "district": "文昌市"
        }
    },
    {
        "id": "4291392133118894712",
        "title": "逸龙湾公共厕所",
        "address": "海南省文昌市白金路393号",
        "tel": "",
        "category": "基础设施:公共设施:公共厕所",
        "type": 0,
        "location": {
            "lat": 19.536857,
            "lng": 110.820585
        },
        "ad_info": {
            "adcode": 469005,
            "province": "海南省",
            "city": "",
            "district": "文昌市"
        }
    },
    {
        "id": "11408284530257620630",
        "title": "文昌美伦国际酒店公共厕所",
        "address": "海南省文昌市环岛旅游公路东郊段左进椰缘路100米处",
        "tel": "",
        "category": "基础设施:公共设施:公共厕所",
        "type": 0,
        "location": {
            "lat": 19.526851,
            "lng": 110.857857
        },
        "ad_info": {
            "adcode": 469005,
            "province": "海南省",
            "city": "",
            "district": "文昌市"
        }
    },
    {
        "id": "14853204037553788624",
        "title": "水涯崀市场旁公共厕所",
        "address": "海南省文昌市文兴路31号",
        "tel": "",
        "category": "基础设施:公共设施:公共厕所",
        "type": 0,
        "location": {
            "lat": 19.621428,
            "lng": 110.764326
        },
        "ad_info": {
            "adcode": 469005,
            "province": "海南省",
            "city": "",
            "district": "文昌市"
        }
    },
    {
        "id": "12179129887045264197",
        "title": "站前广场公共厕所",
        "address": "海南省文昌市文城镇火车站路文昌站",
        "tel": "",
        "category": "基础设施:公共设施:公共厕所",
        "type": 0,
        "location": {
            "lat": 19.607351,
            "lng": 110.737701
        },
        "ad_info": {
            "adcode": 469005,
            "province": "海南省",
            "city": "",
            "district": "文昌市"
        }
    },
    {
        "id": "8307165475060390650",
        "title": "高隆湾壹号公共厕所",
        "address": "海南省文昌市高隆路3号",
        "tel": "",
        "category": "基础设施:公共设施:公共厕所",
        "type": 0,
        "location": {
            "lat": 19.543232,
            "lng": 110.828604
        },
        "ad_info": {
            "adcode": 469005,
            "province": "海南省",
            "city": "",
            "district": "文昌市"
        }
    },
    {
        "id": "14587029837846361842",
        "title": "文建路公共厕所",
        "address": "海南省文昌市文建路与文昌大道交叉口正北方向82米左右",
        "tel": "",
        "category": "基础设施:公共设施:公共厕所",
        "type": 0,
        "location": {
            "lat": 19.587577,
            "lng": 110.75692
        },
        "ad_info": {
            "adcode": 469005,
            "province": "海南省",
            "city": "",
            "district": "文昌市"
        }
    },
    {
        "id": "13690582997057606711",
        "title": "文昌汽车站公共厕所",
        "address": "海南省文昌市椰乡一横路与椰乡路交叉口东北方向379米左右",
        "tel": "",
        "category": "基础设施:公共设施:公共厕所",
        "type": 0,
        "location": {
            "lat": 19.623214,
            "lng": 110.748841
        },
        "ad_info": {
            "adcode": 469005,
            "province": "海南省",
            "city": "",
            "district": "文昌市"
        }
    },
    {
        "id": "1763554293079415304",
        "title": "城新里公共厕所",
        "address": "海南省文昌市文昌大道与城新里交叉口东40米",
        "tel": "",
        "category": "基础设施:公共设施:公共厕所",
        "type": 0,
        "location": {
            "lat": 19.608925,
            "lng": 110.748063
        },
        "ad_info": {
            "adcode": 469005,
            "province": "海南省",
            "city": "",
            "district": "文昌市"
        }
    },
    {
        "id": "7197143214248414171",
        "title": "文东桥水霞公共厕所",
        "address": "海南省文昌市文兴路51-4号",
        "tel": "",
        "category": "基础设施:公共设施:公共厕所",
        "type": 0,
        "location": {
            "lat": 19.622188,
            "lng": 110.765802
        },
        "ad_info": {
            "adcode": 469005,
            "province": "海南省",
            "city": "",
            "district": "文昌市"
        }
    },
    {
        "id": "15008525520178430377",
        "title": "文昌椰海村旅游公共厕所",
        "address": "海南省文昌市环岛旅游公路东郊段右进椰海村50米处",
        "tel": "",
        "category": "基础设施:公共设施:公共厕所",
        "type": 0,
        "location": {
            "lat": 19.555767,
            "lng": 110.850957
        },
        "ad_info": {
            "adcode": 469005,
            "province": "海南省",
            "city": "",
            "district": "文昌市"
        }
    },
    {
        "id": "2655792908284316317",
        "title": "文东路公共厕所",
        "address": "海南省文昌市文东北一横路与文东路交叉口西北方向96米左右",
        "tel": "",
        "category": "基础设施:公共设施:公共厕所",
        "type": 0,
        "location": {
            "lat": 19.629286,
            "lng": 110.755743
        },
        "ad_info": {
            "adcode": 469005,
            "province": "海南省",
            "city": "",
            "district": "文昌市"
        }
    },
    {
        "id": "8559054244959870600",
        "title": "椰乡路公共厕所",
        "address": "海南省文昌市椰乡三横路与椰乡路交叉口东南方向88米左右",
        "tel": "",
        "category": "基础设施:公共设施:公共厕所",
        "type": 0,
        "location": {
            "lat": 19.619073,
            "lng": 110.743351
        },
        "ad_info": {
            "adcode": 469005,
            "province": "海南省",
            "city": "",
            "district": "文昌市"
        }
    },
    {
        "id": "14645931130512793056",
        "title": "南一环广场公共厕所",
        "address": "海南省文昌市白金路153号",
        "tel": "",
        "category": "基础设施:公共设施:公共厕所",
        "type": 0,
        "location": {
            "lat": 19.533908,
            "lng": 110.816586
        },
        "ad_info": {
            "adcode": 469005,
            "province": "海南省",
            "city": "",
            "district": "文昌市"
        }
    },
    {
        "id": "1345180199087135548",
        "title": "新风里公共厕所",
        "address": "海南省文昌市新风西里与迎宾路交叉口东南方向61米左右",
        "tel": "",
        "category": "基础设施:公共设施:公共厕所",
        "type": 0,
        "location": {
            "lat": 19.630705,
            "lng": 110.742371
        },
        "ad_info": {
            "adcode": 469005,
            "province": "海南省",
            "city": "",
            "district": "文昌市"
        }
    },
    {
        "id": "15631512804555507062",
        "title": "航天科普中心停车场公共厕所",
        "address": "海南省文昌市文清大道连接线与316省道交叉口南480米",
        "tel": "",
        "category": "基础设施:公共设施:公共厕所",
        "type": 0,
        "location": {
            "lat": 19.652106,
            "lng": 110.943478
        },
        "ad_info": {
            "adcode": 469005,
            "province": "海南省",
            "city": "",
            "district": "文昌市"
        }
    },
    {
        "id": "9762266473711038487",
        "title": "文清大道蓝城国际公共厕所",
        "address": "海南省文昌市文清大道169号",
        "tel": "",
        "category": "基础设施:公共设施:公共厕所",
        "type": 0,
        "location": {
            "lat": 19.561819,
            "lng": 110.769211
        },
        "ad_info": {
            "adcode": 469005,
            "province": "海南省",
            "city": "",
            "district": "文昌市"
        }
    },
    {
        "id": "619211822116538727",
        "title": "五龙湿地养护工区公共厕所",
        "address": "海南省文昌市环岛旅游公路主线与S206交叉口处,文昌冯坡宝冠养殖场对面",
        "tel": "",
        "category": "基础设施:公共设施:公共厕所",
        "type": 0,
        "location": {
            "lat": 20.006942,
            "lng": 110.783166
        },
        "ad_info": {
            "adcode": 469005,
            "province": "海南省",
            "city": "",
            "district": "文昌市"
        }
    },
    {
        "id": "4465159276405605162",
        "title": "文昌市文教镇公共厕所",
        "address": "海南省文昌市文东路17号",
        "tel": "",
        "category": "基础设施:公共设施:公共厕所",
        "type": 0,
        "location": {
            "lat": 19.669998,
            "lng": 110.911858
        },
        "ad_info": {
            "adcode": 469005,
            "province": "海南省",
            "city": "",
            "district": "文昌市"
        }
    },
    {
        "id": "12427596975724471045",
        "title": "潭牛服务区公共厕所",
        "address": "海南省文昌市S11(海文高速)",
        "tel": "",
        "category": "基础设施:公共设施:公共厕所",
        "type": 0,
        "location": {
            "lat": 19.668413,
            "lng": 110.719837
        },
        "ad_info": {
            "adcode": 469005,
            "province": "海南省",
            "city": "",
            "district": "文昌市"
        }
    },
    {
        "id": "12669088845139095367",
        "title": "高隆路公共厕所",
        "address": "海南省文昌市高隆路46号",
        "tel": "",
        "category": "基础设施:公共设施:公共厕所",
        "type": 0,
        "location": {
            "lat": 19.537127,
            "lng": 110.811946
        },
        "ad_info": {
            "adcode": 469005,
            "province": "海南省",
            "city": "",
            "district": "文昌市"
        }
    },
    {
        "id": "15473232124116810708",
        "title": "诒喜市场公共厕所",
        "address": "海南省文昌市云逸路与文建路交叉口正西方向38米左右",
        "tel": "",
        "category": "基础设施:公共设施:公共厕所",
        "type": 0,
        "location": {
            "lat": 19.596204,
            "lng": 110.759054
        },
        "ad_info": {
            "adcode": 469005,
            "province": "海南省",
            "city": "",
            "district": "文昌市"
        }
    },
    {
        "id": "13522680922885603247",
        "title": "公共厕所",
        "address": "海南省文昌市风车1号观景台南侧",
        "tel": "",
        "category": "基础设施:公共设施:公共厕所",
        "type": 0,
        "location": {
            "lat": 20.098244,
            "lng": 110.710831
        },
        "ad_info": {
            "adcode": 469005,
            "province": "海南省",
            "city": "",
            "district": "文昌市"
        }
    },
    {
        "id": "9782209612958031621",
        "title": "公共厕所",
        "address": "海南省文昌市航天椰梦停车区与海南环岛旅游公路交叉口东60米",
        "tel": "",
        "category": "基础设施:公共设施:公共厕所",
        "type": 0,
        "location": {
            "lat": 19.590309,
            "lng": 110.921962
        },
        "ad_info": {
            "adcode": 469005,
            "province": "海南省",
            "city": "",
            "district": "文昌市"
        }
    },
    {
        "id": "4997288786842697956",
        "title": "公共厕所",
        "address": "海南省文昌市S206与海南环岛旅游公路交叉口东北方向99米左右",
        "tel": "",
        "category": "基础设施:公共设施:公共厕所",
        "type": 0,
        "location": {
            "lat": 20.007269,
            "lng": 110.783353
        },
        "ad_info": {
            "adcode": 469005,
            "province": "海南省",
            "city": "",
            "district": "文昌市"
        }
    }
]