[
    {
        "id": "12102027111796315672",
        "title": "公共厕所",
        "address": "江西省新余市渝水区商贸路与思成路交叉口正南方向38米左右",
        "tel": "",
        "category": "基础设施:公共设施:公共厕所",
        "type": 0,
        "location": {
            "lat": 27.829694,
            "lng": 114.953095
        },
        "ad_info": {
            "adcode": 360502,
            "province": "江西省",
            "city": "新余市",
            "district": "渝水区"
        }
    },
    {
        "id": "16137923700477522405",
        "title": "公共厕所",
        "address": "江西省新余市渝水区仙来中大道29号",
        "tel": "",
        "category": "基础设施:公共设施:公共厕所",
        "type": 0,
        "location": {
            "lat": 27.818152,
            "lng": 114.929501
        },
        "ad_info": {
            "adcode": 360502,
            "province": "江西省",
            "city": "新余市",
            "district": "渝水区"
        }
    },
    {
        "id": "16528728750187988313",
        "title": "公共厕所",
        "address": "江西省新余市渝水区站前东路与站前西路交叉口西北方向98米左右",
        "tel": "",
        "category": "基础设施:公共设施:公共厕所",
        "type": 0,
        "location": {
            "lat": 27.808705,
            "lng": 114.938916
        },
        "ad_info": {
            "adcode": 360502,
            "province": "江西省",
            "city": "新余市",
            "district": "渝水区"
        }
    },
    {
        "id": "1019606817948190376",
        "title": "公共厕所",
        "address": "江西省新余市渝水区站前东路与站前西路交叉口正西方向71米左右",
        "tel": "",
        "category": "基础设施:公共设施:公共厕所",
        "type": 0,
        "location": {
            "lat": 27.808175,
            "lng": 114.938791
        },
        "ad_info": {
            "adcode": 360502,
            "province": "江西省",
            "city": "新余市",
            "district": "渝水区"
        }
    },
    {
        "id": "8465698600066907659",
        "title": "公共厕所",
        "address": "江西省新余市渝水区新兴南路与春发路交叉口东北方向132米左右",
        "tel": "",
        "category": "基础设施:公共设施:公共厕所",
        "type": 0,
        "location": {
            "lat": 27.832857,
            "lng": 115.023138
        },
        "ad_info": {
            "adcode": 360502,
            "province": "江西省",
            "city": "新余市",
            "district": "渝水区"
        }
    },
    {
        "id": "11929113381340456692",
        "title": "公共厕所",
        "address": "江西省新余市分宜县Y241与西环大道交叉口正东方向365米左右",
        "tel": "",
        "category": "基础设施:公共设施:公共厕所",
        "type": 0,
        "location": {
            "lat": 27.809495,
            "lng": 114.660725
        },
        "ad_info": {
            "adcode": 360521,
            "province": "江西省",
            "city": "新余市",
            "district": "分宜县"
        }
    },
    {
        "id": "1158068913139558161",
        "title": "公共厕所",
        "address": "江西省新余市渝水区南源路与龙潭洲路交叉口西南方向66米左右",
        "tel": "",
        "category": "基础设施:公共设施:公共厕所",
        "type": 0,
        "location": {
            "lat": 27.813367,
            "lng": 114.955241
        },
        "ad_info": {
            "adcode": 360502,
            "province": "江西省",
            "city": "新余市",
            "district": "渝水区"
        }
    },
    {
        "id": "880710865230079950",
        "title": "公共厕所",
        "address": "江西省新余市分宜县岭东路与岭北东路交叉口东北方向48米左右",
        "tel": "",
        "category": "基础设施:公共设施:公共厕所",
        "type": 0,
        "location": {
            "lat": 27.822405,
            "lng": 114.699978
        },
        "ad_info": {
            "adcode": 360521,
            "province": "江西省",
            "city": "新余市",
            "district": "分宜县"
        }
    },
    {
        "id": "10005858450345583871",
        "title": "公共厕所",
        "address": "江西省新余市渝水区光启路与姚家边路交叉口东南方向38米左右",
        "tel": "",
        "category": "基础设施:公共设施:公共厕所",
        "type": 0,
        "location": {
            "lat": 27.832275,
            "lng": 114.975569
        },
        "ad_info": {
            "adcode": 360502,
            "province": "江西省",
            "city": "新余市",
            "district": "渝水区"
        }
    },
    {
        "id": "9759096112362836570",
        "title": "公共厕所",
        "address": "江西省新余市渝水区石镇线与黄家山路交叉口正北方向124米左右",
        "tel": "",
        "category": "基础设施:公共设施:公共厕所",
        "type": 0,
        "location": {
            "lat": 27.857541,
            "lng": 114.94179
        },
        "ad_info": {
            "adcode": 360502,
            "province": "江西省",
            "city": "新余市",
            "district": "渝水区"
        }
    },
    {
        "id": "11844643718277598929",
        "title": "公共厕所",
        "address": "江西省新余市渝水区新欣南大道与通济路交叉口东南方向35米左右",
        "tel": "",
        "category": "基础设施:公共设施:公共厕所",
        "type": 0,
        "location": {
            "lat": 27.807135,
            "lng": 114.953842
        },
        "ad_info": {
            "adcode": 360502,
            "province": "江西省",
            "city": "新余市",
            "district": "渝水区"
        }
    },
    {
        "id": "5561272764830333190",
        "title": "公共厕所",
        "address": "江西省新余市渝水区公园北路与公园南路交叉口西南方向128米左右",
        "tel": "",
        "category": "基础设施:公共设施:公共厕所",
        "type": 0,
        "location": {
            "lat": 27.80003,
            "lng": 114.933032
        },
        "ad_info": {
            "adcode": 360502,
            "province": "江西省",
            "city": "新余市",
            "district": "渝水区"
        }
    },
    {
        "id": "18243690232882732494",
        "title": "公共厕所",
        "address": "江西省新余市渝水区光明路与龙腾路交叉口西南方向30米左右",
        "tel": "",
        "category": "基础设施:公共设施:公共厕所",
        "type": 0,
        "location": {
            "lat": 27.843905,
            "lng": 114.992042
        },
        "ad_info": {
            "adcode": 360502,
            "province": "江西省",
            "city": "新余市",
            "district": "渝水区"
        }
    },
    {
        "id": "14425917052997615970",
        "title": "公共厕所",
        "address": "江西省新余市分宜县操场乡山泗村喜鹿斋村小组",
        "tel": "",
        "category": "基础设施:公共设施:公共厕所",
        "type": 0,
        "location": {
            "lat": 28.077551,
            "lng": 114.729549
        },
        "ad_info": {
            "adcode": 360521,
            "province": "江西省",
            "city": "新余市",
            "district": "分宜县"
        }
    },
    {
        "id": "664481713680662044",
        "title": "公共厕所",
        "address": "江西省新余市渝水区金凤路1层",
        "tel": "",
        "category": "基础设施:公共设施:公共厕所",
        "type": 0,
        "location": {
            "lat": 27.791639,
            "lng": 114.858349
        },
        "ad_info": {
            "adcode": 360502,
            "province": "江西省",
            "city": "新余市",
            "district": "渝水区"
        }
    },
    {
        "id": "11672145130268798349",
        "title": "公共厕所",
        "address": "江西省新余市分宜县祥山路与钤阳东路交叉口西南方向110米左右",
        "tel": "",
        "category": "基础设施:公共设施:公共厕所",
        "type": 0,
        "location": {
            "lat": 27.805928,
            "lng": 114.678998
        },
        "ad_info": {
            "adcode": 360521,
            "province": "江西省",
            "city": "新余市",
            "district": "分宜县"
        }
    },
    {
        "id": "11719945527289148827",
        "title": "公共厕所",
        "address": "江西省新余市渝水区姚家边路与龙兴路交叉口东北方向26米左右",
        "tel": "",
        "category": "基础设施:公共设施:公共厕所",
        "type": 0,
        "location": {
            "lat": 27.832445,
            "lng": 114.970286
        },
        "ad_info": {
            "adcode": 360502,
            "province": "江西省",
            "city": "新余市",
            "district": "渝水区"
        }
    },
    {
        "id": "12444003941589014079",
        "title": "公共厕所",
        "address": "江西省新余市渝水区洋坊路与钢城路交叉口正北方向158米左右",
        "tel": "",
        "category": "基础设施:公共设施:公共厕所",
        "type": 0,
        "location": {
            "lat": 27.788198,
            "lng": 114.881563
        },
        "ad_info": {
            "adcode": 360502,
            "province": "江西省",
            "city": "新余市",
            "district": "渝水区"
        }
    },
    {
        "id": "10726176919287660968",
        "title": "公共厕所",
        "address": "江西省新余市渝水区仰天岗西大道与徐家路交叉口西北方向41米左右",
        "tel": "",
        "category": "基础设施:公共设施:公共厕所",
        "type": 0,
        "location": {
            "lat": 27.813829,
            "lng": 114.880668
        },
        "ad_info": {
            "adcode": 360502,
            "province": "江西省",
            "city": "新余市",
            "district": "渝水区"
        }
    },
    {
        "id": "9789998966160284894",
        "title": "公共厕所",
        "address": "江西省新余市渝水区五一北路与黄家巷交叉口正北方向81米左右",
        "tel": "",
        "category": "基础设施:公共设施:公共厕所",
        "type": 0,
        "location": {
            "lat": 27.815494,
            "lng": 114.910164
        },
        "ad_info": {
            "adcode": 360502,
            "province": "江西省",
            "city": "新余市",
            "district": "渝水区"
        }
    },
    {
        "id": "12493297153208795967",
        "title": "公共厕所",
        "address": "江西省新余市渝水区五一北路与名成巷交叉口东北方向206米左右",
        "tel": "",
        "category": "基础设施:公共设施:公共厕所",
        "type": 0,
        "location": {
            "lat": 27.818983,
            "lng": 114.911831
        },
        "ad_info": {
            "adcode": 360502,
            "province": "江西省",
            "city": "新余市",
            "district": "渝水区"
        }
    },
    {
        "id": "3615825892093488510",
        "title": "公共厕所",
        "address": "江西省新余市渝水区五一南路与仙女湖大道交叉口正东方向127米左右",
        "tel": "",
        "category": "基础设施:公共设施:公共厕所",
        "type": 0,
        "location": {
            "lat": 27.79396,
            "lng": 114.910132
        },
        "ad_info": {
            "adcode": 360502,
            "province": "江西省",
            "city": "新余市",
            "district": "渝水区"
        }
    },
    {
        "id": "5465778366909373262",
        "title": "公共厕所",
        "address": "江西省新余市渝水区丰源北路与文新路交叉口正北方向162米左右",
        "tel": "",
        "category": "基础设施:公共设施:公共厕所",
        "type": 0,
        "location": {
            "lat": 27.830714,
            "lng": 114.930666
        },
        "ad_info": {
            "adcode": 360502,
            "province": "江西省",
            "city": "新余市",
            "district": "渝水区"
        }
    },
    {
        "id": "14345745665478940402",
        "title": "公共厕所",
        "address": "江西省新余市渝水区老西街新余钢铁中心医院",
        "tel": "",
        "category": "基础设施:公共设施:公共厕所",
        "type": 0,
        "location": {
            "lat": 27.795518,
            "lng": 114.934599
        },
        "ad_info": {
            "adcode": 360502,
            "province": "江西省",
            "city": "新余市",
            "district": "渝水区"
        }
    },
    {
        "id": "4937520993876573495",
        "title": "公共厕所",
        "address": "江西省新余市渝水区北湖西路10号",
        "tel": "",
        "category": "基础设施:公共设施:公共厕所",
        "type": 0,
        "location": {
            "lat": 27.824006,
            "lng": 114.914266
        },
        "ad_info": {
            "adcode": 360502,
            "province": "江西省",
            "city": "新余市",
            "district": "渝水区"
        }
    },
    {
        "id": "7081563053870520656",
        "title": "公共厕所",
        "address": "江西省新余市渝水区石镇线与魁星阁路交叉口东南方向102米左右",
        "tel": "",
        "category": "基础设施:公共设施:公共厕所",
        "type": 0,
        "location": {
            "lat": 27.794824,
            "lng": 114.954196
        },
        "ad_info": {
            "adcode": 360502,
            "province": "江西省",
            "city": "新余市",
            "district": "渝水区"
        }
    },
    {
        "id": "17089050763588040893",
        "title": "公共厕所",
        "address": "江西省新余市渝水区工业大道与龙腾路交叉口正东方向54米左右",
        "tel": "",
        "category": "基础设施:公共设施:公共厕所",
        "type": 0,
        "location": {
            "lat": 27.639138,
            "lng": 114.836897
        },
        "ad_info": {
            "adcode": 360502,
            "province": "江西省",
            "city": "新余市",
            "district": "渝水区"
        }
    },
    {
        "id": "6515879522775296892",
        "title": "公共厕所",
        "address": "江西省新余市渝水区劳动北路与观府西路交叉口西北方向37米左右",
        "tel": "",
        "category": "基础设施:公共设施:公共厕所",
        "type": 0,
        "location": {
            "lat": 27.881229,
            "lng": 114.870629
        },
        "ad_info": {
            "adcode": 360502,
            "province": "江西省",
            "city": "新余市",
            "district": "渝水区"
        }
    },
    {
        "id": "9364184904077588047",
        "title": "公共厕所",
        "address": "江西省新余市渝水区环湖绿道与环湖路交叉口正西方向66米左右",
        "tel": "",
        "category": "基础设施:公共设施:公共厕所",
        "type": 0,
        "location": {
            "lat": 27.710111,
            "lng": 114.824815
        },
        "ad_info": {
            "adcode": 360502,
            "province": "江西省",
            "city": "新余市",
            "district": "渝水区"
        }
    },
    {
        "id": "17270805502040815031",
        "title": "公共厕所",
        "address": "江西省新余市渝水区太阳口路与白竹西路交叉口正东方向331米左右",
        "tel": "",
        "category": "基础设施:公共设施:公共厕所",
        "type": 0,
        "location": {
            "lat": 27.789965,
            "lng": 114.85291
        },
        "ad_info": {
            "adcode": 360502,
            "province": "江西省",
            "city": "新余市",
            "district": "渝水区"
        }
    },
    {
        "id": "11082370775658473784",
        "title": "公共厕所",
        "address": "江西省新余市渝水区茶山路与宝鼎路交叉路口",
        "tel": "",
        "category": "基础设施:公共设施:公共厕所",
        "type": 0,
        "location": {
            "lat": 27.840682,
            "lng": 114.915931
        },
        "ad_info": {
            "adcode": 360502,
            "province": "江西省",
            "city": "新余市",
            "district": "渝水区"
        }
    },
    {
        "id": "11014873570320000708",
        "title": "公共厕所",
        "address": "江西省新余市分宜县操场乡山泗村众厅边村小组",
        "tel": "",
        "category": "基础设施:公共设施:公共厕所",
        "type": 0,
        "location": {
            "lat": 28.078132,
            "lng": 114.727826
        },
        "ad_info": {
            "adcode": 360521,
            "province": "江西省",
            "city": "新余市",
            "district": "分宜县"
        }
    },
    {
        "id": "13837964708571650409",
        "title": "公共厕所",
        "address": "江西省新余市分宜县G220与天工南大道交叉口东北方向72米左右",
        "tel": "",
        "category": "基础设施:公共设施:公共厕所",
        "type": 0,
        "location": {
            "lat": 27.799474,
            "lng": 114.688328
        },
        "ad_info": {
            "adcode": 360521,
            "province": "江西省",
            "city": "新余市",
            "district": "分宜县"
        }
    },
    {
        "id": "7239115338215538879",
        "title": "公共厕所",
        "address": "江西省新余市渝水区和谐大道与纵三路交叉口正西方向81米左右",
        "tel": "",
        "category": "基础设施:公共设施:公共厕所",
        "type": 0,
        "location": {
            "lat": 27.910802,
            "lng": 114.897895
        },
        "ad_info": {
            "adcode": 360502,
            "province": "江西省",
            "city": "新余市",
            "district": "渝水区"
        }
    },
    {
        "id": "17779642113034510291",
        "title": "公共厕所",
        "address": "江西省新余市渝水区府前路与胜利南路交叉口正西方向56米左右",
        "tel": "",
        "category": "基础设施:公共设施:公共厕所",
        "type": 0,
        "location": {
            "lat": 27.796546,
            "lng": 114.937904
        },
        "ad_info": {
            "adcode": 360502,
            "province": "江西省",
            "city": "新余市",
            "district": "渝水区"
        }
    },
    {
        "id": "5041516117654545200",
        "title": "公共厕所",
        "address": "江西省新余市渝水区S312与Y101交叉口正南方向532米左右",
        "tel": "",
        "category": "基础设施:公共设施:公共厕所",
        "type": 0,
        "location": {
            "lat": 27.9002,
            "lng": 114.847991
        },
        "ad_info": {
            "adcode": 360502,
            "province": "江西省",
            "city": "新余市",
            "district": "渝水区"
        }
    },
    {
        "id": "737237337480213453",
        "title": "公共厕所",
        "address": "江西省新余市渝水区胜利南路40号",
        "tel": "",
        "category": "基础设施:公共设施:公共厕所",
        "type": 0,
        "location": {
            "lat": 27.794428,
            "lng": 114.937728
        },
        "ad_info": {
            "adcode": 360502,
            "province": "江西省",
            "city": "新余市",
            "district": "渝水区"
        }
    },
    {
        "id": "6975972389299757849",
        "title": "公共厕所",
        "address": "江西省新余市渝水区下村镇和谐大道新余北站F1",
        "tel": "",
        "category": "基础设施:公共设施:公共厕所",
        "type": 0,
        "location": {
            "lat": 27.910901,
            "lng": 114.895283
        },
        "ad_info": {
            "adcode": 360502,
            "province": "江西省",
            "city": "新余市",
            "district": "渝水区"
        }
    },
    {
        "id": "3375700632822162309",
        "title": "公共厕所",
        "address": "江西省新余市渝水区中山路与仰天岗大道交叉口西北方向49米左右",
        "tel": "",
        "category": "基础设施:公共设施:公共厕所",
        "type": 0,
        "location": {
            "lat": 27.835231,
            "lng": 114.937104
        },
        "ad_info": {
            "adcode": 360502,
            "province": "江西省",
            "city": "新余市",
            "district": "渝水区"
        }
    },
    {
        "id": "13946460167239589147",
        "title": "公共厕所",
        "address": "江西省新余市渝水区张固路与春发路交叉口正西方向149米左右",
        "tel": "",
        "category": "基础设施:公共设施:公共厕所",
        "type": 0,
        "location": {
            "lat": 27.833981,
            "lng": 115.028836
        },
        "ad_info": {
            "adcode": 360502,
            "province": "江西省",
            "city": "新余市",
            "district": "渝水区"
        }
    },
    {
        "id": "14945282755641747437",
        "title": "公共厕所",
        "address": "江西省新余市渝水区仙来中大道与仙来大道交叉口正南方向209米左右",
        "tel": "",
        "category": "基础设施:公共设施:公共厕所",
        "type": 0,
        "location": {
            "lat": 27.815546,
            "lng": 114.916351
        },
        "ad_info": {
            "adcode": 360502,
            "province": "江西省",
            "city": "新余市",
            "district": "渝水区"
        }
    },
    {
        "id": "4976541567971351721",
        "title": "公共厕所",
        "address": "江西省新余市渝水区姚家边路与虎跃路交叉口东南方向40米左右",
        "tel": "",
        "category": "基础设施:公共设施:公共厕所",
        "type": 0,
        "location": {
            "lat": 27.831895,
            "lng": 114.966048
        },
        "ad_info": {
            "adcode": 360502,
            "province": "江西省",
            "city": "新余市",
            "district": "渝水区"
        }
    },
    {
        "id": "8374031327013056103",
        "title": "公共厕所",
        "address": "江西省新余市渝水区S221与石镇线交叉口西南方向62米左右",
        "tel": "",
        "category": "基础设施:公共设施:公共厕所",
        "type": 0,
        "location": {
            "lat": 27.762268,
            "lng": 114.956333
        },
        "ad_info": {
            "adcode": 360502,
            "province": "江西省",
            "city": "新余市",
            "district": "渝水区"
        }
    },
    {
        "id": "5458659739622551484",
        "title": "公共厕所",
        "address": "江西省新余市渝水区X017与下周段交叉口正东方向208米左右",
        "tel": "",
        "category": "基础设施:公共设施:公共厕所",
        "type": 0,
        "location": {
            "lat": 27.664709,
            "lng": 114.925501
        },
        "ad_info": {
            "adcode": 360502,
            "province": "江西省",
            "city": "新余市",
            "district": "渝水区"
        }
    },
    {
        "id": "18071550753391248601",
        "title": "公共厕所",
        "address": "江西省新余市渝水区春龙大道与祥水路交叉口正东方向1325米左右",
        "tel": "",
        "category": "基础设施:公共设施:公共厕所",
        "type": 0,
        "location": {
            "lat": 27.806733,
            "lng": 114.996551
        },
        "ad_info": {
            "adcode": 360502,
            "province": "江西省",
            "city": "新余市",
            "district": "渝水区"
        }
    },
    {
        "id": "1327779805181767933",
        "title": "公共厕所",
        "address": "江西省新余市渝水区里木塘路与青年路交叉口东北方向23米左右",
        "tel": "",
        "category": "基础设施:公共设施:公共厕所",
        "type": 0,
        "location": {
            "lat": 27.812939,
            "lng": 114.92585
        },
        "ad_info": {
            "adcode": 360502,
            "province": "江西省",
            "city": "新余市",
            "district": "渝水区"
        }
    },
    {
        "id": "9664095389822459299",
        "title": "公共厕所",
        "address": "江西省新余市渝水区丰相路与仙来西大道交叉口东南方向1000米左右",
        "tel": "",
        "category": "基础设施:公共设施:公共厕所",
        "type": 0,
        "location": {
            "lat": 27.82748,
            "lng": 114.875831
        },
        "ad_info": {
            "adcode": 360502,
            "province": "江西省",
            "city": "新余市",
            "district": "渝水区"
        }
    },
    {
        "id": "1953044394835194665",
        "title": "公共厕所",
        "address": "江西省新余市渝水区新欣北大道辅路与石镇线交叉口西南方向151米左右",
        "tel": "",
        "category": "基础设施:公共设施:公共厕所",
        "type": 0,
        "location": {
            "lat": 27.853187,
            "lng": 114.939998
        },
        "ad_info": {
            "adcode": 360502,
            "province": "江西省",
            "city": "新余市",
            "district": "渝水区"
        }
    },
    {
        "id": "9938402970671130038",
        "title": "公共厕所",
        "address": "江西省新余市渝水区Y173与纬二十二路交叉口正南方向1159米左右",
        "tel": "",
        "category": "基础设施:公共设施:公共厕所",
        "type": 0,
        "location": {
            "lat": 27.786447,
            "lng": 114.979753
        },
        "ad_info": {
            "adcode": 360502,
            "province": "江西省",
            "city": "新余市",
            "district": "渝水区"
        }
    },
    {
        "id": "10555715969473402108",
        "title": "公共厕所",
        "address": "江西省新余市分宜县园林管理处登山步道",
        "tel": "",
        "category": "基础设施:公共设施:公共厕所",
        "type": 0,
        "location": {
            "lat": 27.814892,
            "lng": 114.667513
        },
        "ad_info": {
            "adcode": 360521,
            "province": "江西省",
            "city": "新余市",
            "district": "分宜县"
        }
    },
    {
        "id": "7099304269408278838",
        "title": "公共厕所",
        "address": "江西省新余市分宜县东湖路与钤丰路交叉口西南方向34米左右",
        "tel": "",
        "category": "基础设施:公共设施:公共厕所",
        "type": 0,
        "location": {
            "lat": 27.818792,
            "lng": 114.693959
        },
        "ad_info": {
            "adcode": 360521,
            "province": "江西省",
            "city": "新余市",
            "district": "分宜县"
        }
    },
    {
        "id": "15207909167733816049",
        "title": "公共厕所",
        "address": "江西省新余市分宜县Y241与西环大道交叉口正东方向303米左右",
        "tel": "",
        "category": "基础设施:公共设施:公共厕所",
        "type": 0,
        "location": {
            "lat": 27.810182,
            "lng": 114.660065
        },
        "ad_info": {
            "adcode": 360521,
            "province": "江西省",
            "city": "新余市",
            "district": "分宜县"
        }
    },
    {
        "id": "13106438039390981849",
        "title": "公共厕所",
        "address": "江西省新余市渝水区S312与天工大桥连接线交叉口东北方向1086米左右",
        "tel": "",
        "category": "基础设施:公共设施:公共厕所",
        "type": 0,
        "location": {
            "lat": 27.760805,
            "lng": 114.930753
        },
        "ad_info": {
            "adcode": 360502,
            "province": "江西省",
            "city": "新余市",
            "district": "渝水区"
        }
    },
    {
        "id": "12308744862951750165",
        "title": "公共厕所",
        "address": "江西省新余市渝水区春龙大道与祥水路交叉口正东方向1084米左右",
        "tel": "",
        "category": "基础设施:公共设施:公共厕所",
        "type": 0,
        "location": {
            "lat": 27.80678,
            "lng": 114.99409
        },
        "ad_info": {
            "adcode": 360502,
            "province": "江西省",
            "city": "新余市",
            "district": "渝水区"
        }
    },
    {
        "id": "9042957015835013813",
        "title": "公共厕所",
        "address": "江西省新余市渝水区永安巷与通瑞路交叉口正东方向39米左右",
        "tel": "",
        "category": "基础设施:公共设施:公共厕所",
        "type": 0,
        "location": {
            "lat": 27.801501,
            "lng": 114.948343
        },
        "ad_info": {
            "adcode": 360502,
            "province": "江西省",
            "city": "新余市",
            "district": "渝水区"
        }
    },
    {
        "id": "17535256723541403513",
        "title": "公共厕所",
        "address": "江西省新余市渝水区新欣北大道中国石化(聚祥路)",
        "tel": "",
        "category": "基础设施:公共设施:公共厕所",
        "type": 0,
        "location": {
            "lat": 27.843289,
            "lng": 114.945013
        },
        "ad_info": {
            "adcode": 360502,
            "province": "江西省",
            "city": "新余市",
            "district": "渝水区"
        }
    },
    {
        "id": "7856045567587855807",
        "title": "公共厕所",
        "address": "江西省新余市分宜县X308与洞村互通交叉口正北方向19米左右",
        "tel": "",
        "category": "基础设施:公共设施:公共厕所",
        "type": 0,
        "location": {
            "lat": 27.977557,
            "lng": 114.816589
        },
        "ad_info": {
            "adcode": 360521,
            "province": "江西省",
            "city": "新余市",
            "district": "分宜县"
        }
    },
    {
        "id": "13965157885951841840",
        "title": "公共厕所",
        "address": "江西省新余市分宜县大广高速与洞村互通交叉口正西方向1319米左右",
        "tel": "",
        "category": "基础设施:公共设施:公共厕所",
        "type": 0,
        "location": {
            "lat": 27.970486,
            "lng": 114.805491
        },
        "ad_info": {
            "adcode": 360521,
            "province": "江西省",
            "city": "新余市",
            "district": "分宜县"
        }
    },
    {
        "id": "14558955559405227538",
        "title": "公共厕所",
        "address": "江西省新余市分宜县S222与Y230交叉口正东方向1581米左右",
        "tel": "",
        "category": "基础设施:公共设施:公共厕所",
        "type": 0,
        "location": {
            "lat": 27.643947,
            "lng": 114.751845
        },
        "ad_info": {
            "adcode": 360521,
            "province": "江西省",
            "city": "新余市",
            "district": "分宜县"
        }
    },
    {
        "id": "10563539252892126873",
        "title": "公共厕所",
        "address": "江西省新余市渝水区竹山路325号",
        "tel": "",
        "category": "基础设施:公共设施:公共厕所",
        "type": 0,
        "location": {
            "lat": 27.819717,
            "lng": 114.918566
        },
        "ad_info": {
            "adcode": 360502,
            "province": "江西省",
            "city": "新余市",
            "district": "渝水区"
        }
    },
    {
        "id": "15480979982776521457",
        "title": "公共厕所",
        "address": "江西省新余市渝水区Y117与石镇线交叉口东北方向820米左右",
        "tel": "",
        "category": "基础设施:公共设施:公共厕所",
        "type": 0,
        "location": {
            "lat": 28.029507,
            "lng": 115.035528
        },
        "ad_info": {
            "adcode": 360502,
            "province": "江西省",
            "city": "新余市",
            "district": "渝水区"
        }
    },
    {
        "id": "12901025285719413021",
        "title": "公共厕所",
        "address": "江西省新余市渝水区南源路与张固路交叉口东南方向60米左右",
        "tel": "",
        "category": "基础设施:公共设施:公共厕所",
        "type": 0,
        "location": {
            "lat": 27.827949,
            "lng": 115.034047
        },
        "ad_info": {
            "adcode": 360502,
            "province": "江西省",
            "city": "新余市",
            "district": "渝水区"
        }
    },
    {
        "id": "10673273334910038257",
        "title": "公共厕所",
        "address": "江西省新余市渝水区G533与罗新大道交叉口正西方向365米左右",
        "tel": "",
        "category": "基础设施:公共设施:公共厕所",
        "type": 0,
        "location": {
            "lat": 27.859361,
            "lng": 115.106699
        },
        "ad_info": {
            "adcode": 360502,
            "province": "江西省",
            "city": "新余市",
            "district": "渝水区"
        }
    },
    {
        "id": "4629620707943692865",
        "title": "公共厕所",
        "address": "江西省新余市渝水区江南路与观新路交叉口东北方向213米左右",
        "tel": "",
        "category": "基础设施:公共设施:公共厕所",
        "type": 0,
        "location": {
            "lat": 27.800118,
            "lng": 114.961924
        },
        "ad_info": {
            "adcode": 360502,
            "province": "江西省",
            "city": "新余市",
            "district": "渝水区"
        }
    },
    {
        "id": "13036852169801138119",
        "title": "公共厕所",
        "address": "江西省新余市分宜县G220与袁河大桥交叉口正西方向690米左右",
        "tel": "",
        "category": "基础设施:公共设施:公共厕所",
        "type": 0,
        "location": {
            "lat": 27.788499,
            "lng": 114.595845
        },
        "ad_info": {
            "adcode": 360521,
            "province": "江西省",
            "city": "新余市",
            "district": "分宜县"
        }
    },
    {
        "id": "16696795172064238156",
        "title": "公共厕所",
        "address": "江西省新余市渝水区团结西路与聚合路交叉口东南方向111米左右",
        "tel": "",
        "category": "基础设施:公共设施:公共厕所",
        "type": 0,
        "location": {
            "lat": 27.793041,
            "lng": 114.92172
        },
        "ad_info": {
            "adcode": 360502,
            "province": "江西省",
            "city": "新余市",
            "district": "渝水区"
        }
    },
    {
        "id": "3545038072801322419",
        "title": "公共厕所",
        "address": "江西省新余市分宜县S222与创鑫路交叉口正西方向199米左右",
        "tel": "",
        "category": "基础设施:公共设施:公共厕所",
        "type": 0,
        "location": {
            "lat": 27.834878,
            "lng": 114.669553
        },
        "ad_info": {
            "adcode": 360521,
            "province": "江西省",
            "city": "新余市",
            "district": "分宜县"
        }
    },
    {
        "id": "15678901938590704094",
        "title": "公共厕所",
        "address": "江西省新余市渝水区S312与Y101交叉口东南方向432米左右",
        "tel": "",
        "category": "基础设施:公共设施:公共厕所",
        "type": 0,
        "location": {
            "lat": 27.902712,
            "lng": 114.850527
        },
        "ad_info": {
            "adcode": 360502,
            "province": "江西省",
            "city": "新余市",
            "district": "渝水区"
        }
    },
    {
        "id": "1738544988999579332",
        "title": "公共厕所",
        "address": "江西省新余市渝水区兴和路与玉带西路交叉口西南方向609米左右",
        "tel": "",
        "category": "基础设施:公共设施:公共厕所",
        "type": 0,
        "location": {
            "lat": 27.78467,
            "lng": 114.935576
        },
        "ad_info": {
            "adcode": 360502,
            "province": "江西省",
            "city": "新余市",
            "district": "渝水区"
        }
    },
    {
        "id": "4637733522441630158",
        "title": "公共厕所",
        "address": "江西省新余市分宜县G220与天工南大道交叉口正南方向296米左右",
        "tel": "",
        "category": "基础设施:公共设施:公共厕所",
        "type": 0,
        "location": {
            "lat": 27.796373,
            "lng": 114.687661
        },
        "ad_info": {
            "adcode": 360521,
            "province": "江西省",
            "city": "新余市",
            "district": "分宜县"
        }
    },
    {
        "id": "8159217817858501591",
        "title": "公共厕所",
        "address": "江西省新余市渝水区X017与下周段交叉口正东方向113米左右",
        "tel": "",
        "category": "基础设施:公共设施:公共厕所",
        "type": 0,
        "location": {
            "lat": 27.66446,
            "lng": 114.924521
        },
        "ad_info": {
            "adcode": 360502,
            "province": "江西省",
            "city": "新余市",
            "district": "渝水区"
        }
    },
    {
        "id": "2459580216456289789",
        "title": "公共厕所",
        "address": "江西省新余市分宜县G220与S222交叉口正北方向18米左右",
        "tel": "",
        "category": "基础设施:公共设施:公共厕所",
        "type": 0,
        "location": {
            "lat": 27.705775,
            "lng": 114.699652
        },
        "ad_info": {
            "adcode": 360521,
            "province": "江西省",
            "city": "新余市",
            "district": "分宜县"
        }
    },
    {
        "id": "3324051525176084423",
        "title": "公共厕所",
        "address": "江西省新余市分宜县岭东路与开物大道交叉口西南方向81米左右",
        "tel": "",
        "category": "基础设施:公共设施:公共厕所",
        "type": 0,
        "location": {
            "lat": 27.825097,
            "lng": 114.699027
        },
        "ad_info": {
            "adcode": 360521,
            "province": "江西省",
            "city": "新余市",
            "district": "分宜县"
        }
    },
    {
        "id": "15979434558224455027",
        "title": "公共厕所",
        "address": "江西省新余市分宜县保健路与怡心街交叉口东南方向197米左右",
        "tel": "",
        "category": "基础设施:公共设施:公共厕所",
        "type": 0,
        "location": {
            "lat": 27.811301,
            "lng": 114.678189
        },
        "ad_info": {
            "adcode": 360521,
            "province": "江西省",
            "city": "新余市",
            "district": "分宜县"
        }
    },
    {
        "id": "12572155079968142120",
        "title": "公共厕所",
        "address": "江西省新余市分宜县天工南大道与安仁路交叉口东南方向84米左右",
        "tel": "",
        "category": "基础设施:公共设施:公共厕所",
        "type": 0,
        "location": {
            "lat": 27.808182,
            "lng": 114.689292
        },
        "ad_info": {
            "adcode": 360521,
            "province": "江西省",
            "city": "新余市",
            "district": "分宜县"
        }
    },
    {
        "id": "528672004852500702",
        "title": "公共厕所",
        "address": "江西省新余市分宜县G220与天工南大道交叉口东南方向256米左右",
        "tel": "",
        "category": "基础设施:公共设施:公共厕所",
        "type": 0,
        "location": {
            "lat": 27.79754,
            "lng": 114.68974
        },
        "ad_info": {
            "adcode": 360521,
            "province": "江西省",
            "city": "新余市",
            "district": "分宜县"
        }
    },
    {
        "id": "10861170404053359381",
        "title": "无障碍公共厕所",
        "address": "江西省新余市渝水区站前西路与长青南路交叉口西北方向103米左右",
        "tel": "",
        "category": "基础设施:公共设施:公共厕所",
        "type": 0,
        "location": {
            "lat": 27.809907,
            "lng": 114.922253
        },
        "ad_info": {
            "adcode": 360502,
            "province": "江西省",
            "city": "新余市",
            "district": "渝水区"
        }
    },
    {
        "id": "228542075575918050",
        "title": "公共厕所",
        "address": "江西省新余市渝水区渝东大道与龙潭洲路交叉口东北方向40米左右",
        "tel": "",
        "category": "基础设施:公共设施:公共厕所",
        "type": 0,
        "location": {
            "lat": 27.821234,
            "lng": 114.953957
        },
        "ad_info": {
            "adcode": 360502,
            "province": "江西省",
            "city": "新余市",
            "district": "渝水区"
        }
    },
    {
        "id": "14851655684540859942",
        "title": "公共厕所",
        "address": "江西省新余市渝水区仙来东大道翰林苑",
        "tel": "",
        "category": "基础设施:公共设施:公共厕所",
        "type": 0,
        "location": {
            "lat": 27.819908,
            "lng": 114.944028
        },
        "ad_info": {
            "adcode": 360502,
            "province": "江西省",
            "city": "新余市",
            "district": "渝水区"
        }
    },
    {
        "id": "12744736660733041576",
        "title": "公共厕所",
        "address": "江西省新余市分宜县广府路分宜县公安局",
        "tel": "",
        "category": "基础设施:公共设施:公共厕所",
        "type": 0,
        "location": {
            "lat": 27.813392,
            "lng": 114.692141
        },
        "ad_info": {
            "adcode": 360521,
            "province": "江西省",
            "city": "新余市",
            "district": "分宜县"
        }
    },
    {
        "id": "1026729406250909194",
        "title": "公共厕所",
        "address": "江西省新余市渝水区抱石大道与玉紫北路交叉口正北方向52米左右",
        "tel": "",
        "category": "基础设施:公共设施:公共厕所",
        "type": 0,
        "location": {
            "lat": 27.801153,
            "lng": 114.941101
        },
        "ad_info": {
            "adcode": 360502,
            "province": "江西省",
            "city": "新余市",
            "district": "渝水区"
        }
    },
    {
        "id": "1488225006261592577",
        "title": "公共厕所",
        "address": "江西省新余市渝水区长林路17号",
        "tel": "",
        "category": "基础设施:公共设施:公共厕所",
        "type": 0,
        "location": {
            "lat": 27.814135,
            "lng": 114.90432
        },
        "ad_info": {
            "adcode": 360502,
            "province": "江西省",
            "city": "新余市",
            "district": "渝水区"
        }
    },
    {
        "id": "7331513181924966165",
        "title": "罗坊镇农贸市场厕所",
        "address": "江西省新余市渝水区S528与站前路交叉口正东方向239米左右",
        "tel": "",
        "category": "基础设施:公共设施:公共厕所",
        "type": 0,
        "location": {
            "lat": 27.856196,
            "lng": 115.11607
        },
        "ad_info": {
            "adcode": 360502,
            "province": "江西省",
            "city": "新余市",
            "district": "渝水区"
        }
    },
    {
        "id": "9950747769314746039",
        "title": "公共厕所",
        "address": "江西省新余市渝水区文新路渝水六小",
        "tel": "",
        "category": "基础设施:公共设施:公共厕所",
        "type": 0,
        "location": {
            "lat": 27.840151,
            "lng": 114.93098
        },
        "ad_info": {
            "adcode": 360502,
            "province": "江西省",
            "city": "新余市",
            "district": "渝水区"
        }
    },
    {
        "id": "1123923417641676618",
        "title": "无障碍公共厕所",
        "address": "江西省新余市渝水区卢肇路与西城大道交叉口正南方向170米左右",
        "tel": "",
        "category": "基础设施:公共设施:公共厕所",
        "type": 0,
        "location": {
            "lat": 27.849128,
            "lng": 115.03057
        },
        "ad_info": {
            "adcode": 360502,
            "province": "江西省",
            "city": "新余市",
            "district": "渝水区"
        }
    },
    {
        "id": "781182178906470466",
        "title": "公共厕所",
        "address": "江西省新余市渝水区解放东路493号",
        "tel": "",
        "category": "基础设施:公共设施:公共厕所",
        "type": 0,
        "location": {
            "lat": 27.805084,
            "lng": 114.942317
        },
        "ad_info": {
            "adcode": 360502,
            "province": "江西省",
            "city": "新余市",
            "district": "渝水区"
        }
    },
    {
        "id": "15032821708542715020",
        "title": "公共厕所",
        "address": "江西省新余市渝水区S528与Y156交叉口东北方向225米左右",
        "tel": "",
        "category": "基础设施:公共设施:公共厕所",
        "type": 0,
        "location": {
            "lat": 27.854991,
            "lng": 115.12881
        },
        "ad_info": {
            "adcode": 360502,
            "province": "江西省",
            "city": "新余市",
            "district": "渝水区"
        }
    },
    {
        "id": "3074517198779497197",
        "title": "公共厕所",
        "address": "江西省新余市渝水区水西互通与环城路交叉口西南方向202米左右",
        "tel": "",
        "category": "基础设施:公共设施:公共厕所",
        "type": 0,
        "location": {
            "lat": 27.844361,
            "lng": 115.06794
        },
        "ad_info": {
            "adcode": 360502,
            "province": "江西省",
            "city": "新余市",
            "district": "渝水区"
        }
    },
    {
        "id": "17211199009912257104",
        "title": "新溪乡城头村委新田村小组公共厕所",
        "address": "江西省新余市渝水区堎上路与新岭段交叉口西北方向590米左右",
        "tel": "13755552839",
        "category": "基础设施:公共设施:公共厕所",
        "type": 0,
        "location": {
            "lat": 27.873537,
            "lng": 115.298922
        },
        "ad_info": {
            "adcode": 360502,
            "province": "江西省",
            "city": "新余市",
            "district": "渝水区"
        }
    },
    {
        "id": "2264756542710596777",
        "title": "旅游公共厕所",
        "address": "江西省新余市分宜县凤凰湾办事处东坑村",
        "tel": "",
        "category": "基础设施:公共设施:公共厕所",
        "type": 0,
        "location": {
            "lat": 27.661464,
            "lng": 114.782808
        },
        "ad_info": {
            "adcode": 360521,
            "province": "江西省",
            "city": "新余市",
            "district": "分宜县"
        }
    },
    {
        "id": "11112689831236832797",
        "title": "公共厕所",
        "address": "江西省新余市渝水区劳动北路与劳动南路交叉口正南方向201米左右",
        "tel": "",
        "category": "基础设施:公共设施:公共厕所",
        "type": 0,
        "location": {
            "lat": 27.810972,
            "lng": 114.932691
        },
        "ad_info": {
            "adcode": 360502,
            "province": "江西省",
            "city": "新余市",
            "district": "渝水区"
        }
    },
    {
        "id": "11845440574986376261",
        "title": "旅游厕所",
        "address": "江西省新余市分宜县X002与Y235交叉口正北方向1298米左右",
        "tel": "",
        "category": "基础设施:公共设施:公共厕所",
        "type": 0,
        "location": {
            "lat": 27.63783,
            "lng": 114.66788
        },
        "ad_info": {
            "adcode": 360521,
            "province": "江西省",
            "city": "新余市",
            "district": "分宜县"
        }
    },
    {
        "id": "5422650865239483036",
        "title": "公共厕所",
        "address": "江西省新余市渝水区仙来西大道与盛德巷交叉口西南方向32米左右",
        "tel": "",
        "category": "基础设施:公共设施:公共厕所",
        "type": 0,
        "location": {
            "lat": 27.816268,
            "lng": 114.89342
        },
        "ad_info": {
            "adcode": 360502,
            "province": "江西省",
            "city": "新余市",
            "district": "渝水区"
        }
    },
    {
        "id": "847687110645414069",
        "title": "公共厕所",
        "address": "江西省新余市分宜县北环大道与天工北大道交叉口西北方向241米左右",
        "tel": "",
        "category": "基础设施:公共设施:公共厕所",
        "type": 0,
        "location": {
            "lat": 27.825876,
            "lng": 114.687389
        },
        "ad_info": {
            "adcode": 360521,
            "province": "江西省",
            "city": "新余市",
            "district": "分宜县"
        }
    },
    {
        "id": "12651044566029607702",
        "title": "公共厕所",
        "address": "江西省新余市渝水区魁星路240号",
        "tel": "",
        "category": "基础设施:公共设施:公共厕所",
        "type": 0,
        "location": {
            "lat": 27.795953,
            "lng": 114.94696
        },
        "ad_info": {
            "adcode": 360502,
            "province": "江西省",
            "city": "新余市",
            "district": "渝水区"
        }
    },
    {
        "id": "2411204753369024138",
        "title": "公共厕所",
        "address": "江西省新余市渝水区堎上路229号",
        "tel": "",
        "category": "基础设施:公共设施:公共厕所",
        "type": 0,
        "location": {
            "lat": 27.819654,
            "lng": 114.925074
        },
        "ad_info": {
            "adcode": 360502,
            "province": "江西省",
            "city": "新余市",
            "district": "渝水区"
        }
    },
    {
        "id": "11710185391012236762",
        "title": "公共厕所",
        "address": "江西省新余市渝水区仰天岗西大道与天工北大道交叉口正南方向118米左右",
        "tel": "",
        "category": "基础设施:公共设施:公共厕所",
        "type": 0,
        "location": {
            "lat": 27.828191,
            "lng": 114.897486
        },
        "ad_info": {
            "adcode": 360502,
            "province": "江西省",
            "city": "新余市",
            "district": "渝水区"
        }
    },
    {
        "id": "13068981970751071310",
        "title": "旅游公共厕所",
        "address": "江西省新余市分宜县仙女湖风景区凤凰湾办事处东坑村",
        "tel": "",
        "category": "基础设施:公共设施:公共厕所",
        "type": 0,
        "location": {
            "lat": 27.661867,
            "lng": 114.786025
        },
        "ad_info": {
            "adcode": 360521,
            "province": "江西省",
            "city": "新余市",
            "district": "分宜县"
        }
    },
    {
        "id": "6616261787619068689",
        "title": "公共厕所",
        "address": "江西省新余市渝水区东风二巷与永安巷交叉口正南方向102米左右",
        "tel": "",
        "category": "基础设施:公共设施:公共厕所",
        "type": 0,
        "location": {
            "lat": 27.803514,
            "lng": 114.947749
        },
        "ad_info": {
            "adcode": 360502,
            "province": "江西省",
            "city": "新余市",
            "district": "渝水区"
        }
    },
    {
        "id": "1742244832920608410",
        "title": "公共厕所",
        "address": "江西省新余市渝水区永安巷与通瑞路交叉口西北方向15米左右",
        "tel": "",
        "category": "基础设施:公共设施:公共厕所",
        "type": 0,
        "location": {
            "lat": 27.801671,
            "lng": 114.947822
        },
        "ad_info": {
            "adcode": 360502,
            "province": "江西省",
            "city": "新余市",
            "district": "渝水区"
        }
    },
    {
        "id": "98547789869062082",
        "title": "公共厕所",
        "address": "江西省新余市渝水区冶金路与凤凰门路交叉口西北方向133米左右",
        "tel": "",
        "category": "基础设施:公共设施:公共厕所",
        "type": 0,
        "location": {
            "lat": 27.793941,
            "lng": 114.93579
        },
        "ad_info": {
            "adcode": 360502,
            "province": "江西省",
            "city": "新余市",
            "district": "渝水区"
        }
    },
    {
        "id": "3527685818163857408",
        "title": "公共厕所",
        "address": "江西省新余市渝水区仙来中大道与狮峰南路交叉口正南方向173米左右",
        "tel": "",
        "category": "基础设施:公共设施:公共厕所",
        "type": 0,
        "location": {
            "lat": 27.816953,
            "lng": 114.927431
        },
        "ad_info": {
            "adcode": 360502,
            "province": "江西省",
            "city": "新余市",
            "district": "渝水区"
        }
    },
    {
        "id": "7408936608192663849",
        "title": "新余服务区公共厕所",
        "address": "江西省新余市渝水区东兴路与高新大道交叉口正东方向1191米左右",
        "tel": "",
        "category": "基础设施:公共设施:公共厕所",
        "type": 0,
        "location": {
            "lat": 27.86634,
            "lng": 115.012981
        },
        "ad_info": {
            "adcode": 360502,
            "province": "江西省",
            "city": "新余市",
            "district": "渝水区"
        }
    },
    {
        "id": "9715901389902897461",
        "title": "公共厕所",
        "address": "江西省新余市渝水区X017与下周段交叉口正南方向183米左右",
        "tel": "",
        "category": "基础设施:公共设施:公共厕所",
        "type": 0,
        "location": {
            "lat": 27.66303,
            "lng": 114.923684
        },
        "ad_info": {
            "adcode": 360502,
            "province": "江西省",
            "city": "新余市",
            "district": "渝水区"
        }
    },
    {
        "id": "7666148910495524880",
        "title": "公共厕所",
        "address": "江西省新余市渝水区樟村路与沿江路交叉口正西方向277米左右",
        "tel": "",
        "category": "基础设施:公共设施:公共厕所",
        "type": 0,
        "location": {
            "lat": 27.811159,
            "lng": 114.942711
        },
        "ad_info": {
            "adcode": 360502,
            "province": "江西省",
            "city": "新余市",
            "district": "渝水区"
        }
    },
    {
        "id": "11608617626194735619",
        "title": "公共厕所",
        "address": "江西省新余市渝水区五一南路与团结西路交叉口正东方向80米左右",
        "tel": "",
        "category": "基础设施:公共设施:公共厕所",
        "type": 0,
        "location": {
            "lat": 27.798722,
            "lng": 114.909571
        },
        "ad_info": {
            "adcode": 360502,
            "province": "江西省",
            "city": "新余市",
            "district": "渝水区"
        }
    },
    {
        "id": "8601397939147818479",
        "title": "北湖宾馆-洗手间",
        "address": "江西省新余市渝水区北湖中路508号(近北湖公园)",
        "tel": "",
        "category": "基础设施:公共设施:公共厕所",
        "type": 0,
        "location": {
            "lat": 27.823208,
            "lng": 114.917326
        },
        "ad_info": {
            "adcode": 360502,
            "province": "江西省",
            "city": "新余市",
            "district": "渝水区"
        }
    },
    {
        "id": "15408603259758204815",
        "title": "公共厕所",
        "address": "江西省新余市渝水区抱石大道与通济路交叉口正东方向152米左右",
        "tel": "",
        "category": "基础设施:公共设施:公共厕所",
        "type": 0,
        "location": {
            "lat": 27.800252,
            "lng": 114.951831
        },
        "ad_info": {
            "adcode": 360502,
            "province": "江西省",
            "city": "新余市",
            "district": "渝水区"
        }
    },
    {
        "id": "16045343349951478322",
        "title": "新余融城大饭店-洗手间",
        "address": "江西省新余市渝水区劳动北路与科环路交汇处融城商务城1层",
        "tel": "",
        "category": "基础设施:公共设施:公共厕所",
        "type": 0,
        "location": {
            "lat": 27.829028,
            "lng": 114.928657
        },
        "ad_info": {
            "adcode": 360502,
            "province": "江西省",
            "city": "新余市",
            "district": "渝水区"
        }
    },
    {
        "id": "17205679693697699261",
        "title": "平塘村委西头村公共厕所",
        "address": "江西省新余市渝水区G533与Y154交叉口东南方向1924米左右",
        "tel": "18907903859",
        "category": "基础设施:公共设施:公共厕所",
        "type": 0,
        "location": {
            "lat": 27.858023,
            "lng": 115.150023
        },
        "ad_info": {
            "adcode": 360502,
            "province": "江西省",
            "city": "新余市",
            "district": "渝水区"
        }
    },
    {
        "id": "13586562135023980466",
        "title": "平塘村委楼下村公共厕所",
        "address": "江西省新余市渝水区G533与Y154交叉口东南方向1929米左右",
        "tel": "18907903859",
        "category": "基础设施:公共设施:公共厕所",
        "type": 0,
        "location": {
            "lat": 27.859267,
            "lng": 115.152374
        },
        "ad_info": {
            "adcode": 360502,
            "province": "江西省",
            "city": "新余市",
            "district": "渝水区"
        }
    },
    {
        "id": "2860599755626364733",
        "title": "新余服务区第一公共厕所",
        "address": "江西省新余市渝水区沪昆高速",
        "tel": "",
        "category": "基础设施:公共设施:公共厕所",
        "type": 0,
        "location": {
            "lat": 27.865381,
            "lng": 115.01496
        },
        "ad_info": {
            "adcode": 360502,
            "province": "江西省",
            "city": "新余市",
            "district": "渝水区"
        }
    },
    {
        "id": "4501987586239554461",
        "title": "平川村公共厕所",
        "address": "江西省新余市渝水区河下镇平川村卫生室南侧",
        "tel": "",
        "category": "基础设施:公共设施:公共厕所",
        "type": 0,
        "location": {
            "lat": 27.756385,
            "lng": 114.873186
        },
        "ad_info": {
            "adcode": 360502,
            "province": "江西省",
            "city": "新余市",
            "district": "渝水区"
        }
    },
    {
        "id": "9179822682895749299",
        "title": "女洗手间(红星美凯龙全球家居生活广场)",
        "address": "江西省新余市分宜县万年北路与北环中路交叉口东南100米红星美凯龙全球家居生活广场F3层",
        "tel": "",
        "category": "基础设施:公共设施:公共厕所",
        "type": 0,
        "location": {
            "lat": 27.822717,
            "lng": 114.684937
        },
        "ad_info": {
            "adcode": 360521,
            "province": "江西省",
            "city": "新余市",
            "district": "分宜县"
        }
    },
    {
        "id": "3096647340084599780",
        "title": "平塘村委东头村公共厕所",
        "address": "江西省新余市渝水区G533与Y154交叉口东南方向1743米左右",
        "tel": "18907903859",
        "category": "基础设施:公共设施:公共厕所",
        "type": 0,
        "location": {
            "lat": 27.861418,
            "lng": 115.152393
        },
        "ad_info": {
            "adcode": 360502,
            "province": "江西省",
            "city": "新余市",
            "district": "渝水区"
        }
    },
    {
        "id": "13699296324148456942",
        "title": "男洗手间(红星美凯龙全球家居生活广场)",
        "address": "江西省新余市分宜县万年北路与北环中路交叉口东南100米红星美凯龙全球家居生活广场F2层",
        "tel": "",
        "category": "基础设施:公共设施:公共厕所",
        "type": 0,
        "location": {
            "lat": 27.822638,
            "lng": 114.684937
        },
        "ad_info": {
            "adcode": 360521,
            "province": "江西省",
            "city": "新余市",
            "district": "分宜县"
        }
    },
    {
        "id": "4737311776515907633",
        "title": "新余服务第二临时公共厕所",
        "address": "江西省新余市渝水区G60沪昆高速与新余服务区交叉口东北120米",
        "tel": "",
        "category": "基础设施:公共设施:公共厕所",
        "type": 0,
        "location": {
            "lat": 27.866735,
            "lng": 115.013265
        },
        "ad_info": {
            "adcode": 360502,
            "province": "江西省",
            "city": "新余市",
            "district": "渝水区"
        }
    },
    {
        "id": "3698447659928292637",
        "title": "新余服务区第一公共厕所",
        "address": "江西省新余市渝水区培源路与新兴北路交叉口西北方向1329米左右",
        "tel": "",
        "category": "基础设施:公共设施:公共厕所",
        "type": 0,
        "location": {
            "lat": 27.86701,
            "lng": 115.015018
        },
        "ad_info": {
            "adcode": 360502,
            "province": "江西省",
            "city": "新余市",
            "district": "渝水区"
        }
    },
    {
        "id": "14624565345631152336",
        "title": "无障碍公共厕所",
        "address": "江西省新余市渝水区五一南路与白竹路交叉口东北方向45米左右",
        "tel": "",
        "category": "基础设施:公共设施:公共厕所",
        "type": 0,
        "location": {
            "lat": 27.805442,
            "lng": 114.909901
        },
        "ad_info": {
            "adcode": 360502,
            "province": "江西省",
            "city": "新余市",
            "district": "渝水区"
        }
    },
    {
        "id": "12129630616983788810",
        "title": "公共厕所",
        "address": "江西省新余市渝水区虎跃路美欣小区",
        "tel": "",
        "category": "基础设施:公共设施:公共厕所",
        "type": 0,
        "location": {
            "lat": 27.821987,
            "lng": 114.965837
        },
        "ad_info": {
            "adcode": 360502,
            "province": "江西省",
            "city": "新余市",
            "district": "渝水区"
        }
    },
    {
        "id": "17846099047317509261",
        "title": "公共厕所",
        "address": "江西省新余市渝水区光伏路与锦江路交叉口东南方向81米左右",
        "tel": "",
        "category": "基础设施:公共设施:公共厕所",
        "type": 0,
        "location": {
            "lat": 27.824573,
            "lng": 114.94461
        },
        "ad_info": {
            "adcode": 360502,
            "province": "江西省",
            "city": "新余市",
            "district": "渝水区"
        }
    },
    {
        "id": "15479740731446174335",
        "title": "公共厕所",
        "address": "江西省新余市渝水区康居路与魁星阁路交叉口正西方向76米左右",
        "tel": "",
        "category": "基础设施:公共设施:公共厕所",
        "type": 0,
        "location": {
            "lat": 27.796206,
            "lng": 114.946936
        },
        "ad_info": {
            "adcode": 360502,
            "province": "江西省",
            "city": "新余市",
            "district": "渝水区"
        }
    },
    {
        "id": "5100409080008913048",
        "title": "公共厕所",
        "address": "江西省新余市渝水区仰天岗西大道与徐家路交叉口正西方向26米左右",
        "tel": "",
        "category": "基础设施:公共设施:公共厕所",
        "type": 0,
        "location": {
            "lat": 27.813552,
            "lng": 114.880709
        },
        "ad_info": {
            "adcode": 360502,
            "province": "江西省",
            "city": "新余市",
            "district": "渝水区"
        }
    },
    {
        "id": "11152669316332427295",
        "title": "公共厕所",
        "address": "江西省新余市渝水区升恒路与锦绣大道交叉口正东方向68米左右",
        "tel": "",
        "category": "基础设施:公共设施:公共厕所",
        "type": 0,
        "location": {
            "lat": 27.784939,
            "lng": 114.952337
        },
        "ad_info": {
            "adcode": 360502,
            "province": "江西省",
            "city": "新余市",
            "district": "渝水区"
        }
    },
    {
        "id": "2464953818854134987",
        "title": "厕所",
        "address": "江西省新余市渝水区罗坊老大桥南侧",
        "tel": "",
        "category": "基础设施:公共设施:公共厕所",
        "type": 0,
        "location": {
            "lat": 27.853578,
            "lng": 115.120589
        },
        "ad_info": {
            "adcode": 360502,
            "province": "江西省",
            "city": "新余市",
            "district": "渝水区"
        }
    },
    {
        "id": "10171273479723189520",
        "title": "公共厕所",
        "address": "江西省新余市渝水区可帧路与德榜路交叉口正北方向332米左右",
        "tel": "",
        "category": "基础设施:公共设施:公共厕所",
        "type": 0,
        "location": {
            "lat": 27.850614,
            "lng": 114.947995
        },
        "ad_info": {
            "adcode": 360502,
            "province": "江西省",
            "city": "新余市",
            "district": "渝水区"
        }
    },
    {
        "id": "10397536805717924411",
        "title": "公共厕所",
        "address": "江西省新余市渝水区石镇线与锦新大道交叉口东南方向109米左右",
        "tel": "",
        "category": "基础设施:公共设施:公共厕所",
        "type": 0,
        "location": {
            "lat": 27.779999,
            "lng": 114.955041
        },
        "ad_info": {
            "adcode": 360502,
            "province": "江西省",
            "city": "新余市",
            "district": "渝水区"
        }
    },
    {
        "id": "1726675304519229046",
        "title": "公共厕所",
        "address": "江西省新余市渝水区东兴路与赛维大道交叉口正北方向110米左右",
        "tel": "",
        "category": "基础设施:公共设施:公共厕所",
        "type": 0,
        "location": {
            "lat": 27.839045,
            "lng": 115.001396
        },
        "ad_info": {
            "adcode": 360502,
            "province": "江西省",
            "city": "新余市",
            "district": "渝水区"
        }
    },
    {
        "id": "4381809429101098563",
        "title": "公共厕所",
        "address": "江西省新余市渝水区天工南大道与星光大道交叉口正北方向197米左右",
        "tel": "",
        "category": "基础设施:公共设施:公共厕所",
        "type": 0,
        "location": {
            "lat": 27.788437,
            "lng": 114.899169
        },
        "ad_info": {
            "adcode": 360502,
            "province": "江西省",
            "city": "新余市",
            "district": "渝水区"
        }
    },
    {
        "id": "6426670594324996732",
        "title": "公共厕所",
        "address": "江西省新余市渝水区玉带西路与锦新大道交叉口西北方向67米左右",
        "tel": "",
        "category": "基础设施:公共设施:公共厕所",
        "type": 0,
        "location": {
            "lat": 27.780986,
            "lng": 114.942977
        },
        "ad_info": {
            "adcode": 360502,
            "province": "江西省",
            "city": "新余市",
            "district": "渝水区"
        }
    },
    {
        "id": "17095567427296686986",
        "title": "公共厕所",
        "address": "江西省新余市渝水区团结西路新钢中学",
        "tel": "",
        "category": "基础设施:公共设施:公共厕所",
        "type": 0,
        "location": {
            "lat": 27.795916,
            "lng": 114.92596
        },
        "ad_info": {
            "adcode": 360502,
            "province": "江西省",
            "city": "新余市",
            "district": "渝水区"
        }
    },
    {
        "id": "7682299298562815435",
        "title": "新溪乡城头村委老屋里村小组公共厕所",
        "address": "江西省新余市渝水区堎上路与新岭段交叉口西北方向516米左右",
        "tel": "13755552839",
        "category": "基础设施:公共设施:公共厕所",
        "type": 0,
        "location": {
            "lat": 27.873706,
            "lng": 115.300561
        },
        "ad_info": {
            "adcode": 360502,
            "province": "江西省",
            "city": "新余市",
            "district": "渝水区"
        }
    },
    {
        "id": "11796913251452027387",
        "title": "公共厕所",
        "address": "江西省新余市分宜县操场乡山泗村大苑村小组",
        "tel": "",
        "category": "基础设施:公共设施:公共厕所",
        "type": 0,
        "location": {
            "lat": 28.078878,
            "lng": 114.715973
        },
        "ad_info": {
            "adcode": 360521,
            "province": "江西省",
            "city": "新余市",
            "district": "分宜县"
        }
    },
    {
        "id": "4315945806876144399",
        "title": "新溪乡城头村委土库里村小组公共厕所",
        "address": "江西省新余市渝水区堎上路与新岭段交叉口西北方向1203米左右",
        "tel": "13755552839",
        "category": "基础设施:公共设施:公共厕所",
        "type": 0,
        "location": {
            "lat": 27.877562,
            "lng": 115.294657
        },
        "ad_info": {
            "adcode": 360502,
            "province": "江西省",
            "city": "新余市",
            "district": "渝水区"
        }
    },
    {
        "id": "10360539179800018500",
        "title": "公共厕所",
        "address": "江西省新余市渝水区商贸路与思成路交叉口正东方向46米左右",
        "tel": "",
        "category": "基础设施:公共设施:公共厕所",
        "type": 0,
        "location": {
            "lat": 27.82991,
            "lng": 114.953455
        },
        "ad_info": {
            "adcode": 360502,
            "province": "江西省",
            "city": "新余市",
            "district": "渝水区"
        }
    },
    {
        "id": "5639463655828030412",
        "title": "公共厕所",
        "address": "江西省新余市渝水区S312与X298交叉口西南方向37米左右",
        "tel": "",
        "category": "基础设施:公共设施:公共厕所",
        "type": 0,
        "location": {
            "lat": 27.764216,
            "lng": 114.889556
        },
        "ad_info": {
            "adcode": 360502,
            "province": "江西省",
            "city": "新余市",
            "district": "渝水区"
        }
    },
    {
        "id": "15815748448675655719",
        "title": "公共厕所",
        "address": "江西省新余市渝水区仰天岗西大道与北湖路交叉口西南方向133米左右",
        "tel": "",
        "category": "基础设施:公共设施:公共厕所",
        "type": 0,
        "location": {
            "lat": 27.821659,
            "lng": 114.887149
        },
        "ad_info": {
            "adcode": 360502,
            "province": "江西省",
            "city": "新余市",
            "district": "渝水区"
        }
    },
    {
        "id": "3200204166526954907",
        "title": "平塘村委桥头村公共厕所",
        "address": "江西省新余市渝水区S528与X787交叉口东北方向1821米左右",
        "tel": "18907903859",
        "category": "基础设施:公共设施:公共厕所",
        "type": 0,
        "location": {
            "lat": 27.854916,
            "lng": 115.149191
        },
        "ad_info": {
            "adcode": 360502,
            "province": "江西省",
            "city": "新余市",
            "district": "渝水区"
        }
    },
    {
        "id": "8941685417630158737",
        "title": "公共厕所",
        "address": "江西省新余市渝水区仙女湖大道与金凤路交叉口东北方向70米左右",
        "tel": "",
        "category": "基础设施:公共设施:公共厕所",
        "type": 0,
        "location": {
            "lat": 27.785023,
            "lng": 114.864756
        },
        "ad_info": {
            "adcode": 360502,
            "province": "江西省",
            "city": "新余市",
            "district": "渝水区"
        }
    },
    {
        "id": "17164218101388514128",
        "title": "公共厕所",
        "address": "江西省新余市渝水区公园北路与白竹路交叉口东北方向56米左右",
        "tel": "",
        "category": "基础设施:公共设施:公共厕所",
        "type": 0,
        "location": {
            "lat": 27.805276,
            "lng": 114.930983
        },
        "ad_info": {
            "adcode": 360502,
            "province": "江西省",
            "city": "新余市",
            "district": "渝水区"
        }
    },
    {
        "id": "342980048966388374",
        "title": "公共厕所",
        "address": "江西省新余市渝水区抱石大道与春龙大道交叉口正北方向69米左右",
        "tel": "",
        "category": "基础设施:公共设施:公共厕所",
        "type": 0,
        "location": {
            "lat": 27.800585,
            "lng": 114.980042
        },
        "ad_info": {
            "adcode": 360502,
            "province": "江西省",
            "city": "新余市",
            "district": "渝水区"
        }
    },
    {
        "id": "9910298585921447753",
        "title": "上陂头沙公共厕所",
        "address": "江西省新余市渝水区X296与石镇线交叉口正西方向873米左右",
        "tel": "",
        "category": "基础设施:公共设施:公共厕所",
        "type": 0,
        "location": {
            "lat": 27.912453,
            "lng": 114.947553
        },
        "ad_info": {
            "adcode": 360502,
            "province": "江西省",
            "city": "新余市",
            "district": "渝水区"
        }
    },
    {
        "id": "10763223994482476913",
        "title": "新溪乡城头村委炉园村小组公共厕所",
        "address": "江西省新余市渝水区堎上路与新岭段交叉口西北方向425米左右",
        "tel": "13755552839",
        "category": "基础设施:公共设施:公共厕所",
        "type": 0,
        "location": {
            "lat": 27.872554,
            "lng": 115.300218
        },
        "ad_info": {
            "adcode": 360502,
            "province": "江西省",
            "city": "新余市",
            "district": "渝水区"
        }
    },
    {
        "id": "11595106271198792302",
        "title": "严氏宗祠-公共厕所",
        "address": "江西省新余市分宜县G220与天工南大道交叉口东南方向129米左右",
        "tel": "",
        "category": "基础设施:公共设施:公共厕所",
        "type": 0,
        "location": {
            "lat": 27.798014,
            "lng": 114.688376
        },
        "ad_info": {
            "adcode": 360521,
            "province": "江西省",
            "city": "新余市",
            "district": "分宜县"
        }
    },
    {
        "id": "7176770011364657432",
        "title": "公共厕所",
        "address": "江西省新余市渝水区仰天岗西大道与北新路交叉口东北方向151米左右",
        "tel": "",
        "category": "基础设施:公共设施:公共厕所",
        "type": 0,
        "location": {
            "lat": 27.810374,
            "lng": 114.877392
        },
        "ad_info": {
            "adcode": 360502,
            "province": "江西省",
            "city": "新余市",
            "district": "渝水区"
        }
    },
    {
        "id": "13546764828070984709",
        "title": "公共厕所",
        "address": "江西省新余市渝水区兴沙巷与沙土街交叉口正西方向123米左右",
        "tel": "",
        "category": "基础设施:公共设施:公共厕所",
        "type": 0,
        "location": {
            "lat": 27.81515,
            "lng": 114.937017
        },
        "ad_info": {
            "adcode": 360502,
            "province": "江西省",
            "city": "新余市",
            "district": "渝水区"
        }
    },
    {
        "id": "16664293231799408930",
        "title": "新溪乡城头村委新园村小组公共厕所",
        "address": "江西省新余市渝水区堎上路与新岭段交叉口西北方向751米左右",
        "tel": "13755552839",
        "category": "基础设施:公共设施:公共厕所",
        "type": 0,
        "location": {
            "lat": 27.875307,
            "lng": 115.298894
        },
        "ad_info": {
            "adcode": 360502,
            "province": "江西省",
            "city": "新余市",
            "district": "渝水区"
        }
    },
    {
        "id": "14070345812516440032",
        "title": "公共厕所",
        "address": "江西省新余市渝水区赛维大道与龙潭洲路交叉口东南方向34米左右",
        "tel": "",
        "category": "基础设施:公共设施:公共厕所",
        "type": 0,
        "location": {
            "lat": 27.834604,
            "lng": 114.951957
        },
        "ad_info": {
            "adcode": 360502,
            "province": "江西省",
            "city": "新余市",
            "district": "渝水区"
        }
    },
    {
        "id": "4088927145509119452",
        "title": "公共厕所",
        "address": "江西省新余市渝水区公园南路与冶金路交叉口东南方向263米左右",
        "tel": "",
        "category": "基础设施:公共设施:公共厕所",
        "type": 0,
        "location": {
            "lat": 27.789752,
            "lng": 114.934705
        },
        "ad_info": {
            "adcode": 360502,
            "province": "江西省",
            "city": "新余市",
            "district": "渝水区"
        }
    },
    {
        "id": "17034763850178763925",
        "title": "公共厕所",
        "address": "江西省新余市渝水区南源路与新城大道交叉口正南方向578米左右",
        "tel": "",
        "category": "基础设施:公共设施:公共厕所",
        "type": 0,
        "location": {
            "lat": 27.809918,
            "lng": 114.972495
        },
        "ad_info": {
            "adcode": 360502,
            "province": "江西省",
            "city": "新余市",
            "district": "渝水区"
        }
    },
    {
        "id": "17960800143825444538",
        "title": "公共厕所",
        "address": "江西省新余市渝水区天仙路与环湖绿道交叉口东北方向1081米左右",
        "tel": "",
        "category": "基础设施:公共设施:公共厕所",
        "type": 0,
        "location": {
            "lat": 27.738649,
            "lng": 114.805343
        },
        "ad_info": {
            "adcode": 360502,
            "province": "江西省",
            "city": "新余市",
            "district": "渝水区"
        }
    },
    {
        "id": "14570338575439242688",
        "title": "无障碍公共厕所",
        "address": "江西省新余市渝水区新欣北大道与樟村路交叉口西北方向23米左右",
        "tel": "",
        "category": "基础设施:公共设施:公共厕所",
        "type": 0,
        "location": {
            "lat": 27.811532,
            "lng": 114.952603
        },
        "ad_info": {
            "adcode": 360502,
            "province": "江西省",
            "city": "新余市",
            "district": "渝水区"
        }
    },
    {
        "id": "2355861742268716266",
        "title": "公共厕所",
        "address": "江西省新余市渝水区聚祥路与袁沙路交叉口西南方向80米左右",
        "tel": "",
        "category": "基础设施:公共设施:公共厕所",
        "type": 0,
        "location": {
            "lat": 27.843775,
            "lng": 114.945336
        },
        "ad_info": {
            "adcode": 360502,
            "province": "江西省",
            "city": "新余市",
            "district": "渝水区"
        }
    },
    {
        "id": "15333167377831488082",
        "title": "公共厕所",
        "address": "江西省新余市渝水区永安巷与解放东路交叉口西北方向41米左右",
        "tel": "",
        "category": "基础设施:公共设施:公共厕所",
        "type": 0,
        "location": {
            "lat": 27.805439,
            "lng": 114.94732
        },
        "ad_info": {
            "adcode": 360502,
            "province": "江西省",
            "city": "新余市",
            "district": "渝水区"
        }
    },
    {
        "id": "18229171559300049294",
        "title": "公共厕所",
        "address": "江西省新余市渝水区新元大道与渝东大道交叉口正北方向252米左右",
        "tel": "",
        "category": "基础设施:公共设施:公共厕所",
        "type": 0,
        "location": {
            "lat": 27.831229,
            "lng": 115.016392
        },
        "ad_info": {
            "adcode": 360502,
            "province": "江西省",
            "city": "新余市",
            "district": "渝水区"
        }
    },
    {
        "id": "18052659399376858318",
        "title": "公共厕所",
        "address": "江西省新余市渝水区民和路与祥水路交叉口东南方向18米左右",
        "tel": "",
        "category": "基础设施:公共设施:公共厕所",
        "type": 0,
        "location": {
            "lat": 27.808809,
            "lng": 114.962187
        },
        "ad_info": {
            "adcode": 360502,
            "province": "江西省",
            "city": "新余市",
            "district": "渝水区"
        }
    },
    {
        "id": "8879334903195811742",
        "title": "公共厕所",
        "address": "江西省新余市渝水区学思路与沿江路交叉口东北方向76米左右",
        "tel": "",
        "category": "基础设施:公共设施:公共厕所",
        "type": 0,
        "location": {
            "lat": 27.826945,
            "lng": 114.942517
        },
        "ad_info": {
            "adcode": 360502,
            "province": "江西省",
            "city": "新余市",
            "district": "渝水区"
        }
    },
    {
        "id": "9388096514734750766",
        "title": "公共厕所",
        "address": "江西省新余市渝水区沿江路与赣西大道交叉口西北方向53米左右",
        "tel": "",
        "category": "基础设施:公共设施:公共厕所",
        "type": 0,
        "location": {
            "lat": 27.82979,
            "lng": 114.939862
        },
        "ad_info": {
            "adcode": 360502,
            "province": "江西省",
            "city": "新余市",
            "district": "渝水区"
        }
    },
    {
        "id": "15907055688952288962",
        "title": "公共厕所",
        "address": "江西省新余市渝水区劳动南路与解放西路交叉口正南方向98米左右",
        "tel": "",
        "category": "基础设施:公共设施:公共厕所",
        "type": 0,
        "location": {
            "lat": 27.804129,
            "lng": 114.934389
        },
        "ad_info": {
            "adcode": 360502,
            "province": "江西省",
            "city": "新余市",
            "district": "渝水区"
        }
    },
    {
        "id": "1589239732375043545",
        "title": "无障碍公共厕所",
        "address": "江西省新余市渝水区仙文湖东大道与团结西路交叉口正东方向92米左右",
        "tel": "",
        "category": "基础设施:公共设施:公共厕所",
        "type": 0,
        "location": {
            "lat": 27.793075,
            "lng": 114.919753
        },
        "ad_info": {
            "adcode": 360502,
            "province": "江西省",
            "city": "新余市",
            "district": "渝水区"
        }
    },
    {
        "id": "4740080076880545261",
        "title": "公共厕所",
        "address": "江西省新余市渝水区外环东路与外环南路交叉口东南方向712米左右",
        "tel": "",
        "category": "基础设施:公共设施:公共厕所",
        "type": 0,
        "location": {
            "lat": 27.763483,
            "lng": 114.916451
        },
        "ad_info": {
            "adcode": 360502,
            "province": "江西省",
            "city": "新余市",
            "district": "渝水区"
        }
    },
    {
        "id": "6006850158126407146",
        "title": "公共厕所",
        "address": "江西省新余市渝水区人民路与新东巷交叉口正东方向142米左右",
        "tel": "",
        "category": "基础设施:公共设施:公共厕所",
        "type": 0,
        "location": {
            "lat": 27.803657,
            "lng": 114.945223
        },
        "ad_info": {
            "adcode": 360502,
            "province": "江西省",
            "city": "新余市",
            "district": "渝水区"
        }
    },
    {
        "id": "15977739468705210064",
        "title": "公共厕所",
        "address": "江西省新余市渝水区仙女湖大道与钢城路交叉口东南方向230米左右",
        "tel": "",
        "category": "基础设施:公共设施:公共厕所",
        "type": 0,
        "location": {
            "lat": 27.790556,
            "lng": 114.881819
        },
        "ad_info": {
            "adcode": 360502,
            "province": "江西省",
            "city": "新余市",
            "district": "渝水区"
        }
    },
    {
        "id": "10457437590768164323",
        "title": "公共厕所",
        "address": "江西省新余市渝水区仰天岗西大道美林湾",
        "tel": "",
        "category": "基础设施:公共设施:公共厕所",
        "type": 0,
        "location": {
            "lat": 27.829785,
            "lng": 114.898865
        },
        "ad_info": {
            "adcode": 360502,
            "province": "江西省",
            "city": "新余市",
            "district": "渝水区"
        }
    },
    {
        "id": "6110191718509339095",
        "title": "公共厕所",
        "address": "江西省新余市渝水区玉带西路与锦新大道交叉口西南方向1000米左右",
        "tel": "",
        "category": "基础设施:公共设施:公共厕所",
        "type": 0,
        "location": {
            "lat": 27.773999,
            "lng": 114.936426
        },
        "ad_info": {
            "adcode": 360502,
            "province": "江西省",
            "city": "新余市",
            "district": "渝水区"
        }
    },
    {
        "id": "13032896279060081871",
        "title": "公共厕所",
        "address": "江西省新余市渝水区佳和路与白竹路交叉口正南方向283米左右",
        "tel": "",
        "category": "基础设施:公共设施:公共厕所",
        "type": 0,
        "location": {
            "lat": 27.802608,
            "lng": 114.912865
        },
        "ad_info": {
            "adcode": 360502,
            "province": "江西省",
            "city": "新余市",
            "district": "渝水区"
        }
    },
    {
        "id": "3179946904668916503",
        "title": "公共厕所",
        "address": "江西省新余市渝水区S312与X787交叉口东南方向491米左右",
        "tel": "",
        "category": "基础设施:公共设施:公共厕所",
        "type": 0,
        "location": {
            "lat": 27.808139,
            "lng": 115.260636
        },
        "ad_info": {
            "adcode": 360502,
            "province": "江西省",
            "city": "新余市",
            "district": "渝水区"
        }
    },
    {
        "id": "7283686920662980085",
        "title": "公共厕所",
        "address": "江西省新余市分宜县枣木山公园西南侧60米",
        "tel": "",
        "category": "基础设施:公共设施:公共厕所",
        "type": 0,
        "location": {
            "lat": 27.975659,
            "lng": 114.798472
        },
        "ad_info": {
            "adcode": 360521,
            "province": "江西省",
            "city": "新余市",
            "district": "分宜县"
        }
    },
    {
        "id": "7469680542854884667",
        "title": "仙女湖服务区第一公共厕所",
        "address": "江西省新余市渝水区G45大广高速东150米",
        "tel": "",
        "category": "基础设施:公共设施:公共厕所",
        "type": 0,
        "location": {
            "lat": 27.729449,
            "lng": 114.843296
        },
        "ad_info": {
            "adcode": 360502,
            "province": "江西省",
            "city": "新余市",
            "district": "渝水区"
        }
    },
    {
        "id": "9138501749917922135",
        "title": "公共厕所(餐饮服务中心)",
        "address": "江西省新余市渝水区新元大道与潭塘路交叉口东南方向328米左右",
        "tel": "",
        "category": "基础设施:公共设施:公共厕所",
        "type": 0,
        "location": {
            "lat": 27.832028,
            "lng": 115.018003
        },
        "ad_info": {
            "adcode": 360502,
            "province": "江西省",
            "city": "新余市",
            "district": "渝水区"
        }
    },
    {
        "id": "9386615667007031397",
        "title": "无障碍公共厕所",
        "address": "江西省新余市渝水区毛家路与清新路交叉口正北方向16米左右",
        "tel": "",
        "category": "基础设施:公共设施:公共厕所",
        "type": 0,
        "location": {
            "lat": 27.827058,
            "lng": 114.924331
        },
        "ad_info": {
            "adcode": 360502,
            "province": "江西省",
            "city": "新余市",
            "district": "渝水区"
        }
    },
    {
        "id": "3169332987425794080",
        "title": "公共厕所",
        "address": "江西省新余市渝水区惠民饭店北侧",
        "tel": "",
        "category": "基础设施:公共设施:公共厕所",
        "type": 0,
        "location": {
            "lat": 27.788452,
            "lng": 115.032506
        },
        "ad_info": {
            "adcode": 360502,
            "province": "江西省",
            "city": "新余市",
            "district": "渝水区"
        }
    },
    {
        "id": "13423480348966161817",
        "title": "公共厕所",
        "address": "江西省新余市渝水区光启路与姚家边路交叉口东北方向357米左右",
        "tel": "",
        "category": "基础设施:公共设施:公共厕所",
        "type": 0,
        "location": {
            "lat": 27.83459,
            "lng": 114.978176
        },
        "ad_info": {
            "adcode": 360502,
            "province": "江西省",
            "city": "新余市",
            "district": "渝水区"
        }
    },
    {
        "id": "12279860235510860724",
        "title": "公共厕所",
        "address": "江西省新余市渝水区渝东大道与虎跃路交叉口正东方向103米左右",
        "tel": "",
        "category": "基础设施:公共设施:公共厕所",
        "type": 0,
        "location": {
            "lat": 27.820467,
            "lng": 114.967036
        },
        "ad_info": {
            "adcode": 360502,
            "province": "江西省",
            "city": "新余市",
            "district": "渝水区"
        }
    },
    {
        "id": "13980999498389120323",
        "title": "公共厕所",
        "address": "江西省新余市渝水区",
        "tel": "",
        "category": "基础设施:公共设施:公共厕所",
        "type": 0,
        "location": {
            "lat": 27.657549,
            "lng": 115.000418
        },
        "ad_info": {
            "adcode": 360502,
            "province": "江西省",
            "city": "新余市",
            "district": "渝水区"
        }
    },
    {
        "id": "10217204783503671380",
        "title": "公共厕所",
        "address": "江西省新余市分宜县东湖路与开物大道交叉口东南方向35米左右",
        "tel": "",
        "category": "基础设施:公共设施:公共厕所",
        "type": 0,
        "location": {
            "lat": 27.824335,
            "lng": 114.694414
        },
        "ad_info": {
            "adcode": 360521,
            "province": "江西省",
            "city": "新余市",
            "district": "分宜县"
        }
    },
    {
        "id": "1239492367103459734",
        "title": "公共厕所",
        "address": "江西省新余市渝水区Y117与石镇线交叉口正东方向404米左右",
        "tel": "",
        "category": "基础设施:公共设施:公共厕所",
        "type": 0,
        "location": {
            "lat": 28.027751,
            "lng": 115.031749
        },
        "ad_info": {
            "adcode": 360502,
            "province": "江西省",
            "city": "新余市",
            "district": "渝水区"
        }
    },
    {
        "id": "7905827240927773935",
        "title": "公共厕所",
        "address": "江西省新余市渝水区G533与Y159交叉口正东方向947米左右",
        "tel": "",
        "category": "基础设施:公共设施:公共厕所",
        "type": 0,
        "location": {
            "lat": 27.847617,
            "lng": 115.097772
        },
        "ad_info": {
            "adcode": 360502,
            "province": "江西省",
            "city": "新余市",
            "district": "渝水区"
        }
    },
    {
        "id": "2538513464522324752",
        "title": "公共厕所",
        "address": "江西省新余市渝水区S221与石镇线交叉口正南方向446米左右",
        "tel": "",
        "category": "基础设施:公共设施:公共厕所",
        "type": 0,
        "location": {
            "lat": 27.744402,
            "lng": 114.961509
        },
        "ad_info": {
            "adcode": 360502,
            "province": "江西省",
            "city": "新余市",
            "district": "渝水区"
        }
    },
    {
        "id": "10691878089480098621",
        "title": "仙女湖服务区公共厕所",
        "address": "江西省新余市渝水区G45大广高速西100米",
        "tel": "",
        "category": "基础设施:公共设施:公共厕所",
        "type": 0,
        "location": {
            "lat": 27.729484,
            "lng": 114.84116
        },
        "ad_info": {
            "adcode": 360502,
            "province": "江西省",
            "city": "新余市",
            "district": "渝水区"
        }
    },
    {
        "id": "17225276620012561186",
        "title": "公共厕所",
        "address": "江西省新余市渝水区亚新北路与劳动南路交叉口西北方向53米左右",
        "tel": "",
        "category": "基础设施:公共设施:公共厕所",
        "type": 0,
        "location": {
            "lat": 27.803502,
            "lng": 114.934962
        },
        "ad_info": {
            "adcode": 360502,
            "province": "江西省",
            "city": "新余市",
            "district": "渝水区"
        }
    },
    {
        "id": "7937984733337061688",
        "title": "仙女湖服务区第二公共厕所",
        "address": "江西省新余市渝水区大广高速公路",
        "tel": "",
        "category": "基础设施:公共设施:公共厕所",
        "type": 0,
        "location": {
            "lat": 27.730611,
            "lng": 114.842931
        },
        "ad_info": {
            "adcode": 360502,
            "province": "江西省",
            "city": "新余市",
            "district": "渝水区"
        }
    },
    {
        "id": "17923214333212091779",
        "title": "公共厕所",
        "address": "江西省新余市渝水区天工南大道与天工大道交叉口正东方向48米左右",
        "tel": "",
        "category": "基础设施:公共设施:公共厕所",
        "type": 0,
        "location": {
            "lat": 27.811645,
            "lng": 114.897612
        },
        "ad_info": {
            "adcode": 360502,
            "province": "江西省",
            "city": "新余市",
            "district": "渝水区"
        }
    },
    {
        "id": "8917843232715426517",
        "title": "公共厕所",
        "address": "江西省新余市分宜县北环大道与天工北大道交叉口东南方向249米左右",
        "tel": "",
        "category": "基础设施:公共设施:公共厕所",
        "type": 0,
        "location": {
            "lat": 27.822409,
            "lng": 114.69039
        },
        "ad_info": {
            "adcode": 360521,
            "province": "江西省",
            "city": "新余市",
            "district": "分宜县"
        }
    },
    {
        "id": "3171462540828812488",
        "title": "公共厕所",
        "address": "江西省新余市渝水区S221中国石化上新加油站",
        "tel": "",
        "category": "基础设施:公共设施:公共厕所",
        "type": 0,
        "location": {
            "lat": 27.972711,
            "lng": 114.985727
        },
        "ad_info": {
            "adcode": 360502,
            "province": "江西省",
            "city": "新余市",
            "district": "渝水区"
        }
    },
    {
        "id": "16563553286970323607",
        "title": "公共厕所",
        "address": "江西省新余市分宜县洪阳北路与洪阳南路交叉口正南方向259米左右",
        "tel": "",
        "category": "基础设施:公共设施:公共厕所",
        "type": 0,
        "location": {
            "lat": 27.811273,
            "lng": 114.670468
        },
        "ad_info": {
            "adcode": 360521,
            "province": "江西省",
            "city": "新余市",
            "district": "分宜县"
        }
    },
    {
        "id": "14358210588751344507",
        "title": "公共厕所",
        "address": "江西省新余市分宜县广府路与钤山东路交叉口正西方向146米左右",
        "tel": "",
        "category": "基础设施:公共设施:公共厕所",
        "type": 0,
        "location": {
            "lat": 27.816895,
            "lng": 114.690387
        },
        "ad_info": {
            "adcode": 360521,
            "province": "江西省",
            "city": "新余市",
            "district": "分宜县"
        }
    },
    {
        "id": "7347211195602871709",
        "title": "公共厕所",
        "address": "江西省新余市渝水区北湖西路与长林路交叉口东北方向40米左右",
        "tel": "",
        "category": "基础设施:公共设施:公共厕所",
        "type": 0,
        "location": {
            "lat": 27.821589,
            "lng": 114.904541
        },
        "ad_info": {
            "adcode": 360502,
            "province": "江西省",
            "city": "新余市",
            "district": "渝水区"
        }
    },
    {
        "id": "11957295727987419295",
        "title": "公共厕所",
        "address": "江西省新余市分宜县钤山镇黄毛洞瀑布景区",
        "tel": "",
        "category": "基础设施:公共设施:公共厕所",
        "type": 0,
        "location": {
            "lat": 27.627173,
            "lng": 114.555385
        },
        "ad_info": {
            "adcode": 360521,
            "province": "江西省",
            "city": "新余市",
            "district": "分宜县"
        }
    },
    {
        "id": "14135246181128216546",
        "title": "公共厕所",
        "address": "江西省新余市渝水区胜利南路与胡家一巷交叉口正西方向184米左右",
        "tel": "",
        "category": "基础设施:公共设施:公共厕所",
        "type": 0,
        "location": {
            "lat": 27.79567,
            "lng": 114.9367
        },
        "ad_info": {
            "adcode": 360502,
            "province": "江西省",
            "city": "新余市",
            "district": "渝水区"
        }
    },
    {
        "id": "12123421381831516875",
        "title": "公共厕所",
        "address": "江西省新余市渝水区清欢农业下保红美人基地南侧110米",
        "tel": "",
        "category": "基础设施:公共设施:公共厕所",
        "type": 0,
        "location": {
            "lat": 27.660446,
            "lng": 115.001433
        },
        "ad_info": {
            "adcode": 360502,
            "province": "江西省",
            "city": "新余市",
            "district": "渝水区"
        }
    },
    {
        "id": "1065389517877802820",
        "title": "公共厕所",
        "address": "江西省新余市渝水区兴沙巷与沙土街交叉口正东方向360米左右",
        "tel": "",
        "category": "基础设施:公共设施:公共厕所",
        "type": 0,
        "location": {
            "lat": 27.81643,
            "lng": 114.941713
        },
        "ad_info": {
            "adcode": 360502,
            "province": "江西省",
            "city": "新余市",
            "district": "渝水区"
        }
    },
    {
        "id": "5459427074680445449",
        "title": "公共厕所",
        "address": "江西省新余市渝水区S235与天工大桥连接线交叉口正北方向457米左右",
        "tel": "",
        "category": "基础设施:公共设施:公共厕所",
        "type": 0,
        "location": {
            "lat": 27.762617,
            "lng": 114.946804
        },
        "ad_info": {
            "adcode": 360502,
            "province": "江西省",
            "city": "新余市",
            "district": "渝水区"
        }
    },
    {
        "id": "17236529684872035797",
        "title": "公共厕所",
        "address": "江西省新余市渝水区槐江颐养之家东南侧50米",
        "tel": "",
        "category": "基础设施:公共设施:公共厕所",
        "type": 0,
        "location": {
            "lat": 27.85071,
            "lng": 115.074448
        },
        "ad_info": {
            "adcode": 360502,
            "province": "江西省",
            "city": "新余市",
            "district": "渝水区"
        }
    },
    {
        "id": "8708816375682952112",
        "title": "公共厕所",
        "address": "江西省新余市渝水区中山路与仰天岗大道交叉口正北方向39米左右",
        "tel": "",
        "category": "基础设施:公共设施:公共厕所",
        "type": 0,
        "location": {
            "lat": 27.835245,
            "lng": 114.937388
        },
        "ad_info": {
            "adcode": 360502,
            "province": "江西省",
            "city": "新余市",
            "district": "渝水区"
        }
    },
    {
        "id": "17798379018179452703",
        "title": "公共厕所",
        "address": "江西省新余市渝水区S312与X298交叉口正西方向351米左右",
        "tel": "",
        "category": "基础设施:公共设施:公共厕所",
        "type": 0,
        "location": {
            "lat": 27.764361,
            "lng": 114.886349
        },
        "ad_info": {
            "adcode": 360502,
            "province": "江西省",
            "city": "新余市",
            "district": "渝水区"
        }
    },
    {
        "id": "11988902124021877320",
        "title": "无障碍旅游公共厕所",
        "address": "江西省新余市渝水区摩尔庄园东侧",
        "tel": "",
        "category": "基础设施:公共设施:公共厕所",
        "type": 0,
        "location": {
            "lat": 27.870254,
            "lng": 114.907413
        },
        "ad_info": {
            "adcode": 360502,
            "province": "江西省",
            "city": "新余市",
            "district": "渝水区"
        }
    },
    {
        "id": "14606521193939297364",
        "title": "公共厕所",
        "address": "江西省新余市渝水区仰天岗西大道与太阳城路交叉口正北方向1151米左右",
        "tel": "",
        "category": "基础设施:公共设施:公共厕所",
        "type": 0,
        "location": {
            "lat": 27.841031,
            "lng": 114.897125
        },
        "ad_info": {
            "adcode": 360502,
            "province": "江西省",
            "city": "新余市",
            "district": "渝水区"
        }
    },
    {
        "id": "14397720302077630120",
        "title": "公共厕所",
        "address": "江西省新余市分宜县广府路与钤山东路交叉口西北方向142米左右",
        "tel": "",
        "category": "基础设施:公共设施:公共厕所",
        "type": 0,
        "location": {
            "lat": 27.817116,
            "lng": 114.690533
        },
        "ad_info": {
            "adcode": 360521,
            "province": "江西省",
            "city": "新余市",
            "district": "分宜县"
        }
    },
    {
        "id": "4475938994671778637",
        "title": "公共厕所",
        "address": "江西省新余市渝水区春龙大道与渝东大道交叉口东北方向45米左右",
        "tel": "",
        "category": "基础设施:公共设施:公共厕所",
        "type": 0,
        "location": {
            "lat": 27.823571,
            "lng": 114.983099
        },
        "ad_info": {
            "adcode": 360502,
            "province": "江西省",
            "city": "新余市",
            "district": "渝水区"
        }
    },
    {
        "id": "17225276620012561186",
        "title": "公共厕所",
        "address": "江西省新余市渝水区亚新北路与劳动南路交叉口西北方向53米左右",
        "tel": "",
        "category": "基础设施:公共设施:公共厕所",
        "type": 0,
        "location": {
            "lat": 27.803502,
            "lng": 114.934962
        },
        "ad_info": {
            "adcode": 360502,
            "province": "江西省",
            "city": "新余市",
            "district": "渝水区"
        }
    },
    {
        "id": "7937984733337061688",
        "title": "仙女湖服务区第二公共厕所",
        "address": "江西省新余市渝水区大广高速公路",
        "tel": "",
        "category": "基础设施:公共设施:公共厕所",
        "type": 0,
        "location": {
            "lat": 27.730611,
            "lng": 114.842931
        },
        "ad_info": {
            "adcode": 360502,
            "province": "江西省",
            "city": "新余市",
            "district": "渝水区"
        }
    },
    {
        "id": "17923214333212091779",
        "title": "公共厕所",
        "address": "江西省新余市渝水区天工南大道与天工大道交叉口正东方向48米左右",
        "tel": "",
        "category": "基础设施:公共设施:公共厕所",
        "type": 0,
        "location": {
            "lat": 27.811645,
            "lng": 114.897612
        },
        "ad_info": {
            "adcode": 360502,
            "province": "江西省",
            "city": "新余市",
            "district": "渝水区"
        }
    },
    {
        "id": "8917843232715426517",
        "title": "公共厕所",
        "address": "江西省新余市分宜县北环大道与天工北大道交叉口东南方向249米左右",
        "tel": "",
        "category": "基础设施:公共设施:公共厕所",
        "type": 0,
        "location": {
            "lat": 27.822409,
            "lng": 114.69039
        },
        "ad_info": {
            "adcode": 360521,
            "province": "江西省",
            "city": "新余市",
            "district": "分宜县"
        }
    },
    {
        "id": "3171462540828812488",
        "title": "公共厕所",
        "address": "江西省新余市渝水区S221中国石化上新加油站",
        "tel": "",
        "category": "基础设施:公共设施:公共厕所",
        "type": 0,
        "location": {
            "lat": 27.972711,
            "lng": 114.985727
        },
        "ad_info": {
            "adcode": 360502,
            "province": "江西省",
            "city": "新余市",
            "district": "渝水区"
        }
    },
    {
        "id": "16563553286970323607",
        "title": "公共厕所",
        "address": "江西省新余市分宜县洪阳北路与洪阳南路交叉口正南方向259米左右",
        "tel": "",
        "category": "基础设施:公共设施:公共厕所",
        "type": 0,
        "location": {
            "lat": 27.811273,
            "lng": 114.670468
        },
        "ad_info": {
            "adcode": 360521,
            "province": "江西省",
            "city": "新余市",
            "district": "分宜县"
        }
    },
    {
        "id": "14358210588751344507",
        "title": "公共厕所",
        "address": "江西省新余市分宜县广府路与钤山东路交叉口正西方向146米左右",
        "tel": "",
        "category": "基础设施:公共设施:公共厕所",
        "type": 0,
        "location": {
            "lat": 27.816895,
            "lng": 114.690387
        },
        "ad_info": {
            "adcode": 360521,
            "province": "江西省",
            "city": "新余市",
            "district": "分宜县"
        }
    },
    {
        "id": "7347211195602871709",
        "title": "公共厕所",
        "address": "江西省新余市渝水区北湖西路与长林路交叉口东北方向40米左右",
        "tel": "",
        "category": "基础设施:公共设施:公共厕所",
        "type": 0,
        "location": {
            "lat": 27.821589,
            "lng": 114.904541
        },
        "ad_info": {
            "adcode": 360502,
            "province": "江西省",
            "city": "新余市",
            "district": "渝水区"
        }
    },
    {
        "id": "11957295727987419295",
        "title": "公共厕所",
        "address": "江西省新余市分宜县钤山镇黄毛洞瀑布景区",
        "tel": "",
        "category": "基础设施:公共设施:公共厕所",
        "type": 0,
        "location": {
            "lat": 27.627173,
            "lng": 114.555385
        },
        "ad_info": {
            "adcode": 360521,
            "province": "江西省",
            "city": "新余市",
            "district": "分宜县"
        }
    },
    {
        "id": "14135246181128216546",
        "title": "公共厕所",
        "address": "江西省新余市渝水区胜利南路与胡家一巷交叉口正西方向184米左右",
        "tel": "",
        "category": "基础设施:公共设施:公共厕所",
        "type": 0,
        "location": {
            "lat": 27.79567,
            "lng": 114.9367
        },
        "ad_info": {
            "adcode": 360502,
            "province": "江西省",
            "city": "新余市",
            "district": "渝水区"
        }
    },
    {
        "id": "12123421381831516875",
        "title": "公共厕所",
        "address": "江西省新余市渝水区清欢农业下保红美人基地南侧110米",
        "tel": "",
        "category": "基础设施:公共设施:公共厕所",
        "type": 0,
        "location": {
            "lat": 27.660446,
            "lng": 115.001433
        },
        "ad_info": {
            "adcode": 360502,
            "province": "江西省",
            "city": "新余市",
            "district": "渝水区"
        }
    },
    {
        "id": "1065389517877802820",
        "title": "公共厕所",
        "address": "江西省新余市渝水区兴沙巷与沙土街交叉口正东方向360米左右",
        "tel": "",
        "category": "基础设施:公共设施:公共厕所",
        "type": 0,
        "location": {
            "lat": 27.81643,
            "lng": 114.941713
        },
        "ad_info": {
            "adcode": 360502,
            "province": "江西省",
            "city": "新余市",
            "district": "渝水区"
        }
    },
    {
        "id": "5459427074680445449",
        "title": "公共厕所",
        "address": "江西省新余市渝水区S235与天工大桥连接线交叉口正北方向457米左右",
        "tel": "",
        "category": "基础设施:公共设施:公共厕所",
        "type": 0,
        "location": {
            "lat": 27.762617,
            "lng": 114.946804
        },
        "ad_info": {
            "adcode": 360502,
            "province": "江西省",
            "city": "新余市",
            "district": "渝水区"
        }
    },
    {
        "id": "17236529684872035797",
        "title": "公共厕所",
        "address": "江西省新余市渝水区槐江颐养之家东南侧50米",
        "tel": "",
        "category": "基础设施:公共设施:公共厕所",
        "type": 0,
        "location": {
            "lat": 27.85071,
            "lng": 115.074448
        },
        "ad_info": {
            "adcode": 360502,
            "province": "江西省",
            "city": "新余市",
            "district": "渝水区"
        }
    },
    {
        "id": "8708816375682952112",
        "title": "公共厕所",
        "address": "江西省新余市渝水区中山路与仰天岗大道交叉口正北方向39米左右",
        "tel": "",
        "category": "基础设施:公共设施:公共厕所",
        "type": 0,
        "location": {
            "lat": 27.835245,
            "lng": 114.937388
        },
        "ad_info": {
            "adcode": 360502,
            "province": "江西省",
            "city": "新余市",
            "district": "渝水区"
        }
    },
    {
        "id": "17798379018179452703",
        "title": "公共厕所",
        "address": "江西省新余市渝水区S312与X298交叉口正西方向351米左右",
        "tel": "",
        "category": "基础设施:公共设施:公共厕所",
        "type": 0,
        "location": {
            "lat": 27.764361,
            "lng": 114.886349
        },
        "ad_info": {
            "adcode": 360502,
            "province": "江西省",
            "city": "新余市",
            "district": "渝水区"
        }
    },
    {
        "id": "11988902124021877320",
        "title": "无障碍旅游公共厕所",
        "address": "江西省新余市渝水区摩尔庄园东侧",
        "tel": "",
        "category": "基础设施:公共设施:公共厕所",
        "type": 0,
        "location": {
            "lat": 27.870254,
            "lng": 114.907413
        },
        "ad_info": {
            "adcode": 360502,
            "province": "江西省",
            "city": "新余市",
            "district": "渝水区"
        }
    },
    {
        "id": "14606521193939297364",
        "title": "公共厕所",
        "address": "江西省新余市渝水区仰天岗西大道与太阳城路交叉口正北方向1151米左右",
        "tel": "",
        "category": "基础设施:公共设施:公共厕所",
        "type": 0,
        "location": {
            "lat": 27.841031,
            "lng": 114.897125
        },
        "ad_info": {
            "adcode": 360502,
            "province": "江西省",
            "city": "新余市",
            "district": "渝水区"
        }
    },
    {
        "id": "14397720302077630120",
        "title": "公共厕所",
        "address": "江西省新余市分宜县广府路与钤山东路交叉口西北方向142米左右",
        "tel": "",
        "category": "基础设施:公共设施:公共厕所",
        "type": 0,
        "location": {
            "lat": 27.817116,
            "lng": 114.690533
        },
        "ad_info": {
            "adcode": 360521,
            "province": "江西省",
            "city": "新余市",
            "district": "分宜县"
        }
    },
    {
        "id": "4475938994671778637",
        "title": "公共厕所",
        "address": "江西省新余市渝水区春龙大道与渝东大道交叉口东北方向45米左右",
        "tel": "",
        "category": "基础设施:公共设施:公共厕所",
        "type": 0,
        "location": {
            "lat": 27.823571,
            "lng": 114.983099
        },
        "ad_info": {
            "adcode": 360502,
            "province": "江西省",
            "city": "新余市",
            "district": "渝水区"
        }
    }
]