[
    {
        "id": "2800762681341905379",
        "title": "公共厕所",
        "address": "西藏自治区日喀则市桑珠孜区上海广场内",
        "tel": "",
        "category": "基础设施:公共设施:公共厕所",
        "type": 0,
        "location": {
            "lat": 29.264405,
            "lng": 88.884201
        },
        "ad_info": {
            "adcode": 540202,
            "province": "西藏自治区",
            "city": "日喀则市",
            "district": "桑珠孜区"
        }
    },
    {
        "id": "8752363895411620197",
        "title": "公共厕所",
        "address": "西藏自治区日喀则市桑珠孜区几吉朗卡路与吉吉朗卡路交叉口正东方向276米左右",
        "tel": "",
        "category": "基础设施:公共设施:公共厕所",
        "type": 0,
        "location": {
            "lat": 29.25091,
            "lng": 88.857367
        },
        "ad_info": {
            "adcode": 540202,
            "province": "西藏自治区",
            "city": "日喀则市",
            "district": "桑珠孜区"
        }
    },
    {
        "id": "8461331212419942366",
        "title": "公共厕所",
        "address": "西藏自治区日喀则市桑珠孜区欧珠路与科技路交叉口正南方向78米左右",
        "tel": "",
        "category": "基础设施:公共设施:公共厕所",
        "type": 0,
        "location": {
            "lat": 29.266002,
            "lng": 88.887868
        },
        "ad_info": {
            "adcode": 540202,
            "province": "西藏自治区",
            "city": "日喀则市",
            "district": "桑珠孜区"
        }
    },
    {
        "id": "1087882341622368629",
        "title": "公共厕所",
        "address": "西藏自治区日喀则市桑珠孜区青岛路48号-附20号",
        "tel": "",
        "category": "基础设施:公共设施:公共厕所",
        "type": 0,
        "location": {
            "lat": 29.269528,
            "lng": 88.879787
        },
        "ad_info": {
            "adcode": 540202,
            "province": "西藏自治区",
            "city": "日喀则市",
            "district": "桑珠孜区"
        }
    },
    {
        "id": "13052367962545568174",
        "title": "公共厕所",
        "address": "西藏自治区日喀则市桑珠孜区上海中路与上海北路交叉口正北方向87米左右",
        "tel": "",
        "category": "基础设施:公共设施:公共厕所",
        "type": 0,
        "location": {
            "lat": 29.269933,
            "lng": 88.883067
        },
        "ad_info": {
            "adcode": 540202,
            "province": "西藏自治区",
            "city": "日喀则市",
            "district": "桑珠孜区"
        }
    },
    {
        "id": "6438285909156954130",
        "title": "公共厕所",
        "address": "西藏自治区日喀则市桑珠孜区扎德西路与普彰路交叉口东140米",
        "tel": "",
        "category": "基础设施:公共设施:公共厕所",
        "type": 0,
        "location": {
            "lat": 29.25447,
            "lng": 88.873164
        },
        "ad_info": {
            "adcode": 540202,
            "province": "西藏自治区",
            "city": "日喀则市",
            "district": "桑珠孜区"
        }
    },
    {
        "id": "14354754723399958070",
        "title": "公共厕所",
        "address": "西藏自治区日喀则市桑珠孜区黑龙江北路政务便民中心广场西北角",
        "tel": "",
        "category": "基础设施:公共设施:公共厕所",
        "type": 0,
        "location": {
            "lat": 29.278641,
            "lng": 88.886312
        },
        "ad_info": {
            "adcode": 540202,
            "province": "西藏自治区",
            "city": "日喀则市",
            "district": "桑珠孜区"
        }
    },
    {
        "id": "10111519737576868397",
        "title": "公共厕所",
        "address": "西藏自治区日喀则市桑珠孜区雪强支路与雪强路交叉口东北方向19米左右",
        "tel": "",
        "category": "基础设施:公共设施:公共厕所",
        "type": 0,
        "location": {
            "lat": 29.280522,
            "lng": 88.879395
        },
        "ad_info": {
            "adcode": 540202,
            "province": "西藏自治区",
            "city": "日喀则市",
            "district": "桑珠孜区"
        }
    },
    {
        "id": "7440278414391677660",
        "title": "公共厕所",
        "address": "西藏自治区日喀则市桑珠孜区扎德东路(公安安居旁边)",
        "tel": "",
        "category": "基础设施:公共设施:公共厕所",
        "type": 0,
        "location": {
            "lat": 29.257402,
            "lng": 88.896465
        },
        "ad_info": {
            "adcode": 540202,
            "province": "西藏自治区",
            "city": "日喀则市",
            "district": "桑珠孜区"
        }
    },
    {
        "id": "8234424615554970356",
        "title": "公共厕所",
        "address": "西藏自治区日喀则市桑珠孜区吉吉朗卡路与喜格孜风情街交叉口东南方向103米左右",
        "tel": "",
        "category": "基础设施:公共设施:公共厕所",
        "type": 0,
        "location": {
            "lat": 29.263077,
            "lng": 88.874602
        },
        "ad_info": {
            "adcode": 540202,
            "province": "西藏自治区",
            "city": "日喀则市",
            "district": "桑珠孜区"
        }
    },
    {
        "id": "8622051726776198445",
        "title": "公共厕所",
        "address": "西藏自治区日喀则市桑珠孜区上海北路与嘎曲门塘路交叉口东南方向75米左右",
        "tel": "",
        "category": "基础设施:公共设施:公共厕所",
        "type": 0,
        "location": {
            "lat": 29.275018,
            "lng": 88.882742
        },
        "ad_info": {
            "adcode": 540202,
            "province": "西藏自治区",
            "city": "日喀则市",
            "district": "桑珠孜区"
        }
    },
    {
        "id": "3009956794876304222",
        "title": "公共厕所",
        "address": "西藏自治区日喀则市桑珠孜区贡觉林支路德吉小区东侧",
        "tel": "",
        "category": "基础设施:公共设施:公共厕所",
        "type": 0,
        "location": {
            "lat": 29.272503,
            "lng": 88.892195
        },
        "ad_info": {
            "adcode": 540202,
            "province": "西藏自治区",
            "city": "日喀则市",
            "district": "桑珠孜区"
        }
    },
    {
        "id": "3292474981688206515",
        "title": "公共厕所",
        "address": "西藏自治区日喀则市桑珠孜区明珠湖",
        "tel": "",
        "category": "基础设施:公共设施:公共厕所",
        "type": 0,
        "location": {
            "lat": 29.272387,
            "lng": 88.894823
        },
        "ad_info": {
            "adcode": 540202,
            "province": "西藏自治区",
            "city": "日喀则市",
            "district": "桑珠孜区"
        }
    },
    {
        "id": "3682808540232341233",
        "title": "公共厕所",
        "address": "西藏自治区日喀则市桑珠孜区朗卡路与朗热路交叉口东北方向420米左右",
        "tel": "",
        "category": "基础设施:公共设施:公共厕所",
        "type": 0,
        "location": {
            "lat": 29.2564,
            "lng": 88.86305
        },
        "ad_info": {
            "adcode": 540202,
            "province": "西藏自治区",
            "city": "日喀则市",
            "district": "桑珠孜区"
        }
    },
    {
        "id": "15757447908214410649",
        "title": "公共厕所",
        "address": "西藏自治区日喀则市桑珠孜区龙江中路(格萨尔酒店对面)",
        "tel": "",
        "category": "基础设施:公共设施:公共厕所",
        "type": 0,
        "location": {
            "lat": 29.253289,
            "lng": 88.895324
        },
        "ad_info": {
            "adcode": 540202,
            "province": "西藏自治区",
            "city": "日喀则市",
            "district": "桑珠孜区"
        }
    },
    {
        "id": "8153254557397222433",
        "title": "公共厕所",
        "address": "西藏自治区日喀则市桑珠孜区仁布南路与曲荣门塘路交叉口正西方向15米左右",
        "tel": "",
        "category": "基础设施:公共设施:公共厕所",
        "type": 0,
        "location": {
            "lat": 29.273377,
            "lng": 88.885713
        },
        "ad_info": {
            "adcode": 540202,
            "province": "西藏自治区",
            "city": "日喀则市",
            "district": "桑珠孜区"
        }
    },
    {
        "id": "3182235465503250419",
        "title": "公共厕所",
        "address": "西藏自治区日喀则市桑珠孜区吉林中路扎德路十字路口(电信楼旁)",
        "tel": "",
        "category": "基础设施:公共设施:公共厕所",
        "type": 0,
        "location": {
            "lat": 29.25805,
            "lng": 88.895099
        },
        "ad_info": {
            "adcode": 540202,
            "province": "西藏自治区",
            "city": "日喀则市",
            "district": "桑珠孜区"
        }
    },
    {
        "id": "17263501290243947304",
        "title": "公共厕所",
        "address": "西藏自治区日喀则市桑珠孜区嘎曲门塘路与雪强路交叉口正北方向265米左右",
        "tel": "",
        "category": "基础设施:公共设施:公共厕所",
        "type": 0,
        "location": {
            "lat": 29.277958,
            "lng": 88.87966
        },
        "ad_info": {
            "adcode": 540202,
            "province": "西藏自治区",
            "city": "日喀则市",
            "district": "桑珠孜区"
        }
    },
    {
        "id": "978120189349973126",
        "title": "公共厕所",
        "address": "西藏自治区日喀则市仁布县仁布县检查站",
        "tel": "",
        "category": "基础设施:公共设施:公共厕所",
        "type": 0,
        "location": {
            "lat": 29.306934,
            "lng": 89.821953
        },
        "ad_info": {
            "adcode": 540229,
            "province": "西藏自治区",
            "city": "日喀则市",
            "district": "仁布县"
        }
    },
    {
        "id": "13498644768725234848",
        "title": "公共厕所",
        "address": "西藏自治区日喀则市桑珠孜区扎德东路与扎德中路交叉口正南方向20米左右",
        "tel": "",
        "category": "基础设施:公共设施:公共厕所",
        "type": 0,
        "location": {
            "lat": 29.256718,
            "lng": 88.893303
        },
        "ad_info": {
            "adcode": 540202,
            "province": "西藏自治区",
            "city": "日喀则市",
            "district": "桑珠孜区"
        }
    },
    {
        "id": "18113943612253961843",
        "title": "公共厕所",
        "address": "西藏自治区日喀则市桑珠孜区朗卡路平安驾校旁",
        "tel": "",
        "category": "基础设施:公共设施:公共厕所",
        "type": 0,
        "location": {
            "lat": 29.25875,
            "lng": 88.866446
        },
        "ad_info": {
            "adcode": 540202,
            "province": "西藏自治区",
            "city": "日喀则市",
            "district": "桑珠孜区"
        }
    },
    {
        "id": "2068414102659187544",
        "title": "公共厕所",
        "address": "西藏自治区日喀则市桑珠孜区嘎曲门塘路与黑龙江北路交叉口正西方向41米左右",
        "tel": "",
        "category": "基础设施:公共设施:公共厕所",
        "type": 0,
        "location": {
            "lat": 29.276358,
            "lng": 88.888481
        },
        "ad_info": {
            "adcode": 540202,
            "province": "西藏自治区",
            "city": "日喀则市",
            "district": "桑珠孜区"
        }
    },
    {
        "id": "11749876639787854555",
        "title": "公共厕所",
        "address": "西藏自治区日喀则市桑珠孜区嘎曲门塘路与雪强支路交叉口西南方向245米左右",
        "tel": "",
        "category": "基础设施:公共设施:公共厕所",
        "type": 0,
        "location": {
            "lat": 29.27429,
            "lng": 88.876801
        },
        "ad_info": {
            "adcode": 540202,
            "province": "西藏自治区",
            "city": "日喀则市",
            "district": "桑珠孜区"
        }
    },
    {
        "id": "7592455337220082988",
        "title": "公共厕所",
        "address": "西藏自治区日喀则市桑珠孜区G318与迎宾路交叉口正北方向519米左右",
        "tel": "",
        "category": "基础设施:公共设施:公共厕所",
        "type": 0,
        "location": {
            "lat": 29.276552,
            "lng": 88.903849
        },
        "ad_info": {
            "adcode": 540202,
            "province": "西藏自治区",
            "city": "日喀则市",
            "district": "桑珠孜区"
        }
    },
    {
        "id": "15044520200134661286",
        "title": "公共厕所",
        "address": "西藏自治区日喀则市桑珠孜区仁布南路与曲荣门塘路交叉口正南方向121米左右",
        "tel": "",
        "category": "基础设施:公共设施:公共厕所",
        "type": 0,
        "location": {
            "lat": 29.272247,
            "lng": 88.886029
        },
        "ad_info": {
            "adcode": 540202,
            "province": "西藏自治区",
            "city": "日喀则市",
            "district": "桑珠孜区"
        }
    },
    {
        "id": "11822816807268341557",
        "title": "公共厕所",
        "address": "西藏自治区日喀则市桑珠孜区曲荣门塘路与黑龙江北路交叉口西南方向93米左右",
        "tel": "",
        "category": "基础设施:公共设施:公共厕所",
        "type": 0,
        "location": {
            "lat": 29.273874,
            "lng": 88.888301
        },
        "ad_info": {
            "adcode": 540202,
            "province": "西藏自治区",
            "city": "日喀则市",
            "district": "桑珠孜区"
        }
    },
    {
        "id": "530334630051544230",
        "title": "公共厕所",
        "address": "西藏自治区日喀则市桑珠孜区G349与雪强路交叉口正西方向89米左右",
        "tel": "",
        "category": "基础设施:公共设施:公共厕所",
        "type": 0,
        "location": {
            "lat": 29.29405,
            "lng": 88.873487
        },
        "ad_info": {
            "adcode": 540202,
            "province": "西藏自治区",
            "city": "日喀则市",
            "district": "桑珠孜区"
        }
    },
    {
        "id": "17078461964042842201",
        "title": "公共厕所",
        "address": "西藏自治区日喀则市拉孜县闸北路拉孜县民政综合楼",
        "tel": "",
        "category": "基础设施:公共设施:公共厕所",
        "type": 0,
        "location": {
            "lat": 29.086056,
            "lng": 87.634819
        },
        "ad_info": {
            "adcode": 540225,
            "province": "西藏自治区",
            "city": "日喀则市",
            "district": "拉孜县"
        }
    },
    {
        "id": "3031500781989229251",
        "title": "公共厕所",
        "address": "西藏自治区日喀则市桑珠孜区G318与迎宾路交叉口西南方向14米左右",
        "tel": "",
        "category": "基础设施:公共设施:公共厕所",
        "type": 0,
        "location": {
            "lat": 29.271956,
            "lng": 88.902288
        },
        "ad_info": {
            "adcode": 540202,
            "province": "西藏自治区",
            "city": "日喀则市",
            "district": "桑珠孜区"
        }
    },
    {
        "id": "4720973669403677356",
        "title": "公共厕所",
        "address": "西藏自治区日喀则市桑珠孜区黑龙江南路与龙江路交叉口正东方向202米左右",
        "tel": "",
        "category": "基础设施:公共设施:公共厕所",
        "type": 0,
        "location": {
            "lat": 29.253571,
            "lng": 88.895193
        },
        "ad_info": {
            "adcode": 540202,
            "province": "西藏自治区",
            "city": "日喀则市",
            "district": "桑珠孜区"
        }
    },
    {
        "id": "6204915308854101691",
        "title": "公共厕所",
        "address": "西藏自治区日喀则市桑珠孜区那卡路与龙江路交叉口正东方向72米左右",
        "tel": "",
        "category": "基础设施:公共设施:公共厕所",
        "type": 0,
        "location": {
            "lat": 29.252513,
            "lng": 88.891745
        },
        "ad_info": {
            "adcode": 540202,
            "province": "西藏自治区",
            "city": "日喀则市",
            "district": "桑珠孜区"
        }
    },
    {
        "id": "14344482083999692793",
        "title": "公共厕所",
        "address": "西藏自治区日喀则市桑珠孜区雪强路波姆庆居委会",
        "tel": "",
        "category": "基础设施:公共设施:公共厕所",
        "type": 0,
        "location": {
            "lat": 29.283895,
            "lng": 88.879279
        },
        "ad_info": {
            "adcode": 540202,
            "province": "西藏自治区",
            "city": "日喀则市",
            "district": "桑珠孜区"
        }
    },
    {
        "id": "3044667308469216960",
        "title": "公共厕所",
        "address": "西藏自治区日喀则市桑珠孜区幸福B门口",
        "tel": "",
        "category": "基础设施:公共设施:公共厕所",
        "type": 0,
        "location": {
            "lat": 29.281869,
            "lng": 88.887773
        },
        "ad_info": {
            "adcode": 540202,
            "province": "西藏自治区",
            "city": "日喀则市",
            "district": "桑珠孜区"
        }
    },
    {
        "id": "13819083617769165500",
        "title": "公共厕所",
        "address": "西藏自治区日喀则市桑珠孜区黑龙江北路幸福家园-A区",
        "tel": "",
        "category": "基础设施:公共设施:公共厕所",
        "type": 0,
        "location": {
            "lat": 29.279936,
            "lng": 88.888331
        },
        "ad_info": {
            "adcode": 540202,
            "province": "西藏自治区",
            "city": "日喀则市",
            "district": "桑珠孜区"
        }
    },
    {
        "id": "7594316661823844029",
        "title": "公共厕所",
        "address": "西藏自治区日喀则市桑珠孜区仁布路与江夏路交叉口正西方向262米左右",
        "tel": "",
        "category": "基础设施:公共设施:公共厕所",
        "type": 0,
        "location": {
            "lat": 29.279054,
            "lng": 88.881685
        },
        "ad_info": {
            "adcode": 540202,
            "province": "西藏自治区",
            "city": "日喀则市",
            "district": "桑珠孜区"
        }
    },
    {
        "id": "8509877397884962994",
        "title": "公共厕所",
        "address": "西藏自治区日喀则市桑珠孜区仁布南路与曲荣门塘路交叉口正南方向45米左右",
        "tel": "",
        "category": "基础设施:公共设施:公共厕所",
        "type": 0,
        "location": {
            "lat": 29.272935,
            "lng": 88.885983
        },
        "ad_info": {
            "adcode": 540202,
            "province": "西藏自治区",
            "city": "日喀则市",
            "district": "桑珠孜区"
        }
    },
    {
        "id": "12237511869275420935",
        "title": "公共厕所",
        "address": "西藏自治区日喀则市桑珠孜区新宫路克隆沟旁",
        "tel": "",
        "category": "基础设施:公共设施:公共厕所",
        "type": 0,
        "location": {
            "lat": 29.259336,
            "lng": 88.871857
        },
        "ad_info": {
            "adcode": 540202,
            "province": "西藏自治区",
            "city": "日喀则市",
            "district": "桑珠孜区"
        }
    },
    {
        "id": "4722252781171782396",
        "title": "公共厕所",
        "address": "西藏自治区日喀则市桑珠孜区嘎曲门塘路幼儿园东侧",
        "tel": "",
        "category": "基础设施:公共设施:公共厕所",
        "type": 0,
        "location": {
            "lat": 29.277465,
            "lng": 88.891385
        },
        "ad_info": {
            "adcode": 540202,
            "province": "西藏自治区",
            "city": "日喀则市",
            "district": "桑珠孜区"
        }
    },
    {
        "id": "12140512310684793089",
        "title": "公共厕所",
        "address": "西藏自治区日喀则市江孜县卫国路与长宁路交叉口西北方向328米左右",
        "tel": "",
        "category": "基础设施:公共设施:公共厕所",
        "type": 0,
        "location": {
            "lat": 28.913,
            "lng": 89.603652
        },
        "ad_info": {
            "adcode": 540222,
            "province": "西藏自治区",
            "city": "日喀则市",
            "district": "江孜县"
        }
    },
    {
        "id": "208972458279822644",
        "title": "公共厕所",
        "address": "西藏自治区日喀则市定日县境珠峰观景台旁边",
        "tel": "",
        "category": "基础设施:公共设施:公共厕所",
        "type": 0,
        "location": {
            "lat": 28.499603,
            "lng": 87.069846
        },
        "ad_info": {
            "adcode": 540223,
            "province": "西藏自治区",
            "city": "日喀则市",
            "district": "定日县"
        }
    },
    {
        "id": "10309721345901906245",
        "title": "公共厕所",
        "address": "西藏自治区日喀则市仲巴县幸福路与白沙河堤东路交叉口正西方向361米左右",
        "tel": "",
        "category": "基础设施:公共设施:公共厕所",
        "type": 0,
        "location": {
            "lat": 29.765467,
            "lng": 84.033503
        },
        "ad_info": {
            "adcode": 540232,
            "province": "西藏自治区",
            "city": "日喀则市",
            "district": "仲巴县"
        }
    },
    {
        "id": "640852152101348620",
        "title": "公共厕所",
        "address": "西藏自治区日喀则市桑珠孜区扎寺广场西面",
        "tel": "",
        "category": "基础设施:公共设施:公共厕所",
        "type": 0,
        "location": {
            "lat": 29.262175,
            "lng": 88.872461
        },
        "ad_info": {
            "adcode": 540202,
            "province": "西藏自治区",
            "city": "日喀则市",
            "district": "桑珠孜区"
        }
    },
    {
        "id": "17029235063744200095",
        "title": "公共厕所",
        "address": "西藏自治区日喀则市桑珠孜区江当乡拉圭村恩贡寺停车场旁",
        "tel": "",
        "category": "基础设施:公共设施:公共厕所",
        "type": 0,
        "location": {
            "lat": 29.302913,
            "lng": 89.183287
        },
        "ad_info": {
            "adcode": 540202,
            "province": "西藏自治区",
            "city": "日喀则市",
            "district": "桑珠孜区"
        }
    },
    {
        "id": "8133506703488671336",
        "title": "公共厕所",
        "address": "西藏自治区日喀则市桑珠孜区甲措雄乡夏鲁村日布寺停车场旁",
        "tel": "",
        "category": "基础设施:公共设施:公共厕所",
        "type": 0,
        "location": {
            "lat": 29.115598,
            "lng": 88.97218
        },
        "ad_info": {
            "adcode": 540202,
            "province": "西藏自治区",
            "city": "日喀则市",
            "district": "桑珠孜区"
        }
    },
    {
        "id": "16261145962816962327",
        "title": "公共厕所",
        "address": "西藏自治区日喀则市定日县珠峰大本营绒布寺下面",
        "tel": "",
        "category": "基础设施:公共设施:公共厕所",
        "type": 0,
        "location": {
            "lat": 28.192394,
            "lng": 86.828383
        },
        "ad_info": {
            "adcode": 540223,
            "province": "西藏自治区",
            "city": "日喀则市",
            "district": "定日县"
        }
    },
    {
        "id": "15967884263457776439",
        "title": "公共厕所",
        "address": "西藏自治区日喀则市桑珠孜区纳唐村纳塘寺停车场旁",
        "tel": "",
        "category": "基础设施:公共设施:公共厕所",
        "type": 0,
        "location": {
            "lat": 29.192324,
            "lng": 88.764856
        },
        "ad_info": {
            "adcode": 540202,
            "province": "西藏自治区",
            "city": "日喀则市",
            "district": "桑珠孜区"
        }
    },
    {
        "id": "4660048206697041226",
        "title": "公共厕所",
        "address": "西藏自治区日喀则市定日县珠峰大本营",
        "tel": "",
        "category": "基础设施:公共设施:公共厕所",
        "type": 0,
        "location": {
            "lat": 28.188848,
            "lng": 86.829906
        },
        "ad_info": {
            "adcode": 540223,
            "province": "西藏自治区",
            "city": "日喀则市",
            "district": "定日县"
        }
    },
    {
        "id": "4324519343313481678",
        "title": "公共厕所",
        "address": "西藏自治区日喀则市萨迦县宗果北路与格桑中路交叉口正南方向75米左右",
        "tel": "",
        "category": "基础设施:公共设施:公共厕所",
        "type": 0,
        "location": {
            "lat": 28.902255,
            "lng": 88.021708
        },
        "ad_info": {
            "adcode": 540224,
            "province": "西藏自治区",
            "city": "日喀则市",
            "district": "萨迦县"
        }
    },
    {
        "id": "16341473397708516492",
        "title": "公共厕所",
        "address": "西藏自治区日喀则市桑珠孜区204省道北50米",
        "tel": "",
        "category": "基础设施:公共设施:公共厕所",
        "type": 0,
        "location": {
            "lat": 29.15444,
            "lng": 89.03021
        },
        "ad_info": {
            "adcode": 540202,
            "province": "西藏自治区",
            "city": "日喀则市",
            "district": "桑珠孜区"
        }
    },
    {
        "id": "9057251914209986630",
        "title": "公共厕所",
        "address": "西藏自治区日喀则市康马县日亚公路与雄章路交叉口东南方向37米左右",
        "tel": "",
        "category": "基础设施:公共设施:公共厕所",
        "type": 0,
        "location": {
            "lat": 28.555185,
            "lng": 89.677658
        },
        "ad_info": {
            "adcode": 540230,
            "province": "西藏自治区",
            "city": "日喀则市",
            "district": "康马县"
        }
    },
    {
        "id": "5392979745092971163",
        "title": "76号公共厕所",
        "address": "西藏自治区日喀则市桑珠孜区体育支路与体育路交叉口西南方向52米左右",
        "tel": "",
        "category": "基础设施:公共设施:公共厕所",
        "type": 0,
        "location": {
            "lat": 29.25673,
            "lng": 88.877674
        },
        "ad_info": {
            "adcode": 540202,
            "province": "西藏自治区",
            "city": "日喀则市",
            "district": "桑珠孜区"
        }
    },
    {
        "id": "13613465212055027701",
        "title": "公共厕所",
        "address": "西藏自治区日喀则市吉隆县吉甫峡谷",
        "tel": "",
        "category": "基础设施:公共设施:公共厕所",
        "type": 0,
        "location": {
            "lat": 28.374867,
            "lng": 85.328644
        },
        "ad_info": {
            "adcode": 540234,
            "province": "西藏自治区",
            "city": "日喀则市",
            "district": "吉隆县"
        }
    },
    {
        "id": "4780691547905995749",
        "title": "公共厕所",
        "address": "西藏自治区日喀则市萨嘎县伦珠路与格桑路交叉口正南方向114米左右",
        "tel": "",
        "category": "基础设施:公共设施:公共厕所",
        "type": 0,
        "location": {
            "lat": 29.326601,
            "lng": 85.233231
        },
        "ad_info": {
            "adcode": 540236,
            "province": "西藏自治区",
            "city": "日喀则市",
            "district": "萨嘎县"
        }
    },
    {
        "id": "1011389882671098228",
        "title": "公共厕所",
        "address": "西藏自治区日喀则市仁布县G318与仁布大桥交叉口东南方向65米左右",
        "tel": "",
        "category": "基础设施:公共设施:公共厕所",
        "type": 0,
        "location": {
            "lat": 29.296482,
            "lng": 89.799218
        },
        "ad_info": {
            "adcode": 540229,
            "province": "西藏自治区",
            "city": "日喀则市",
            "district": "仁布县"
        }
    },
    {
        "id": "10432193598475214979",
        "title": "公共厕所",
        "address": "西藏自治区日喀则市定日县珠峰换车点",
        "tel": "",
        "category": "基础设施:公共设施:公共厕所",
        "type": 0,
        "location": {
            "lat": 28.306014,
            "lng": 86.893013
        },
        "ad_info": {
            "adcode": 540223,
            "province": "西藏自治区",
            "city": "日喀则市",
            "district": "定日县"
        }
    },
    {
        "id": "17083576861828927136",
        "title": "公共厕所",
        "address": "西藏自治区日喀则市南木林县562国道东南30米",
        "tel": "",
        "category": "基础设施:公共设施:公共厕所",
        "type": 0,
        "location": {
            "lat": 30.077456,
            "lng": 89.113992
        },
        "ad_info": {
            "adcode": 540221,
            "province": "西藏自治区",
            "city": "日喀则市",
            "district": "南木林县"
        }
    },
    {
        "id": "12352155025622056143",
        "title": "公共厕所",
        "address": "西藏自治区日喀则市江孜县G349与G562交叉口正东方向49米左右",
        "tel": "",
        "category": "基础设施:公共设施:公共厕所",
        "type": 0,
        "location": {
            "lat": 28.896421,
            "lng": 89.592614
        },
        "ad_info": {
            "adcode": 540222,
            "province": "西藏自治区",
            "city": "日喀则市",
            "district": "江孜县"
        }
    },
    {
        "id": "13115490574726073316",
        "title": "公共厕所",
        "address": "西藏自治区日喀则市仁布县双拥街与双拥路交叉口正东方向69米左右",
        "tel": "",
        "category": "基础设施:公共设施:公共厕所",
        "type": 0,
        "location": {
            "lat": 29.229048,
            "lng": 89.843882
        },
        "ad_info": {
            "adcode": 540229,
            "province": "西藏自治区",
            "city": "日喀则市",
            "district": "仁布县"
        }
    },
    {
        "id": "10343281777100470811",
        "title": "公共厕所",
        "address": "西藏自治区日喀则市萨迦县宗果北路与格桑中路交叉口正东方向19米左右",
        "tel": "",
        "category": "基础设施:公共设施:公共厕所",
        "type": 0,
        "location": {
            "lat": 28.902934,
            "lng": 88.021738
        },
        "ad_info": {
            "adcode": 540224,
            "province": "西藏自治区",
            "city": "日喀则市",
            "district": "萨迦县"
        }
    },
    {
        "id": "1672680364144158752",
        "title": "47号公共厕所",
        "address": "西藏自治区日喀则市桑珠孜区山东中路与山东南路交叉口正南方向326米左右",
        "tel": "",
        "category": "基础设施:公共设施:公共厕所",
        "type": 0,
        "location": {
            "lat": 29.252532,
            "lng": 88.883304
        },
        "ad_info": {
            "adcode": 540202,
            "province": "西藏自治区",
            "city": "日喀则市",
            "district": "桑珠孜区"
        }
    },
    {
        "id": "17419231955427920810",
        "title": "公共厕所",
        "address": "西藏自治区日喀则市昂仁县G219与G349交叉口正东方向1201米",
        "tel": "",
        "category": "基础设施:公共设施:公共厕所",
        "type": 0,
        "location": {
            "lat": 29.419553,
            "lng": 86.731671
        },
        "ad_info": {
            "adcode": 540226,
            "province": "西藏自治区",
            "city": "日喀则市",
            "district": "昂仁县"
        }
    },
    {
        "id": "3486828071173399819",
        "title": "扎什伦布寺-公共厕所",
        "address": "西藏自治区日喀则市桑珠孜区体育路与珠峰西路交叉口正西方向164米左右",
        "tel": "",
        "category": "基础设施:公共设施:公共厕所",
        "type": 0,
        "location": {
            "lat": 29.263324,
            "lng": 88.876392
        },
        "ad_info": {
            "adcode": 540202,
            "province": "西藏自治区",
            "city": "日喀则市",
            "district": "桑珠孜区"
        }
    },
    {
        "id": "1468858644384030153",
        "title": "公共厕所",
        "address": "西藏自治区日喀则市萨嘎县德吉路与格桑路交叉口正南方向160米左右",
        "tel": "",
        "category": "基础设施:公共设施:公共厕所",
        "type": 0,
        "location": {
            "lat": 29.326139,
            "lng": 85.236762
        },
        "ad_info": {
            "adcode": 540236,
            "province": "西藏自治区",
            "city": "日喀则市",
            "district": "萨嘎县"
        }
    },
    {
        "id": "16059947709854606746",
        "title": "公共厕所",
        "address": "西藏自治区日喀则市江孜县上海中路与英雄中路交叉口正西方向174米左右",
        "tel": "",
        "category": "基础设施:公共设施:公共厕所",
        "type": 0,
        "location": {
            "lat": 28.90834,
            "lng": 89.601482
        },
        "ad_info": {
            "adcode": 540222,
            "province": "西藏自治区",
            "city": "日喀则市",
            "district": "江孜县"
        }
    },
    {
        "id": "4422959445237355482",
        "title": "公共厕所",
        "address": "西藏自治区日喀则市昂仁县达加路淄博人民公园(西侧)",
        "tel": "",
        "category": "基础设施:公共设施:公共厕所",
        "type": 0,
        "location": {
            "lat": 29.294537,
            "lng": 87.232042
        },
        "ad_info": {
            "adcode": 540226,
            "province": "西藏自治区",
            "city": "日喀则市",
            "district": "昂仁县"
        }
    },
    {
        "id": "5366757007685876355",
        "title": "公共厕所",
        "address": "西藏自治区日喀则市谢通门县通门乡坚白村",
        "tel": "",
        "category": "基础设施:公共设施:公共厕所",
        "type": 0,
        "location": {
            "lat": 29.432046,
            "lng": 88.202815
        },
        "ad_info": {
            "adcode": 540227,
            "province": "西藏自治区",
            "city": "日喀则市",
            "district": "谢通门县"
        }
    },
    {
        "id": "13502514383623297988",
        "title": "公共厕所",
        "address": "西藏自治区日喀则市萨迦县萨迦县中学东校区",
        "tel": "",
        "category": "基础设施:公共设施:公共厕所",
        "type": 0,
        "location": {
            "lat": 28.898542,
            "lng": 88.026256
        },
        "ad_info": {
            "adcode": 540224,
            "province": "西藏自治区",
            "city": "日喀则市",
            "district": "萨迦县"
        }
    },
    {
        "id": "11279564144496349187",
        "title": "公共厕所",
        "address": "西藏自治区日喀则市谢通门县G349与解放南路交叉口正南方向1850米左右",
        "tel": "",
        "category": "基础设施:公共设施:公共厕所",
        "type": 0,
        "location": {
            "lat": 29.404297,
            "lng": 88.25931
        },
        "ad_info": {
            "adcode": 540227,
            "province": "西藏自治区",
            "city": "日喀则市",
            "district": "谢通门县"
        }
    },
    {
        "id": "528119605108515649",
        "title": "公共厕所",
        "address": "西藏自治区日喀则市定日县G219与珠峰路交叉口东南方向112米左右",
        "tel": "",
        "category": "基础设施:公共设施:公共厕所",
        "type": 0,
        "location": {
            "lat": 28.587092,
            "lng": 87.081712
        },
        "ad_info": {
            "adcode": 540223,
            "province": "西藏自治区",
            "city": "日喀则市",
            "district": "定日县"
        }
    },
    {
        "id": "2961980690218503426",
        "title": "公共厕所",
        "address": "西藏自治区日喀则市康马县少岗乡少岗摩崖石刻佛像群景区",
        "tel": "",
        "category": "基础设施:公共设施:公共厕所",
        "type": 0,
        "location": {
            "lat": 28.71368,
            "lng": 89.651333
        },
        "ad_info": {
            "adcode": 540230,
            "province": "西藏自治区",
            "city": "日喀则市",
            "district": "康马县"
        }
    },
    {
        "id": "427690008909423498",
        "title": "公共厕所",
        "address": "西藏自治区日喀则市江孜县上海中路与上海路交叉口正西方向110米左右",
        "tel": "",
        "category": "基础设施:公共设施:公共厕所",
        "type": 0,
        "location": {
            "lat": 28.90812,
            "lng": 89.606973
        },
        "ad_info": {
            "adcode": 540222,
            "province": "西藏自治区",
            "city": "日喀则市",
            "district": "江孜县"
        }
    },
    {
        "id": "11171870918594339367",
        "title": "公共厕所",
        "address": "西藏自治区日喀则市白朗县朗萨西路与颇罗鼐大道交叉口东南方向74米左右",
        "tel": "",
        "category": "基础设施:公共设施:公共厕所",
        "type": 0,
        "location": {
            "lat": 29.105184,
            "lng": 89.262689
        },
        "ad_info": {
            "adcode": 540228,
            "province": "西藏自治区",
            "city": "日喀则市",
            "district": "白朗县"
        }
    },
    {
        "id": "2213811465860751380",
        "title": "公共厕所",
        "address": "西藏自治区日喀则市康马县G562与大庆路交叉口正北方向744米左右",
        "tel": "",
        "category": "基础设施:公共设施:公共厕所",
        "type": 0,
        "location": {
            "lat": 28.56867,
            "lng": 89.677615
        },
        "ad_info": {
            "adcode": 540230,
            "province": "西藏自治区",
            "city": "日喀则市",
            "district": "康马县"
        }
    },
    {
        "id": "856519176289807005",
        "title": "公共厕所",
        "address": "西藏自治区日喀则市亚东县团结路与滨河东路交叉口正东方向24米左右",
        "tel": "",
        "category": "基础设施:公共设施:公共厕所",
        "type": 0,
        "location": {
            "lat": 27.479412,
            "lng": 88.907151
        },
        "ad_info": {
            "adcode": 540233,
            "province": "西藏自治区",
            "city": "日喀则市",
            "district": "亚东县"
        }
    },
    {
        "id": "6140170996297707399",
        "title": "71号公共厕所",
        "address": "西藏自治区日喀则市桑珠孜区黑龙江中路消防大队旁(金塔集团职工宿舍楼)",
        "tel": "",
        "category": "基础设施:公共设施:公共厕所",
        "type": 0,
        "location": {
            "lat": 29.259484,
            "lng": 88.891391
        },
        "ad_info": {
            "adcode": 540202,
            "province": "西藏自治区",
            "city": "日喀则市",
            "district": "桑珠孜区"
        }
    },
    {
        "id": "18058832294216562000",
        "title": "公共厕所",
        "address": "西藏自治区日喀则市仁布县拉亚路与新兴街交叉口西南方向19米左右",
        "tel": "",
        "category": "基础设施:公共设施:公共厕所",
        "type": 0,
        "location": {
            "lat": 29.224984,
            "lng": 89.849058
        },
        "ad_info": {
            "adcode": 540229,
            "province": "西藏自治区",
            "city": "日喀则市",
            "district": "仁布县"
        }
    },
    {
        "id": "3468710013466140784",
        "title": "公共厕所",
        "address": "西藏自治区日喀则市定日县318国道",
        "tel": "",
        "category": "基础设施:公共设施:公共厕所",
        "type": 0,
        "location": {
            "lat": 28.595162,
            "lng": 86.804897
        },
        "ad_info": {
            "adcode": 540223,
            "province": "西藏自治区",
            "city": "日喀则市",
            "district": "定日县"
        }
    },
    {
        "id": "3807103291226117541",
        "title": "公共厕所",
        "address": "西藏自治区日喀则市定结县日屋路与郭加路交叉口正西方向235米左右",
        "tel": "",
        "category": "基础设施:公共设施:公共厕所",
        "type": 0,
        "location": {
            "lat": 28.363491,
            "lng": 87.761882
        },
        "ad_info": {
            "adcode": 540231,
            "province": "西藏自治区",
            "city": "日喀则市",
            "district": "定结县"
        }
    },
    {
        "id": "15202034582855350582",
        "title": "公共厕所",
        "address": "西藏自治区日喀则市亚东县上亚东乡汝丙岗村",
        "tel": "",
        "category": "基础设施:公共设施:公共厕所",
        "type": 0,
        "location": {
            "lat": 27.513343,
            "lng": 88.966297
        },
        "ad_info": {
            "adcode": 540233,
            "province": "西藏自治区",
            "city": "日喀则市",
            "district": "亚东县"
        }
    },
    {
        "id": "2518113536868761416",
        "title": "公共厕所",
        "address": "西藏自治区日喀则市昂仁县桑珠格丹寺景区",
        "tel": "",
        "category": "基础设施:公共设施:公共厕所",
        "type": 0,
        "location": {
            "lat": 29.360272,
            "lng": 87.420158
        },
        "ad_info": {
            "adcode": 540226,
            "province": "西藏自治区",
            "city": "日喀则市",
            "district": "昂仁县"
        }
    },
    {
        "id": "3400715234066635125",
        "title": "公共厕所",
        "address": "西藏自治区日喀则市南木林县奴玛乡热拉村热拉雍仲林寺入口处",
        "tel": "",
        "category": "基础设施:公共设施:公共厕所",
        "type": 0,
        "location": {
            "lat": 29.354002,
            "lng": 89.650131
        },
        "ad_info": {
            "adcode": 540221,
            "province": "西藏自治区",
            "city": "日喀则市",
            "district": "南木林县"
        }
    },
    {
        "id": "16624033990216944209",
        "title": "公共厕所",
        "address": "西藏自治区日喀则市亚东县上亚东乡汝丙岗村东嘎寺旁",
        "tel": "",
        "category": "基础设施:公共设施:公共厕所",
        "type": 0,
        "location": {
            "lat": 27.514145,
            "lng": 88.966425
        },
        "ad_info": {
            "adcode": 540233,
            "province": "西藏自治区",
            "city": "日喀则市",
            "district": "亚东县"
        }
    },
    {
        "id": "9036824304537384059",
        "title": "公共厕所",
        "address": "西藏自治区日喀则市白朗县G349与日江路交叉口西北方向1548米左右",
        "tel": "",
        "category": "基础设施:公共设施:公共厕所",
        "type": 0,
        "location": {
            "lat": 29.128846,
            "lng": 89.250752
        },
        "ad_info": {
            "adcode": 540228,
            "province": "西藏自治区",
            "city": "日喀则市",
            "district": "白朗县"
        }
    },
    {
        "id": "15302756053830545913",
        "title": "公共厕所",
        "address": "西藏自治区日喀则市昂仁县S209与S513交叉口东北方向1835米左右",
        "tel": "",
        "category": "基础设施:公共设施:公共厕所",
        "type": 0,
        "location": {
            "lat": 29.192803,
            "lng": 86.626428
        },
        "ad_info": {
            "adcode": 540226,
            "province": "西藏自治区",
            "city": "日喀则市",
            "district": "昂仁县"
        }
    },
    {
        "id": "12700715487999109947",
        "title": "公共厕所",
        "address": "西藏自治区日喀则市白朗县珠峰现代农业科技创新博览园内",
        "tel": "",
        "category": "基础设施:公共设施:公共厕所",
        "type": 0,
        "location": {
            "lat": 29.116636,
            "lng": 89.258682
        },
        "ad_info": {
            "adcode": 540228,
            "province": "西藏自治区",
            "city": "日喀则市",
            "district": "白朗县"
        }
    },
    {
        "id": "3380125581833546602",
        "title": "公共厕所",
        "address": "西藏自治区日喀则市亚东县帕里镇日琼波多寺景点",
        "tel": "",
        "category": "基础设施:公共设施:公共厕所",
        "type": 0,
        "location": {
            "lat": 27.721044,
            "lng": 89.165151
        },
        "ad_info": {
            "adcode": 540233,
            "province": "西藏自治区",
            "city": "日喀则市",
            "district": "亚东县"
        }
    },
    {
        "id": "6165093566155711439",
        "title": "公共厕所",
        "address": "西藏自治区日喀则市定结县曲果德庆林寺",
        "tel": "",
        "category": "基础设施:公共设施:公共厕所",
        "type": 0,
        "location": {
            "lat": 28.186258,
            "lng": 87.744107
        },
        "ad_info": {
            "adcode": 540231,
            "province": "西藏自治区",
            "city": "日喀则市",
            "district": "定结县"
        }
    },
    {
        "id": "14857241315442812682",
        "title": "公共厕所",
        "address": "西藏自治区日喀则市南木林县人民路与鲁定路交叉口正北方向151米左右",
        "tel": "",
        "category": "基础设施:公共设施:公共厕所",
        "type": 0,
        "location": {
            "lat": 29.684672,
            "lng": 89.097475
        },
        "ad_info": {
            "adcode": 540221,
            "province": "西藏自治区",
            "city": "日喀则市",
            "district": "南木林县"
        }
    },
    {
        "id": "17741966722402862137",
        "title": "公共厕所",
        "address": "西藏自治区日喀则市江孜县S204",
        "tel": "",
        "category": "基础设施:公共设施:公共厕所",
        "type": 0,
        "location": {
            "lat": 28.983794,
            "lng": 89.507195
        },
        "ad_info": {
            "adcode": 540222,
            "province": "西藏自治区",
            "city": "日喀则市",
            "district": "江孜县"
        }
    },
    {
        "id": "14170783792834219178",
        "title": "公共厕所",
        "address": "西藏自治区日喀则市南木林县人民路与湘河北路交叉口西南方向180米左右",
        "tel": "",
        "category": "基础设施:公共设施:公共厕所",
        "type": 0,
        "location": {
            "lat": 29.680576,
            "lng": 89.09766
        },
        "ad_info": {
            "adcode": 540221,
            "province": "西藏自治区",
            "city": "日喀则市",
            "district": "南木林县"
        }
    },
    {
        "id": "3996594228139129075",
        "title": "公共厕所",
        "address": "西藏自治区日喀则市南木林县人民路19号",
        "tel": "",
        "category": "基础设施:公共设施:公共厕所",
        "type": 0,
        "location": {
            "lat": 29.682996,
            "lng": 89.096216
        },
        "ad_info": {
            "adcode": 540221,
            "province": "西藏自治区",
            "city": "日喀则市",
            "district": "南木林县"
        }
    },
    {
        "id": "7678986322000141986",
        "title": "无障碍公共厕所",
        "address": "西藏自治区日喀则市桑珠孜区吉培路与科技路交叉口正东方向39米左右",
        "tel": "",
        "category": "基础设施:公共设施:公共厕所",
        "type": 0,
        "location": {
            "lat": 29.260709,
            "lng": 88.889408
        },
        "ad_info": {
            "adcode": 540202,
            "province": "西藏自治区",
            "city": "日喀则市",
            "district": "桑珠孜区"
        }
    },
    {
        "id": "6528749693063831236",
        "title": "54号公共厕所",
        "address": "西藏自治区日喀则市桑珠孜区上海南路中国石油对面",
        "tel": "",
        "category": "基础设施:公共设施:公共厕所",
        "type": 0,
        "location": {
            "lat": 29.233511,
            "lng": 88.894606
        },
        "ad_info": {
            "adcode": 540202,
            "province": "西藏自治区",
            "city": "日喀则市",
            "district": "桑珠孜区"
        }
    },
    {
        "id": "14252163987115446001",
        "title": "18号公共厕所",
        "address": "西藏自治区日喀则市桑珠孜区扎德西路与朗热路交叉口正东方向465米左右",
        "tel": "",
        "category": "基础设施:公共设施:公共厕所",
        "type": 0,
        "location": {
            "lat": 29.253273,
            "lng": 88.866048
        },
        "ad_info": {
            "adcode": 540202,
            "province": "西藏自治区",
            "city": "日喀则市",
            "district": "桑珠孜区"
        }
    },
    {
        "id": "12439804909828799970",
        "title": "公共厕所",
        "address": "西藏自治区日喀则市萨嘎县伦珠路与格桑路交叉口正南方向393米左右",
        "tel": "",
        "category": "基础设施:公共设施:公共厕所",
        "type": 0,
        "location": {
            "lat": 29.324074,
            "lng": 85.233356
        },
        "ad_info": {
            "adcode": 540236,
            "province": "西藏自治区",
            "city": "日喀则市",
            "district": "萨嘎县"
        }
    },
    {
        "id": "12797483027229290217",
        "title": "80号公共厕所",
        "address": "西藏自治区日喀则市桑珠孜区日喀则火车站出站口东侧",
        "tel": "",
        "category": "基础设施:公共设施:公共厕所",
        "type": 0,
        "location": {
            "lat": 29.221261,
            "lng": 88.915391
        },
        "ad_info": {
            "adcode": 540202,
            "province": "西藏自治区",
            "city": "日喀则市",
            "district": "桑珠孜区"
        }
    },
    {
        "id": "10611273597840277935",
        "title": "公共厕所",
        "address": "西藏自治区日喀则市聂拉木县G318(沪聂线)",
        "tel": "",
        "category": "基础设施:公共设施:公共厕所",
        "type": 0,
        "location": {
            "lat": 28.23806,
            "lng": 86.007043
        },
        "ad_info": {
            "adcode": 540235,
            "province": "西藏自治区",
            "city": "日喀则市",
            "district": "聂拉木县"
        }
    },
    {
        "id": "8324056117743591824",
        "title": "扎什伦布寺-公共厕所",
        "address": "西藏自治区日喀则市桑珠孜区嘎曲门塘路与雪强支路交叉口正西方向62米左右",
        "tel": "",
        "category": "基础设施:公共设施:公共厕所",
        "type": 0,
        "location": {
            "lat": 29.275706,
            "lng": 88.878287
        },
        "ad_info": {
            "adcode": 540202,
            "province": "西藏自治区",
            "city": "日喀则市",
            "district": "桑珠孜区"
        }
    },
    {
        "id": "3460312274200420389",
        "title": "29号公共厕所",
        "address": "西藏自治区日喀则市桑珠孜区步行街广场旁",
        "tel": "",
        "category": "基础设施:公共设施:公共厕所",
        "type": 0,
        "location": {
            "lat": 29.267067,
            "lng": 88.877759
        },
        "ad_info": {
            "adcode": 540202,
            "province": "西藏自治区",
            "city": "日喀则市",
            "district": "桑珠孜区"
        }
    },
    {
        "id": "17214342059638827520",
        "title": "公共厕所",
        "address": "西藏自治区日喀则市白朗县丰登大道与吉雄东路交叉口西北方向80米左右",
        "tel": "",
        "category": "基础设施:公共设施:公共厕所",
        "type": 0,
        "location": {
            "lat": 29.105775,
            "lng": 89.264686
        },
        "ad_info": {
            "adcode": 540228,
            "province": "西藏自治区",
            "city": "日喀则市",
            "district": "白朗县"
        }
    },
    {
        "id": "7640281032399833058",
        "title": "公共厕所",
        "address": "西藏自治区日喀则市南木林县203省道南50米",
        "tel": "",
        "category": "基础设施:公共设施:公共厕所",
        "type": 0,
        "location": {
            "lat": 29.691411,
            "lng": 89.132759
        },
        "ad_info": {
            "adcode": 540221,
            "province": "西藏自治区",
            "city": "日喀则市",
            "district": "南木林县"
        }
    },
    {
        "id": "6961985183574530167",
        "title": "珠穆朗玛峰国家级自然保护区-公共厕所",
        "address": "西藏自治区日喀则市拉孜县G318",
        "tel": "",
        "category": "基础设施:公共设施:公共厕所",
        "type": 0,
        "location": {
            "lat": 29.071553,
            "lng": 87.983016
        },
        "ad_info": {
            "adcode": 540225,
            "province": "西藏自治区",
            "city": "日喀则市",
            "district": "拉孜县"
        }
    },
    {
        "id": "10072752480541517594",
        "title": "60号公共厕所",
        "address": "西藏自治区日喀则市桑珠孜区上海北路旧邮政所",
        "tel": "",
        "category": "基础设施:公共设施:公共厕所",
        "type": 0,
        "location": {
            "lat": 29.276417,
            "lng": 88.882072
        },
        "ad_info": {
            "adcode": 540202,
            "province": "西藏自治区",
            "city": "日喀则市",
            "district": "桑珠孜区"
        }
    },
    {
        "id": "3494288369125455194",
        "title": "79号公共厕所",
        "address": "西藏自治区日喀则市桑珠孜区日喀则站站前广场东侧120米",
        "tel": "",
        "category": "基础设施:公共设施:公共厕所",
        "type": 0,
        "location": {
            "lat": 29.221375,
            "lng": 88.915372
        },
        "ad_info": {
            "adcode": 540202,
            "province": "西藏自治区",
            "city": "日喀则市",
            "district": "桑珠孜区"
        }
    },
    {
        "id": "18178062904347821708",
        "title": "珠穆朗玛峰国家级自然保护区-公共厕所",
        "address": "西藏自治区日喀则市定日县协格尔中路与德吉路交叉口正西方向158米左右",
        "tel": "",
        "category": "基础设施:公共设施:公共厕所",
        "type": 0,
        "location": {
            "lat": 28.655412,
            "lng": 87.123889
        },
        "ad_info": {
            "adcode": 540223,
            "province": "西藏自治区",
            "city": "日喀则市",
            "district": "定日县"
        }
    },
    {
        "id": "11621383444449071864",
        "title": "扎什伦布寺公共厕所",
        "address": "西藏自治区日喀则市桑珠孜区喜格孜风情街与雪强路交叉口正西方向440米左右",
        "tel": "",
        "category": "基础设施:公共设施:公共厕所",
        "type": 0,
        "location": {
            "lat": 29.268944,
            "lng": 88.875436
        },
        "ad_info": {
            "adcode": 540202,
            "province": "西藏自治区",
            "city": "日喀则市",
            "district": "桑珠孜区"
        }
    },
    {
        "id": "10872222852653900018",
        "title": "珠穆朗玛峰国家级自然保护区公共厕所",
        "address": "西藏自治区日喀则市定日县珠峰路东50米",
        "tel": "",
        "category": "基础设施:公共设施:公共厕所",
        "type": 0,
        "location": {
            "lat": 28.554254,
            "lng": 87.087353
        },
        "ad_info": {
            "adcode": 540223,
            "province": "西藏自治区",
            "city": "日喀则市",
            "district": "定日县"
        }
    },
    {
        "id": "9130214602463619518",
        "title": "26号公共厕所",
        "address": "西藏自治区日喀则市桑珠孜区朗卡路与普章路交叉口西南方向55米左右",
        "tel": "",
        "category": "基础设施:公共设施:公共厕所",
        "type": 0,
        "location": {
            "lat": 29.26185,
            "lng": 88.87106
        },
        "ad_info": {
            "adcode": 540202,
            "province": "西藏自治区",
            "city": "日喀则市",
            "district": "桑珠孜区"
        }
    },
    {
        "id": "17811030383371683612",
        "title": "珠穆朗玛峰国家级自然保护区-公共厕所",
        "address": "西藏自治区日喀则市岗巴县希望路与林卡路交叉口东南方向34米左右",
        "tel": "",
        "category": "基础设施:公共设施:公共厕所",
        "type": 0,
        "location": {
            "lat": 28.273799,
            "lng": 88.518316
        },
        "ad_info": {
            "adcode": 540237,
            "province": "西藏自治区",
            "city": "日喀则市",
            "district": "岗巴县"
        }
    },
    {
        "id": "1474194691839364939",
        "title": "珠穆朗玛峰国家级自然保护区-公共厕所",
        "address": "西藏自治区日喀则市定结县江嘎中心路与萨尔路交叉口正西方向100米左右",
        "tel": "",
        "category": "基础设施:公共设施:公共厕所",
        "type": 0,
        "location": {
            "lat": 28.363411,
            "lng": 87.773681
        },
        "ad_info": {
            "adcode": 540231,
            "province": "西藏自治区",
            "city": "日喀则市",
            "district": "定结县"
        }
    },
    {
        "id": "7510452374265182541",
        "title": "珠穆朗玛峰国家级自然保护区-公共厕所",
        "address": "西藏自治区日喀则市萨迦县八思巴中路与法王南路交叉口正南方向72米左右",
        "tel": "",
        "category": "基础设施:公共设施:公共厕所",
        "type": 0,
        "location": {
            "lat": 28.898233,
            "lng": 88.022674
        },
        "ad_info": {
            "adcode": 540224,
            "province": "西藏自治区",
            "city": "日喀则市",
            "district": "萨迦县"
        }
    },
    {
        "id": "7583999604341249122",
        "title": "珠穆朗玛峰国家级自然保护区-公共厕所",
        "address": "西藏自治区日喀则市昂仁县G349",
        "tel": "",
        "category": "基础设施:公共设施:公共厕所",
        "type": 0,
        "location": {
            "lat": 29.407454,
            "lng": 86.728957
        },
        "ad_info": {
            "adcode": 540226,
            "province": "西藏自治区",
            "city": "日喀则市",
            "district": "昂仁县"
        }
    },
    {
        "id": "808390296305137823",
        "title": "旅游厕所",
        "address": "西藏自治区日喀则市江孜县杰卡尔孜路与江达线交叉口东南方向969米左右",
        "tel": "",
        "category": "基础设施:公共设施:公共厕所",
        "type": 0,
        "location": {
            "lat": 28.920079,
            "lng": 89.596595
        },
        "ad_info": {
            "adcode": 540222,
            "province": "西藏自治区",
            "city": "日喀则市",
            "district": "江孜县"
        }
    },
    {
        "id": "11408634174117403040",
        "title": "珠穆朗玛峰国家级自然保护区-公共厕所",
        "address": "西藏自治区日喀则市聂拉木县G318与迎宾路交叉口正北方向26米左右",
        "tel": "",
        "category": "基础设施:公共设施:公共厕所",
        "type": 0,
        "location": {
            "lat": 27.994909,
            "lng": 85.980894
        },
        "ad_info": {
            "adcode": 540235,
            "province": "西藏自治区",
            "city": "日喀则市",
            "district": "聂拉木县"
        }
    },
    {
        "id": "12373059365374607379",
        "title": "公共厕所XZRK-0035",
        "address": "西藏自治区日喀则市昂仁县唐东路与梅曲路交叉口东南方向110米左右",
        "tel": "",
        "category": "基础设施:公共设施:公共厕所",
        "type": 0,
        "location": {
            "lat": 29.296174,
            "lng": 87.236357
        },
        "ad_info": {
            "adcode": 540226,
            "province": "西藏自治区",
            "city": "日喀则市",
            "district": "昂仁县"
        }
    },
    {
        "id": "17195402864837453215",
        "title": "珠穆朗玛峰国家级自然保护区-公共厕所",
        "address": "西藏自治区日喀则市定结县八一路与江嘎中心路交叉口东北方向95米左右",
        "tel": "",
        "category": "基础设施:公共设施:公共厕所",
        "type": 0,
        "location": {
            "lat": 28.364467,
            "lng": 87.76819
        },
        "ad_info": {
            "adcode": 540231,
            "province": "西藏自治区",
            "city": "日喀则市",
            "district": "定结县"
        }
    },
    {
        "id": "9722881693539267857",
        "title": "珠穆朗玛峰国家级自然保护区-公共厕所",
        "address": "西藏自治区日喀则市岗巴县宗山东路与宗山中路交叉口东南方向60米左右",
        "tel": "",
        "category": "基础设施:公共设施:公共厕所",
        "type": 0,
        "location": {
            "lat": 28.274571,
            "lng": 88.520528
        },
        "ad_info": {
            "adcode": 540237,
            "province": "西藏自治区",
            "city": "日喀则市",
            "district": "岗巴县"
        }
    },
    {
        "id": "1238987126809850907",
        "title": "珠穆朗玛峰国家级自然保护区-公共厕所",
        "address": "西藏自治区日喀则市聂拉木县聂拉木口岸外贸市场东北侧230米",
        "tel": "",
        "category": "基础设施:公共设施:公共厕所",
        "type": 0,
        "location": {
            "lat": 27.967061,
            "lng": 85.965076
        },
        "ad_info": {
            "adcode": 540235,
            "province": "西藏自治区",
            "city": "日喀则市",
            "district": "聂拉木县"
        }
    },
    {
        "id": "2158163636413477081",
        "title": "珠穆朗玛峰国家级自然保护区-公共厕所",
        "address": "西藏自治区日喀则市昂仁县桑桑路与金塔路交叉口正南方向99米左右",
        "tel": "",
        "category": "基础设施:公共设施:公共厕所",
        "type": 0,
        "location": {
            "lat": 29.293964,
            "lng": 87.236659
        },
        "ad_info": {
            "adcode": 540226,
            "province": "西藏自治区",
            "city": "日喀则市",
            "district": "昂仁县"
        }
    },
    {
        "id": "6655343805287795101",
        "title": "珠穆朗玛峰国家级自然保护区-公共厕所",
        "address": "西藏自治区日喀则市聂拉木县G318与希望路交叉口正北方向181米左右",
        "tel": "",
        "category": "基础设施:公共设施:公共厕所",
        "type": 0,
        "location": {
            "lat": 27.989675,
            "lng": 85.985909
        },
        "ad_info": {
            "adcode": 540235,
            "province": "西藏自治区",
            "city": "日喀则市",
            "district": "聂拉木县"
        }
    },
    {
        "id": "18263986199511377961",
        "title": "公共厕所",
        "address": "西藏自治区日喀则市桑珠孜区G318与吉林北路交叉口东北方向1198米左右",
        "tel": "",
        "category": "基础设施:公共设施:公共厕所",
        "type": 0,
        "location": {
            "lat": 29.298698,
            "lng": 88.915466
        },
        "ad_info": {
            "adcode": 540202,
            "province": "西藏自治区",
            "city": "日喀则市",
            "district": "桑珠孜区"
        }
    },
    {
        "id": "6334935969350842853",
        "title": "珠穆朗玛峰国家级自然保护区-公共厕所",
        "address": "西藏自治区日喀则市拉孜县G318与萨初线交叉口西北方向46米左右",
        "tel": "",
        "category": "基础设施:公共设施:公共厕所",
        "type": 0,
        "location": {
            "lat": 29.045168,
            "lng": 87.863471
        },
        "ad_info": {
            "adcode": 540225,
            "province": "西藏自治区",
            "city": "日喀则市",
            "district": "拉孜县"
        }
    },
    {
        "id": "4587594685896022442",
        "title": "公共厕所",
        "address": "西藏自治区日喀则市桑珠孜区朗卡路与普章路交叉口东北方向86米左右",
        "tel": "",
        "category": "基础设施:公共设施:公共厕所",
        "type": 0,
        "location": {
            "lat": 29.262561,
            "lng": 88.872261
        },
        "ad_info": {
            "adcode": 540202,
            "province": "西藏自治区",
            "city": "日喀则市",
            "district": "桑珠孜区"
        }
    },
    {
        "id": "5410810265845879862",
        "title": "公共厕所",
        "address": "西藏自治区日喀则市仁布县双拥街与双拥路交叉口西南方向23米左右",
        "tel": "",
        "category": "基础设施:公共设施:公共厕所",
        "type": 0,
        "location": {
            "lat": 29.227746,
            "lng": 89.840757
        },
        "ad_info": {
            "adcode": 540229,
            "province": "西藏自治区",
            "city": "日喀则市",
            "district": "仁布县"
        }
    },
    {
        "id": "12137920378018937306",
        "title": "公共厕所",
        "address": "西藏自治区日喀则市桑珠孜区G318与迎宾路交叉口东北方向69米左右",
        "tel": "",
        "category": "基础设施:公共设施:公共厕所",
        "type": 0,
        "location": {
            "lat": 29.272376,
            "lng": 88.903002
        },
        "ad_info": {
            "adcode": 540202,
            "province": "西藏自治区",
            "city": "日喀则市",
            "district": "桑珠孜区"
        }
    },
    {
        "id": "17402503478244369571",
        "title": "公共厕所",
        "address": "西藏自治区日喀则市南木林县人民路与甲岗北路交叉口西南方向141米左右",
        "tel": "",
        "category": "基础设施:公共设施:公共厕所",
        "type": 0,
        "location": {
            "lat": 29.679093,
            "lng": 89.099383
        },
        "ad_info": {
            "adcode": 540221,
            "province": "西藏自治区",
            "city": "日喀则市",
            "district": "南木林县"
        }
    },
    {
        "id": "17058420301487581745",
        "title": "公共厕所",
        "address": "西藏自治区日喀则市桑珠孜区年河北路5号",
        "tel": "",
        "category": "基础设施:公共设施:公共厕所",
        "type": 0,
        "location": {
            "lat": 29.273485,
            "lng": 88.894656
        },
        "ad_info": {
            "adcode": 540202,
            "province": "西藏自治区",
            "city": "日喀则市",
            "district": "桑珠孜区"
        }
    },
    {
        "id": "877548623521096057",
        "title": "公共厕所",
        "address": "西藏自治区日喀则市白朗县朗萨东路与楚松北路交叉口西南方向47米左右",
        "tel": "",
        "category": "基础设施:公共设施:公共厕所",
        "type": 0,
        "location": {
            "lat": 29.106939,
            "lng": 89.265548
        },
        "ad_info": {
            "adcode": 540228,
            "province": "西藏自治区",
            "city": "日喀则市",
            "district": "白朗县"
        }
    },
    {
        "id": "11508302250822740305",
        "title": "珠穆朗玛峰国家级自然保护区-公共厕所",
        "address": "西藏自治区日喀则市聂拉木县G318与希望路交叉口东北方向159米左右",
        "tel": "",
        "category": "基础设施:公共设施:公共厕所",
        "type": 0,
        "location": {
            "lat": 27.989328,
            "lng": 85.98715
        },
        "ad_info": {
            "adcode": 540235,
            "province": "西藏自治区",
            "city": "日喀则市",
            "district": "聂拉木县"
        }
    },
    {
        "id": "1842054454383820406",
        "title": "公共厕所",
        "address": "西藏自治区日喀则市白朗县颇罗鼐大道与洛江大街中段交叉口北40米",
        "tel": "",
        "category": "基础设施:公共设施:公共厕所",
        "type": 0,
        "location": {
            "lat": 29.106086,
            "lng": 89.262309
        },
        "ad_info": {
            "adcode": 540228,
            "province": "西藏自治区",
            "city": "日喀则市",
            "district": "白朗县"
        }
    },
    {
        "id": "7679017520979208278",
        "title": "公共厕所",
        "address": "西藏自治区日喀则市仁布县双拥南路与双拥路交叉口正东方向35米左右",
        "tel": "",
        "category": "基础设施:公共设施:公共厕所",
        "type": 0,
        "location": {
            "lat": 29.228618,
            "lng": 89.842821
        },
        "ad_info": {
            "adcode": 540229,
            "province": "西藏自治区",
            "city": "日喀则市",
            "district": "仁布县"
        }
    },
    {
        "id": "2421932848702494057",
        "title": "公共厕所",
        "address": "西藏自治区日喀则市桑珠孜区G318与吉林北路交叉口正北方向680米左右",
        "tel": "",
        "category": "基础设施:公共设施:公共厕所",
        "type": 0,
        "location": {
            "lat": 29.294646,
            "lng": 88.912749
        },
        "ad_info": {
            "adcode": 540202,
            "province": "西藏自治区",
            "city": "日喀则市",
            "district": "桑珠孜区"
        }
    },
    {
        "id": "14769730466853689900",
        "title": "珠穆朗玛峰国家级自然保护区-公共厕所",
        "address": "西藏自治区日喀则市定结县八一路与江嘎中心路交叉口正东方向153米左右",
        "tel": "",
        "category": "基础设施:公共设施:公共厕所",
        "type": 0,
        "location": {
            "lat": 28.363523,
            "lng": 87.769296
        },
        "ad_info": {
            "adcode": 540231,
            "province": "西藏自治区",
            "city": "日喀则市",
            "district": "定结县"
        }
    },
    {
        "id": "5842369629426655756",
        "title": "珠穆朗玛峰国家级自然保护区-公共厕所",
        "address": "西藏自治区日喀则市萨迦县八思巴中路与法王南路交叉口正北方向145米左右",
        "tel": "",
        "category": "基础设施:公共设施:公共厕所",
        "type": 0,
        "location": {
            "lat": 28.900191,
            "lng": 88.022486
        },
        "ad_info": {
            "adcode": 540224,
            "province": "西藏自治区",
            "city": "日喀则市",
            "district": "萨迦县"
        }
    },
    {
        "id": "7603423683902630520",
        "title": "公共厕所",
        "address": "西藏自治区日喀则市仁布县广场路与强钦西路交叉口正南方向44米左右",
        "tel": "",
        "category": "基础设施:公共设施:公共厕所",
        "type": 0,
        "location": {
            "lat": 29.231824,
            "lng": 89.842044
        },
        "ad_info": {
            "adcode": 540229,
            "province": "西藏自治区",
            "city": "日喀则市",
            "district": "仁布县"
        }
    },
    {
        "id": "10974738122918898832",
        "title": "公共厕所",
        "address": "西藏自治区日喀则市白朗县丰登大道与吉雄东路交叉口西南方向38米左右",
        "tel": "",
        "category": "基础设施:公共设施:公共厕所",
        "type": 0,
        "location": {
            "lat": 29.104939,
            "lng": 89.264888
        },
        "ad_info": {
            "adcode": 540228,
            "province": "西藏自治区",
            "city": "日喀则市",
            "district": "白朗县"
        }
    },
    {
        "id": "4001085990222499490",
        "title": "珠穆朗玛峰国家级自然保护区-公共厕所",
        "address": "西藏自治区日喀则市萨迦县法王北路与法王路交叉口正东方向74米左右",
        "tel": "",
        "category": "基础设施:公共设施:公共厕所",
        "type": 0,
        "location": {
            "lat": 28.902435,
            "lng": 88.023698
        },
        "ad_info": {
            "adcode": 540224,
            "province": "西藏自治区",
            "city": "日喀则市",
            "district": "萨迦县"
        }
    },
    {
        "id": "8092184392939750680",
        "title": "公共厕所",
        "address": "西藏自治区日喀则市桑珠孜区上海北路与嘎曲门塘路交叉口正西方向65米左右",
        "tel": "",
        "category": "基础设施:公共设施:公共厕所",
        "type": 0,
        "location": {
            "lat": 29.275368,
            "lng": 88.88168
        },
        "ad_info": {
            "adcode": 540202,
            "province": "西藏自治区",
            "city": "日喀则市",
            "district": "桑珠孜区"
        }
    },
    {
        "id": "12086676429478512371",
        "title": "公共厕所",
        "address": "西藏自治区日喀则市桑珠孜区雪强路35号",
        "tel": "",
        "category": "基础设施:公共设施:公共厕所",
        "type": 0,
        "location": {
            "lat": 29.289909,
            "lng": 88.876312
        },
        "ad_info": {
            "adcode": 540202,
            "province": "西藏自治区",
            "city": "日喀则市",
            "district": "桑珠孜区"
        }
    },
    {
        "id": "10218844392927830630",
        "title": "公共厕所",
        "address": "西藏自治区日喀则市桑珠孜区G318与S304交叉口西南方向190米左右",
        "tel": "",
        "category": "基础设施:公共设施:公共厕所",
        "type": 0,
        "location": {
            "lat": 29.342243,
            "lng": 89.635695
        },
        "ad_info": {
            "adcode": 540202,
            "province": "西藏自治区",
            "city": "日喀则市",
            "district": "桑珠孜区"
        }
    },
    {
        "id": "15940645603356785996",
        "title": "公共厕所",
        "address": "西藏自治区日喀则市桑珠孜区火车站绿地公园(停车场对面)",
        "tel": "",
        "category": "基础设施:公共设施:公共厕所",
        "type": 0,
        "location": {
            "lat": 29.222571,
            "lng": 88.913335
        },
        "ad_info": {
            "adcode": 540202,
            "province": "西藏自治区",
            "city": "日喀则市",
            "district": "桑珠孜区"
        }
    },
    {
        "id": "5075977748506833886",
        "title": "公共厕所",
        "address": "西藏自治区日喀则市仲巴县219国道北50米",
        "tel": "",
        "category": "基础设施:公共设施:公共厕所",
        "type": 0,
        "location": {
            "lat": 29.719683,
            "lng": 84.045571
        },
        "ad_info": {
            "adcode": 540232,
            "province": "西藏自治区",
            "city": "日喀则市",
            "district": "仲巴县"
        }
    },
    {
        "id": "4990682197311812230",
        "title": "公共厕所",
        "address": "西藏自治区日喀则市桑珠孜区仁布南路与曲荣门塘路交叉口东北方向39米左右",
        "tel": "",
        "category": "基础设施:公共设施:公共厕所",
        "type": 0,
        "location": {
            "lat": 29.27363,
            "lng": 88.886108
        },
        "ad_info": {
            "adcode": 540202,
            "province": "西藏自治区",
            "city": "日喀则市",
            "district": "桑珠孜区"
        }
    },
    {
        "id": "9228190936716695108",
        "title": "珠穆朗玛峰国家级自然保护区-公共厕所",
        "address": "西藏自治区日喀则市定结县嘎定线与迎宾路交叉口东北方向393米左右",
        "tel": "",
        "category": "基础设施:公共设施:公共厕所",
        "type": 0,
        "location": {
            "lat": 28.371447,
            "lng": 87.766507
        },
        "ad_info": {
            "adcode": 540231,
            "province": "西藏自治区",
            "city": "日喀则市",
            "district": "定结县"
        }
    },
    {
        "id": "11107345812619354738",
        "title": "珠穆朗玛峰国家级自然保护区-公共厕所",
        "address": "西藏自治区日喀则市吉隆县平安路与幸福路交叉口正西方向118米左右",
        "tel": "",
        "category": "基础设施:公共设施:公共厕所",
        "type": 0,
        "location": {
            "lat": 28.851331,
            "lng": 85.29792
        },
        "ad_info": {
            "adcode": 540234,
            "province": "西藏自治区",
            "city": "日喀则市",
            "district": "吉隆县"
        }
    },
    {
        "id": "275122056556589452",
        "title": "公共厕所",
        "address": "西藏自治区日喀则市江孜县G349与国防东路交叉口西北方向183米左右",
        "tel": "",
        "category": "基础设施:公共设施:公共厕所",
        "type": 0,
        "location": {
            "lat": 28.905758,
            "lng": 89.613945
        },
        "ad_info": {
            "adcode": 540222,
            "province": "西藏自治区",
            "city": "日喀则市",
            "district": "江孜县"
        }
    },
    {
        "id": "2981464944062404268",
        "title": "公共厕所",
        "address": "西藏自治区日喀则市桑珠孜区嘎曲门塘路与雪强支路交叉口正西方向119米左右",
        "tel": "",
        "category": "基础设施:公共设施:公共厕所",
        "type": 0,
        "location": {
            "lat": 29.275777,
            "lng": 88.877701
        },
        "ad_info": {
            "adcode": 540202,
            "province": "西藏自治区",
            "city": "日喀则市",
            "district": "桑珠孜区"
        }
    },
    {
        "id": "5250699472245051885",
        "title": "珠穆朗玛峰国家级自然保护区-公共厕所",
        "address": "西藏自治区日喀则市拉孜县G318与老中尼路交叉口正东方向286米左右",
        "tel": "",
        "category": "基础设施:公共设施:公共厕所",
        "type": 0,
        "location": {
            "lat": 29.100058,
            "lng": 87.606456
        },
        "ad_info": {
            "adcode": 540225,
            "province": "西藏自治区",
            "city": "日喀则市",
            "district": "拉孜县"
        }
    },
    {
        "id": "15814674452346648402",
        "title": "公共厕所",
        "address": "西藏自治区日喀则市桑珠孜区仁布南路与青岛路交叉口正北方向56米左右",
        "tel": "",
        "category": "基础设施:公共设施:公共厕所",
        "type": 0,
        "location": {
            "lat": 29.269836,
            "lng": 88.886029
        },
        "ad_info": {
            "adcode": 540202,
            "province": "西藏自治区",
            "city": "日喀则市",
            "district": "桑珠孜区"
        }
    },
    {
        "id": "9847189561871663926",
        "title": "江孜上海公园-公共厕所",
        "address": "西藏自治区日喀则市江孜县年楚河东岸路与英雄南路交叉口东北方向115米左右",
        "tel": "",
        "category": "基础设施:公共设施:公共厕所",
        "type": 0,
        "location": {
            "lat": 28.904294,
            "lng": 89.602118
        },
        "ad_info": {
            "adcode": 540222,
            "province": "西藏自治区",
            "city": "日喀则市",
            "district": "江孜县"
        }
    },
    {
        "id": "7321913239718847582",
        "title": "公共厕所",
        "address": "西藏自治区日喀则市白朗县丰登大道与吉雄东路交叉口正东方向65米左右",
        "tel": "",
        "category": "基础设施:公共设施:公共厕所",
        "type": 0,
        "location": {
            "lat": 29.105338,
            "lng": 89.265813
        },
        "ad_info": {
            "adcode": 540228,
            "province": "西藏自治区",
            "city": "日喀则市",
            "district": "白朗县"
        }
    },
    {
        "id": "4348849340615738872",
        "title": "珠穆朗玛峰国家级自然保护区-公共厕所",
        "address": "西藏自治区日喀则市萨迦县八思巴中路与八思巴西路交叉口正西方向64米左右",
        "tel": "",
        "category": "基础设施:公共设施:公共厕所",
        "type": 0,
        "location": {
            "lat": 28.899083,
            "lng": 88.02043
        },
        "ad_info": {
            "adcode": 540224,
            "province": "西藏自治区",
            "city": "日喀则市",
            "district": "萨迦县"
        }
    },
    {
        "id": "13842105422917466347",
        "title": "无障碍公共厕所",
        "address": "西藏自治区日喀则市桑珠孜区嘎曲门塘路与雪强路交叉口正东方向76米左右",
        "tel": "",
        "category": "基础设施:公共设施:公共厕所",
        "type": 0,
        "location": {
            "lat": 29.275449,
            "lng": 88.880505
        },
        "ad_info": {
            "adcode": 540202,
            "province": "西藏自治区",
            "city": "日喀则市",
            "district": "桑珠孜区"
        }
    },
    {
        "id": "15320170727162131169",
        "title": "公共厕所",
        "address": "西藏自治区日喀则市桑珠孜区科技路与青岛中路交叉口正南方向142米左右",
        "tel": "",
        "category": "基础设施:公共设施:公共厕所",
        "type": 0,
        "location": {
            "lat": 29.268279,
            "lng": 88.887339
        },
        "ad_info": {
            "adcode": 540202,
            "province": "西藏自治区",
            "city": "日喀则市",
            "district": "桑珠孜区"
        }
    },
    {
        "id": "11862898096585905157",
        "title": "公共厕所",
        "address": "西藏自治区日喀则市仁布县仁玉路与强钦东路交叉口东北方向37米左右",
        "tel": "",
        "category": "基础设施:公共设施:公共厕所",
        "type": 0,
        "location": {
            "lat": 29.231222,
            "lng": 89.843515
        },
        "ad_info": {
            "adcode": 540229,
            "province": "西藏自治区",
            "city": "日喀则市",
            "district": "仁布县"
        }
    },
    {
        "id": "5555911347140955113",
        "title": "公共厕所",
        "address": "西藏自治区日喀则市江孜县宗山抗英遗址景区停车场旁",
        "tel": "",
        "category": "基础设施:公共设施:公共厕所",
        "type": 0,
        "location": {
            "lat": 28.914178,
            "lng": 89.604355
        },
        "ad_info": {
            "adcode": 540222,
            "province": "西藏自治区",
            "city": "日喀则市",
            "district": "江孜县"
        }
    },
    {
        "id": "15770353481025799239",
        "title": "76号公共厕所",
        "address": "西藏自治区日喀则市桑珠孜区体育路体育场旁",
        "tel": "",
        "category": "基础设施:公共设施:公共厕所",
        "type": 0,
        "location": {
            "lat": 29.256902,
            "lng": 88.877841
        },
        "ad_info": {
            "adcode": 540202,
            "province": "西藏自治区",
            "city": "日喀则市",
            "district": "桑珠孜区"
        }
    },
    {
        "id": "7120173301279880825",
        "title": "公共厕所",
        "address": "西藏自治区日喀则市江孜县卫国路与长宁路交叉口正西方向178米左右",
        "tel": "",
        "category": "基础设施:公共设施:公共厕所",
        "type": 0,
        "location": {
            "lat": 28.911215,
            "lng": 89.604635
        },
        "ad_info": {
            "adcode": 540222,
            "province": "西藏自治区",
            "city": "日喀则市",
            "district": "江孜县"
        }
    },
    {
        "id": "18408124253396656861",
        "title": "14号公共厕所",
        "address": "西藏自治区日喀则市桑珠孜区吉林南路国豪对面",
        "tel": "",
        "category": "基础设施:公共设施:公共厕所",
        "type": 0,
        "location": {
            "lat": 29.25624,
            "lng": 88.895471
        },
        "ad_info": {
            "adcode": 540202,
            "province": "西藏自治区",
            "city": "日喀则市",
            "district": "桑珠孜区"
        }
    }
]