[
    {
        "id": "262615220369350987",
        "title": "公共厕所",
        "address": "新疆维吾尔自治区昆玉市八一街1号",
        "tel": "",
        "category": "基础设施:公共设施:公共厕所",
        "type": 0,
        "location": {
            "lat": 37.219925,
            "lng": 79.277157
        },
        "ad_info": {
            "adcode": 659009,
            "province": "新疆维吾尔自治区",
            "city": "",
            "district": "昆玉市"
        }
    },
    {
        "id": "3972887213121141200",
        "title": "公共厕所",
        "address": "新疆维吾尔自治区昆玉市军垦街与锦绣路交叉口西南方向22米左右",
        "tel": "",
        "category": "基础设施:公共设施:公共厕所",
        "type": 0,
        "location": {
            "lat": 37.205641,
            "lng": 79.292449
        },
        "ad_info": {
            "adcode": 659009,
            "province": "新疆维吾尔自治区",
            "city": "",
            "district": "昆玉市"
        }
    },
    {
        "id": "4533203166678479091",
        "title": "公共厕所",
        "address": "新疆维吾尔自治区昆玉市军垦街与锦绣路交叉口东南方向32米左右",
        "tel": "",
        "category": "基础设施:公共设施:公共厕所",
        "type": 0,
        "location": {
            "lat": 37.205601,
            "lng": 79.292893
        },
        "ad_info": {
            "adcode": 659009,
            "province": "新疆维吾尔自治区",
            "city": "",
            "district": "昆玉市"
        }
    }
]