[
    {
        "id": "12404007713213686893",
        "title": "公共厕所",
        "address": "新疆维吾尔自治区昌吉回族自治州昌吉市延安北路与红星东路交叉口西南方向208米左右",
        "tel": "",
        "category": "基础设施:公共设施:公共厕所",
        "type": 0,
        "location": {
            "lat": 44.010755,
            "lng": 87.305834
        },
        "ad_info": {
            "adcode": 652301,
            "province": "新疆维吾尔自治区",
            "city": "昌吉回族自治州",
            "district": "昌吉市"
        }
    },
    {
        "id": "17955060335787123517",
        "title": "公共厕所",
        "address": "新疆维吾尔自治区昌吉回族自治州昌吉市北京北路与红旗东路交叉口正南方向106米左右",
        "tel": "",
        "category": "基础设施:公共设施:公共厕所",
        "type": 0,
        "location": {
            "lat": 44.027004,
            "lng": 87.30456
        },
        "ad_info": {
            "adcode": 652301,
            "province": "新疆维吾尔自治区",
            "city": "昌吉回族自治州",
            "district": "昌吉市"
        }
    },
    {
        "id": "17211257844566315300",
        "title": "公共卫生间",
        "address": "新疆维吾尔自治区昌吉回族自治州昌吉市解放路西街东苑西南侧约30米",
        "tel": "",
        "category": "基础设施:公共设施:公共厕所",
        "type": 0,
        "location": {
            "lat": 44.026212,
            "lng": 87.298426
        },
        "ad_info": {
            "adcode": 652301,
            "province": "新疆维吾尔自治区",
            "city": "昌吉回族自治州",
            "district": "昌吉市"
        }
    },
    {
        "id": "3934718846946567182",
        "title": "公共厕所",
        "address": "新疆维吾尔自治区昌吉回族自治州昌吉市红旗东路与绿洲北路交叉口正北方向74米左右",
        "tel": "",
        "category": "基础设施:公共设施:公共厕所",
        "type": 0,
        "location": {
            "lat": 44.027258,
            "lng": 87.329223
        },
        "ad_info": {
            "adcode": 652301,
            "province": "新疆维吾尔自治区",
            "city": "昌吉回族自治州",
            "district": "昌吉市"
        }
    },
    {
        "id": "12954446263802290138",
        "title": "公共厕所",
        "address": "新疆维吾尔自治区昌吉回族自治州奇台县上海路美居苑2号小区",
        "tel": "",
        "category": "基础设施:公共设施:公共厕所",
        "type": 0,
        "location": {
            "lat": 44.011812,
            "lng": 89.59356
        },
        "ad_info": {
            "adcode": 652325,
            "province": "新疆维吾尔自治区",
            "city": "昌吉回族自治州",
            "district": "奇台县"
        }
    },
    {
        "id": "12952911104349811272",
        "title": "公共厕所",
        "address": "新疆维吾尔自治区昌吉回族自治州昌吉市文化西路与青年北路交叉口东北方向170米左右",
        "tel": "",
        "category": "基础设施:公共设施:公共厕所",
        "type": 0,
        "location": {
            "lat": 44.018715,
            "lng": 87.29464
        },
        "ad_info": {
            "adcode": 652301,
            "province": "新疆维吾尔自治区",
            "city": "昌吉回族自治州",
            "district": "昌吉市"
        }
    },
    {
        "id": "10343025248513238740",
        "title": "公共厕所",
        "address": "新疆维吾尔自治区昌吉回族自治州奇台县八家户街与园区路交叉口正北方向221米左右",
        "tel": "",
        "category": "基础设施:公共设施:公共厕所",
        "type": 0,
        "location": {
            "lat": 43.976663,
            "lng": 89.590947
        },
        "ad_info": {
            "adcode": 652325,
            "province": "新疆维吾尔自治区",
            "city": "昌吉回族自治州",
            "district": "奇台县"
        }
    },
    {
        "id": "6147864967809302010",
        "title": "公共厕所",
        "address": "新疆维吾尔自治区昌吉回族自治州昌吉市亚中商城内",
        "tel": "",
        "category": "基础设施:公共设施:公共厕所",
        "type": 0,
        "location": {
            "lat": 44.011427,
            "lng": 87.291393
        },
        "ad_info": {
            "adcode": 652301,
            "province": "新疆维吾尔自治区",
            "city": "昌吉回族自治州",
            "district": "昌吉市"
        }
    },
    {
        "id": "13290749812317587537",
        "title": "公共厕所",
        "address": "新疆维吾尔自治区昌吉回族自治州昌吉市春林巷与静苑巷交叉口正北方向183米左右",
        "tel": "",
        "category": "基础设施:公共设施:公共厕所",
        "type": 0,
        "location": {
            "lat": 43.981399,
            "lng": 87.288123
        },
        "ad_info": {
            "adcode": 652301,
            "province": "新疆维吾尔自治区",
            "city": "昌吉回族自治州",
            "district": "昌吉市"
        }
    },
    {
        "id": "1094504406855590988",
        "title": "公共厕所",
        "address": "新疆维吾尔自治区昌吉回族自治州奇台县文化东路与民旅三巷交叉口正西方向27米左右",
        "tel": "",
        "category": "基础设施:公共设施:公共厕所",
        "type": 0,
        "location": {
            "lat": 44.020983,
            "lng": 89.596884
        },
        "ad_info": {
            "adcode": 652325,
            "province": "新疆维吾尔自治区",
            "city": "昌吉回族自治州",
            "district": "奇台县"
        }
    },
    {
        "id": "7426413148336885361",
        "title": "公共厕所",
        "address": "新疆维吾尔自治区昌吉回族自治州木垒哈萨克自治县园艺东路201号",
        "tel": "",
        "category": "基础设施:公共设施:公共厕所",
        "type": 0,
        "location": {
            "lat": 43.847699,
            "lng": 90.288676
        },
        "ad_info": {
            "adcode": 652328,
            "province": "新疆维吾尔自治区",
            "city": "昌吉回族自治州",
            "district": "木垒哈萨克自治县"
        }
    },
    {
        "id": "16033512800585223416",
        "title": "公共厕所",
        "address": "新疆维吾尔自治区昌吉回族自治州昌吉市石河子西路吉祥花园-西区",
        "tel": "",
        "category": "基础设施:公共设施:公共厕所",
        "type": 0,
        "location": {
            "lat": 43.983764,
            "lng": 87.269121
        },
        "ad_info": {
            "adcode": 652301,
            "province": "新疆维吾尔自治区",
            "city": "昌吉回族自治州",
            "district": "昌吉市"
        }
    },
    {
        "id": "9262079484085939154",
        "title": "公共厕所",
        "address": "新疆维吾尔自治区昌吉回族自治州昌吉市宁边西路与小渠子巷交叉口西北方向187米左右",
        "tel": "",
        "category": "基础设施:公共设施:公共厕所",
        "type": 0,
        "location": {
            "lat": 44.026193,
            "lng": 87.28495
        },
        "ad_info": {
            "adcode": 652301,
            "province": "新疆维吾尔自治区",
            "city": "昌吉回族自治州",
            "district": "昌吉市"
        }
    },
    {
        "id": "1019206601243646033",
        "title": "公共厕所",
        "address": "新疆维吾尔自治区昌吉回族自治州昌吉市团结巷与红旗西路交叉口正西方向77米左右",
        "tel": "",
        "category": "基础设施:公共设施:公共厕所",
        "type": 0,
        "location": {
            "lat": 44.028743,
            "lng": 87.293545
        },
        "ad_info": {
            "adcode": 652301,
            "province": "新疆维吾尔自治区",
            "city": "昌吉回族自治州",
            "district": "昌吉市"
        }
    },
    {
        "id": "10960412181688697741",
        "title": "公共卫生间",
        "address": "新疆维吾尔自治区昌吉回族自治州昌吉市东方国际步行街与民生路步行街交叉口正北方向229米左右",
        "tel": "",
        "category": "基础设施:公共设施:公共厕所",
        "type": 0,
        "location": {
            "lat": 43.998248,
            "lng": 87.310547
        },
        "ad_info": {
            "adcode": 652301,
            "province": "新疆维吾尔自治区",
            "city": "昌吉回族自治州",
            "district": "昌吉市"
        }
    },
    {
        "id": "1967295041779950804",
        "title": "公共厕所",
        "address": "新疆维吾尔自治区昌吉回族自治州昌吉市南公园西路与滨河南路交叉口西南方向172米左右",
        "tel": "",
        "category": "基础设施:公共设施:公共厕所",
        "type": 0,
        "location": {
            "lat": 44.005363,
            "lng": 87.262142
        },
        "ad_info": {
            "adcode": 652301,
            "province": "新疆维吾尔自治区",
            "city": "昌吉回族自治州",
            "district": "昌吉市"
        }
    },
    {
        "id": "12697360951222424802",
        "title": "公共厕所",
        "address": "新疆维吾尔自治区昌吉回族自治州昌吉市文化东路亚心广场",
        "tel": "",
        "category": "基础设施:公共设施:公共厕所",
        "type": 0,
        "location": {
            "lat": 44.015274,
            "lng": 87.31024
        },
        "ad_info": {
            "adcode": 652301,
            "province": "新疆维吾尔自治区",
            "city": "昌吉回族自治州",
            "district": "昌吉市"
        }
    },
    {
        "id": "2121419305370901922",
        "title": "公共厕所",
        "address": "新疆维吾尔自治区昌吉回族自治州奇台县健康西路与团结北路交叉口西南方向56米左右",
        "tel": "",
        "category": "基础设施:公共设施:公共厕所",
        "type": 0,
        "location": {
            "lat": 44.013659,
            "lng": 89.575361
        },
        "ad_info": {
            "adcode": 652325,
            "province": "新疆维吾尔自治区",
            "city": "昌吉回族自治州",
            "district": "奇台县"
        }
    },
    {
        "id": "1200536328780102787",
        "title": "洗手间",
        "address": "新疆维吾尔自治区昌吉回族自治州昌吉市七工巷与延安北路交叉口正南方向171米左右",
        "tel": "",
        "category": "基础设施:公共设施:公共厕所",
        "type": 0,
        "location": {
            "lat": 44.016792,
            "lng": 87.308771
        },
        "ad_info": {
            "adcode": 652301,
            "province": "新疆维吾尔自治区",
            "city": "昌吉回族自治州",
            "district": "昌吉市"
        }
    },
    {
        "id": "4075143970345341928",
        "title": "公共厕所",
        "address": "新疆维吾尔自治区昌吉回族自治州昌吉市长宁路锦绣江南小镇西院",
        "tel": "",
        "category": "基础设施:公共设施:公共厕所",
        "type": 0,
        "location": {
            "lat": 43.996838,
            "lng": 87.283868
        },
        "ad_info": {
            "adcode": 652301,
            "province": "新疆维吾尔自治区",
            "city": "昌吉回族自治州",
            "district": "昌吉市"
        }
    },
    {
        "id": "9392941346508228078",
        "title": "公共厕所",
        "address": "新疆维吾尔自治区昌吉回族自治州昌吉市宏伟·星汇名筑西北侧150米",
        "tel": "",
        "category": "基础设施:公共设施:公共厕所",
        "type": 0,
        "location": {
            "lat": 44.022244,
            "lng": 87.28025
        },
        "ad_info": {
            "adcode": 652301,
            "province": "新疆维吾尔自治区",
            "city": "昌吉回族自治州",
            "district": "昌吉市"
        }
    },
    {
        "id": "16372564865586360609",
        "title": "公共厕所",
        "address": "新疆维吾尔自治区昌吉回族自治州昌吉市北京北路19号",
        "tel": "",
        "category": "基础设施:公共设施:公共厕所",
        "type": 0,
        "location": {
            "lat": 44.014142,
            "lng": 87.302448
        },
        "ad_info": {
            "adcode": 652301,
            "province": "新疆维吾尔自治区",
            "city": "昌吉回族自治州",
            "district": "昌吉市"
        }
    },
    {
        "id": "7760442312240711036",
        "title": "公共厕所",
        "address": "新疆维吾尔自治区昌吉回族自治州昌吉市石河子西路208号",
        "tel": "",
        "category": "基础设施:公共设施:公共厕所",
        "type": 0,
        "location": {
            "lat": 43.987531,
            "lng": 87.276766
        },
        "ad_info": {
            "adcode": 652301,
            "province": "新疆维吾尔自治区",
            "city": "昌吉回族自治州",
            "district": "昌吉市"
        }
    },
    {
        "id": "16791998159267729543",
        "title": "公共厕所",
        "address": "新疆维吾尔自治区昌吉回族自治州昌吉市红旗东路15号",
        "tel": "",
        "category": "基础设施:公共设施:公共厕所",
        "type": 0,
        "location": {
            "lat": 44.029521,
            "lng": 87.313016
        },
        "ad_info": {
            "adcode": 652301,
            "province": "新疆维吾尔自治区",
            "city": "昌吉回族自治州",
            "district": "昌吉市"
        }
    },
    {
        "id": "1704153406406222742",
        "title": "公共厕所",
        "address": "新疆维吾尔自治区昌吉回族自治州奇台县东风中街与东风北街交叉口正南方向120米左右",
        "tel": "",
        "category": "基础设施:公共设施:公共厕所",
        "type": 0,
        "location": {
            "lat": 44.026694,
            "lng": 89.582415
        },
        "ad_info": {
            "adcode": 652325,
            "province": "新疆维吾尔自治区",
            "city": "昌吉回族自治州",
            "district": "奇台县"
        }
    },
    {
        "id": "5015395285848799904",
        "title": "公共厕所",
        "address": "新疆维吾尔自治区昌吉回族自治州昌吉市乌伊西路与青年北路交叉口正北方向83米左右",
        "tel": "",
        "category": "基础设施:公共设施:公共厕所",
        "type": 0,
        "location": {
            "lat": 44.015288,
            "lng": 87.289748
        },
        "ad_info": {
            "adcode": 652301,
            "province": "新疆维吾尔自治区",
            "city": "昌吉回族自治州",
            "district": "昌吉市"
        }
    },
    {
        "id": "15847107387502734268",
        "title": "公共厕所",
        "address": "新疆维吾尔自治区昌吉回族自治州昌吉市建国西路北京南路街道天方社区法治文化园(西侧)",
        "tel": "",
        "category": "基础设施:公共设施:公共厕所",
        "type": 0,
        "location": {
            "lat": 44.002348,
            "lng": 87.29686
        },
        "ad_info": {
            "adcode": 652301,
            "province": "新疆维吾尔自治区",
            "city": "昌吉回族自治州",
            "district": "昌吉市"
        }
    },
    {
        "id": "7588045187300191871",
        "title": "公共厕所",
        "address": "新疆维吾尔自治区昌吉回族自治州昌吉市建国西路与美居巷交叉口西南方向342米左右",
        "tel": "",
        "category": "基础设施:公共设施:公共厕所",
        "type": 0,
        "location": {
            "lat": 44.006589,
            "lng": 87.27456
        },
        "ad_info": {
            "adcode": 652301,
            "province": "新疆维吾尔自治区",
            "city": "昌吉回族自治州",
            "district": "昌吉市"
        }
    },
    {
        "id": "16576931016335737973",
        "title": "公共厕所",
        "address": "新疆维吾尔自治区昌吉回族自治州呼图壁县昌华路与金星东巷交叉口正东方向93米左右",
        "tel": "",
        "category": "基础设施:公共设施:公共厕所",
        "type": 0,
        "location": {
            "lat": 44.188321,
            "lng": 86.891208
        },
        "ad_info": {
            "adcode": 652323,
            "province": "新疆维吾尔自治区",
            "city": "昌吉回族自治州",
            "district": "呼图壁县"
        }
    },
    {
        "id": "364307432609422227",
        "title": "公共厕所",
        "address": "新疆维吾尔自治区昌吉回族自治州昌吉市乌伊东路与麦芽巷交叉口西南方向112米左右",
        "tel": "",
        "category": "基础设施:公共设施:公共厕所",
        "type": 0,
        "location": {
            "lat": 44.003319,
            "lng": 87.31987
        },
        "ad_info": {
            "adcode": 652301,
            "province": "新疆维吾尔自治区",
            "city": "昌吉回族自治州",
            "district": "昌吉市"
        }
    },
    {
        "id": "905507989961622687",
        "title": "公共厕所",
        "address": "新疆维吾尔自治区昌吉回族自治州昌吉市春林巷与石河子西路交叉口正南方向72米左右",
        "tel": "",
        "category": "基础设施:公共设施:公共厕所",
        "type": 0,
        "location": {
            "lat": 43.982401,
            "lng": 87.290203
        },
        "ad_info": {
            "adcode": 652301,
            "province": "新疆维吾尔自治区",
            "city": "昌吉回族自治州",
            "district": "昌吉市"
        }
    },
    {
        "id": "12822287456512696867",
        "title": "公共厕所",
        "address": "新疆维吾尔自治区昌吉回族自治州昌吉市印刷厂巷与延安南路交叉口正北方向160米左右",
        "tel": "",
        "category": "基础设施:公共设施:公共厕所",
        "type": 0,
        "location": {
            "lat": 44.00656,
            "lng": 87.30782
        },
        "ad_info": {
            "adcode": 652301,
            "province": "新疆维吾尔自治区",
            "city": "昌吉回族自治州",
            "district": "昌吉市"
        }
    },
    {
        "id": "3647005785097740515",
        "title": "公共厕所",
        "address": "新疆维吾尔自治区昌吉回族自治州奇台县东大街与民主路交叉口正东方向122米左右",
        "tel": "",
        "category": "基础设施:公共设施:公共厕所",
        "type": 0,
        "location": {
            "lat": 44.024567,
            "lng": 89.593269
        },
        "ad_info": {
            "adcode": 652325,
            "province": "新疆维吾尔自治区",
            "city": "昌吉回族自治州",
            "district": "奇台县"
        }
    },
    {
        "id": "11400465437330464679",
        "title": "公共厕所",
        "address": "新疆维吾尔自治区昌吉回族自治州奇台县东风中街与东风北街交叉口东北方向55米左右",
        "tel": "",
        "category": "基础设施:公共设施:公共厕所",
        "type": 0,
        "location": {
            "lat": 44.028194,
            "lng": 89.583088
        },
        "ad_info": {
            "adcode": 652325,
            "province": "新疆维吾尔自治区",
            "city": "昌吉回族自治州",
            "district": "奇台县"
        }
    },
    {
        "id": "10191793803657835736",
        "title": "公共厕所",
        "address": "新疆维吾尔自治区昌吉回族自治州昌吉市北京南路与塔城西路交叉口西北方向219米左右",
        "tel": "",
        "category": "基础设施:公共设施:公共厕所",
        "type": 0,
        "location": {
            "lat": 43.990058,
            "lng": 87.28906
        },
        "ad_info": {
            "adcode": 652301,
            "province": "新疆维吾尔自治区",
            "city": "昌吉回族自治州",
            "district": "昌吉市"
        }
    },
    {
        "id": "8022758292945295926",
        "title": "公共厕所",
        "address": "新疆维吾尔自治区昌吉回族自治州呼图壁县东风大街与金星西巷交叉口正西方向73米左右",
        "tel": "",
        "category": "基础设施:公共设施:公共厕所",
        "type": 0,
        "location": {
            "lat": 44.191342,
            "lng": 86.888493
        },
        "ad_info": {
            "adcode": 652323,
            "province": "新疆维吾尔自治区",
            "city": "昌吉回族自治州",
            "district": "呼图壁县"
        }
    },
    {
        "id": "17069537473066577971",
        "title": "公共厕所",
        "address": "新疆维吾尔自治区昌吉回族自治州昌吉市健康东路绿园小区",
        "tel": "",
        "category": "基础设施:公共设施:公共厕所",
        "type": 0,
        "location": {
            "lat": 44.017919,
            "lng": 87.323275
        },
        "ad_info": {
            "adcode": 652301,
            "province": "新疆维吾尔自治区",
            "city": "昌吉回族自治州",
            "district": "昌吉市"
        }
    },
    {
        "id": "3116186386718227292",
        "title": "公共厕所",
        "address": "新疆维吾尔自治区昌吉回族自治州奇台县东大街与西大街交叉口正东方向49米左右",
        "tel": "",
        "category": "基础设施:公共设施:公共厕所",
        "type": 0,
        "location": {
            "lat": 44.023456,
            "lng": 89.594812
        },
        "ad_info": {
            "adcode": 652325,
            "province": "新疆维吾尔自治区",
            "city": "昌吉回族自治州",
            "district": "奇台县"
        }
    },
    {
        "id": "17285839350269871699",
        "title": "公共厕所",
        "address": "新疆维吾尔自治区昌吉回族自治州昌吉市青城东街与青城西街交叉口正北方向238米左右",
        "tel": "",
        "category": "基础设施:公共设施:公共厕所",
        "type": 0,
        "location": {
            "lat": 44.298778,
            "lng": 87.441694
        },
        "ad_info": {
            "adcode": 652301,
            "province": "新疆维吾尔自治区",
            "city": "昌吉回族自治州",
            "district": "昌吉市"
        }
    },
    {
        "id": "764159026974864752",
        "title": "公共厕所",
        "address": "新疆维吾尔自治区昌吉回族自治州昌吉市屯河路与文化东路交叉口西北方向360米左右",
        "tel": "",
        "category": "基础设施:公共设施:公共厕所",
        "type": 0,
        "location": {
            "lat": 44.01412,
            "lng": 87.328572
        },
        "ad_info": {
            "adcode": 652301,
            "province": "新疆维吾尔自治区",
            "city": "昌吉回族自治州",
            "district": "昌吉市"
        }
    },
    {
        "id": "14954788262783396326",
        "title": "公共厕所",
        "address": "新疆维吾尔自治区昌吉回族自治州呼图壁县园林路与锦华大道交叉口正北方向282米左右",
        "tel": "",
        "category": "基础设施:公共设施:公共厕所",
        "type": 0,
        "location": {
            "lat": 44.181005,
            "lng": 86.876901
        },
        "ad_info": {
            "adcode": 652323,
            "province": "新疆维吾尔自治区",
            "city": "昌吉回族自治州",
            "district": "呼图壁县"
        }
    },
    {
        "id": "4150665449400405515",
        "title": "公共厕所",
        "address": "新疆维吾尔自治区昌吉回族自治州木垒哈萨克自治县人民中路与幸福路交叉口西北方向44米左右",
        "tel": "",
        "category": "基础设施:公共设施:公共厕所",
        "type": 0,
        "location": {
            "lat": 43.837549,
            "lng": 90.28227
        },
        "ad_info": {
            "adcode": 652328,
            "province": "新疆维吾尔自治区",
            "city": "昌吉回族自治州",
            "district": "木垒哈萨克自治县"
        }
    },
    {
        "id": "7337467639999732886",
        "title": "公共厕所",
        "address": "新疆维吾尔自治区昌吉回族自治州昌吉市长宁路52号南侧",
        "tel": "",
        "category": "基础设施:公共设施:公共厕所",
        "type": 0,
        "location": {
            "lat": 44.006801,
            "lng": 87.292402
        },
        "ad_info": {
            "adcode": 652301,
            "province": "新疆维吾尔自治区",
            "city": "昌吉回族自治州",
            "district": "昌吉市"
        }
    },
    {
        "id": "6215300214821136699",
        "title": "公共厕所",
        "address": "新疆维吾尔自治区昌吉回族自治州昌吉市乌伊东路98号",
        "tel": "",
        "category": "基础设施:公共设施:公共厕所",
        "type": 0,
        "location": {
            "lat": 44.006844,
            "lng": 87.311116
        },
        "ad_info": {
            "adcode": 652301,
            "province": "新疆维吾尔自治区",
            "city": "昌吉回族自治州",
            "district": "昌吉市"
        }
    },
    {
        "id": "3450493322325658412",
        "title": "公共厕所",
        "address": "新疆维吾尔自治区昌吉回族自治州玛纳斯县中华东路与中华西路交叉口西南方向61米左右",
        "tel": "",
        "category": "基础设施:公共设施:公共厕所",
        "type": 0,
        "location": {
            "lat": 44.304091,
            "lng": 86.219072
        },
        "ad_info": {
            "adcode": 652324,
            "province": "新疆维吾尔自治区",
            "city": "昌吉回族自治州",
            "district": "玛纳斯县"
        }
    },
    {
        "id": "15617459725065909563",
        "title": "公共厕所",
        "address": "新疆维吾尔自治区昌吉回族自治州昌吉市北京南路与哈密西路交叉口正北方向90米左右",
        "tel": "",
        "category": "基础设施:公共设施:公共厕所",
        "type": 0,
        "location": {
            "lat": 43.968133,
            "lng": 87.274635
        },
        "ad_info": {
            "adcode": 652301,
            "province": "新疆维吾尔自治区",
            "city": "昌吉回族自治州",
            "district": "昌吉市"
        }
    },
    {
        "id": "12803199049297651627",
        "title": "公共厕所",
        "address": "新疆维吾尔自治区昌吉回族自治州昌吉市中山北路3号",
        "tel": "",
        "category": "基础设施:公共设施:公共厕所",
        "type": 0,
        "location": {
            "lat": 44.020051,
            "lng": 87.281662
        },
        "ad_info": {
            "adcode": 652301,
            "province": "新疆维吾尔自治区",
            "city": "昌吉回族自治州",
            "district": "昌吉市"
        }
    },
    {
        "id": "9931355826967246929",
        "title": "公共卫生间",
        "address": "新疆维吾尔自治区昌吉回族自治州昌吉市东方国际步行街与民生路交叉口正西方向37米左右",
        "tel": "",
        "category": "基础设施:公共设施:公共厕所",
        "type": 0,
        "location": {
            "lat": 43.996145,
            "lng": 87.313128
        },
        "ad_info": {
            "adcode": 652301,
            "province": "新疆维吾尔自治区",
            "city": "昌吉回族自治州",
            "district": "昌吉市"
        }
    },
    {
        "id": "8484850522600450033",
        "title": "公共厕所",
        "address": "新疆维吾尔自治区昌吉回族自治州昌吉市努尔加滑雪场一楼餐饮大厅",
        "tel": "",
        "category": "基础设施:公共设施:公共厕所",
        "type": 0,
        "location": {
            "lat": 43.853516,
            "lng": 87.087005
        },
        "ad_info": {
            "adcode": 652301,
            "province": "新疆维吾尔自治区",
            "city": "昌吉回族自治州",
            "district": "昌吉市"
        }
    },
    {
        "id": "3583605629026961028",
        "title": "公共厕所",
        "address": "新疆维吾尔自治区昌吉回族自治州昌吉市和田东路与和田西路交叉口东南方向126米左右",
        "tel": "",
        "category": "基础设施:公共设施:公共厕所",
        "type": 0,
        "location": {
            "lat": 43.97294,
            "lng": 87.268778
        },
        "ad_info": {
            "adcode": 652301,
            "province": "新疆维吾尔自治区",
            "city": "昌吉回族自治州",
            "district": "昌吉市"
        }
    },
    {
        "id": "7319852734945274439",
        "title": "公共厕所",
        "address": "新疆维吾尔自治区昌吉回族自治州昌吉市延安南路与建国东路交叉口西北方向57米左右",
        "tel": "",
        "category": "基础设施:公共设施:公共厕所",
        "type": 0,
        "location": {
            "lat": 44.001754,
            "lng": 87.306435
        },
        "ad_info": {
            "adcode": 652301,
            "province": "新疆维吾尔自治区",
            "city": "昌吉回族自治州",
            "district": "昌吉市"
        }
    },
    {
        "id": "7890599560952602190",
        "title": "公共厕所",
        "address": "新疆维吾尔自治区昌吉回族自治州木垒哈萨克自治县人民中路与民主路交叉口正东方向161米左右",
        "tel": "",
        "category": "基础设施:公共设施:公共厕所",
        "type": 0,
        "location": {
            "lat": 43.834006,
            "lng": 90.28421
        },
        "ad_info": {
            "adcode": 652328,
            "province": "新疆维吾尔自治区",
            "city": "昌吉回族自治州",
            "district": "木垒哈萨克自治县"
        }
    },
    {
        "id": "9253987232625597769",
        "title": "公共厕所",
        "address": "新疆维吾尔自治区昌吉回族自治州昌吉市华瑞东巷与华瑞南巷交叉口正东方向47米左右",
        "tel": "",
        "category": "基础设施:公共设施:公共厕所",
        "type": 0,
        "location": {
            "lat": 44.006424,
            "lng": 87.288369
        },
        "ad_info": {
            "adcode": 652301,
            "province": "新疆维吾尔自治区",
            "city": "昌吉回族自治州",
            "district": "昌吉市"
        }
    },
    {
        "id": "9523181931774809634",
        "title": "公共厕所",
        "address": "新疆维吾尔自治区昌吉回族自治州奇台县东风中街与东风南街交叉口正北方向41米左右",
        "tel": "",
        "category": "基础设施:公共设施:公共厕所",
        "type": 0,
        "location": {
            "lat": 44.023757,
            "lng": 89.582019
        },
        "ad_info": {
            "adcode": 652325,
            "province": "新疆维吾尔自治区",
            "city": "昌吉回族自治州",
            "district": "奇台县"
        }
    },
    {
        "id": "5162221682484152562",
        "title": "公共厕所",
        "address": "新疆维吾尔自治区昌吉回族自治州昌吉市石河子西路环宇·新天地",
        "tel": "",
        "category": "基础设施:公共设施:公共厕所",
        "type": 0,
        "location": {
            "lat": 43.984838,
            "lng": 87.284032
        },
        "ad_info": {
            "adcode": 652301,
            "province": "新疆维吾尔自治区",
            "city": "昌吉回族自治州",
            "district": "昌吉市"
        }
    },
    {
        "id": "541595814404908869",
        "title": "公共厕所",
        "address": "新疆维吾尔自治区昌吉回族自治州奇台县东风南街与健康西路交叉口正北方向38米左右",
        "tel": "",
        "category": "基础设施:公共设施:公共厕所",
        "type": 0,
        "location": {
            "lat": 44.014421,
            "lng": 89.581869
        },
        "ad_info": {
            "adcode": 652325,
            "province": "新疆维吾尔自治区",
            "city": "昌吉回族自治州",
            "district": "奇台县"
        }
    },
    {
        "id": "17055850460686991226",
        "title": "公共厕所",
        "address": "新疆维吾尔自治区昌吉回族自治州昌吉市都市胡杨林风景区",
        "tel": "",
        "category": "基础设施:公共设施:公共厕所",
        "type": 0,
        "location": {
            "lat": 44.290581,
            "lng": 87.259315
        },
        "ad_info": {
            "adcode": 652301,
            "province": "新疆维吾尔自治区",
            "city": "昌吉回族自治州",
            "district": "昌吉市"
        }
    },
    {
        "id": "16043645977450783344",
        "title": "公共厕所",
        "address": "新疆维吾尔自治区昌吉回族自治州昌吉市乌伊西路辅路与拥军路交叉口正西方向114米左右",
        "tel": "",
        "category": "基础设施:公共设施:公共厕所",
        "type": 0,
        "location": {
            "lat": 44.027548,
            "lng": 87.251621
        },
        "ad_info": {
            "adcode": 652301,
            "province": "新疆维吾尔自治区",
            "city": "昌吉回族自治州",
            "district": "昌吉市"
        }
    },
    {
        "id": "13183724273684075784",
        "title": "公共厕所",
        "address": "新疆维吾尔自治区昌吉回族自治州昌吉市延安南路与民生路步行街交叉口东北方向54米左右",
        "tel": "",
        "category": "基础设施:公共设施:公共厕所",
        "type": 0,
        "location": {
            "lat": 43.99645,
            "lng": 87.307297
        },
        "ad_info": {
            "adcode": 652301,
            "province": "新疆维吾尔自治区",
            "city": "昌吉回族自治州",
            "district": "昌吉市"
        }
    },
    {
        "id": "15880405164106109691",
        "title": "公共厕所",
        "address": "新疆维吾尔自治区昌吉回族自治州玛纳斯县建设西街新湖农场小学",
        "tel": "",
        "category": "基础设施:公共设施:公共厕所",
        "type": 0,
        "location": {
            "lat": 44.56873,
            "lng": 86.463177
        },
        "ad_info": {
            "adcode": 652324,
            "province": "新疆维吾尔自治区",
            "city": "昌吉回族自治州",
            "district": "玛纳斯县"
        }
    },
    {
        "id": "4608174866359177079",
        "title": "公共厕所",
        "address": "新疆维吾尔自治区昌吉回族自治州木垒哈萨克自治县人民中路与西河巷交叉口正东方向45米左右",
        "tel": "",
        "category": "基础设施:公共设施:公共厕所",
        "type": 0,
        "location": {
            "lat": 43.841526,
            "lng": 90.284738
        },
        "ad_info": {
            "adcode": 652328,
            "province": "新疆维吾尔自治区",
            "city": "昌吉回族自治州",
            "district": "木垒哈萨克自治县"
        }
    },
    {
        "id": "16755511941680690746",
        "title": "公共厕所",
        "address": "新疆维吾尔自治区昌吉回族自治州昌吉市电台路与纵二路交叉口正东方向397米左右",
        "tel": "",
        "category": "基础设施:公共设施:公共厕所",
        "type": 0,
        "location": {
            "lat": 44.063546,
            "lng": 87.391637
        },
        "ad_info": {
            "adcode": 652301,
            "province": "新疆维吾尔自治区",
            "city": "昌吉回族自治州",
            "district": "昌吉市"
        }
    },
    {
        "id": "11739056114010357474",
        "title": "公共厕所",
        "address": "新疆维吾尔自治区昌吉回族自治州奇台县东风中街与东风北街交叉口正南方向232米左右",
        "tel": "",
        "category": "基础设施:公共设施:公共厕所",
        "type": 0,
        "location": {
            "lat": 44.025686,
            "lng": 89.582295
        },
        "ad_info": {
            "adcode": 652325,
            "province": "新疆维吾尔自治区",
            "city": "昌吉回族自治州",
            "district": "奇台县"
        }
    },
    {
        "id": "12422751035712239556",
        "title": "公共厕所",
        "address": "新疆维吾尔自治区昌吉回族自治州吉木萨尔县文化西路与水电巷交叉口东南方向98米左右",
        "tel": "",
        "category": "基础设施:公共设施:公共厕所",
        "type": 0,
        "location": {
            "lat": 43.99428,
            "lng": 89.17916
        },
        "ad_info": {
            "adcode": 652327,
            "province": "新疆维吾尔自治区",
            "city": "昌吉回族自治州",
            "district": "吉木萨尔县"
        }
    },
    {
        "id": "7409562767961035060",
        "title": "公共厕所",
        "address": "新疆维吾尔自治区昌吉回族自治州昌吉市红旗西路与解放路交叉口正西方向90米左右",
        "tel": "",
        "category": "基础设施:公共设施:公共厕所",
        "type": 0,
        "location": {
            "lat": 44.028346,
            "lng": 87.299842
        },
        "ad_info": {
            "adcode": 652301,
            "province": "新疆维吾尔自治区",
            "city": "昌吉回族自治州",
            "district": "昌吉市"
        }
    },
    {
        "id": "9375549800798002982",
        "title": "公共厕所",
        "address": "新疆维吾尔自治区昌吉回族自治州奇台县G335与东关街交叉口东南方向1483米左右",
        "tel": "",
        "category": "基础设施:公共设施:公共厕所",
        "type": 0,
        "location": {
            "lat": 43.984231,
            "lng": 89.647408
        },
        "ad_info": {
            "adcode": 652325,
            "province": "新疆维吾尔自治区",
            "city": "昌吉回族自治州",
            "district": "奇台县"
        }
    },
    {
        "id": "16610735200141748541",
        "title": "公共厕所",
        "address": "新疆维吾尔自治区昌吉回族自治州木垒哈萨克自治县健康东路与民园南路交叉口正南方向54米左右",
        "tel": "",
        "category": "基础设施:公共设施:公共厕所",
        "type": 0,
        "location": {
            "lat": 43.83806,
            "lng": 90.28926
        },
        "ad_info": {
            "adcode": 652328,
            "province": "新疆维吾尔自治区",
            "city": "昌吉回族自治州",
            "district": "木垒哈萨克自治县"
        }
    },
    {
        "id": "8797401371013493567",
        "title": "公共厕所",
        "address": "新疆维吾尔自治区昌吉回族自治州玛纳斯县光明路与西藏路交叉口东南方向102米左右",
        "tel": "",
        "category": "基础设施:公共设施:公共厕所",
        "type": 0,
        "location": {
            "lat": 44.856328,
            "lng": 86.31513
        },
        "ad_info": {
            "adcode": 652324,
            "province": "新疆维吾尔自治区",
            "city": "昌吉回族自治州",
            "district": "玛纳斯县"
        }
    },
    {
        "id": "17759964970357890484",
        "title": "公共厕所",
        "address": "新疆维吾尔自治区昌吉回族自治州木垒哈萨克自治县人民南路西50米",
        "tel": "",
        "category": "基础设施:公共设施:公共厕所",
        "type": 0,
        "location": {
            "lat": 43.82882,
            "lng": 90.28121
        },
        "ad_info": {
            "adcode": 652328,
            "province": "新疆维吾尔自治区",
            "city": "昌吉回族自治州",
            "district": "木垒哈萨克自治县"
        }
    },
    {
        "id": "9929829616545670264",
        "title": "公共厕所",
        "address": "新疆维吾尔自治区昌吉回族自治州吉木萨尔县北庭路与老仓库巷交叉口正西方向37米左右",
        "tel": "",
        "category": "基础设施:公共设施:公共厕所",
        "type": 0,
        "location": {
            "lat": 43.997638,
            "lng": 89.181538
        },
        "ad_info": {
            "adcode": 652327,
            "province": "新疆维吾尔自治区",
            "city": "昌吉回族自治州",
            "district": "吉木萨尔县"
        }
    },
    {
        "id": "16805195051383837998",
        "title": "公共厕所",
        "address": "新疆维吾尔自治区昌吉回族自治州呼图壁县东风大街与呼芳路交叉口正南方向62米左右",
        "tel": "",
        "category": "基础设施:公共设施:公共厕所",
        "type": 0,
        "location": {
            "lat": 44.190565,
            "lng": 86.902609
        },
        "ad_info": {
            "adcode": 652323,
            "province": "新疆维吾尔自治区",
            "city": "昌吉回族自治州",
            "district": "呼图壁县"
        }
    },
    {
        "id": "15793475261946107183",
        "title": "公共厕所",
        "address": "新疆维吾尔自治区昌吉回族自治州玛纳斯县团结北路与太平巷交叉口东南方向63米左右",
        "tel": "",
        "category": "基础设施:公共设施:公共厕所",
        "type": 0,
        "location": {
            "lat": 44.30852,
            "lng": 86.219973
        },
        "ad_info": {
            "adcode": 652324,
            "province": "新疆维吾尔自治区",
            "city": "昌吉回族自治州",
            "district": "玛纳斯县"
        }
    },
    {
        "id": "18437908237868374954",
        "title": "公共厕所",
        "address": "新疆维吾尔自治区昌吉回族自治州玛纳斯县西藏路与长江北路交叉口东南方向237米左右",
        "tel": "",
        "category": "基础设施:公共设施:公共厕所",
        "type": 0,
        "location": {
            "lat": 44.859639,
            "lng": 86.308779
        },
        "ad_info": {
            "adcode": 652324,
            "province": "新疆维吾尔自治区",
            "city": "昌吉回族自治州",
            "district": "玛纳斯县"
        }
    },
    {
        "id": "17359510003947713009",
        "title": "公共厕所",
        "address": "新疆维吾尔自治区昌吉回族自治州吉木萨尔县北大高速与火烧山立交桥交叉口正南方向666米左右",
        "tel": "",
        "category": "基础设施:公共设施:公共厕所",
        "type": 0,
        "location": {
            "lat": 44.880329,
            "lng": 89.021546
        },
        "ad_info": {
            "adcode": 652327,
            "province": "新疆维吾尔自治区",
            "city": "昌吉回族自治州",
            "district": "吉木萨尔县"
        }
    },
    {
        "id": "8148408361882629794",
        "title": "公共厕所",
        "address": "新疆维吾尔自治区昌吉回族自治州吉木萨尔县泉子街乔家大院逍遥谷",
        "tel": "",
        "category": "基础设施:公共设施:公共厕所",
        "type": 0,
        "location": {
            "lat": 43.828707,
            "lng": 89.138877
        },
        "ad_info": {
            "adcode": 652327,
            "province": "新疆维吾尔自治区",
            "city": "昌吉回族自治州",
            "district": "吉木萨尔县"
        }
    },
    {
        "id": "8207310217289348229",
        "title": "公共厕所",
        "address": "新疆维吾尔自治区昌吉回族自治州玛纳斯县新捷燃气第704加气站东南侧280米",
        "tel": "",
        "category": "基础设施:公共设施:公共厕所",
        "type": 0,
        "location": {
            "lat": 44.567326,
            "lng": 86.078093
        },
        "ad_info": {
            "adcode": 652324,
            "province": "新疆维吾尔自治区",
            "city": "昌吉回族自治州",
            "district": "玛纳斯县"
        }
    },
    {
        "id": "12253525197825774961",
        "title": "公共厕所",
        "address": "新疆维吾尔自治区昌吉回族自治州呼图壁县东风大街与沙舟路交叉口东南方向51米左右",
        "tel": "",
        "category": "基础设施:公共设施:公共厕所",
        "type": 0,
        "location": {
            "lat": 44.190118,
            "lng": 86.919479
        },
        "ad_info": {
            "adcode": 652323,
            "province": "新疆维吾尔自治区",
            "city": "昌吉回族自治州",
            "district": "呼图壁县"
        }
    },
    {
        "id": "6247503159953601947",
        "title": "公共厕所",
        "address": "新疆维吾尔自治区昌吉回族自治州呼图壁县S201与Z901交叉口正北方向41米左右",
        "tel": "",
        "category": "基础设施:公共设施:公共厕所",
        "type": 0,
        "location": {
            "lat": 44.197333,
            "lng": 86.698708
        },
        "ad_info": {
            "adcode": 652323,
            "province": "新疆维吾尔自治区",
            "city": "昌吉回族自治州",
            "district": "呼图壁县"
        }
    },
    {
        "id": "1740049952698360503",
        "title": "公共厕所",
        "address": "新疆维吾尔自治区昌吉回族自治州玛纳斯县建设西街与花园南路交叉口东南方向55米左右",
        "tel": "",
        "category": "基础设施:公共设施:公共厕所",
        "type": 0,
        "location": {
            "lat": 44.568922,
            "lng": 86.460805
        },
        "ad_info": {
            "adcode": 652324,
            "province": "新疆维吾尔自治区",
            "city": "昌吉回族自治州",
            "district": "玛纳斯县"
        }
    },
    {
        "id": "4760816671470469232",
        "title": "公共厕所(XJ-CJ-0456)",
        "address": "新疆维吾尔自治区昌吉回族自治州玛纳斯县黑梁湾山庄东北侧220米",
        "tel": "",
        "category": "基础设施:公共设施:公共厕所",
        "type": 0,
        "location": {
            "lat": 44.187451,
            "lng": 86.27939
        },
        "ad_info": {
            "adcode": 652324,
            "province": "新疆维吾尔自治区",
            "city": "昌吉回族自治州",
            "district": "玛纳斯县"
        }
    },
    {
        "id": "14085186756779664484",
        "title": "公共厕所",
        "address": "新疆维吾尔自治区昌吉回族自治州吉木萨尔县文明路与苇湖巷交叉口正西方向73米左右",
        "tel": "",
        "category": "基础设施:公共设施:公共厕所",
        "type": 0,
        "location": {
            "lat": 43.999086,
            "lng": 89.184496
        },
        "ad_info": {
            "adcode": 652327,
            "province": "新疆维吾尔自治区",
            "city": "昌吉回族自治州",
            "district": "吉木萨尔县"
        }
    },
    {
        "id": "17521077514468216775",
        "title": "公共厕所",
        "address": "新疆维吾尔自治区昌吉回族自治州木垒哈萨克自治县人民中路与人民南路交叉口正西方向102米左右",
        "tel": "",
        "category": "基础设施:公共设施:公共厕所",
        "type": 0,
        "location": {
            "lat": 43.825502,
            "lng": 90.279951
        },
        "ad_info": {
            "adcode": 652328,
            "province": "新疆维吾尔自治区",
            "city": "昌吉回族自治州",
            "district": "木垒哈萨克自治县"
        }
    },
    {
        "id": "17767010447878773529",
        "title": "公共厕所",
        "address": "新疆维吾尔自治区昌吉回族自治州玛纳斯县029乡道与201省道交叉口东南200米",
        "tel": "",
        "category": "基础设施:公共设施:公共厕所",
        "type": 0,
        "location": {
            "lat": 44.352049,
            "lng": 86.449489
        },
        "ad_info": {
            "adcode": 652324,
            "province": "新疆维吾尔自治区",
            "city": "昌吉回族自治州",
            "district": "玛纳斯县"
        }
    },
    {
        "id": "614810954097174939",
        "title": "公共厕所",
        "address": "新疆维吾尔自治区昌吉回族自治州玛纳斯县G576与玛纳斯河大桥交叉口正南方向1863米左右",
        "tel": "",
        "category": "基础设施:公共设施:公共厕所",
        "type": 0,
        "location": {
            "lat": 44.568186,
            "lng": 86.077737
        },
        "ad_info": {
            "adcode": 652324,
            "province": "新疆维吾尔自治区",
            "city": "昌吉回族自治州",
            "district": "玛纳斯县"
        }
    },
    {
        "id": "12012068731167220271",
        "title": "公共厕所",
        "address": "新疆维吾尔自治区昌吉回族自治州昌吉市华瑞北巷与商城路交叉口西北方向183米左右",
        "tel": "",
        "category": "基础设施:公共设施:公共厕所",
        "type": 0,
        "location": {
            "lat": 44.010567,
            "lng": 87.288057
        },
        "ad_info": {
            "adcode": 652301,
            "province": "新疆维吾尔自治区",
            "city": "昌吉回族自治州",
            "district": "昌吉市"
        }
    },
    {
        "id": "16853535739055141281",
        "title": "公共厕所",
        "address": "新疆维吾尔自治区昌吉回族自治州昌吉市延安北路301号",
        "tel": "",
        "category": "基础设施:公共设施:公共厕所",
        "type": 0,
        "location": {
            "lat": 44.020722,
            "lng": 87.308572
        },
        "ad_info": {
            "adcode": 652301,
            "province": "新疆维吾尔自治区",
            "city": "昌吉回族自治州",
            "district": "昌吉市"
        }
    },
    {
        "id": "12358299806481804153",
        "title": "旅游厕所",
        "address": "新疆维吾尔自治区昌吉回族自治州昌吉市宁边西路与青年北路交叉口正南方向183米左右",
        "tel": "",
        "category": "基础设施:公共设施:公共厕所",
        "type": 0,
        "location": {
            "lat": 44.022709,
            "lng": 87.297667
        },
        "ad_info": {
            "adcode": 652301,
            "province": "新疆维吾尔自治区",
            "city": "昌吉回族自治州",
            "district": "昌吉市"
        }
    },
    {
        "id": "7857203503342453093",
        "title": "公共厕所",
        "address": "新疆维吾尔自治区昌吉回族自治州阜康市惠丰巷与民族巷交叉口正东方向76米左右",
        "tel": "",
        "category": "基础设施:公共设施:公共厕所",
        "type": 0,
        "location": {
            "lat": 44.154045,
            "lng": 87.984396
        },
        "ad_info": {
            "adcode": 652302,
            "province": "新疆维吾尔自治区",
            "city": "昌吉回族自治州",
            "district": "阜康市"
        }
    },
    {
        "id": "13165480069713655552",
        "title": "公共厕所",
        "address": "新疆维吾尔自治区昌吉回族自治州阜康市团结路与天山街交叉口西北方向36米左右",
        "tel": "",
        "category": "基础设施:公共设施:公共厕所",
        "type": 0,
        "location": {
            "lat": 44.154522,
            "lng": 87.985666
        },
        "ad_info": {
            "adcode": 652302,
            "province": "新疆维吾尔自治区",
            "city": "昌吉回族自治州",
            "district": "阜康市"
        }
    },
    {
        "id": "4519101780322247315",
        "title": "旅游公共厕所",
        "address": "新疆维吾尔自治区昌吉回族自治州昌吉市健康东路与健康西路交叉口正东方向135米左右",
        "tel": "",
        "category": "基础设施:公共设施:公共厕所",
        "type": 0,
        "location": {
            "lat": 44.019703,
            "lng": 87.310421
        },
        "ad_info": {
            "adcode": 652301,
            "province": "新疆维吾尔自治区",
            "city": "昌吉回族自治州",
            "district": "昌吉市"
        }
    },
    {
        "id": "10638371352698521966",
        "title": "旅游厕所",
        "address": "新疆维吾尔自治区昌吉回族自治州昌吉市净化路与宁边东路交叉口东北方向61米左右",
        "tel": "",
        "category": "基础设施:公共设施:公共厕所",
        "type": 0,
        "location": {
            "lat": 44.023633,
            "lng": 87.323039
        },
        "ad_info": {
            "adcode": 652301,
            "province": "新疆维吾尔自治区",
            "city": "昌吉回族自治州",
            "district": "昌吉市"
        }
    },
    {
        "id": "9709544066660646319",
        "title": "旅游公共厕所",
        "address": "新疆维吾尔自治区昌吉回族自治州昌吉市七工巷与建设路交叉口正南方向145米左右",
        "tel": "",
        "category": "基础设施:公共设施:公共厕所",
        "type": 0,
        "location": {
            "lat": 44.016703,
            "lng": 87.314366
        },
        "ad_info": {
            "adcode": 652301,
            "province": "新疆维吾尔自治区",
            "city": "昌吉回族自治州",
            "district": "昌吉市"
        }
    },
    {
        "id": "153238835255898165",
        "title": "公共厕所",
        "address": "新疆维吾尔自治区昌吉回族自治州呼图壁县东市路与呼芳路交叉口正北方向104米左右",
        "tel": "",
        "category": "基础设施:公共设施:公共厕所",
        "type": 0,
        "location": {
            "lat": 44.187763,
            "lng": 86.901632
        },
        "ad_info": {
            "adcode": 652323,
            "province": "新疆维吾尔自治区",
            "city": "昌吉回族自治州",
            "district": "呼图壁县"
        }
    },
    {
        "id": "8386443562486894502",
        "title": "公共厕所",
        "address": "新疆维吾尔自治区昌吉回族自治州呼图壁县东风大街与园林路交叉口正西方向75米左右",
        "tel": "",
        "category": "基础设施:公共设施:公共厕所",
        "type": 0,
        "location": {
            "lat": 44.191666,
            "lng": 86.877126
        },
        "ad_info": {
            "adcode": 652323,
            "province": "新疆维吾尔自治区",
            "city": "昌吉回族自治州",
            "district": "呼图壁县"
        }
    },
    {
        "id": "4857943980554570715",
        "title": "公共厕所",
        "address": "新疆维吾尔自治区昌吉回族自治州阜康市准噶尔路与迎宾路交叉口西南方向112米左右",
        "tel": "",
        "category": "基础设施:公共设施:公共厕所",
        "type": 0,
        "location": {
            "lat": 44.149434,
            "lng": 87.973002
        },
        "ad_info": {
            "adcode": 652302,
            "province": "新疆维吾尔自治区",
            "city": "昌吉回族自治州",
            "district": "阜康市"
        }
    },
    {
        "id": "14142842854184437705",
        "title": "公共厕所(和谐文化广场)",
        "address": "新疆维吾尔自治区昌吉回族自治州玛纳斯县中心路与友好路交叉口正南方向166米左右",
        "tel": "",
        "category": "基础设施:公共设施:公共厕所",
        "type": 0,
        "location": {
            "lat": 45.012938,
            "lng": 86.110055
        },
        "ad_info": {
            "adcode": 652324,
            "province": "新疆维吾尔自治区",
            "city": "昌吉回族自治州",
            "district": "玛纳斯县"
        }
    },
    {
        "id": "4482216431518798699",
        "title": "公共厕所",
        "address": "新疆维吾尔自治区昌吉回族自治州阜康市天池街与特纳格尔街交叉口东北方向131米左右",
        "tel": "",
        "category": "基础设施:公共设施:公共厕所",
        "type": 0,
        "location": {
            "lat": 44.155386,
            "lng": 87.982449
        },
        "ad_info": {
            "adcode": 652302,
            "province": "新疆维吾尔自治区",
            "city": "昌吉回族自治州",
            "district": "阜康市"
        }
    },
    {
        "id": "13096484966945571467",
        "title": "旅游公共厕所",
        "address": "新疆维吾尔自治区昌吉回族自治州昌吉市乌伊西路与滨河北路交叉口西南方向84米左右",
        "tel": "",
        "category": "基础设施:公共设施:公共厕所",
        "type": 0,
        "location": {
            "lat": 44.018982,
            "lng": 87.275406
        },
        "ad_info": {
            "adcode": 652301,
            "province": "新疆维吾尔自治区",
            "city": "昌吉回族自治州",
            "district": "昌吉市"
        }
    },
    {
        "id": "12667112711958973845",
        "title": "公共厕所",
        "address": "新疆维吾尔自治区昌吉回族自治州昌吉市宁边西路与生产街交叉口西南方向66米左右",
        "tel": "",
        "category": "基础设施:公共设施:公共厕所",
        "type": 0,
        "location": {
            "lat": 44.024128,
            "lng": 87.296137
        },
        "ad_info": {
            "adcode": 652301,
            "province": "新疆维吾尔自治区",
            "city": "昌吉回族自治州",
            "district": "昌吉市"
        }
    },
    {
        "id": "7650743260242737719",
        "title": "公共厕所",
        "address": "新疆维吾尔自治区昌吉回族自治州阜康市城北路与民主路交叉口西南方向20米左右",
        "tel": "",
        "category": "基础设施:公共设施:公共厕所",
        "type": 0,
        "location": {
            "lat": 44.159121,
            "lng": 87.977636
        },
        "ad_info": {
            "adcode": 652302,
            "province": "新疆维吾尔自治区",
            "city": "昌吉回族自治州",
            "district": "阜康市"
        }
    },
    {
        "id": "10606817882640008705",
        "title": "公共厕所",
        "address": "新疆维吾尔自治区昌吉回族自治州阜康市城北路与迎宾路交叉口正东方向103米左右",
        "tel": "",
        "category": "基础设施:公共设施:公共厕所",
        "type": 0,
        "location": {
            "lat": 44.158998,
            "lng": 87.97544
        },
        "ad_info": {
            "adcode": 652302,
            "province": "新疆维吾尔自治区",
            "city": "昌吉回族自治州",
            "district": "阜康市"
        }
    },
    {
        "id": "13535326355870027970",
        "title": "公共厕所",
        "address": "新疆维吾尔自治区昌吉回族自治州阜康市城北路与天池街交叉口正南方向83米左右",
        "tel": "",
        "category": "基础设施:公共设施:公共厕所",
        "type": 0,
        "location": {
            "lat": 44.158502,
            "lng": 87.980937
        },
        "ad_info": {
            "adcode": 652302,
            "province": "新疆维吾尔自治区",
            "city": "昌吉回族自治州",
            "district": "阜康市"
        }
    },
    {
        "id": "8592870976451234117",
        "title": "公共厕所",
        "address": "新疆维吾尔自治区昌吉回族自治州阜康市准噶尔路与天山南街交叉口正北方向110米左右",
        "tel": "",
        "category": "基础设施:公共设施:公共厕所",
        "type": 0,
        "location": {
            "lat": 44.152797,
            "lng": 87.986332
        },
        "ad_info": {
            "adcode": 652302,
            "province": "新疆维吾尔自治区",
            "city": "昌吉回族自治州",
            "district": "阜康市"
        }
    },
    {
        "id": "16702848547814240885",
        "title": "公共厕所",
        "address": "新疆维吾尔自治区昌吉回族自治州阜康市S111与天池立交桥交叉口正西方向117米左右",
        "tel": "",
        "category": "基础设施:公共设施:公共厕所",
        "type": 0,
        "location": {
            "lat": 44.133319,
            "lng": 88.043492
        },
        "ad_info": {
            "adcode": 652302,
            "province": "新疆维吾尔自治区",
            "city": "昌吉回族自治州",
            "district": "阜康市"
        }
    },
    {
        "id": "17549946666605264605",
        "title": "公共厕所",
        "address": "新疆维吾尔自治区昌吉回族自治州阜康市博峰西路与友谊路交叉口东北方向927米左右",
        "tel": "",
        "category": "基础设施:公共设施:公共厕所",
        "type": 0,
        "location": {
            "lat": 44.150898,
            "lng": 87.908828
        },
        "ad_info": {
            "adcode": 652302,
            "province": "新疆维吾尔自治区",
            "city": "昌吉回族自治州",
            "district": "阜康市"
        }
    },
    {
        "id": "3966274409538823020",
        "title": "智能环保公共厕所",
        "address": "新疆维吾尔自治区昌吉回族自治州吉木萨尔县孚远路与文明路交叉口正东方向146米左右",
        "tel": "",
        "category": "基础设施:公共设施:公共厕所",
        "type": 0,
        "location": {
            "lat": 43.999744,
            "lng": 89.171262
        },
        "ad_info": {
            "adcode": 652327,
            "province": "新疆维吾尔自治区",
            "city": "昌吉回族自治州",
            "district": "吉木萨尔县"
        }
    },
    {
        "id": "9725369408099382431",
        "title": "公共厕所",
        "address": "新疆维吾尔自治区昌吉回族自治州阜康市团结路与新村路交叉口西北方向28米左右",
        "tel": "",
        "category": "基础设施:公共设施:公共厕所",
        "type": 0,
        "location": {
            "lat": 44.154529,
            "lng": 87.99264
        },
        "ad_info": {
            "adcode": 652302,
            "province": "新疆维吾尔自治区",
            "city": "昌吉回族自治州",
            "district": "阜康市"
        }
    },
    {
        "id": "6470144270956172074",
        "title": "公共厕所",
        "address": "新疆维吾尔自治区昌吉回族自治州阜康市文化路与阜新路交叉口正南方向300米左右",
        "tel": "",
        "category": "基础设施:公共设施:公共厕所",
        "type": 0,
        "location": {
            "lat": 44.146168,
            "lng": 87.991587
        },
        "ad_info": {
            "adcode": 652302,
            "province": "新疆维吾尔自治区",
            "city": "昌吉回族自治州",
            "district": "阜康市"
        }
    },
    {
        "id": "15507229629955812332",
        "title": "无障碍公共厕所",
        "address": "新疆维吾尔自治区昌吉回族自治州昌吉市服装百货精品街与亚中巷交叉口西北方向40米",
        "tel": "",
        "category": "基础设施:公共设施:公共厕所",
        "type": 0,
        "location": {
            "lat": 44.012436,
            "lng": 87.292336
        },
        "ad_info": {
            "adcode": 652301,
            "province": "新疆维吾尔自治区",
            "city": "昌吉回族自治州",
            "district": "昌吉市"
        }
    },
    {
        "id": "16241867204964840261",
        "title": "五工台服务区公共厕所",
        "address": "新疆维吾尔自治区昌吉回族自治州呼图壁县连霍高速公路五工台服务区",
        "tel": "",
        "category": "基础设施:公共设施:公共厕所",
        "type": 0,
        "location": {
            "lat": 44.16947,
            "lng": 86.793799
        },
        "ad_info": {
            "adcode": 652323,
            "province": "新疆维吾尔自治区",
            "city": "昌吉回族自治州",
            "district": "呼图壁县"
        }
    },
    {
        "id": "4897180869099689722",
        "title": "公共厕所",
        "address": "新疆维吾尔自治区昌吉回族自治州阜康市Y112附近",
        "tel": "",
        "category": "基础设施:公共设施:公共厕所",
        "type": 0,
        "location": {
            "lat": 43.981906,
            "lng": 88.064967
        },
        "ad_info": {
            "adcode": 652302,
            "province": "新疆维吾尔自治区",
            "city": "昌吉回族自治州",
            "district": "阜康市"
        }
    },
    {
        "id": "17934705679961081784",
        "title": "公共厕所",
        "address": "新疆维吾尔自治区昌吉回族自治州阜康市准噶尔路与天池南街交叉口正南方向85米左右",
        "tel": "",
        "category": "基础设施:公共设施:公共厕所",
        "type": 0,
        "location": {
            "lat": 44.150529,
            "lng": 87.982208
        },
        "ad_info": {
            "adcode": 652302,
            "province": "新疆维吾尔自治区",
            "city": "昌吉回族自治州",
            "district": "阜康市"
        }
    },
    {
        "id": "14262166580043244956",
        "title": "三个庄子服务区第一公共厕所",
        "address": "新疆维吾尔自治区昌吉回族自治州奇台县大奇高速附近",
        "tel": "",
        "category": "基础设施:公共设施:公共厕所",
        "type": 0,
        "location": {
            "lat": 43.916473,
            "lng": 89.889917
        },
        "ad_info": {
            "adcode": 652325,
            "province": "新疆维吾尔自治区",
            "city": "昌吉回族自治州",
            "district": "奇台县"
        }
    },
    {
        "id": "14010555278950958461",
        "title": "三个庄子服务区公共厕所",
        "address": "新疆维吾尔自治区昌吉回族自治州奇台县大奇高速南100米",
        "tel": "",
        "category": "基础设施:公共设施:公共厕所",
        "type": 0,
        "location": {
            "lat": 43.914806,
            "lng": 89.890865
        },
        "ad_info": {
            "adcode": 652325,
            "province": "新疆维吾尔自治区",
            "city": "昌吉回族自治州",
            "district": "奇台县"
        }
    },
    {
        "id": "8611889148725143368",
        "title": "吉木萨尔服务区公共厕所",
        "address": "新疆维吾尔自治区昌吉回族自治州吉木萨尔县京新高速吉木萨尔服务区",
        "tel": "",
        "category": "基础设施:公共设施:公共厕所",
        "type": 0,
        "location": {
            "lat": 43.962039,
            "lng": 89.25985
        },
        "ad_info": {
            "adcode": 652327,
            "province": "新疆维吾尔自治区",
            "city": "昌吉回族自治州",
            "district": "吉木萨尔县"
        }
    },
    {
        "id": "14795856317629529869",
        "title": "五彩湾服务区公共厕所",
        "address": "新疆维吾尔自治区昌吉回族自治州吉木萨尔县G216与规划路交叉口正西方向627米左右",
        "tel": "",
        "category": "基础设施:公共设施:公共厕所",
        "type": 0,
        "location": {
            "lat": 44.75187,
            "lng": 88.83635
        },
        "ad_info": {
            "adcode": 652327,
            "province": "新疆维吾尔自治区",
            "city": "昌吉回族自治州",
            "district": "吉木萨尔县"
        }
    },
    {
        "id": "16416961369156404113",
        "title": "阜康服务区公共厕所",
        "address": "新疆维吾尔自治区昌吉回族自治州阜康市新捷恒信燃气阜康服务区加气站西侧60米",
        "tel": "",
        "category": "基础设施:公共设施:公共厕所",
        "type": 0,
        "location": {
            "lat": 44.139637,
            "lng": 87.9992
        },
        "ad_info": {
            "adcode": 652302,
            "province": "新疆维吾尔自治区",
            "city": "昌吉回族自治州",
            "district": "阜康市"
        }
    },
    {
        "id": "11390217371018393390",
        "title": "大黄山服务区公共厕所",
        "address": "新疆维吾尔自治区昌吉回族自治州阜康市吐乌大高速附近",
        "tel": "",
        "category": "基础设施:公共设施:公共厕所",
        "type": 0,
        "location": {
            "lat": 44.101837,
            "lng": 88.626776
        },
        "ad_info": {
            "adcode": 652302,
            "province": "新疆维吾尔自治区",
            "city": "昌吉回族自治州",
            "district": "阜康市"
        }
    },
    {
        "id": "18390856890322937679",
        "title": "阜康服务区公共厕所",
        "address": "新疆维吾尔自治区昌吉回族自治州阜康市阜康之星航天陨石科普馆东北侧",
        "tel": "",
        "category": "基础设施:公共设施:公共厕所",
        "type": 0,
        "location": {
            "lat": 44.138208,
            "lng": 87.997902
        },
        "ad_info": {
            "adcode": 652302,
            "province": "新疆维吾尔自治区",
            "city": "昌吉回族自治州",
            "district": "阜康市"
        }
    },
    {
        "id": "8997817501733255599",
        "title": "公共厕所",
        "address": "新疆维吾尔自治区昌吉回族自治州奇台县东大街与民主路交叉口正西方向121米左右",
        "tel": "",
        "category": "基础设施:公共设施:公共厕所",
        "type": 0,
        "location": {
            "lat": 44.02451,
            "lng": 89.590271
        },
        "ad_info": {
            "adcode": 652325,
            "province": "新疆维吾尔自治区",
            "city": "昌吉回族自治州",
            "district": "奇台县"
        }
    },
    {
        "id": "1922371104793772229",
        "title": "公共厕所",
        "address": "新疆维吾尔自治区昌吉回族自治州昌吉市健康东路与建设路交叉口正北方向101米左右",
        "tel": "",
        "category": "基础设施:公共设施:公共厕所",
        "type": 0,
        "location": {
            "lat": 44.020091,
            "lng": 87.315437
        },
        "ad_info": {
            "adcode": 652301,
            "province": "新疆维吾尔自治区",
            "city": "昌吉回族自治州",
            "district": "昌吉市"
        }
    },
    {
        "id": "15827406689807778876",
        "title": "公共卫生间",
        "address": "新疆维吾尔自治区昌吉回族自治州昌吉市南公园西路与德政路交叉口东北方向187米左右",
        "tel": "",
        "category": "基础设施:公共设施:公共厕所",
        "type": 0,
        "location": {
            "lat": 44.008909,
            "lng": 87.260407
        },
        "ad_info": {
            "adcode": 652301,
            "province": "新疆维吾尔自治区",
            "city": "昌吉回族自治州",
            "district": "昌吉市"
        }
    },
    {
        "id": "12791266480254243169",
        "title": "公共厕所",
        "address": "新疆维吾尔自治区昌吉回族自治州吉木萨尔县北庭路与规划路交叉口正西方向116米左右",
        "tel": "",
        "category": "基础设施:公共设施:公共厕所",
        "type": 0,
        "location": {
            "lat": 43.994372,
            "lng": 89.180095
        },
        "ad_info": {
            "adcode": 652327,
            "province": "新疆维吾尔自治区",
            "city": "昌吉回族自治州",
            "district": "吉木萨尔县"
        }
    },
    {
        "id": "4465836430694435108",
        "title": "公共厕所",
        "address": "新疆维吾尔自治区昌吉回族自治州奇台县古城中街与西关街交叉口正北方向73米左右",
        "tel": "",
        "category": "基础设施:公共设施:公共厕所",
        "type": 0,
        "location": {
            "lat": 44.02816,
            "lng": 89.585755
        },
        "ad_info": {
            "adcode": 652325,
            "province": "新疆维吾尔自治区",
            "city": "昌吉回族自治州",
            "district": "奇台县"
        }
    },
    {
        "id": "15648438049167250648",
        "title": "麦当劳(莺歌文化店)-洗手间",
        "address": "新疆维吾尔自治区昌吉回族自治州玛纳斯县振兴西路与振兴路交叉口正南方向102米左右",
        "tel": "",
        "category": "基础设施:公共设施:公共厕所",
        "type": 0,
        "location": {
            "lat": 44.309947,
            "lng": 86.215913
        },
        "ad_info": {
            "adcode": 652324,
            "province": "新疆维吾尔自治区",
            "city": "昌吉回族自治州",
            "district": "玛纳斯县"
        }
    },
    {
        "id": "16025013297828168046",
        "title": "公共厕所",
        "address": "新疆维吾尔自治区昌吉回族自治州昌吉市北京南路与宁苑巷交叉口正西方向202米左右",
        "tel": "",
        "category": "基础设施:公共设施:公共厕所",
        "type": 0,
        "location": {
            "lat": 43.980909,
            "lng": 87.281558
        },
        "ad_info": {
            "adcode": 652301,
            "province": "新疆维吾尔自治区",
            "city": "昌吉回族自治州",
            "district": "昌吉市"
        }
    },
    {
        "id": "3687890758338845937",
        "title": "公共厕所",
        "address": "新疆维吾尔自治区昌吉回族自治州奇台县天山北路与新建二巷交叉口东北方向113米左右",
        "tel": "",
        "category": "基础设施:公共设施:公共厕所",
        "type": 0,
        "location": {
            "lat": 44.01739,
            "lng": 89.592905
        },
        "ad_info": {
            "adcode": 652325,
            "province": "新疆维吾尔自治区",
            "city": "昌吉回族自治州",
            "district": "奇台县"
        }
    },
    {
        "id": "17621946532412479585",
        "title": "公共厕所",
        "address": "新疆维吾尔自治区昌吉回族自治州吉木萨尔县新铝二路与脱硫东路交叉口正南方向314米左右",
        "tel": "",
        "category": "基础设施:公共设施:公共厕所",
        "type": 0,
        "location": {
            "lat": 44.683625,
            "lng": 89.12001
        },
        "ad_info": {
            "adcode": 652327,
            "province": "新疆维吾尔自治区",
            "city": "昌吉回族自治州",
            "district": "吉木萨尔县"
        }
    },
    {
        "id": "9169799128546678687",
        "title": "公共厕所",
        "address": "新疆维吾尔自治区昌吉回族自治州阜康市G216与X132交叉口正西方向96米左右",
        "tel": "",
        "category": "基础设施:公共设施:公共厕所",
        "type": 0,
        "location": {
            "lat": 44.148981,
            "lng": 88.22952
        },
        "ad_info": {
            "adcode": 652302,
            "province": "新疆维吾尔自治区",
            "city": "昌吉回族自治州",
            "district": "阜康市"
        }
    },
    {
        "id": "15497204147085705887",
        "title": "公共厕所",
        "address": "新疆维吾尔自治区昌吉回族自治州奇台县东大街与古城中街交叉口西南方向39米左右",
        "tel": "",
        "category": "基础设施:公共设施:公共厕所",
        "type": 0,
        "location": {
            "lat": 44.026253,
            "lng": 89.585564
        },
        "ad_info": {
            "adcode": 652325,
            "province": "新疆维吾尔自治区",
            "city": "昌吉回族自治州",
            "district": "奇台县"
        }
    },
    {
        "id": "46063627093104199",
        "title": "五彩湾服务区公共厕所",
        "address": "新疆维吾尔自治区昌吉回族自治州吉木萨尔县G216与规划路交叉口正西方向638米左右",
        "tel": "",
        "category": "基础设施:公共设施:公共厕所",
        "type": 0,
        "location": {
            "lat": 44.751688,
            "lng": 88.836117
        },
        "ad_info": {
            "adcode": 652327,
            "province": "新疆维吾尔自治区",
            "city": "昌吉回族自治州",
            "district": "吉木萨尔县"
        }
    },
    {
        "id": "353220357260811592",
        "title": "五彩湾服务区公共厕所",
        "address": "新疆维吾尔自治区昌吉回族自治州吉木萨尔县G216与规划路交叉口正西方向970米左右",
        "tel": "",
        "category": "基础设施:公共设施:公共厕所",
        "type": 0,
        "location": {
            "lat": 44.752376,
            "lng": 88.832027
        },
        "ad_info": {
            "adcode": 652327,
            "province": "新疆维吾尔自治区",
            "city": "昌吉回族自治州",
            "district": "吉木萨尔县"
        }
    },
    {
        "id": "706084951940625288",
        "title": "成林加油站第一公共厕所",
        "address": "新疆维吾尔自治区昌吉回族自治州吉木萨尔县京新高速与幸福路口互通交叉口正东方向1540米左右",
        "tel": "",
        "category": "基础设施:公共设施:公共厕所",
        "type": 0,
        "location": {
            "lat": 44.097179,
            "lng": 88.727115
        },
        "ad_info": {
            "adcode": 652327,
            "province": "新疆维吾尔自治区",
            "city": "昌吉回族自治州",
            "district": "吉木萨尔县"
        }
    },
    {
        "id": "570366333155761763",
        "title": "旅游厕所",
        "address": "新疆维吾尔自治区昌吉回族自治州昌吉市长宁路特变·森林花园",
        "tel": "",
        "category": "基础设施:公共设施:公共厕所",
        "type": 0,
        "location": {
            "lat": 43.980521,
            "lng": 87.274991
        },
        "ad_info": {
            "adcode": 652301,
            "province": "新疆维吾尔自治区",
            "city": "昌吉回族自治州",
            "district": "昌吉市"
        }
    },
    {
        "id": "14557698539078818081",
        "title": "无障碍公共厕所",
        "address": "新疆维吾尔自治区昌吉回族自治州昌吉市中山南路与建国西路交叉口东北方向184米左右",
        "tel": "",
        "category": "基础设施:公共设施:公共厕所",
        "type": 0,
        "location": {
            "lat": 44.011976,
            "lng": 87.273417
        },
        "ad_info": {
            "adcode": 652301,
            "province": "新疆维吾尔自治区",
            "city": "昌吉回族自治州",
            "district": "昌吉市"
        }
    },
    {
        "id": "5711643050692465036",
        "title": "公共厕所",
        "address": "新疆维吾尔自治区昌吉回族自治州奇台县169县道东50米",
        "tel": "",
        "category": "基础设施:公共设施:公共厕所",
        "type": 0,
        "location": {
            "lat": 43.597677,
            "lng": 89.75617
        },
        "ad_info": {
            "adcode": 652325,
            "province": "新疆维吾尔自治区",
            "city": "昌吉回族自治州",
            "district": "奇台县"
        }
    },
    {
        "id": "10731049249911672875",
        "title": "公共厕所",
        "address": "新疆维吾尔自治区昌吉回族自治州昌吉市建设小区西区东南侧270米",
        "tel": "",
        "category": "基础设施:公共设施:公共厕所",
        "type": 0,
        "location": {
            "lat": 44.301197,
            "lng": 87.441872
        },
        "ad_info": {
            "adcode": 652301,
            "province": "新疆维吾尔自治区",
            "city": "昌吉回族自治州",
            "district": "昌吉市"
        }
    },
    {
        "id": "2103566296796788360",
        "title": "WC公共厕所",
        "address": "新疆维吾尔自治区昌吉回族自治州玛纳斯县Y079与Y080交叉口正西方向120米左右",
        "tel": "",
        "category": "基础设施:公共设施:公共厕所",
        "type": 0,
        "location": {
            "lat": 44.655119,
            "lng": 86.470327
        },
        "ad_info": {
            "adcode": 652324,
            "province": "新疆维吾尔自治区",
            "city": "昌吉回族自治州",
            "district": "玛纳斯县"
        }
    },
    {
        "id": "12151894893031127228",
        "title": "旅游公共厕所",
        "address": "新疆维吾尔自治区昌吉回族自治州昌吉市南五工东路与南五工西路交叉口正西方向80米左右",
        "tel": "",
        "category": "基础设施:公共设施:公共厕所",
        "type": 0,
        "location": {
            "lat": 43.990858,
            "lng": 87.301681
        },
        "ad_info": {
            "adcode": 652301,
            "province": "新疆维吾尔自治区",
            "city": "昌吉回族自治州",
            "district": "昌吉市"
        }
    },
    {
        "id": "5489201090224599196",
        "title": "公共厕所",
        "address": "新疆维吾尔自治区昌吉回族自治州玛纳斯县建新巷与益民路交叉口西北方向278米左右",
        "tel": "",
        "category": "基础设施:公共设施:公共厕所",
        "type": 0,
        "location": {
            "lat": 44.307477,
            "lng": 86.223636
        },
        "ad_info": {
            "adcode": 652324,
            "province": "新疆维吾尔自治区",
            "city": "昌吉回族自治州",
            "district": "玛纳斯县"
        }
    },
    {
        "id": "5727205859119141337",
        "title": "公共厕所",
        "address": "新疆维吾尔自治区昌吉回族自治州奇台县X169与Y356交叉口正北方向451米左右",
        "tel": "",
        "category": "基础设施:公共设施:公共厕所",
        "type": 0,
        "location": {
            "lat": 43.668705,
            "lng": 89.744382
        },
        "ad_info": {
            "adcode": 652325,
            "province": "新疆维吾尔自治区",
            "city": "昌吉回族自治州",
            "district": "奇台县"
        }
    },
    {
        "id": "5053187145511811906",
        "title": "公共厕所",
        "address": "新疆维吾尔自治区昌吉回族自治州昌吉市健康西路公元2099B区",
        "tel": "",
        "category": "基础设施:公共设施:公共厕所",
        "type": 0,
        "location": {
            "lat": 44.024804,
            "lng": 87.272875
        },
        "ad_info": {
            "adcode": 652301,
            "province": "新疆维吾尔自治区",
            "city": "昌吉回族自治州",
            "district": "昌吉市"
        }
    },
    {
        "id": "16501735676772330798",
        "title": "公共厕所",
        "address": "新疆维吾尔自治区昌吉回族自治州阜康市博峰路与民主路交叉口正东方向94米左右",
        "tel": "",
        "category": "基础设施:公共设施:公共厕所",
        "type": 0,
        "location": {
            "lat": 44.156923,
            "lng": 87.979928
        },
        "ad_info": {
            "adcode": 652302,
            "province": "新疆维吾尔自治区",
            "city": "昌吉回族自治州",
            "district": "阜康市"
        }
    },
    {
        "id": "9221035737658322530",
        "title": "一〇三团服务区公共厕所",
        "address": "新疆维吾尔自治区昌吉回族自治州昌吉市S21阿乌高速与一〇三团服务区交叉口北400米",
        "tel": "",
        "category": "基础设施:公共设施:公共厕所",
        "type": 0,
        "location": {
            "lat": 44.668207,
            "lng": 87.426292
        },
        "ad_info": {
            "adcode": 652301,
            "province": "新疆维吾尔自治区",
            "city": "昌吉回族自治州",
            "district": "昌吉市"
        }
    },
    {
        "id": "10481984530340960525",
        "title": "公共厕所",
        "address": "新疆维吾尔自治区昌吉回族自治州阜康市天池南街与水磨河路交叉口正东方向270米左右",
        "tel": "",
        "category": "基础设施:公共设施:公共厕所",
        "type": 0,
        "location": {
            "lat": 44.144063,
            "lng": 87.984071
        },
        "ad_info": {
            "adcode": 652302,
            "province": "新疆维吾尔自治区",
            "city": "昌吉回族自治州",
            "district": "阜康市"
        }
    },
    {
        "id": "10314783536308293591",
        "title": "旅游公共厕所",
        "address": "新疆维吾尔自治区昌吉回族自治州吉木萨尔县创四路与创新路交叉口正东方向49米左右",
        "tel": "",
        "category": "基础设施:公共设施:公共厕所",
        "type": 0,
        "location": {
            "lat": 44.805959,
            "lng": 88.885257
        },
        "ad_info": {
            "adcode": 652327,
            "province": "新疆维吾尔自治区",
            "city": "昌吉回族自治州",
            "district": "吉木萨尔县"
        }
    },
    {
        "id": "18403283743832714618",
        "title": "公共厕所(全景天山驿站)",
        "address": "新疆维吾尔自治区昌吉回族自治州呼图壁县101省道",
        "tel": "",
        "category": "基础设施:公共设施:公共厕所",
        "type": 0,
        "location": {
            "lat": 43.787951,
            "lng": 86.665512
        },
        "ad_info": {
            "adcode": 652323,
            "province": "新疆维吾尔自治区",
            "city": "昌吉回族自治州",
            "district": "呼图壁县"
        }
    },
    {
        "id": "14943724686350261392",
        "title": "旅游厕所",
        "address": "新疆维吾尔自治区昌吉回族自治州奇台县天山北路与文化中路交叉口东北方向50米左右",
        "tel": "",
        "category": "基础设施:公共设施:公共厕所",
        "type": 0,
        "location": {
            "lat": 44.019128,
            "lng": 89.592181
        },
        "ad_info": {
            "adcode": 652325,
            "province": "新疆维吾尔自治区",
            "city": "昌吉回族自治州",
            "district": "奇台县"
        }
    },
    {
        "id": "10737442025717979281",
        "title": "公共厕所",
        "address": "新疆维吾尔自治区昌吉回族自治州玛纳斯县S301与过新段交叉口东南方向34米左右",
        "tel": "",
        "category": "基础设施:公共设施:公共厕所",
        "type": 0,
        "location": {
            "lat": 44.561957,
            "lng": 86.466675
        },
        "ad_info": {
            "adcode": 652324,
            "province": "新疆维吾尔自治区",
            "city": "昌吉回族自治州",
            "district": "玛纳斯县"
        }
    },
    {
        "id": "3323508311907800837",
        "title": "厕所",
        "address": "新疆维吾尔自治区昌吉回族自治州奇台县X169",
        "tel": "",
        "category": "基础设施:公共设施:公共厕所",
        "type": 0,
        "location": {
            "lat": 43.670335,
            "lng": 89.743142
        },
        "ad_info": {
            "adcode": 652325,
            "province": "新疆维吾尔自治区",
            "city": "昌吉回族自治州",
            "district": "奇台县"
        }
    },
    {
        "id": "17541896394425371967",
        "title": "公共厕所",
        "address": "新疆维吾尔自治区昌吉回族自治州木垒哈萨克自治县人民中路与努尔古丽东路交叉口正北方向94米左右",
        "tel": "",
        "category": "基础设施:公共设施:公共厕所",
        "type": 0,
        "location": {
            "lat": 43.836115,
            "lng": 90.28207
        },
        "ad_info": {
            "adcode": 652328,
            "province": "新疆维吾尔自治区",
            "city": "昌吉回族自治州",
            "district": "木垒哈萨克自治县"
        }
    },
    {
        "id": "5901047340757516622",
        "title": "公共厕所(园户村镇嘉泰牡丹园4号)",
        "address": "新疆维吾尔自治区昌吉回族自治州呼图壁县吉祥大道与文化大街交叉口西南方向427米左右",
        "tel": "",
        "category": "基础设施:公共设施:公共厕所",
        "type": 0,
        "location": {
            "lat": 44.164251,
            "lng": 86.880459
        },
        "ad_info": {
            "adcode": 652323,
            "province": "新疆维吾尔自治区",
            "city": "昌吉回族自治州",
            "district": "呼图壁县"
        }
    },
    {
        "id": "15458979688866709991",
        "title": "泉子街镇百花谷旅游公共厕所",
        "address": "新疆维吾尔自治区昌吉回族自治州吉木萨尔县X181与Y395交叉口西南方向1343米左右",
        "tel": "",
        "category": "基础设施:公共设施:公共厕所",
        "type": 0,
        "location": {
            "lat": 43.740108,
            "lng": 89.118633
        },
        "ad_info": {
            "adcode": 652327,
            "province": "新疆维吾尔自治区",
            "city": "昌吉回族自治州",
            "district": "吉木萨尔县"
        }
    },
    {
        "id": "2735450254541826054",
        "title": "大石头服务区公共厕所",
        "address": "新疆维吾尔自治区昌吉回族自治州木垒哈萨克自治县G7京新高速与大石头服务区交叉口西北480米",
        "tel": "",
        "category": "基础设施:公共设施:公共厕所",
        "type": 0,
        "location": {
            "lat": 43.755036,
            "lng": 91.13268
        },
        "ad_info": {
            "adcode": 652328,
            "province": "新疆维吾尔自治区",
            "city": "昌吉回族自治州",
            "district": "木垒哈萨克自治县"
        }
    },
    {
        "id": "7382439309859404855",
        "title": "公共厕所",
        "address": "新疆维吾尔自治区昌吉回族自治州呼图壁县迎宾东街与长胜北路交叉口正东方向212米左右",
        "tel": "",
        "category": "基础设施:公共设施:公共厕所",
        "type": 0,
        "location": {
            "lat": 44.53851,
            "lng": 86.696891
        },
        "ad_info": {
            "adcode": 652323,
            "province": "新疆维吾尔自治区",
            "city": "昌吉回族自治州",
            "district": "呼图壁县"
        }
    },
    {
        "id": "3107207855588918945",
        "title": "公共厕所",
        "address": "新疆维吾尔自治区昌吉回族自治州玛纳斯县",
        "tel": "",
        "category": "基础设施:公共设施:公共厕所",
        "type": 0,
        "location": {
            "lat": 44.716985,
            "lng": 86.144693
        },
        "ad_info": {
            "adcode": 652324,
            "province": "新疆维吾尔自治区",
            "city": "昌吉回族自治州",
            "district": "玛纳斯县"
        }
    },
    {
        "id": "16786447990870962963",
        "title": "公共厕所",
        "address": "新疆维吾尔自治区昌吉回族自治州吉木萨尔县红旗农场大三台沟景区西侧90米",
        "tel": "",
        "category": "基础设施:公共设施:公共厕所",
        "type": 0,
        "location": {
            "lat": 43.867328,
            "lng": 88.726731
        },
        "ad_info": {
            "adcode": 652327,
            "province": "新疆维吾尔自治区",
            "city": "昌吉回族自治州",
            "district": "吉木萨尔县"
        }
    },
    {
        "id": "9203014664305922322",
        "title": "公共厕所",
        "address": "新疆维吾尔自治区昌吉回族自治州昌吉市东方广场(延安北路)附近",
        "tel": "",
        "category": "基础设施:公共设施:公共厕所",
        "type": 0,
        "location": {
            "lat": 44.01692,
            "lng": 87.311614
        },
        "ad_info": {
            "adcode": 652301,
            "province": "新疆维吾尔自治区",
            "city": "昌吉回族自治州",
            "district": "昌吉市"
        }
    },
    {
        "id": "14236566167040060058",
        "title": "商店公共厕所",
        "address": "新疆维吾尔自治区昌吉回族自治州昌吉市X121与北绕城交叉口东北方向622米左右",
        "tel": "",
        "category": "基础设施:公共设施:公共厕所",
        "type": 0,
        "location": {
            "lat": 44.076732,
            "lng": 87.339019
        },
        "ad_info": {
            "adcode": 652301,
            "province": "新疆维吾尔自治区",
            "city": "昌吉回族自治州",
            "district": "昌吉市"
        }
    },
    {
        "id": "5568533496212879377",
        "title": "智能环保公共厕所",
        "address": "新疆维吾尔自治区昌吉回族自治州木垒哈萨克自治县健康西路与城关巷交叉口正东方向108米左右",
        "tel": "",
        "category": "基础设施:公共设施:公共厕所",
        "type": 0,
        "location": {
            "lat": 43.839398,
            "lng": 90.281461
        },
        "ad_info": {
            "adcode": 652328,
            "province": "新疆维吾尔自治区",
            "city": "昌吉回族自治州",
            "district": "木垒哈萨克自治县"
        }
    },
    {
        "id": "5529535504787837762",
        "title": "公共厕所",
        "address": "新疆维吾尔自治区昌吉回族自治州奇台县健康东路与水磨河路交叉口正西方向119米左右",
        "tel": "",
        "category": "基础设施:公共设施:公共厕所",
        "type": 0,
        "location": {
            "lat": 44.017617,
            "lng": 89.601287
        },
        "ad_info": {
            "adcode": 652325,
            "province": "新疆维吾尔自治区",
            "city": "昌吉回族自治州",
            "district": "奇台县"
        }
    },
    {
        "id": "17030016363377077008",
        "title": "公共厕所",
        "address": "新疆维吾尔自治区昌吉回族自治州昌吉市东和路与南公园西路交叉口正西方向83米左右",
        "tel": "",
        "category": "基础设施:公共设施:公共厕所",
        "type": 0,
        "location": {
            "lat": 43.997463,
            "lng": 87.300621
        },
        "ad_info": {
            "adcode": 652301,
            "province": "新疆维吾尔自治区",
            "city": "昌吉回族自治州",
            "district": "昌吉市"
        }
    },
    {
        "id": "15681868716531224418",
        "title": "公共厕所",
        "address": "新疆维吾尔自治区昌吉回族自治州昌吉市爵士庄园",
        "tel": "",
        "category": "基础设施:公共设施:公共厕所",
        "type": 0,
        "location": {
            "lat": 44.135302,
            "lng": 87.380828
        },
        "ad_info": {
            "adcode": 652301,
            "province": "新疆维吾尔自治区",
            "city": "昌吉回族自治州",
            "district": "昌吉市"
        }
    },
    {
        "id": "10038796360198758572",
        "title": "公共厕所",
        "address": "新疆维吾尔自治区昌吉回族自治州昌吉市绿洲路街道社区卫生服务中心东侧90米",
        "tel": "",
        "category": "基础设施:公共设施:公共厕所",
        "type": 0,
        "location": {
            "lat": 44.016629,
            "lng": 87.327915
        },
        "ad_info": {
            "adcode": 652301,
            "province": "新疆维吾尔自治区",
            "city": "昌吉回族自治州",
            "district": "昌吉市"
        }
    },
    {
        "id": "17395516840095538926",
        "title": "公共厕所",
        "address": "新疆维吾尔自治区昌吉回族自治州昌吉市世纪大道与德政路交叉口东北方向196米左右",
        "tel": "",
        "category": "基础设施:公共设施:公共厕所",
        "type": 0,
        "location": {
            "lat": 44.003038,
            "lng": 87.248015
        },
        "ad_info": {
            "adcode": 652301,
            "province": "新疆维吾尔自治区",
            "city": "昌吉回族自治州",
            "district": "昌吉市"
        }
    },
    {
        "id": "15685119181247505831",
        "title": "公共厕所(石梯子乡白杨河)",
        "address": "新疆维吾尔自治区昌吉回族自治州呼图壁县",
        "tel": "",
        "category": "基础设施:公共设施:公共厕所",
        "type": 0,
        "location": {
            "lat": 43.981309,
            "lng": 86.792828
        },
        "ad_info": {
            "adcode": 652323,
            "province": "新疆维吾尔自治区",
            "city": "昌吉回族自治州",
            "district": "呼图壁县"
        }
    },
    {
        "id": "1252316102964235427",
        "title": "公共厕所(园户村镇嘉泰牡丹园3号)",
        "address": "新疆维吾尔自治区昌吉回族自治州呼图壁县园林路与文化大街交叉口正南方向462米左右",
        "tel": "",
        "category": "基础设施:公共设施:公共厕所",
        "type": 0,
        "location": {
            "lat": 44.164417,
            "lng": 86.878391
        },
        "ad_info": {
            "adcode": 652323,
            "province": "新疆维吾尔自治区",
            "city": "昌吉回族自治州",
            "district": "呼图壁县"
        }
    },
    {
        "id": "7551473413271603850",
        "title": "公共厕所",
        "address": "新疆维吾尔自治区昌吉回族自治州昌吉市乌伊西路与兴昌北路交叉口正南方向102米左右",
        "tel": "",
        "category": "基础设施:公共设施:公共厕所",
        "type": 0,
        "location": {
            "lat": 44.024611,
            "lng": 87.258836
        },
        "ad_info": {
            "adcode": 652301,
            "province": "新疆维吾尔自治区",
            "city": "昌吉回族自治州",
            "district": "昌吉市"
        }
    },
    {
        "id": "17201822880112891691",
        "title": "公共厕所",
        "address": "新疆维吾尔自治区昌吉回族自治州玛纳斯县团结路与长江北路交叉口正东方向129米左右",
        "tel": "",
        "category": "基础设施:公共设施:公共厕所",
        "type": 0,
        "location": {
            "lat": 44.861829,
            "lng": 86.309005
        },
        "ad_info": {
            "adcode": 652324,
            "province": "新疆维吾尔自治区",
            "city": "昌吉回族自治州",
            "district": "玛纳斯县"
        }
    },
    {
        "id": "7135533871590049355",
        "title": "公共厕所",
        "address": "新疆维吾尔自治区昌吉回族自治州昌吉市塔城西路与青年南路交叉口正西方向283米左右",
        "tel": "",
        "category": "基础设施:公共设施:公共厕所",
        "type": 0,
        "location": {
            "lat": 43.998348,
            "lng": 87.267481
        },
        "ad_info": {
            "adcode": 652301,
            "province": "新疆维吾尔自治区",
            "city": "昌吉回族自治州",
            "district": "昌吉市"
        }
    },
    {
        "id": "17695076347910591465",
        "title": "公共厕所",
        "address": "新疆维吾尔自治区昌吉回族自治州昌吉市世纪大道与建国西路交叉口正东方向89米左右",
        "tel": "",
        "category": "基础设施:公共设施:公共厕所",
        "type": 0,
        "location": {
            "lat": 44.015878,
            "lng": 87.258918
        },
        "ad_info": {
            "adcode": 652301,
            "province": "新疆维吾尔自治区",
            "city": "昌吉回族自治州",
            "district": "昌吉市"
        }
    },
    {
        "id": "211354504721129793",
        "title": "公共厕所",
        "address": "新疆维吾尔自治区昌吉回族自治州奇台县准东开发区芨芨湖产业园将军路305号",
        "tel": "",
        "category": "基础设施:公共设施:公共厕所",
        "type": 0,
        "location": {
            "lat": 44.342702,
            "lng": 90.12611
        },
        "ad_info": {
            "adcode": 652325,
            "province": "新疆维吾尔自治区",
            "city": "昌吉回族自治州",
            "district": "奇台县"
        }
    },
    {
        "id": "5107978555244372998",
        "title": "公共厕所",
        "address": "新疆维吾尔自治区昌吉回族自治州吉木萨尔县创六路与科七路北延段交叉口西北方向81米左右",
        "tel": "",
        "category": "基础设施:公共设施:公共厕所",
        "type": 0,
        "location": {
            "lat": 44.808875,
            "lng": 88.893091
        },
        "ad_info": {
            "adcode": 652327,
            "province": "新疆维吾尔自治区",
            "city": "昌吉回族自治州",
            "district": "吉木萨尔县"
        }
    },
    {
        "id": "13868862917809770963",
        "title": "公共厕所",
        "address": "新疆维吾尔自治区昌吉回族自治州昌吉市商城路29号",
        "tel": "",
        "category": "基础设施:公共设施:公共厕所",
        "type": 0,
        "location": {
            "lat": 44.008546,
            "lng": 87.290008
        },
        "ad_info": {
            "adcode": 652301,
            "province": "新疆维吾尔自治区",
            "city": "昌吉回族自治州",
            "district": "昌吉市"
        }
    },
    {
        "id": "11019706190921739961",
        "title": "五工台服务区公共厕所",
        "address": "新疆维吾尔自治区昌吉回族自治州呼图壁县五工台服务区与G30连霍高速交叉口西420米",
        "tel": "",
        "category": "基础设施:公共设施:公共厕所",
        "type": 0,
        "location": {
            "lat": 44.167657,
            "lng": 86.792696
        },
        "ad_info": {
            "adcode": 652323,
            "province": "新疆维吾尔自治区",
            "city": "昌吉回族自治州",
            "district": "呼图壁县"
        }
    },
    {
        "id": "8741330904431620753",
        "title": "公共厕所",
        "address": "新疆维吾尔自治区昌吉回族自治州昌吉市世纪新城",
        "tel": "",
        "category": "基础设施:公共设施:公共厕所",
        "type": 0,
        "location": {
            "lat": 44.013317,
            "lng": 87.251158
        },
        "ad_info": {
            "adcode": 652301,
            "province": "新疆维吾尔自治区",
            "city": "昌吉回族自治州",
            "district": "昌吉市"
        }
    },
    {
        "id": "4070108410551522531",
        "title": "公共厕所(呼图壁园户村镇和庄村二队)",
        "address": "新疆维吾尔自治区昌吉回族自治州呼图壁县锦华大道17号",
        "tel": "",
        "category": "基础设施:公共设施:公共厕所",
        "type": 0,
        "location": {
            "lat": 44.175305,
            "lng": 86.899212
        },
        "ad_info": {
            "adcode": 652323,
            "province": "新疆维吾尔自治区",
            "city": "昌吉回族自治州",
            "district": "呼图壁县"
        }
    },
    {
        "id": "3521661003883323347",
        "title": "公共厕所",
        "address": "新疆维吾尔自治区昌吉回族自治州奇台县东风南街与文化西路交叉口西北方向31米左右",
        "tel": "",
        "category": "基础设施:公共设施:公共厕所",
        "type": 0,
        "location": {
            "lat": 44.019716,
            "lng": 89.581339
        },
        "ad_info": {
            "adcode": 652325,
            "province": "新疆维吾尔自治区",
            "city": "昌吉回族自治州",
            "district": "奇台县"
        }
    },
    {
        "id": "4631363390438379675",
        "title": "昌吉市头屯河庆典公园一号公共厕所",
        "address": "新疆维吾尔自治区昌吉回族自治州昌吉市雪莲路庆典公园",
        "tel": "",
        "category": "基础设施:公共设施:公共厕所",
        "type": 0,
        "location": {
            "lat": 43.966167,
            "lng": 87.294886
        },
        "ad_info": {
            "adcode": 652301,
            "province": "新疆维吾尔自治区",
            "city": "昌吉回族自治州",
            "district": "昌吉市"
        }
    },
    {
        "id": "1650727083781717899",
        "title": "公共厕所",
        "address": "新疆维吾尔自治区昌吉回族自治州奇台县江布拉克景区疏勒城",
        "tel": "",
        "category": "基础设施:公共设施:公共厕所",
        "type": 0,
        "location": {
            "lat": 43.605301,
            "lng": 89.762493
        },
        "ad_info": {
            "adcode": 652325,
            "province": "新疆维吾尔自治区",
            "city": "昌吉回族自治州",
            "district": "奇台县"
        }
    },
    {
        "id": "15412948749050137717",
        "title": "公共厕所",
        "address": "新疆维吾尔自治区昌吉回族自治州吉木萨尔县环城西路与阿尔泰西路交叉口正西方向644米左右",
        "tel": "",
        "category": "基础设施:公共设施:公共厕所",
        "type": 0,
        "location": {
            "lat": 44.796077,
            "lng": 88.859659
        },
        "ad_info": {
            "adcode": 652327,
            "province": "新疆维吾尔自治区",
            "city": "昌吉回族自治州",
            "district": "吉木萨尔县"
        }
    },
    {
        "id": "13898365437485915945",
        "title": "公共厕所(大唐葡萄酒庄酒窖)",
        "address": "新疆维吾尔自治区昌吉回族自治州呼图壁县大唐西域酒庄酒窖西侧",
        "tel": "",
        "category": "基础设施:公共设施:公共厕所",
        "type": 0,
        "location": {
            "lat": 44.13907,
            "lng": 86.749315
        },
        "ad_info": {
            "adcode": 652323,
            "province": "新疆维吾尔自治区",
            "city": "昌吉回族自治州",
            "district": "呼图壁县"
        }
    },
    {
        "id": "4296710796857737919",
        "title": "公共厕所(XJ-CJ-0205)",
        "address": "新疆维吾尔自治区昌吉回族自治州昌吉市滨湖镇朗青休闲观光牧场奶牛科技馆",
        "tel": "",
        "category": "基础设施:公共设施:公共厕所",
        "type": 0,
        "location": {
            "lat": 44.108181,
            "lng": 87.361001
        },
        "ad_info": {
            "adcode": 652301,
            "province": "新疆维吾尔自治区",
            "city": "昌吉回族自治州",
            "district": "昌吉市"
        }
    },
    {
        "id": "10403320967394984583",
        "title": "大石头服务区公共厕所",
        "address": "新疆维吾尔自治区昌吉回族自治州木垒哈萨克自治县G7京新高速与大石头服务区交叉口西480米",
        "tel": "",
        "category": "基础设施:公共设施:公共厕所",
        "type": 0,
        "location": {
            "lat": 43.752314,
            "lng": 91.131903
        },
        "ad_info": {
            "adcode": 652328,
            "province": "新疆维吾尔自治区",
            "city": "昌吉回族自治州",
            "district": "木垒哈萨克自治县"
        }
    },
    {
        "id": "15717219751109745295",
        "title": "公共厕所",
        "address": "新疆维吾尔自治区昌吉回族自治州呼图壁县",
        "tel": "",
        "category": "基础设施:公共设施:公共厕所",
        "type": 0,
        "location": {
            "lat": 43.97898,
            "lng": 86.792512
        },
        "ad_info": {
            "adcode": 652323,
            "province": "新疆维吾尔自治区",
            "city": "昌吉回族自治州",
            "district": "呼图壁县"
        }
    },
    {
        "id": "17770660972801357177",
        "title": "公共厕所(园户村镇嘉泰牡丹园1号)",
        "address": "新疆维吾尔自治区昌吉回族自治州呼图壁县嘉泰牡丹园西南侧",
        "tel": "",
        "category": "基础设施:公共设施:公共厕所",
        "type": 0,
        "location": {
            "lat": 44.160899,
            "lng": 86.878364
        },
        "ad_info": {
            "adcode": 652323,
            "province": "新疆维吾尔自治区",
            "city": "昌吉回族自治州",
            "district": "呼图壁县"
        }
    },
    {
        "id": "1683744112764407332",
        "title": "南泉子停车区公共厕所",
        "address": "新疆维吾尔自治区昌吉回族自治州阜康市南泉子停车区南侧",
        "tel": "",
        "category": "基础设施:公共设施:公共厕所",
        "type": 0,
        "location": {
            "lat": 44.106498,
            "lng": 88.458839
        },
        "ad_info": {
            "adcode": 652302,
            "province": "新疆维吾尔自治区",
            "city": "昌吉回族自治州",
            "district": "阜康市"
        }
    },
    {
        "id": "7876546295460457501",
        "title": "卫生间",
        "address": "新疆维吾尔自治区昌吉回族自治州昌吉市净化路与科二路交叉口西北方向283米左右",
        "tel": "",
        "category": "基础设施:公共设施:公共厕所",
        "type": 0,
        "location": {
            "lat": 44.041656,
            "lng": 87.334235
        },
        "ad_info": {
            "adcode": 652301,
            "province": "新疆维吾尔自治区",
            "city": "昌吉回族自治州",
            "district": "昌吉市"
        }
    },
    {
        "id": "4458438645627464647",
        "title": "公共厕所(翁巴郎驿站)",
        "address": "新疆维吾尔自治区昌吉回族自治州呼图壁县游牧人家驿站东南侧",
        "tel": "",
        "category": "基础设施:公共设施:公共厕所",
        "type": 0,
        "location": {
            "lat": 43.840779,
            "lng": 86.356446
        },
        "ad_info": {
            "adcode": 652323,
            "province": "新疆维吾尔自治区",
            "city": "昌吉回族自治州",
            "district": "呼图壁县"
        }
    },
    {
        "id": "4614814364124764477",
        "title": "新疆农业博览园菜地公共厕所",
        "address": "新疆维吾尔自治区昌吉回族自治州昌吉市创新南路与昌五路交叉口东南方向484米左右",
        "tel": "",
        "category": "基础设施:公共设施:公共厕所",
        "type": 0,
        "location": {
            "lat": 44.047697,
            "lng": 87.369236
        },
        "ad_info": {
            "adcode": 652301,
            "province": "新疆维吾尔自治区",
            "city": "昌吉回族自治州",
            "district": "昌吉市"
        }
    },
    {
        "id": "17699588737485827026",
        "title": "公共厕所(园户村镇嘉泰牡丹园2号)",
        "address": "新疆维吾尔自治区昌吉回族自治州呼图壁县嘉泰牡丹园西侧220米",
        "tel": "",
        "category": "基础设施:公共设施:公共厕所",
        "type": 0,
        "location": {
            "lat": 44.161829,
            "lng": 86.875895
        },
        "ad_info": {
            "adcode": 652323,
            "province": "新疆维吾尔自治区",
            "city": "昌吉回族自治州",
            "district": "呼图壁县"
        }
    },
    {
        "id": "5993180225536118173",
        "title": "公共厕所(唐墩驿站)",
        "address": "新疆维吾尔自治区昌吉回族自治州呼图壁县Z901与五工台立交桥交叉口正西方向154米左右",
        "tel": "",
        "category": "基础设施:公共设施:公共厕所",
        "type": 0,
        "location": {
            "lat": 44.189917,
            "lng": 86.69174
        },
        "ad_info": {
            "adcode": 652323,
            "province": "新疆维吾尔自治区",
            "city": "昌吉回族自治州",
            "district": "呼图壁县"
        }
    },
    {
        "id": "17848760986508382896",
        "title": "公共厕所",
        "address": "新疆维吾尔自治区昌吉回族自治州玛纳斯县乌伊西路与建设南路交叉口东南方向61米左右",
        "tel": "",
        "category": "基础设施:公共设施:公共厕所",
        "type": 0,
        "location": {
            "lat": 44.301166,
            "lng": 86.20424
        },
        "ad_info": {
            "adcode": 652324,
            "province": "新疆维吾尔自治区",
            "city": "昌吉回族自治州",
            "district": "玛纳斯县"
        }
    },
    {
        "id": "11353002557579319273",
        "title": "公共厕所",
        "address": "新疆维吾尔自治区昌吉回族自治州玛纳斯县幸福路与振兴路交叉口正西方向296米左右",
        "tel": "",
        "category": "基础设施:公共设施:公共厕所",
        "type": 0,
        "location": {
            "lat": 44.95033,
            "lng": 86.207011
        },
        "ad_info": {
            "adcode": 652324,
            "province": "新疆维吾尔自治区",
            "city": "昌吉回族自治州",
            "district": "玛纳斯县"
        }
    },
    {
        "id": "1501400368138080334",
        "title": "公共厕所",
        "address": "新疆维吾尔自治区昌吉回族自治州阜康市准噶尔路与科普巷交叉口正北方向227米左右",
        "tel": "",
        "category": "基础设施:公共设施:公共厕所",
        "type": 0,
        "location": {
            "lat": 44.155776,
            "lng": 87.995867
        },
        "ad_info": {
            "adcode": 652302,
            "province": "新疆维吾尔自治区",
            "city": "昌吉回族自治州",
            "district": "阜康市"
        }
    },
    {
        "id": "14325044410995932557",
        "title": "公共厕所",
        "address": "新疆维吾尔自治区昌吉回族自治州玛纳斯县国家湿地公园雁飞台景区",
        "tel": "",
        "category": "基础设施:公共设施:公共厕所",
        "type": 0,
        "location": {
            "lat": 44.434544,
            "lng": 86.173771
        },
        "ad_info": {
            "adcode": 652324,
            "province": "新疆维吾尔自治区",
            "city": "昌吉回族自治州",
            "district": "玛纳斯县"
        }
    },
    {
        "id": "6290088335808009990",
        "title": "大黄山服务区公共厕所",
        "address": "新疆维吾尔自治区昌吉回族自治州阜康市京新高速附近",
        "tel": "",
        "category": "基础设施:公共设施:公共厕所",
        "type": 0,
        "location": {
            "lat": 44.103796,
            "lng": 88.628883
        },
        "ad_info": {
            "adcode": 652302,
            "province": "新疆维吾尔自治区",
            "city": "昌吉回族自治州",
            "district": "阜康市"
        }
    },
    {
        "id": "16107720552830830722",
        "title": "公共厕所",
        "address": "新疆维吾尔自治区昌吉回族自治州昌吉市华业综合物流园北侧150米",
        "tel": "",
        "category": "基础设施:公共设施:公共厕所",
        "type": 0,
        "location": {
            "lat": 44.043838,
            "lng": 87.215738
        },
        "ad_info": {
            "adcode": 652301,
            "province": "新疆维吾尔自治区",
            "city": "昌吉回族自治州",
            "district": "昌吉市"
        }
    },
    {
        "id": "16507942920478792982",
        "title": "公共厕所",
        "address": "新疆维吾尔自治区昌吉回族自治州阜康市古井路与子规街交叉口正南方向158米左右",
        "tel": "",
        "category": "基础设施:公共设施:公共厕所",
        "type": 0,
        "location": {
            "lat": 44.291718,
            "lng": 87.921435
        },
        "ad_info": {
            "adcode": 652302,
            "province": "新疆维吾尔自治区",
            "city": "昌吉回族自治州",
            "district": "阜康市"
        }
    },
    {
        "id": "4839012409718809845",
        "title": "公共厕所",
        "address": "新疆维吾尔自治区昌吉回族自治州昌吉市屯河路与文化东路交叉口正西方向367米左右",
        "tel": "",
        "category": "基础设施:公共设施:公共厕所",
        "type": 0,
        "location": {
            "lat": 44.012203,
            "lng": 87.328153
        },
        "ad_info": {
            "adcode": 652301,
            "province": "新疆维吾尔自治区",
            "city": "昌吉回族自治州",
            "district": "昌吉市"
        }
    },
    {
        "id": "15412948749050137717",
        "title": "公共厕所",
        "address": "新疆维吾尔自治区昌吉回族自治州吉木萨尔县环城西路与阿尔泰西路交叉口正西方向644米左右",
        "tel": "",
        "category": "基础设施:公共设施:公共厕所",
        "type": 0,
        "location": {
            "lat": 44.796077,
            "lng": 88.859659
        },
        "ad_info": {
            "adcode": 652327,
            "province": "新疆维吾尔自治区",
            "city": "昌吉回族自治州",
            "district": "吉木萨尔县"
        }
    },
    {
        "id": "13898365437485915945",
        "title": "公共厕所(大唐葡萄酒庄酒窖)",
        "address": "新疆维吾尔自治区昌吉回族自治州呼图壁县大唐西域酒庄酒窖西侧",
        "tel": "",
        "category": "基础设施:公共设施:公共厕所",
        "type": 0,
        "location": {
            "lat": 44.13907,
            "lng": 86.749315
        },
        "ad_info": {
            "adcode": 652323,
            "province": "新疆维吾尔自治区",
            "city": "昌吉回族自治州",
            "district": "呼图壁县"
        }
    },
    {
        "id": "4296710796857737919",
        "title": "公共厕所(XJ-CJ-0205)",
        "address": "新疆维吾尔自治区昌吉回族自治州昌吉市滨湖镇朗青休闲观光牧场奶牛科技馆",
        "tel": "",
        "category": "基础设施:公共设施:公共厕所",
        "type": 0,
        "location": {
            "lat": 44.108181,
            "lng": 87.361001
        },
        "ad_info": {
            "adcode": 652301,
            "province": "新疆维吾尔自治区",
            "city": "昌吉回族自治州",
            "district": "昌吉市"
        }
    },
    {
        "id": "10403320967394984583",
        "title": "大石头服务区公共厕所",
        "address": "新疆维吾尔自治区昌吉回族自治州木垒哈萨克自治县G7京新高速与大石头服务区交叉口西480米",
        "tel": "",
        "category": "基础设施:公共设施:公共厕所",
        "type": 0,
        "location": {
            "lat": 43.752314,
            "lng": 91.131903
        },
        "ad_info": {
            "adcode": 652328,
            "province": "新疆维吾尔自治区",
            "city": "昌吉回族自治州",
            "district": "木垒哈萨克自治县"
        }
    },
    {
        "id": "15717219751109745295",
        "title": "公共厕所",
        "address": "新疆维吾尔自治区昌吉回族自治州呼图壁县",
        "tel": "",
        "category": "基础设施:公共设施:公共厕所",
        "type": 0,
        "location": {
            "lat": 43.97898,
            "lng": 86.792512
        },
        "ad_info": {
            "adcode": 652323,
            "province": "新疆维吾尔自治区",
            "city": "昌吉回族自治州",
            "district": "呼图壁县"
        }
    },
    {
        "id": "17770660972801357177",
        "title": "公共厕所(园户村镇嘉泰牡丹园1号)",
        "address": "新疆维吾尔自治区昌吉回族自治州呼图壁县嘉泰牡丹园西南侧",
        "tel": "",
        "category": "基础设施:公共设施:公共厕所",
        "type": 0,
        "location": {
            "lat": 44.160899,
            "lng": 86.878364
        },
        "ad_info": {
            "adcode": 652323,
            "province": "新疆维吾尔自治区",
            "city": "昌吉回族自治州",
            "district": "呼图壁县"
        }
    },
    {
        "id": "1683744112764407332",
        "title": "南泉子停车区公共厕所",
        "address": "新疆维吾尔自治区昌吉回族自治州阜康市南泉子停车区南侧",
        "tel": "",
        "category": "基础设施:公共设施:公共厕所",
        "type": 0,
        "location": {
            "lat": 44.106498,
            "lng": 88.458839
        },
        "ad_info": {
            "adcode": 652302,
            "province": "新疆维吾尔自治区",
            "city": "昌吉回族自治州",
            "district": "阜康市"
        }
    },
    {
        "id": "7876546295460457501",
        "title": "卫生间",
        "address": "新疆维吾尔自治区昌吉回族自治州昌吉市净化路与科二路交叉口西北方向283米左右",
        "tel": "",
        "category": "基础设施:公共设施:公共厕所",
        "type": 0,
        "location": {
            "lat": 44.041656,
            "lng": 87.334235
        },
        "ad_info": {
            "adcode": 652301,
            "province": "新疆维吾尔自治区",
            "city": "昌吉回族自治州",
            "district": "昌吉市"
        }
    },
    {
        "id": "4458438645627464647",
        "title": "公共厕所(翁巴郎驿站)",
        "address": "新疆维吾尔自治区昌吉回族自治州呼图壁县游牧人家驿站东南侧",
        "tel": "",
        "category": "基础设施:公共设施:公共厕所",
        "type": 0,
        "location": {
            "lat": 43.840779,
            "lng": 86.356446
        },
        "ad_info": {
            "adcode": 652323,
            "province": "新疆维吾尔自治区",
            "city": "昌吉回族自治州",
            "district": "呼图壁县"
        }
    },
    {
        "id": "4614814364124764477",
        "title": "新疆农业博览园菜地公共厕所",
        "address": "新疆维吾尔自治区昌吉回族自治州昌吉市创新南路与昌五路交叉口东南方向484米左右",
        "tel": "",
        "category": "基础设施:公共设施:公共厕所",
        "type": 0,
        "location": {
            "lat": 44.047697,
            "lng": 87.369236
        },
        "ad_info": {
            "adcode": 652301,
            "province": "新疆维吾尔自治区",
            "city": "昌吉回族自治州",
            "district": "昌吉市"
        }
    },
    {
        "id": "17699588737485827026",
        "title": "公共厕所(园户村镇嘉泰牡丹园2号)",
        "address": "新疆维吾尔自治区昌吉回族自治州呼图壁县嘉泰牡丹园西侧220米",
        "tel": "",
        "category": "基础设施:公共设施:公共厕所",
        "type": 0,
        "location": {
            "lat": 44.161829,
            "lng": 86.875895
        },
        "ad_info": {
            "adcode": 652323,
            "province": "新疆维吾尔自治区",
            "city": "昌吉回族自治州",
            "district": "呼图壁县"
        }
    },
    {
        "id": "5993180225536118173",
        "title": "公共厕所(唐墩驿站)",
        "address": "新疆维吾尔自治区昌吉回族自治州呼图壁县Z901与五工台立交桥交叉口正西方向154米左右",
        "tel": "",
        "category": "基础设施:公共设施:公共厕所",
        "type": 0,
        "location": {
            "lat": 44.189917,
            "lng": 86.69174
        },
        "ad_info": {
            "adcode": 652323,
            "province": "新疆维吾尔自治区",
            "city": "昌吉回族自治州",
            "district": "呼图壁县"
        }
    },
    {
        "id": "17848760986508382896",
        "title": "公共厕所",
        "address": "新疆维吾尔自治区昌吉回族自治州玛纳斯县乌伊西路与建设南路交叉口东南方向61米左右",
        "tel": "",
        "category": "基础设施:公共设施:公共厕所",
        "type": 0,
        "location": {
            "lat": 44.301166,
            "lng": 86.20424
        },
        "ad_info": {
            "adcode": 652324,
            "province": "新疆维吾尔自治区",
            "city": "昌吉回族自治州",
            "district": "玛纳斯县"
        }
    },
    {
        "id": "11353002557579319273",
        "title": "公共厕所",
        "address": "新疆维吾尔自治区昌吉回族自治州玛纳斯县幸福路与振兴路交叉口正西方向296米左右",
        "tel": "",
        "category": "基础设施:公共设施:公共厕所",
        "type": 0,
        "location": {
            "lat": 44.95033,
            "lng": 86.207011
        },
        "ad_info": {
            "adcode": 652324,
            "province": "新疆维吾尔自治区",
            "city": "昌吉回族自治州",
            "district": "玛纳斯县"
        }
    },
    {
        "id": "1501400368138080334",
        "title": "公共厕所",
        "address": "新疆维吾尔自治区昌吉回族自治州阜康市准噶尔路与科普巷交叉口正北方向227米左右",
        "tel": "",
        "category": "基础设施:公共设施:公共厕所",
        "type": 0,
        "location": {
            "lat": 44.155776,
            "lng": 87.995867
        },
        "ad_info": {
            "adcode": 652302,
            "province": "新疆维吾尔自治区",
            "city": "昌吉回族自治州",
            "district": "阜康市"
        }
    },
    {
        "id": "14325044410995932557",
        "title": "公共厕所",
        "address": "新疆维吾尔自治区昌吉回族自治州玛纳斯县国家湿地公园雁飞台景区",
        "tel": "",
        "category": "基础设施:公共设施:公共厕所",
        "type": 0,
        "location": {
            "lat": 44.434544,
            "lng": 86.173771
        },
        "ad_info": {
            "adcode": 652324,
            "province": "新疆维吾尔自治区",
            "city": "昌吉回族自治州",
            "district": "玛纳斯县"
        }
    },
    {
        "id": "6290088335808009990",
        "title": "大黄山服务区公共厕所",
        "address": "新疆维吾尔自治区昌吉回族自治州阜康市京新高速附近",
        "tel": "",
        "category": "基础设施:公共设施:公共厕所",
        "type": 0,
        "location": {
            "lat": 44.103796,
            "lng": 88.628883
        },
        "ad_info": {
            "adcode": 652302,
            "province": "新疆维吾尔自治区",
            "city": "昌吉回族自治州",
            "district": "阜康市"
        }
    },
    {
        "id": "16107720552830830722",
        "title": "公共厕所",
        "address": "新疆维吾尔自治区昌吉回族自治州昌吉市华业综合物流园北侧150米",
        "tel": "",
        "category": "基础设施:公共设施:公共厕所",
        "type": 0,
        "location": {
            "lat": 44.043838,
            "lng": 87.215738
        },
        "ad_info": {
            "adcode": 652301,
            "province": "新疆维吾尔自治区",
            "city": "昌吉回族自治州",
            "district": "昌吉市"
        }
    },
    {
        "id": "16507942920478792982",
        "title": "公共厕所",
        "address": "新疆维吾尔自治区昌吉回族自治州阜康市古井路与子规街交叉口正南方向158米左右",
        "tel": "",
        "category": "基础设施:公共设施:公共厕所",
        "type": 0,
        "location": {
            "lat": 44.291718,
            "lng": 87.921435
        },
        "ad_info": {
            "adcode": 652302,
            "province": "新疆维吾尔自治区",
            "city": "昌吉回族自治州",
            "district": "阜康市"
        }
    },
    {
        "id": "4839012409718809845",
        "title": "公共厕所",
        "address": "新疆维吾尔自治区昌吉回族自治州昌吉市屯河路与文化东路交叉口正西方向367米左右",
        "tel": "",
        "category": "基础设施:公共设施:公共厕所",
        "type": 0,
        "location": {
            "lat": 44.012203,
            "lng": 87.328153
        },
        "ad_info": {
            "adcode": 652301,
            "province": "新疆维吾尔自治区",
            "city": "昌吉回族自治州",
            "district": "昌吉市"
        }
    },
    {
        "id": "15412948749050137717",
        "title": "公共厕所",
        "address": "新疆维吾尔自治区昌吉回族自治州吉木萨尔县环城西路与阿尔泰西路交叉口正西方向644米左右",
        "tel": "",
        "category": "基础设施:公共设施:公共厕所",
        "type": 0,
        "location": {
            "lat": 44.796077,
            "lng": 88.859659
        },
        "ad_info": {
            "adcode": 652327,
            "province": "新疆维吾尔自治区",
            "city": "昌吉回族自治州",
            "district": "吉木萨尔县"
        }
    },
    {
        "id": "13898365437485915945",
        "title": "公共厕所(大唐葡萄酒庄酒窖)",
        "address": "新疆维吾尔自治区昌吉回族自治州呼图壁县大唐西域酒庄酒窖西侧",
        "tel": "",
        "category": "基础设施:公共设施:公共厕所",
        "type": 0,
        "location": {
            "lat": 44.13907,
            "lng": 86.749315
        },
        "ad_info": {
            "adcode": 652323,
            "province": "新疆维吾尔自治区",
            "city": "昌吉回族自治州",
            "district": "呼图壁县"
        }
    },
    {
        "id": "4296710796857737919",
        "title": "公共厕所(XJ-CJ-0205)",
        "address": "新疆维吾尔自治区昌吉回族自治州昌吉市滨湖镇朗青休闲观光牧场奶牛科技馆",
        "tel": "",
        "category": "基础设施:公共设施:公共厕所",
        "type": 0,
        "location": {
            "lat": 44.108181,
            "lng": 87.361001
        },
        "ad_info": {
            "adcode": 652301,
            "province": "新疆维吾尔自治区",
            "city": "昌吉回族自治州",
            "district": "昌吉市"
        }
    },
    {
        "id": "10403320967394984583",
        "title": "大石头服务区公共厕所",
        "address": "新疆维吾尔自治区昌吉回族自治州木垒哈萨克自治县G7京新高速与大石头服务区交叉口西480米",
        "tel": "",
        "category": "基础设施:公共设施:公共厕所",
        "type": 0,
        "location": {
            "lat": 43.752314,
            "lng": 91.131903
        },
        "ad_info": {
            "adcode": 652328,
            "province": "新疆维吾尔自治区",
            "city": "昌吉回族自治州",
            "district": "木垒哈萨克自治县"
        }
    },
    {
        "id": "15717219751109745295",
        "title": "公共厕所",
        "address": "新疆维吾尔自治区昌吉回族自治州呼图壁县",
        "tel": "",
        "category": "基础设施:公共设施:公共厕所",
        "type": 0,
        "location": {
            "lat": 43.97898,
            "lng": 86.792512
        },
        "ad_info": {
            "adcode": 652323,
            "province": "新疆维吾尔自治区",
            "city": "昌吉回族自治州",
            "district": "呼图壁县"
        }
    },
    {
        "id": "17770660972801357177",
        "title": "公共厕所(园户村镇嘉泰牡丹园1号)",
        "address": "新疆维吾尔自治区昌吉回族自治州呼图壁县嘉泰牡丹园西南侧",
        "tel": "",
        "category": "基础设施:公共设施:公共厕所",
        "type": 0,
        "location": {
            "lat": 44.160899,
            "lng": 86.878364
        },
        "ad_info": {
            "adcode": 652323,
            "province": "新疆维吾尔自治区",
            "city": "昌吉回族自治州",
            "district": "呼图壁县"
        }
    },
    {
        "id": "1683744112764407332",
        "title": "南泉子停车区公共厕所",
        "address": "新疆维吾尔自治区昌吉回族自治州阜康市南泉子停车区南侧",
        "tel": "",
        "category": "基础设施:公共设施:公共厕所",
        "type": 0,
        "location": {
            "lat": 44.106498,
            "lng": 88.458839
        },
        "ad_info": {
            "adcode": 652302,
            "province": "新疆维吾尔自治区",
            "city": "昌吉回族自治州",
            "district": "阜康市"
        }
    },
    {
        "id": "7876546295460457501",
        "title": "卫生间",
        "address": "新疆维吾尔自治区昌吉回族自治州昌吉市净化路与科二路交叉口西北方向283米左右",
        "tel": "",
        "category": "基础设施:公共设施:公共厕所",
        "type": 0,
        "location": {
            "lat": 44.041656,
            "lng": 87.334235
        },
        "ad_info": {
            "adcode": 652301,
            "province": "新疆维吾尔自治区",
            "city": "昌吉回族自治州",
            "district": "昌吉市"
        }
    },
    {
        "id": "4458438645627464647",
        "title": "公共厕所(翁巴郎驿站)",
        "address": "新疆维吾尔自治区昌吉回族自治州呼图壁县游牧人家驿站东南侧",
        "tel": "",
        "category": "基础设施:公共设施:公共厕所",
        "type": 0,
        "location": {
            "lat": 43.840779,
            "lng": 86.356446
        },
        "ad_info": {
            "adcode": 652323,
            "province": "新疆维吾尔自治区",
            "city": "昌吉回族自治州",
            "district": "呼图壁县"
        }
    },
    {
        "id": "4614814364124764477",
        "title": "新疆农业博览园菜地公共厕所",
        "address": "新疆维吾尔自治区昌吉回族自治州昌吉市创新南路与昌五路交叉口东南方向484米左右",
        "tel": "",
        "category": "基础设施:公共设施:公共厕所",
        "type": 0,
        "location": {
            "lat": 44.047697,
            "lng": 87.369236
        },
        "ad_info": {
            "adcode": 652301,
            "province": "新疆维吾尔自治区",
            "city": "昌吉回族自治州",
            "district": "昌吉市"
        }
    },
    {
        "id": "17699588737485827026",
        "title": "公共厕所(园户村镇嘉泰牡丹园2号)",
        "address": "新疆维吾尔自治区昌吉回族自治州呼图壁县嘉泰牡丹园西侧220米",
        "tel": "",
        "category": "基础设施:公共设施:公共厕所",
        "type": 0,
        "location": {
            "lat": 44.161829,
            "lng": 86.875895
        },
        "ad_info": {
            "adcode": 652323,
            "province": "新疆维吾尔自治区",
            "city": "昌吉回族自治州",
            "district": "呼图壁县"
        }
    },
    {
        "id": "5993180225536118173",
        "title": "公共厕所(唐墩驿站)",
        "address": "新疆维吾尔自治区昌吉回族自治州呼图壁县Z901与五工台立交桥交叉口正西方向154米左右",
        "tel": "",
        "category": "基础设施:公共设施:公共厕所",
        "type": 0,
        "location": {
            "lat": 44.189917,
            "lng": 86.69174
        },
        "ad_info": {
            "adcode": 652323,
            "province": "新疆维吾尔自治区",
            "city": "昌吉回族自治州",
            "district": "呼图壁县"
        }
    },
    {
        "id": "17848760986508382896",
        "title": "公共厕所",
        "address": "新疆维吾尔自治区昌吉回族自治州玛纳斯县乌伊西路与建设南路交叉口东南方向61米左右",
        "tel": "",
        "category": "基础设施:公共设施:公共厕所",
        "type": 0,
        "location": {
            "lat": 44.301166,
            "lng": 86.20424
        },
        "ad_info": {
            "adcode": 652324,
            "province": "新疆维吾尔自治区",
            "city": "昌吉回族自治州",
            "district": "玛纳斯县"
        }
    },
    {
        "id": "11353002557579319273",
        "title": "公共厕所",
        "address": "新疆维吾尔自治区昌吉回族自治州玛纳斯县幸福路与振兴路交叉口正西方向296米左右",
        "tel": "",
        "category": "基础设施:公共设施:公共厕所",
        "type": 0,
        "location": {
            "lat": 44.95033,
            "lng": 86.207011
        },
        "ad_info": {
            "adcode": 652324,
            "province": "新疆维吾尔自治区",
            "city": "昌吉回族自治州",
            "district": "玛纳斯县"
        }
    },
    {
        "id": "1501400368138080334",
        "title": "公共厕所",
        "address": "新疆维吾尔自治区昌吉回族自治州阜康市准噶尔路与科普巷交叉口正北方向227米左右",
        "tel": "",
        "category": "基础设施:公共设施:公共厕所",
        "type": 0,
        "location": {
            "lat": 44.155776,
            "lng": 87.995867
        },
        "ad_info": {
            "adcode": 652302,
            "province": "新疆维吾尔自治区",
            "city": "昌吉回族自治州",
            "district": "阜康市"
        }
    },
    {
        "id": "14325044410995932557",
        "title": "公共厕所",
        "address": "新疆维吾尔自治区昌吉回族自治州玛纳斯县国家湿地公园雁飞台景区",
        "tel": "",
        "category": "基础设施:公共设施:公共厕所",
        "type": 0,
        "location": {
            "lat": 44.434544,
            "lng": 86.173771
        },
        "ad_info": {
            "adcode": 652324,
            "province": "新疆维吾尔自治区",
            "city": "昌吉回族自治州",
            "district": "玛纳斯县"
        }
    },
    {
        "id": "6290088335808009990",
        "title": "大黄山服务区公共厕所",
        "address": "新疆维吾尔自治区昌吉回族自治州阜康市京新高速附近",
        "tel": "",
        "category": "基础设施:公共设施:公共厕所",
        "type": 0,
        "location": {
            "lat": 44.103796,
            "lng": 88.628883
        },
        "ad_info": {
            "adcode": 652302,
            "province": "新疆维吾尔自治区",
            "city": "昌吉回族自治州",
            "district": "阜康市"
        }
    },
    {
        "id": "16107720552830830722",
        "title": "公共厕所",
        "address": "新疆维吾尔自治区昌吉回族自治州昌吉市华业综合物流园北侧150米",
        "tel": "",
        "category": "基础设施:公共设施:公共厕所",
        "type": 0,
        "location": {
            "lat": 44.043838,
            "lng": 87.215738
        },
        "ad_info": {
            "adcode": 652301,
            "province": "新疆维吾尔自治区",
            "city": "昌吉回族自治州",
            "district": "昌吉市"
        }
    },
    {
        "id": "16507942920478792982",
        "title": "公共厕所",
        "address": "新疆维吾尔自治区昌吉回族自治州阜康市古井路与子规街交叉口正南方向158米左右",
        "tel": "",
        "category": "基础设施:公共设施:公共厕所",
        "type": 0,
        "location": {
            "lat": 44.291718,
            "lng": 87.921435
        },
        "ad_info": {
            "adcode": 652302,
            "province": "新疆维吾尔自治区",
            "city": "昌吉回族自治州",
            "district": "阜康市"
        }
    },
    {
        "id": "4839012409718809845",
        "title": "公共厕所",
        "address": "新疆维吾尔自治区昌吉回族自治州昌吉市屯河路与文化东路交叉口正西方向367米左右",
        "tel": "",
        "category": "基础设施:公共设施:公共厕所",
        "type": 0,
        "location": {
            "lat": 44.012203,
            "lng": 87.328153
        },
        "ad_info": {
            "adcode": 652301,
            "province": "新疆维吾尔自治区",
            "city": "昌吉回族自治州",
            "district": "昌吉市"
        }
    },
    {
        "id": "15412948749050137717",
        "title": "公共厕所",
        "address": "新疆维吾尔自治区昌吉回族自治州吉木萨尔县环城西路与阿尔泰西路交叉口正西方向644米左右",
        "tel": "",
        "category": "基础设施:公共设施:公共厕所",
        "type": 0,
        "location": {
            "lat": 44.796077,
            "lng": 88.859659
        },
        "ad_info": {
            "adcode": 652327,
            "province": "新疆维吾尔自治区",
            "city": "昌吉回族自治州",
            "district": "吉木萨尔县"
        }
    },
    {
        "id": "13898365437485915945",
        "title": "公共厕所(大唐葡萄酒庄酒窖)",
        "address": "新疆维吾尔自治区昌吉回族自治州呼图壁县大唐西域酒庄酒窖西侧",
        "tel": "",
        "category": "基础设施:公共设施:公共厕所",
        "type": 0,
        "location": {
            "lat": 44.13907,
            "lng": 86.749315
        },
        "ad_info": {
            "adcode": 652323,
            "province": "新疆维吾尔自治区",
            "city": "昌吉回族自治州",
            "district": "呼图壁县"
        }
    },
    {
        "id": "4296710796857737919",
        "title": "公共厕所(XJ-CJ-0205)",
        "address": "新疆维吾尔自治区昌吉回族自治州昌吉市滨湖镇朗青休闲观光牧场奶牛科技馆",
        "tel": "",
        "category": "基础设施:公共设施:公共厕所",
        "type": 0,
        "location": {
            "lat": 44.108181,
            "lng": 87.361001
        },
        "ad_info": {
            "adcode": 652301,
            "province": "新疆维吾尔自治区",
            "city": "昌吉回族自治州",
            "district": "昌吉市"
        }
    },
    {
        "id": "10403320967394984583",
        "title": "大石头服务区公共厕所",
        "address": "新疆维吾尔自治区昌吉回族自治州木垒哈萨克自治县G7京新高速与大石头服务区交叉口西480米",
        "tel": "",
        "category": "基础设施:公共设施:公共厕所",
        "type": 0,
        "location": {
            "lat": 43.752314,
            "lng": 91.131903
        },
        "ad_info": {
            "adcode": 652328,
            "province": "新疆维吾尔自治区",
            "city": "昌吉回族自治州",
            "district": "木垒哈萨克自治县"
        }
    },
    {
        "id": "15717219751109745295",
        "title": "公共厕所",
        "address": "新疆维吾尔自治区昌吉回族自治州呼图壁县",
        "tel": "",
        "category": "基础设施:公共设施:公共厕所",
        "type": 0,
        "location": {
            "lat": 43.97898,
            "lng": 86.792512
        },
        "ad_info": {
            "adcode": 652323,
            "province": "新疆维吾尔自治区",
            "city": "昌吉回族自治州",
            "district": "呼图壁县"
        }
    },
    {
        "id": "17770660972801357177",
        "title": "公共厕所(园户村镇嘉泰牡丹园1号)",
        "address": "新疆维吾尔自治区昌吉回族自治州呼图壁县嘉泰牡丹园西南侧",
        "tel": "",
        "category": "基础设施:公共设施:公共厕所",
        "type": 0,
        "location": {
            "lat": 44.160899,
            "lng": 86.878364
        },
        "ad_info": {
            "adcode": 652323,
            "province": "新疆维吾尔自治区",
            "city": "昌吉回族自治州",
            "district": "呼图壁县"
        }
    },
    {
        "id": "1683744112764407332",
        "title": "南泉子停车区公共厕所",
        "address": "新疆维吾尔自治区昌吉回族自治州阜康市南泉子停车区南侧",
        "tel": "",
        "category": "基础设施:公共设施:公共厕所",
        "type": 0,
        "location": {
            "lat": 44.106498,
            "lng": 88.458839
        },
        "ad_info": {
            "adcode": 652302,
            "province": "新疆维吾尔自治区",
            "city": "昌吉回族自治州",
            "district": "阜康市"
        }
    },
    {
        "id": "7876546295460457501",
        "title": "卫生间",
        "address": "新疆维吾尔自治区昌吉回族自治州昌吉市净化路与科二路交叉口西北方向283米左右",
        "tel": "",
        "category": "基础设施:公共设施:公共厕所",
        "type": 0,
        "location": {
            "lat": 44.041656,
            "lng": 87.334235
        },
        "ad_info": {
            "adcode": 652301,
            "province": "新疆维吾尔自治区",
            "city": "昌吉回族自治州",
            "district": "昌吉市"
        }
    },
    {
        "id": "4458438645627464647",
        "title": "公共厕所(翁巴郎驿站)",
        "address": "新疆维吾尔自治区昌吉回族自治州呼图壁县游牧人家驿站东南侧",
        "tel": "",
        "category": "基础设施:公共设施:公共厕所",
        "type": 0,
        "location": {
            "lat": 43.840779,
            "lng": 86.356446
        },
        "ad_info": {
            "adcode": 652323,
            "province": "新疆维吾尔自治区",
            "city": "昌吉回族自治州",
            "district": "呼图壁县"
        }
    },
    {
        "id": "4614814364124764477",
        "title": "新疆农业博览园菜地公共厕所",
        "address": "新疆维吾尔自治区昌吉回族自治州昌吉市创新南路与昌五路交叉口东南方向484米左右",
        "tel": "",
        "category": "基础设施:公共设施:公共厕所",
        "type": 0,
        "location": {
            "lat": 44.047697,
            "lng": 87.369236
        },
        "ad_info": {
            "adcode": 652301,
            "province": "新疆维吾尔自治区",
            "city": "昌吉回族自治州",
            "district": "昌吉市"
        }
    },
    {
        "id": "17699588737485827026",
        "title": "公共厕所(园户村镇嘉泰牡丹园2号)",
        "address": "新疆维吾尔自治区昌吉回族自治州呼图壁县嘉泰牡丹园西侧220米",
        "tel": "",
        "category": "基础设施:公共设施:公共厕所",
        "type": 0,
        "location": {
            "lat": 44.161829,
            "lng": 86.875895
        },
        "ad_info": {
            "adcode": 652323,
            "province": "新疆维吾尔自治区",
            "city": "昌吉回族自治州",
            "district": "呼图壁县"
        }
    },
    {
        "id": "5993180225536118173",
        "title": "公共厕所(唐墩驿站)",
        "address": "新疆维吾尔自治区昌吉回族自治州呼图壁县Z901与五工台立交桥交叉口正西方向154米左右",
        "tel": "",
        "category": "基础设施:公共设施:公共厕所",
        "type": 0,
        "location": {
            "lat": 44.189917,
            "lng": 86.69174
        },
        "ad_info": {
            "adcode": 652323,
            "province": "新疆维吾尔自治区",
            "city": "昌吉回族自治州",
            "district": "呼图壁县"
        }
    },
    {
        "id": "17848760986508382896",
        "title": "公共厕所",
        "address": "新疆维吾尔自治区昌吉回族自治州玛纳斯县乌伊西路与建设南路交叉口东南方向61米左右",
        "tel": "",
        "category": "基础设施:公共设施:公共厕所",
        "type": 0,
        "location": {
            "lat": 44.301166,
            "lng": 86.20424
        },
        "ad_info": {
            "adcode": 652324,
            "province": "新疆维吾尔自治区",
            "city": "昌吉回族自治州",
            "district": "玛纳斯县"
        }
    },
    {
        "id": "11353002557579319273",
        "title": "公共厕所",
        "address": "新疆维吾尔自治区昌吉回族自治州玛纳斯县幸福路与振兴路交叉口正西方向296米左右",
        "tel": "",
        "category": "基础设施:公共设施:公共厕所",
        "type": 0,
        "location": {
            "lat": 44.95033,
            "lng": 86.207011
        },
        "ad_info": {
            "adcode": 652324,
            "province": "新疆维吾尔自治区",
            "city": "昌吉回族自治州",
            "district": "玛纳斯县"
        }
    },
    {
        "id": "1501400368138080334",
        "title": "公共厕所",
        "address": "新疆维吾尔自治区昌吉回族自治州阜康市准噶尔路与科普巷交叉口正北方向227米左右",
        "tel": "",
        "category": "基础设施:公共设施:公共厕所",
        "type": 0,
        "location": {
            "lat": 44.155776,
            "lng": 87.995867
        },
        "ad_info": {
            "adcode": 652302,
            "province": "新疆维吾尔自治区",
            "city": "昌吉回族自治州",
            "district": "阜康市"
        }
    },
    {
        "id": "14325044410995932557",
        "title": "公共厕所",
        "address": "新疆维吾尔自治区昌吉回族自治州玛纳斯县国家湿地公园雁飞台景区",
        "tel": "",
        "category": "基础设施:公共设施:公共厕所",
        "type": 0,
        "location": {
            "lat": 44.434544,
            "lng": 86.173771
        },
        "ad_info": {
            "adcode": 652324,
            "province": "新疆维吾尔自治区",
            "city": "昌吉回族自治州",
            "district": "玛纳斯县"
        }
    },
    {
        "id": "6290088335808009990",
        "title": "大黄山服务区公共厕所",
        "address": "新疆维吾尔自治区昌吉回族自治州阜康市京新高速附近",
        "tel": "",
        "category": "基础设施:公共设施:公共厕所",
        "type": 0,
        "location": {
            "lat": 44.103796,
            "lng": 88.628883
        },
        "ad_info": {
            "adcode": 652302,
            "province": "新疆维吾尔自治区",
            "city": "昌吉回族自治州",
            "district": "阜康市"
        }
    },
    {
        "id": "16107720552830830722",
        "title": "公共厕所",
        "address": "新疆维吾尔自治区昌吉回族自治州昌吉市华业综合物流园北侧150米",
        "tel": "",
        "category": "基础设施:公共设施:公共厕所",
        "type": 0,
        "location": {
            "lat": 44.043838,
            "lng": 87.215738
        },
        "ad_info": {
            "adcode": 652301,
            "province": "新疆维吾尔自治区",
            "city": "昌吉回族自治州",
            "district": "昌吉市"
        }
    },
    {
        "id": "16507942920478792982",
        "title": "公共厕所",
        "address": "新疆维吾尔自治区昌吉回族自治州阜康市古井路与子规街交叉口正南方向158米左右",
        "tel": "",
        "category": "基础设施:公共设施:公共厕所",
        "type": 0,
        "location": {
            "lat": 44.291718,
            "lng": 87.921435
        },
        "ad_info": {
            "adcode": 652302,
            "province": "新疆维吾尔自治区",
            "city": "昌吉回族自治州",
            "district": "阜康市"
        }
    },
    {
        "id": "4839012409718809845",
        "title": "公共厕所",
        "address": "新疆维吾尔自治区昌吉回族自治州昌吉市屯河路与文化东路交叉口正西方向367米左右",
        "tel": "",
        "category": "基础设施:公共设施:公共厕所",
        "type": 0,
        "location": {
            "lat": 44.012203,
            "lng": 87.328153
        },
        "ad_info": {
            "adcode": 652301,
            "province": "新疆维吾尔自治区",
            "city": "昌吉回族自治州",
            "district": "昌吉市"
        }
    }
]