[
    {
        "id": "3341615668554590295",
        "title": "公共厕所",
        "address": "海南省昌江黎族自治县和谐路与市民广场二路交叉口东北方向162米左右",
        "tel": "",
        "category": "基础设施:公共设施:公共厕所",
        "type": 0,
        "location": {
            "lat": 19.293667,
            "lng": 109.056072
        },
        "ad_info": {
            "adcode": 469026,
            "province": "海南省",
            "city": "",
            "district": "昌江黎族自治县"
        }
    },
    {
        "id": "13335195471114682370",
        "title": "公共厕所",
        "address": "海南省昌江黎族自治县人民北七巷与人民北路交叉口正南方向76米左右",
        "tel": "",
        "category": "基础设施:公共设施:公共厕所",
        "type": 0,
        "location": {
            "lat": 19.265446,
            "lng": 109.053017
        },
        "ad_info": {
            "adcode": 469026,
            "province": "海南省",
            "city": "",
            "district": "昌江黎族自治县"
        }
    },
    {
        "id": "3986320444093384517",
        "title": "公共厕所",
        "address": "海南省昌江黎族自治县东风路与人民北路交叉口正东方向91米左右",
        "tel": "",
        "category": "基础设施:公共设施:公共厕所",
        "type": 0,
        "location": {
            "lat": 19.259733,
            "lng": 109.051781
        },
        "ad_info": {
            "adcode": 469026,
            "province": "海南省",
            "city": "",
            "district": "昌江黎族自治县"
        }
    },
    {
        "id": "956268764106227001",
        "title": "公共厕所",
        "address": "海南省昌江黎族自治县环城西路与规划二路交叉口正南方向117米左右",
        "tel": "",
        "category": "基础设施:公共设施:公共厕所",
        "type": 0,
        "location": {
            "lat": 19.268568,
            "lng": 109.045223
        },
        "ad_info": {
            "adcode": 469026,
            "province": "海南省",
            "city": "",
            "district": "昌江黎族自治县"
        }
    },
    {
        "id": "5911919864068047565",
        "title": "公共厕所",
        "address": "海南省昌江黎族自治县道隆村棋子湾站",
        "tel": "",
        "category": "基础设施:公共设施:公共厕所",
        "type": 0,
        "location": {
            "lat": 19.337576,
            "lng": 108.807997
        },
        "ad_info": {
            "adcode": 469026,
            "province": "海南省",
            "city": "",
            "district": "昌江黎族自治县"
        }
    },
    {
        "id": "6528121451934512669",
        "title": "公共厕所",
        "address": "海南省昌江黎族自治县中心大道与海丰后巷交叉口东南方向84米左右",
        "tel": "",
        "category": "基础设施:公共设施:公共厕所",
        "type": 0,
        "location": {
            "lat": 19.326297,
            "lng": 108.680987
        },
        "ad_info": {
            "adcode": 469026,
            "province": "海南省",
            "city": "",
            "district": "昌江黎族自治县"
        }
    },
    {
        "id": "2107947128286050746",
        "title": "公共厕所",
        "address": "海南省昌江黎族自治县人民南路与地质路交叉口正西方向125米左右",
        "tel": "",
        "category": "基础设施:公共设施:公共厕所",
        "type": 0,
        "location": {
            "lat": 19.248901,
            "lng": 109.046729
        },
        "ad_info": {
            "adcode": 469026,
            "province": "海南省",
            "city": "",
            "district": "昌江黎族自治县"
        }
    },
    {
        "id": "5193268499505488584",
        "title": "公共厕所",
        "address": "海南省昌江黎族自治县人民北路与环城东一路交叉口西北方向81米左右",
        "tel": "",
        "category": "基础设施:公共设施:公共厕所",
        "type": 0,
        "location": {
            "lat": 19.277218,
            "lng": 109.054891
        },
        "ad_info": {
            "adcode": 469026,
            "province": "海南省",
            "city": "",
            "district": "昌江黎族自治县"
        }
    },
    {
        "id": "9167215129879557303",
        "title": "公共厕所",
        "address": "海南省昌江黎族自治县昌江第四小学南侧120米",
        "tel": "",
        "category": "基础设施:公共设施:公共厕所",
        "type": 0,
        "location": {
            "lat": 19.254919,
            "lng": 109.053952
        },
        "ad_info": {
            "adcode": 469026,
            "province": "海南省",
            "city": "",
            "district": "昌江黎族自治县"
        }
    },
    {
        "id": "2717379654088300194",
        "title": "公共厕所",
        "address": "海南省昌江黎族自治县北辰路与环城东路交叉口西南方向39米左右",
        "tel": "",
        "category": "基础设施:公共设施:公共厕所",
        "type": 0,
        "location": {
            "lat": 19.270341,
            "lng": 109.063309
        },
        "ad_info": {
            "adcode": 469026,
            "province": "海南省",
            "city": "",
            "district": "昌江黎族自治县"
        }
    },
    {
        "id": "4515209303732063420",
        "title": "公共厕所",
        "address": "海南省昌江黎族自治县人民北路与环城东一路交叉口正西方向453米左右",
        "tel": "",
        "category": "基础设施:公共设施:公共厕所",
        "type": 0,
        "location": {
            "lat": 19.276908,
            "lng": 109.051157
        },
        "ad_info": {
            "adcode": 469026,
            "province": "海南省",
            "city": "",
            "district": "昌江黎族自治县"
        }
    },
    {
        "id": "2960364237855810569",
        "title": "公共厕所",
        "address": "海南省昌江黎族自治县S311与海南环岛旅游公路交叉口正东方向792米左右",
        "tel": "",
        "category": "基础设施:公共设施:公共厕所",
        "type": 0,
        "location": {
            "lat": 19.257451,
            "lng": 108.764395
        },
        "ad_info": {
            "adcode": 469026,
            "province": "海南省",
            "city": "",
            "district": "昌江黎族自治县"
        }
    },
    {
        "id": "14711594426105168417",
        "title": "公共厕所",
        "address": "海南省昌江黎族自治县敬民路与昌江大道交叉口东南方向128米左右",
        "tel": "",
        "category": "基础设施:公共设施:公共厕所",
        "type": 0,
        "location": {
            "lat": 19.307059,
            "lng": 109.049976
        },
        "ad_info": {
            "adcode": 469026,
            "province": "海南省",
            "city": "",
            "district": "昌江黎族自治县"
        }
    },
    {
        "id": "14672230494282737926",
        "title": "公共厕所",
        "address": "海南省昌江黎族自治县环城西二路与西苑一路交叉口东北方向74米左右",
        "tel": "",
        "category": "基础设施:公共设施:公共厕所",
        "type": 0,
        "location": {
            "lat": 19.288427,
            "lng": 109.054133
        },
        "ad_info": {
            "adcode": 469026,
            "province": "海南省",
            "city": "",
            "district": "昌江黎族自治县"
        }
    },
    {
        "id": "5526820149605223826",
        "title": "公共厕所",
        "address": "海南省昌江黎族自治县人民北十一巷与人民北路交叉口东北120米",
        "tel": "",
        "category": "基础设施:公共设施:公共厕所",
        "type": 0,
        "location": {
            "lat": 19.278683,
            "lng": 109.0564
        },
        "ad_info": {
            "adcode": 469026,
            "province": "海南省",
            "city": "",
            "district": "昌江黎族自治县"
        }
    },
    {
        "id": "14055566848715388037",
        "title": "公共厕所",
        "address": "海南省昌江黎族自治县人民北路与桥南路交叉口正西方向37米左右",
        "tel": "",
        "category": "基础设施:公共设施:公共厕所",
        "type": 0,
        "location": {
            "lat": 19.253037,
            "lng": 109.048644
        },
        "ad_info": {
            "adcode": 469026,
            "province": "海南省",
            "city": "",
            "district": "昌江黎族自治县"
        }
    },
    {
        "id": "16438700759050284837",
        "title": "公共厕所",
        "address": "海南省昌江黎族自治县昌江大道与红田大道交叉口正东方向1320米左右",
        "tel": "",
        "category": "基础设施:公共设施:公共厕所",
        "type": 0,
        "location": {
            "lat": 19.316558,
            "lng": 109.013313
        },
        "ad_info": {
            "adcode": 469026,
            "province": "海南省",
            "city": "",
            "district": "昌江黎族自治县"
        }
    },
    {
        "id": "10841443137365161736",
        "title": "公共厕所",
        "address": "海南省昌江黎族自治县S311与Y083交叉口正东方向767米左右",
        "tel": "",
        "category": "基础设施:公共设施:公共厕所",
        "type": 0,
        "location": {
            "lat": 19.288248,
            "lng": 108.798057
        },
        "ad_info": {
            "adcode": 469026,
            "province": "海南省",
            "city": "",
            "district": "昌江黎族自治县"
        }
    },
    {
        "id": "12771689076282267140",
        "title": "公共厕所",
        "address": "海南省昌江黎族自治县东风路与农垦西一路交叉口西北方向90米左右",
        "tel": "",
        "category": "基础设施:公共设施:公共厕所",
        "type": 0,
        "location": {
            "lat": 19.259683,
            "lng": 109.06526
        },
        "ad_info": {
            "adcode": 469026,
            "province": "海南省",
            "city": "",
            "district": "昌江黎族自治县"
        }
    },
    {
        "id": "14704558074074144490",
        "title": "公共厕所",
        "address": "海南省昌江黎族自治县大坡互通与昌江大道交叉口东北方向121米左右",
        "tel": "",
        "category": "基础设施:公共设施:公共厕所",
        "type": 0,
        "location": {
            "lat": 19.319402,
            "lng": 108.994874
        },
        "ad_info": {
            "adcode": 469026,
            "province": "海南省",
            "city": "",
            "district": "昌江黎族自治县"
        }
    },
    {
        "id": "7673660031179712990",
        "title": "公共厕所",
        "address": "海南省昌江黎族自治县人民北十一巷与人民北路交叉口东北方向50米左右",
        "tel": "",
        "category": "基础设施:公共设施:公共厕所",
        "type": 0,
        "location": {
            "lat": 19.278235,
            "lng": 109.055936
        },
        "ad_info": {
            "adcode": 469026,
            "province": "海南省",
            "city": "",
            "district": "昌江黎族自治县"
        }
    },
    {
        "id": "14635414448042412698",
        "title": "公共厕所",
        "address": "海南省昌江黎族自治县东风路昌江中学",
        "tel": "",
        "category": "基础设施:公共设施:公共厕所",
        "type": 0,
        "location": {
            "lat": 19.260248,
            "lng": 109.059364
        },
        "ad_info": {
            "adcode": 469026,
            "province": "海南省",
            "city": "",
            "district": "昌江黎族自治县"
        }
    },
    {
        "id": "8333482662293798925",
        "title": "公共厕所",
        "address": "海南省昌江黎族自治县X705(昌盛路)",
        "tel": "",
        "category": "基础设施:公共设施:公共厕所",
        "type": 0,
        "location": {
            "lat": 19.164602,
            "lng": 109.032149
        },
        "ad_info": {
            "adcode": 469026,
            "province": "海南省",
            "city": "",
            "district": "昌江黎族自治县"
        }
    },
    {
        "id": "8404866759808367160",
        "title": "公共厕所",
        "address": "海南省昌江黎族自治县公园一路与环城东路交叉口正西方向215米左右",
        "tel": "",
        "category": "基础设施:公共设施:公共厕所",
        "type": 0,
        "location": {
            "lat": 19.264643,
            "lng": 109.061346
        },
        "ad_info": {
            "adcode": 469026,
            "province": "海南省",
            "city": "",
            "district": "昌江黎族自治县"
        }
    },
    {
        "id": "16132894853082637761",
        "title": "公共厕所",
        "address": "海南省昌江黎族自治县叉河镇中心大道与海榆西线交叉口西北方向98米左右",
        "tel": "",
        "category": "基础设施:公共设施:公共厕所",
        "type": 0,
        "location": {
            "lat": 19.239637,
            "lng": 108.955793
        },
        "ad_info": {
            "adcode": 469026,
            "province": "海南省",
            "city": "",
            "district": "昌江黎族自治县"
        }
    },
    {
        "id": "2687546471170633494",
        "title": "公共厕所",
        "address": "海南省昌江黎族自治县东风路与吉宁路交叉口西北方向104米左右",
        "tel": "",
        "category": "基础设施:公共设施:公共厕所",
        "type": 0,
        "location": {
            "lat": 19.260291,
            "lng": 109.059024
        },
        "ad_info": {
            "adcode": 469026,
            "province": "海南省",
            "city": "",
            "district": "昌江黎族自治县"
        }
    },
    {
        "id": "699715208443517305",
        "title": "公共厕所",
        "address": "海南省昌江黎族自治县健民路与铁城路交叉口东南方向56米左右",
        "tel": "",
        "category": "基础设施:公共设施:公共厕所",
        "type": 0,
        "location": {
            "lat": 19.256192,
            "lng": 109.055614
        },
        "ad_info": {
            "adcode": 469026,
            "province": "海南省",
            "city": "",
            "district": "昌江黎族自治县"
        }
    },
    {
        "id": "17103312994055617276",
        "title": "公共厕所",
        "address": "海南省昌江黎族自治县北斗西路与观海路交叉口正西方向129米左右",
        "tel": "",
        "category": "基础设施:公共设施:公共厕所",
        "type": 0,
        "location": {
            "lat": 19.367597,
            "lng": 108.695957
        },
        "ad_info": {
            "adcode": 469026,
            "province": "海南省",
            "city": "",
            "district": "昌江黎族自治县"
        }
    },
    {
        "id": "3637040640360533861",
        "title": "公共厕所",
        "address": "海南省昌江黎族自治县人民北路与新村西路交叉口正西方向234米左右",
        "tel": "",
        "category": "基础设施:公共设施:公共厕所",
        "type": 0,
        "location": {
            "lat": 19.270853,
            "lng": 109.052145
        },
        "ad_info": {
            "adcode": 469026,
            "province": "海南省",
            "city": "",
            "district": "昌江黎族自治县"
        }
    },
    {
        "id": "15066859666851367521",
        "title": "公共厕所",
        "address": "海南省昌江黎族自治县人民北路与环城东一路交叉口正西方向342米左右",
        "tel": "",
        "category": "基础设施:公共设施:公共厕所",
        "type": 0,
        "location": {
            "lat": 19.277031,
            "lng": 109.052232
        },
        "ad_info": {
            "adcode": 469026,
            "province": "海南省",
            "city": "",
            "district": "昌江黎族自治县"
        }
    },
    {
        "id": "15186587779459213277",
        "title": "公共厕所",
        "address": "海南省昌江黎族自治县人民北路与人民南路交叉口西南方向102米左右",
        "tel": "",
        "category": "基础设施:公共设施:公共厕所",
        "type": 0,
        "location": {
            "lat": 19.251386,
            "lng": 109.047825
        },
        "ad_info": {
            "adcode": 469026,
            "province": "海南省",
            "city": "",
            "district": "昌江黎族自治县"
        }
    },
    {
        "id": "3343172000456397923",
        "title": "公共厕所",
        "address": "海南省昌江黎族自治县人民北路与桥南路交叉口东南方向106米左右",
        "tel": "",
        "category": "基础设施:公共设施:公共厕所",
        "type": 0,
        "location": {
            "lat": 19.252483,
            "lng": 109.049721
        },
        "ad_info": {
            "adcode": 469026,
            "province": "海南省",
            "city": "",
            "district": "昌江黎族自治县"
        }
    },
    {
        "id": "18244694944259511813",
        "title": "沙鱼塘村公共厕所",
        "address": "海南省昌江黎族自治县海尾镇沙鱼塘村",
        "tel": "",
        "category": "基础设施:公共设施:公共厕所",
        "type": 0,
        "location": {
            "lat": 19.380844,
            "lng": 108.759512
        },
        "ad_info": {
            "adcode": 469026,
            "province": "海南省",
            "city": "",
            "district": "昌江黎族自治县"
        }
    },
    {
        "id": "8200574189004769077",
        "title": "海东方公共厕所",
        "address": "海南省昌江黎族自治县北斗西路与海南环岛旅游公路交叉口西南方向76米左右",
        "tel": "",
        "category": "基础设施:公共设施:公共厕所",
        "type": 0,
        "location": {
            "lat": 19.366206,
            "lng": 108.718107
        },
        "ad_info": {
            "adcode": 469026,
            "province": "海南省",
            "city": "",
            "district": "昌江黎族自治县"
        }
    },
    {
        "id": "5948161101051946027",
        "title": "海尾镇公共厕所",
        "address": "海南省昌江黎族自治县X700与海南环岛旅游公路交叉口西南方向635米左右",
        "tel": "",
        "category": "基础设施:公共设施:公共厕所",
        "type": 0,
        "location": {
            "lat": 19.419674,
            "lng": 108.811791
        },
        "ad_info": {
            "adcode": 469026,
            "province": "海南省",
            "city": "",
            "district": "昌江黎族自治县"
        }
    },
    {
        "id": "16142892666253882791",
        "title": "昌城村公共厕所",
        "address": "海南省昌江黎族自治县昌盛路1号",
        "tel": "",
        "category": "基础设施:公共设施:公共厕所",
        "type": 0,
        "location": {
            "lat": 19.309674,
            "lng": 108.696148
        },
        "ad_info": {
            "adcode": 469026,
            "province": "海南省",
            "city": "",
            "district": "昌江黎族自治县"
        }
    },
    {
        "id": "3170904066455532914",
        "title": "旅游公路东北侧厕所",
        "address": "海南省昌江黎族自治县X700与海南环岛旅游公路交叉口东南方向314米左右",
        "tel": "",
        "category": "基础设施:公共设施:公共厕所",
        "type": 0,
        "location": {
            "lat": 19.421259,
            "lng": 108.818084
        },
        "ad_info": {
            "adcode": 469026,
            "province": "海南省",
            "city": "",
            "district": "昌江黎族自治县"
        }
    },
    {
        "id": "4970415604990740107",
        "title": "北斗东路公共厕所",
        "address": "海南省昌江黎族自治县北斗东路恒大棋子湾小区西南",
        "tel": "",
        "category": "基础设施:公共设施:公共厕所",
        "type": 0,
        "location": {
            "lat": 19.366324,
            "lng": 108.718423
        },
        "ad_info": {
            "adcode": 469026,
            "province": "海南省",
            "city": "",
            "district": "昌江黎族自治县"
        }
    },
    {
        "id": "16222100663879624747",
        "title": "一体化智慧公共厕所",
        "address": "海南省昌江黎族自治县观海桥北观景台",
        "tel": "",
        "category": "基础设施:公共设施:公共厕所",
        "type": 0,
        "location": {
            "lat": 19.412307,
            "lng": 108.805318
        },
        "ad_info": {
            "adcode": 469026,
            "province": "海南省",
            "city": "",
            "district": "昌江黎族自治县"
        }
    },
    {
        "id": "5630823348301263992",
        "title": "昌城卫生院公共厕所",
        "address": "海南省昌江黎族自治县卫生院西南侧130米",
        "tel": "",
        "category": "基础设施:公共设施:公共厕所",
        "type": 0,
        "location": {
            "lat": 19.310244,
            "lng": 108.696813
        },
        "ad_info": {
            "adcode": 469026,
            "province": "海南省",
            "city": "",
            "district": "昌江黎族自治县"
        }
    },
    {
        "id": "4047340403609089292",
        "title": "海尾镇中心大道公共厕所",
        "address": "海南省昌江黎族自治县X700与海南环岛旅游公路交叉口西南方向47米左右",
        "tel": "",
        "category": "基础设施:公共设施:公共厕所",
        "type": 0,
        "location": {
            "lat": 19.423198,
            "lng": 108.815989
        },
        "ad_info": {
            "adcode": 469026,
            "province": "海南省",
            "city": "",
            "district": "昌江黎族自治县"
        }
    },
    {
        "id": "1864828817177950622",
        "title": "海尾听涛养护工区公共厕所",
        "address": "海南省昌江黎族自治县环岛旅游公路与海尾听涛停车区交叉口南180米",
        "tel": "",
        "category": "基础设施:公共设施:公共厕所",
        "type": 0,
        "location": {
            "lat": 19.437887,
            "lng": 108.830691
        },
        "ad_info": {
            "adcode": 469026,
            "province": "海南省",
            "city": "",
            "district": "昌江黎族自治县"
        }
    },
    {
        "id": "4027316672592423013",
        "title": "海尾听涛停车区公共厕所",
        "address": "海南省昌江黎族自治县环岛旅游公路与海尾听涛停车区交叉口南180米",
        "tel": "",
        "category": "基础设施:公共设施:公共厕所",
        "type": 0,
        "location": {
            "lat": 19.437885,
            "lng": 108.83068
        },
        "ad_info": {
            "adcode": 469026,
            "province": "海南省",
            "city": "",
            "district": "昌江黎族自治县"
        }
    },
    {
        "id": "9478457242345949498",
        "title": "海尾听涛停车区公共厕所",
        "address": "海南省昌江黎族自治县海尾听涛停车区",
        "tel": "",
        "category": "基础设施:公共设施:公共厕所",
        "type": 0,
        "location": {
            "lat": 19.444751,
            "lng": 108.838427
        },
        "ad_info": {
            "adcode": 469026,
            "province": "海南省",
            "city": "",
            "district": "昌江黎族自治县"
        }
    },
    {
        "id": "5315328925661222886",
        "title": "昌江服务区公共厕所",
        "address": "海南省昌江黎族自治县昌江服务区与G98海南环岛高速交叉口西南240米",
        "tel": "",
        "category": "基础设施:公共设施:公共厕所",
        "type": 0,
        "location": {
            "lat": 19.35633,
            "lng": 109.008133
        },
        "ad_info": {
            "adcode": 469026,
            "province": "海南省",
            "city": "",
            "district": "昌江黎族自治县"
        }
    },
    {
        "id": "18339705774857029144",
        "title": "昌江黎族自治县海尾镇中心大道公共厕所",
        "address": "海南省昌江黎族自治县X700与海南环岛旅游公路交叉口东北方向924米左右",
        "tel": "",
        "category": "基础设施:公共设施:公共厕所",
        "type": 0,
        "location": {
            "lat": 19.429433,
            "lng": 108.822501
        },
        "ad_info": {
            "adcode": 469026,
            "province": "海南省",
            "city": "",
            "district": "昌江黎族自治县"
        }
    },
    {
        "id": "610480773227881727",
        "title": "尖岭服务区公共厕所",
        "address": "海南省昌江黎族自治县G98海南环岛高速与昌江服务区交叉口南180米",
        "tel": "",
        "category": "基础设施:公共设施:公共厕所",
        "type": 0,
        "location": {
            "lat": 19.356371,
            "lng": 109.009626
        },
        "ad_info": {
            "adcode": 469026,
            "province": "海南省",
            "city": "",
            "district": "昌江黎族自治县"
        }
    },
    {
        "id": "14174265415756879456",
        "title": "公共厕所",
        "address": "海南省昌江黎族自治县S311与海南环岛旅游公路交叉口正南方向363米左右",
        "tel": "",
        "category": "基础设施:公共设施:公共厕所",
        "type": 0,
        "location": {
            "lat": 19.255803,
            "lng": 108.756313
        },
        "ad_info": {
            "adcode": 469026,
            "province": "海南省",
            "city": "",
            "district": "昌江黎族自治县"
        }
    },
    {
        "id": "3021854022573658487",
        "title": "公共厕所",
        "address": "海南省昌江黎族自治县环岛旅游公路与赶海石滩停车区交叉口西南60米",
        "tel": "",
        "category": "基础设施:公共设施:公共厕所",
        "type": 0,
        "location": {
            "lat": 19.443949,
            "lng": 108.845363
        },
        "ad_info": {
            "adcode": 469026,
            "province": "海南省",
            "city": "",
            "district": "昌江黎族自治县"
        }
    },
    {
        "id": "17090046329417509104",
        "title": "公共厕所",
        "address": "海南省昌江黎族自治县能源新光停车区与海南环岛旅游公路交叉口北40米",
        "tel": "",
        "category": "基础设施:公共设施:公共厕所",
        "type": 0,
        "location": {
            "lat": 19.449648,
            "lng": 108.923778
        },
        "ad_info": {
            "adcode": 469026,
            "province": "海南省",
            "city": "",
            "district": "昌江黎族自治县"
        }
    },
    {
        "id": "7491706119530671905",
        "title": "公共厕所",
        "address": "海南省昌江黎族自治县观海桥北观景台东北侧",
        "tel": "",
        "category": "基础设施:公共设施:公共厕所",
        "type": 0,
        "location": {
            "lat": 19.418123,
            "lng": 108.808164
        },
        "ad_info": {
            "adcode": 469026,
            "province": "海南省",
            "city": "",
            "district": "昌江黎族自治县"
        }
    }
]