[
    {
        "id": "552969899040472699",
        "title": "公共厕所",
        "address": "西藏自治区昌都市芒康县格萨中街与滨河路交叉口正西方向56米左右",
        "tel": "",
        "category": "基础设施:公共设施:公共厕所",
        "type": 0,
        "location": {
            "lat": 29.680643,
            "lng": 98.596011
        },
        "ad_info": {
            "adcode": 540328,
            "province": "西藏自治区",
            "city": "昌都市",
            "district": "芒康县"
        }
    },
    {
        "id": "14814870017243528501",
        "title": "公共厕所",
        "address": "西藏自治区昌都市卡若区聚盛街与胜利街辅路交叉口西120米",
        "tel": "",
        "category": "基础设施:公共设施:公共厕所",
        "type": 0,
        "location": {
            "lat": 31.138206,
            "lng": 97.179925
        },
        "ad_info": {
            "adcode": 540302,
            "province": "西藏自治区",
            "city": "昌都市",
            "district": "卡若区"
        }
    },
    {
        "id": "14416673391738422998",
        "title": "公共厕所",
        "address": "西藏自治区昌都市卡若区启赤街与聚盛路交叉口正北方向44米左右",
        "tel": "",
        "category": "基础设施:公共设施:公共厕所",
        "type": 0,
        "location": {
            "lat": 31.135786,
            "lng": 97.179829
        },
        "ad_info": {
            "adcode": 540302,
            "province": "西藏自治区",
            "city": "昌都市",
            "district": "卡若区"
        }
    },
    {
        "id": "14742443229414970876",
        "title": "公共厕所",
        "address": "西藏自治区昌都市卡若区卧龙街与幸福横街交叉口正南方向32米左右",
        "tel": "",
        "category": "基础设施:公共设施:公共厕所",
        "type": 0,
        "location": {
            "lat": 31.135358,
            "lng": 97.176723
        },
        "ad_info": {
            "adcode": 540302,
            "province": "西藏自治区",
            "city": "昌都市",
            "district": "卡若区"
        }
    },
    {
        "id": "5225946061968391500",
        "title": "公共厕所",
        "address": "西藏自治区昌都市芒康县格萨中街与滨河路交叉口正北方向133米左右",
        "tel": "",
        "category": "基础设施:公共设施:公共厕所",
        "type": 0,
        "location": {
            "lat": 29.68189,
            "lng": 98.596413
        },
        "ad_info": {
            "adcode": 540328,
            "province": "西藏自治区",
            "city": "昌都市",
            "district": "芒康县"
        }
    },
    {
        "id": "14001637185477178367",
        "title": "公共厕所",
        "address": "西藏自治区昌都市丁青县岗甲塘西路北1巷与琼布大道西段交叉口正西方向30米左右",
        "tel": "",
        "category": "基础设施:公共设施:公共厕所",
        "type": 0,
        "location": {
            "lat": 31.409277,
            "lng": 95.605256
        },
        "ad_info": {
            "adcode": 540324,
            "province": "西藏自治区",
            "city": "昌都市",
            "district": "丁青县"
        }
    },
    {
        "id": "13118554193121942838",
        "title": "公共卫生间",
        "address": "西藏自治区昌都市卡若区启赤横一街与聚盛路交叉口东南方向112米左右",
        "tel": "",
        "category": "基础设施:公共设施:公共厕所",
        "type": 0,
        "location": {
            "lat": 31.136139,
            "lng": 97.181897
        },
        "ad_info": {
            "adcode": 540302,
            "province": "西藏自治区",
            "city": "昌都市",
            "district": "卡若区"
        }
    },
    {
        "id": "8534457280756604602",
        "title": "公共厕所",
        "address": "西藏自治区昌都市卡若区(强巴林寺内)",
        "tel": "",
        "category": "基础设施:公共设施:公共厕所",
        "type": 0,
        "location": {
            "lat": 31.140343,
            "lng": 97.176743
        },
        "ad_info": {
            "adcode": 540302,
            "province": "西藏自治区",
            "city": "昌都市",
            "district": "卡若区"
        }
    },
    {
        "id": "8558064519722715097",
        "title": "公共厕所",
        "address": "西藏自治区昌都市卡若区马草坝东路与马草坝东路横二街交叉口正北方向81米左右",
        "tel": "",
        "category": "基础设施:公共设施:公共厕所",
        "type": 0,
        "location": {
            "lat": 31.129378,
            "lng": 97.183593
        },
        "ad_info": {
            "adcode": 540302,
            "province": "西藏自治区",
            "city": "昌都市",
            "district": "卡若区"
        }
    },
    {
        "id": "12662316712027565165",
        "title": "公共厕所",
        "address": "西藏自治区昌都市察雅县烟多镇政府东北侧260米",
        "tel": "",
        "category": "基础设施:公共设施:公共厕所",
        "type": 0,
        "location": {
            "lat": 30.658211,
            "lng": 97.579492
        },
        "ad_info": {
            "adcode": 540325,
            "province": "西藏自治区",
            "city": "昌都市",
            "district": "察雅县"
        }
    },
    {
        "id": "8310600313489602372",
        "title": "公共厕所",
        "address": "西藏自治区昌都市丁青县崩贡卡路与甲木塘中路交叉口东北方向60米左右",
        "tel": "",
        "category": "基础设施:公共设施:公共厕所",
        "type": 0,
        "location": {
            "lat": 31.412223,
            "lng": 95.597223
        },
        "ad_info": {
            "adcode": 540324,
            "province": "西藏自治区",
            "city": "昌都市",
            "district": "丁青县"
        }
    },
    {
        "id": "15938148286607613919",
        "title": "公共厕所",
        "address": "西藏自治区昌都市左贡县旺达下街21号",
        "tel": "",
        "category": "基础设施:公共设施:公共厕所",
        "type": 0,
        "location": {
            "lat": 29.668473,
            "lng": 97.845406
        },
        "ad_info": {
            "adcode": 540327,
            "province": "西藏自治区",
            "city": "昌都市",
            "district": "左贡县"
        }
    },
    {
        "id": "14204340655916699697",
        "title": "公共厕所",
        "address": "西藏自治区昌都市芒康县纳西民族乡景区入口附近",
        "tel": "",
        "category": "基础设施:公共设施:公共厕所",
        "type": 0,
        "location": {
            "lat": 29.023105,
            "lng": 98.609327
        },
        "ad_info": {
            "adcode": 540328,
            "province": "西藏自治区",
            "city": "昌都市",
            "district": "芒康县"
        }
    },
    {
        "id": "758377082884717472",
        "title": "公共厕所",
        "address": "西藏自治区昌都市卡若区吉祥一街与昌都西路交叉口西北方向78米左右",
        "tel": "",
        "category": "基础设施:公共设施:公共厕所",
        "type": 0,
        "location": {
            "lat": 31.145182,
            "lng": 97.166661
        },
        "ad_info": {
            "adcode": 540302,
            "province": "西藏自治区",
            "city": "昌都市",
            "district": "卡若区"
        }
    },
    {
        "id": "7013385710758907060",
        "title": "公共厕所",
        "address": "西藏自治区昌都市八宿县G318与广场路交叉口东南方向81米左右",
        "tel": "",
        "category": "基础设施:公共设施:公共厕所",
        "type": 0,
        "location": {
            "lat": 30.051175,
            "lng": 96.915571
        },
        "ad_info": {
            "adcode": 540326,
            "province": "西藏自治区",
            "city": "昌都市",
            "district": "八宿县"
        }
    },
    {
        "id": "12228836068929700877",
        "title": "公共厕所",
        "address": "西藏自治区昌都市洛隆县G349与环城路交叉口正西方向79米左右",
        "tel": "",
        "category": "基础设施:公共设施:公共厕所",
        "type": 0,
        "location": {
            "lat": 30.743399,
            "lng": 95.835447
        },
        "ad_info": {
            "adcode": 540329,
            "province": "西藏自治区",
            "city": "昌都市",
            "district": "洛隆县"
        }
    },
    {
        "id": "8789817716335434094",
        "title": "公共厕所",
        "address": "西藏自治区昌都市芒康县G215与竹巴笼半边桥交叉口西南方向476米左右",
        "tel": "",
        "category": "基础设施:公共设施:公共厕所",
        "type": 0,
        "location": {
            "lat": 29.769478,
            "lng": 99.009886
        },
        "ad_info": {
            "adcode": 540328,
            "province": "西藏自治区",
            "city": "昌都市",
            "district": "芒康县"
        }
    },
    {
        "id": "13080402948811421975",
        "title": "公共厕所",
        "address": "西藏自治区昌都市贡觉县德吉路与滨河路交叉口正东方向167米左右",
        "tel": "",
        "category": "基础设施:公共设施:公共厕所",
        "type": 0,
        "location": {
            "lat": 30.855804,
            "lng": 98.269406
        },
        "ad_info": {
            "adcode": 540322,
            "province": "西藏自治区",
            "city": "昌都市",
            "district": "贡觉县"
        }
    },
    {
        "id": "3560229257009553384",
        "title": "公共厕所",
        "address": "西藏自治区昌都市八宿县",
        "tel": "",
        "category": "基础设施:公共设施:公共厕所",
        "type": 0,
        "location": {
            "lat": 29.666818,
            "lng": 96.718105
        },
        "ad_info": {
            "adcode": 540326,
            "province": "西藏自治区",
            "city": "昌都市",
            "district": "八宿县"
        }
    },
    {
        "id": "10326946896950425259",
        "title": "公共厕所",
        "address": "西藏自治区昌都市左贡县",
        "tel": "",
        "category": "基础设施:公共设施:公共厕所",
        "type": 0,
        "location": {
            "lat": 30.075741,
            "lng": 97.442681
        },
        "ad_info": {
            "adcode": 540327,
            "province": "西藏自治区",
            "city": "昌都市",
            "district": "左贡县"
        }
    },
    {
        "id": "9546402094963401500",
        "title": "公共厕所",
        "address": "西藏自治区昌都市左贡县",
        "tel": "",
        "category": "基础设施:公共设施:公共厕所",
        "type": 0,
        "location": {
            "lat": 29.97089,
            "lng": 97.455772
        },
        "ad_info": {
            "adcode": 540327,
            "province": "西藏自治区",
            "city": "昌都市",
            "district": "左贡县"
        }
    },
    {
        "id": "5843597446625272975",
        "title": "公共厕所",
        "address": "西藏自治区昌都市左贡县胡彬工程机械租赁服务部西侧60米",
        "tel": "",
        "category": "基础设施:公共设施:公共厕所",
        "type": 0,
        "location": {
            "lat": 29.695812,
            "lng": 97.814891
        },
        "ad_info": {
            "adcode": 540327,
            "province": "西藏自治区",
            "city": "昌都市",
            "district": "左贡县"
        }
    },
    {
        "id": "5233897257199300157",
        "title": "公共厕所",
        "address": "西藏自治区昌都市左贡县黄氏川菜馆西南侧100米",
        "tel": "",
        "category": "基础设施:公共设施:公共厕所",
        "type": 0,
        "location": {
            "lat": 29.941644,
            "lng": 97.481251
        },
        "ad_info": {
            "adcode": 540327,
            "province": "西藏自治区",
            "city": "昌都市",
            "district": "左贡县"
        }
    },
    {
        "id": "15855086095254161517",
        "title": "公共厕所",
        "address": "西藏自治区昌都市左贡县",
        "tel": "",
        "category": "基础设施:公共设施:公共厕所",
        "type": 0,
        "location": {
            "lat": 29.909271,
            "lng": 97.600139
        },
        "ad_info": {
            "adcode": 540327,
            "province": "西藏自治区",
            "city": "昌都市",
            "district": "左贡县"
        }
    },
    {
        "id": "4270548339148641086",
        "title": "公共厕所",
        "address": "西藏自治区昌都市左贡县则巴村公益电影放映点东侧150米",
        "tel": "",
        "category": "基础设施:公共设施:公共厕所",
        "type": 0,
        "location": {
            "lat": 29.72206,
            "lng": 97.782576
        },
        "ad_info": {
            "adcode": 540327,
            "province": "西藏自治区",
            "city": "昌都市",
            "district": "左贡县"
        }
    },
    {
        "id": "311646841824032141",
        "title": "公共厕所",
        "address": "西藏自治区昌都市八宿县北纬30度东南侧60米",
        "tel": "",
        "category": "基础设施:公共设施:公共厕所",
        "type": 0,
        "location": {
            "lat": 29.996765,
            "lng": 96.681142
        },
        "ad_info": {
            "adcode": 540326,
            "province": "西藏自治区",
            "city": "昌都市",
            "district": "八宿县"
        }
    },
    {
        "id": "5377845995653117894",
        "title": "公共厕所",
        "address": "西藏自治区昌都市贡觉县501县道与阿敏公路交叉口西北240米",
        "tel": "",
        "category": "基础设施:公共设施:公共厕所",
        "type": 0,
        "location": {
            "lat": 30.543934,
            "lng": 98.513333
        },
        "ad_info": {
            "adcode": 540322,
            "province": "西藏自治区",
            "city": "昌都市",
            "district": "贡觉县"
        }
    },
    {
        "id": "4297509432140983239",
        "title": "公共厕所",
        "address": "西藏自治区昌都市左贡县G318与Y563交叉口正西方向24米左右",
        "tel": "",
        "category": "基础设施:公共设施:公共厕所",
        "type": 0,
        "location": {
            "lat": 29.638945,
            "lng": 97.890011
        },
        "ad_info": {
            "adcode": 540327,
            "province": "西藏自治区",
            "city": "昌都市",
            "district": "左贡县"
        }
    },
    {
        "id": "9230601908413106439",
        "title": "公共厕所",
        "address": "西藏自治区昌都市江达县嘎通街与多村达街交叉口西南方向168米左右",
        "tel": "",
        "category": "基础设施:公共设施:公共厕所",
        "type": 0,
        "location": {
            "lat": 31.497952,
            "lng": 98.216206
        },
        "ad_info": {
            "adcode": 540321,
            "province": "西藏自治区",
            "city": "昌都市",
            "district": "江达县"
        }
    },
    {
        "id": "14560004233556212885",
        "title": "公共厕所",
        "address": "西藏自治区昌都市左贡县G318与牛丽桥交叉口东北方向607米左右",
        "tel": "",
        "category": "基础设施:公共设施:公共厕所",
        "type": 0,
        "location": {
            "lat": 29.684749,
            "lng": 97.9357
        },
        "ad_info": {
            "adcode": 540327,
            "province": "西藏自治区",
            "city": "昌都市",
            "district": "左贡县"
        }
    },
    {
        "id": "6581884223129538175",
        "title": "公共厕所",
        "address": "西藏自治区昌都市卡若区深圳路188号",
        "tel": "",
        "category": "基础设施:公共设施:公共厕所",
        "type": 0,
        "location": {
            "lat": 31.142863,
            "lng": 97.178404
        },
        "ad_info": {
            "adcode": 540302,
            "province": "西藏自治区",
            "city": "昌都市",
            "district": "卡若区"
        }
    },
    {
        "id": "10806843745640851858",
        "title": "公共厕所",
        "address": "西藏自治区昌都市八宿县G318与王排桥交叉口正东方向708米左右",
        "tel": "",
        "category": "基础设施:公共设施:公共厕所",
        "type": 0,
        "location": {
            "lat": 30.016368,
            "lng": 96.715165
        },
        "ad_info": {
            "adcode": 540326,
            "province": "西藏自治区",
            "city": "昌都市",
            "district": "八宿县"
        }
    },
    {
        "id": "18435384357943093050",
        "title": "公共厕所",
        "address": "西藏自治区昌都市左贡县田妥镇小车轮胎补胎换胎救援匡师汽修店东侧",
        "tel": "",
        "category": "基础设施:公共设施:公共厕所",
        "type": 0,
        "location": {
            "lat": 29.889474,
            "lng": 97.639694
        },
        "ad_info": {
            "adcode": 540327,
            "province": "西藏自治区",
            "city": "昌都市",
            "district": "左贡县"
        }
    },
    {
        "id": "6832218731545529156",
        "title": "公共厕所",
        "address": "西藏自治区昌都市八宿县G318与桑钱桥交叉口正北方向570米左右",
        "tel": "",
        "category": "基础设施:公共设施:公共厕所",
        "type": 0,
        "location": {
            "lat": 29.557082,
            "lng": 96.775083
        },
        "ad_info": {
            "adcode": 540326,
            "province": "西藏自治区",
            "city": "昌都市",
            "district": "八宿县"
        }
    },
    {
        "id": "4055138045411204692",
        "title": "公共厕所",
        "address": "西藏自治区昌都市丁青县环城路与琼布大道东段交叉口正北方向59米左右",
        "tel": "",
        "category": "基础设施:公共设施:公共厕所",
        "type": 0,
        "location": {
            "lat": 31.406214,
            "lng": 95.631232
        },
        "ad_info": {
            "adcode": 540324,
            "province": "西藏自治区",
            "city": "昌都市",
            "district": "丁青县"
        }
    },
    {
        "id": "6932236118895738355",
        "title": "公共厕所",
        "address": "西藏自治区昌都市八宿县214国道与318国道交叉口东南200米",
        "tel": "",
        "category": "基础设施:公共设施:公共厕所",
        "type": 0,
        "location": {
            "lat": 30.207643,
            "lng": 97.292412
        },
        "ad_info": {
            "adcode": 540326,
            "province": "西藏自治区",
            "city": "昌都市",
            "district": "八宿县"
        }
    },
    {
        "id": "1122189577501660338",
        "title": "公共厕所",
        "address": "西藏自治区昌都市八宿县G318与广场路交叉口东北方向387米左右",
        "tel": "",
        "category": "基础设施:公共设施:公共厕所",
        "type": 0,
        "location": {
            "lat": 30.053134,
            "lng": 96.91864
        },
        "ad_info": {
            "adcode": 540326,
            "province": "西藏自治区",
            "city": "昌都市",
            "district": "八宿县"
        }
    },
    {
        "id": "7787954657248602069",
        "title": "公共厕所",
        "address": "西藏自治区昌都市八宿县沪聂线",
        "tel": "",
        "category": "基础设施:公共设施:公共厕所",
        "type": 0,
        "location": {
            "lat": 30.019685,
            "lng": 97.123875
        },
        "ad_info": {
            "adcode": 540326,
            "province": "西藏自治区",
            "city": "昌都市",
            "district": "八宿县"
        }
    },
    {
        "id": "16877379415955009151",
        "title": "公共厕所",
        "address": "西藏自治区昌都市八宿县",
        "tel": "",
        "category": "基础设施:公共设施:公共厕所",
        "type": 0,
        "location": {
            "lat": 29.486608,
            "lng": 96.672878
        },
        "ad_info": {
            "adcode": 540326,
            "province": "西藏自治区",
            "city": "昌都市",
            "district": "八宿县"
        }
    },
    {
        "id": "8147396899798048545",
        "title": "公共厕所",
        "address": "西藏自治区昌都市卡若区三江大道与卧龙街交叉口正南方向24米左右",
        "tel": "",
        "category": "基础设施:公共设施:公共厕所",
        "type": 0,
        "location": {
            "lat": 31.138045,
            "lng": 97.176468
        },
        "ad_info": {
            "adcode": 540302,
            "province": "西藏自治区",
            "city": "昌都市",
            "district": "卡若区"
        }
    },
    {
        "id": "6652213548717264241",
        "title": "公共厕所",
        "address": "西藏自治区昌都市类乌齐县光明路与和谐路交叉口正西方向60米左右",
        "tel": "",
        "category": "基础设施:公共设施:公共厕所",
        "type": 0,
        "location": {
            "lat": 31.2132,
            "lng": 96.599957
        },
        "ad_info": {
            "adcode": 540323,
            "province": "西藏自治区",
            "city": "昌都市",
            "district": "类乌齐县"
        }
    },
    {
        "id": "17830983792623643935",
        "title": "公共厕所",
        "address": "西藏自治区昌都市卡若区夏通路与深圳路交叉口西北方向639米左右",
        "tel": "",
        "category": "基础设施:公共设施:公共厕所",
        "type": 0,
        "location": {
            "lat": 31.149504,
            "lng": 97.177842
        },
        "ad_info": {
            "adcode": 540302,
            "province": "西藏自治区",
            "city": "昌都市",
            "district": "卡若区"
        }
    },
    {
        "id": "11293930280917173434",
        "title": "公共厕所",
        "address": "西藏自治区昌都市类乌齐县G214与白塔桥交叉口正东方向1186米左右",
        "tel": "",
        "category": "基础设施:公共设施:公共厕所",
        "type": 0,
        "location": {
            "lat": 31.369598,
            "lng": 96.504139
        },
        "ad_info": {
            "adcode": 540323,
            "province": "西藏自治区",
            "city": "昌都市",
            "district": "类乌齐县"
        }
    },
    {
        "id": "7622457992190877172",
        "title": "公共厕所",
        "address": "西藏自治区昌都市芒康县芒康318爱心驿站东南侧",
        "tel": "",
        "category": "基础设施:公共设施:公共厕所",
        "type": 0,
        "location": {
            "lat": 29.71427,
            "lng": 98.426856
        },
        "ad_info": {
            "adcode": 540328,
            "province": "西藏自治区",
            "city": "昌都市",
            "district": "芒康县"
        }
    },
    {
        "id": "11345080856477871120",
        "title": "公共厕所",
        "address": "西藏自治区昌都市边坝县文广路与育才路交叉口正南方向162米左右",
        "tel": "",
        "category": "基础设施:公共设施:公共厕所",
        "type": 0,
        "location": {
            "lat": 30.932002,
            "lng": 94.706574
        },
        "ad_info": {
            "adcode": 540330,
            "province": "西藏自治区",
            "city": "昌都市",
            "district": "边坝县"
        }
    },
    {
        "id": "5705598881870795481",
        "title": "公共厕所",
        "address": "西藏自治区昌都市八宿县万康诊所东南侧",
        "tel": "",
        "category": "基础设施:公共设施:公共厕所",
        "type": 0,
        "location": {
            "lat": 30.059109,
            "lng": 96.932203
        },
        "ad_info": {
            "adcode": 540326,
            "province": "西藏自治区",
            "city": "昌都市",
            "district": "八宿县"
        }
    },
    {
        "id": "8542899091886872243",
        "title": "公共厕所",
        "address": "西藏自治区昌都市贡觉县通达加油站东南侧160米",
        "tel": "",
        "category": "基础设施:公共设施:公共厕所",
        "type": 0,
        "location": {
            "lat": 30.546922,
            "lng": 98.507612
        },
        "ad_info": {
            "adcode": 540322,
            "province": "西藏自治区",
            "city": "昌都市",
            "district": "贡觉县"
        }
    },
    {
        "id": "6114041463773956197",
        "title": "公共厕所",
        "address": "西藏自治区昌都市芒康县纳西民族乡加达村",
        "tel": "",
        "category": "基础设施:公共设施:公共厕所",
        "type": 0,
        "location": {
            "lat": 29.042036,
            "lng": 98.591576
        },
        "ad_info": {
            "adcode": 540328,
            "province": "西藏自治区",
            "city": "昌都市",
            "district": "芒康县"
        }
    },
    {
        "id": "11309382905742517680",
        "title": "公共厕所",
        "address": "西藏自治区昌都市八宿县广电路与滨河北路交叉口正东方向672米左右",
        "tel": "",
        "category": "基础设施:公共设施:公共厕所",
        "type": 0,
        "location": {
            "lat": 30.054805,
            "lng": 96.922373
        },
        "ad_info": {
            "adcode": 540326,
            "province": "西藏自治区",
            "city": "昌都市",
            "district": "八宿县"
        }
    },
    {
        "id": "129928768319668422",
        "title": "公共厕所",
        "address": "西藏自治区昌都市八宿县G318与广场路交叉口东南方向257米左右",
        "tel": "",
        "category": "基础设施:公共设施:公共厕所",
        "type": 0,
        "location": {
            "lat": 30.05046,
            "lng": 96.917239
        },
        "ad_info": {
            "adcode": 540326,
            "province": "西藏自治区",
            "city": "昌都市",
            "district": "八宿县"
        }
    },
    {
        "id": "18037935951136827682",
        "title": "公共厕所",
        "address": "西藏自治区昌都市八宿县广电路与滨河北路交叉口正东方向693米左右",
        "tel": "",
        "category": "基础设施:公共设施:公共厕所",
        "type": 0,
        "location": {
            "lat": 30.054903,
            "lng": 96.922631
        },
        "ad_info": {
            "adcode": 540326,
            "province": "西藏自治区",
            "city": "昌都市",
            "district": "八宿县"
        }
    },
    {
        "id": "4657276270865126207",
        "title": "公共厕所",
        "address": "西藏自治区昌都市卡若区邦达东路与邦达北路交叉口东南方向200米左右",
        "tel": "",
        "category": "基础设施:公共设施:公共厕所",
        "type": 0,
        "location": {
            "lat": 31.130511,
            "lng": 97.174571
        },
        "ad_info": {
            "adcode": 540302,
            "province": "西藏自治区",
            "city": "昌都市",
            "district": "卡若区"
        }
    },
    {
        "id": "15996234947842603740",
        "title": "公共厕所",
        "address": "西藏自治区昌都市卡若区深圳路190号",
        "tel": "",
        "category": "基础设施:公共设施:公共厕所",
        "type": 0,
        "location": {
            "lat": 31.142008,
            "lng": 97.179343
        },
        "ad_info": {
            "adcode": 540302,
            "province": "西藏自治区",
            "city": "昌都市",
            "district": "卡若区"
        }
    },
    {
        "id": "170789660593273166",
        "title": "公共厕所",
        "address": "西藏自治区昌都市芒康县G318与G318旧线交叉口西北方向292米左右",
        "tel": "",
        "category": "基础设施:公共设施:公共厕所",
        "type": 0,
        "location": {
            "lat": 29.537791,
            "lng": 98.230461
        },
        "ad_info": {
            "adcode": 540328,
            "province": "西藏自治区",
            "city": "昌都市",
            "district": "芒康县"
        }
    },
    {
        "id": "3664223988069950603",
        "title": "公共厕所",
        "address": "西藏自治区昌都市贡觉县夏普路与阿嘎北路交叉口东南方向111米左右",
        "tel": "",
        "category": "基础设施:公共设施:公共厕所",
        "type": 0,
        "location": {
            "lat": 30.86059,
            "lng": 98.270688
        },
        "ad_info": {
            "adcode": 540322,
            "province": "西藏自治区",
            "city": "昌都市",
            "district": "贡觉县"
        }
    },
    {
        "id": "17049547386716923059",
        "title": "公共厕所",
        "address": "西藏自治区昌都市洛隆县团结西路与团结路交叉口正东方向284米左右",
        "tel": "",
        "category": "基础设施:公共设施:公共厕所",
        "type": 0,
        "location": {
            "lat": 30.750382,
            "lng": 95.811555
        },
        "ad_info": {
            "adcode": 540329,
            "province": "西藏自治区",
            "city": "昌都市",
            "district": "洛隆县"
        }
    },
    {
        "id": "12549650417911892705",
        "title": "公共厕所",
        "address": "西藏自治区昌都市洛隆县G349与红星桥交叉口东南方向630米左右",
        "tel": "",
        "category": "基础设施:公共设施:公共厕所",
        "type": 0,
        "location": {
            "lat": 30.875586,
            "lng": 96.23393
        },
        "ad_info": {
            "adcode": 540329,
            "province": "西藏自治区",
            "city": "昌都市",
            "district": "洛隆县"
        }
    },
    {
        "id": "11876430970839606848",
        "title": "公共厕所",
        "address": "西藏自治区昌都市丁青县琼鹏路与甲木塘中路交叉口西南方向156米左右",
        "tel": "",
        "category": "基础设施:公共设施:公共厕所",
        "type": 0,
        "location": {
            "lat": 31.412993,
            "lng": 95.593214
        },
        "ad_info": {
            "adcode": 540324,
            "province": "西藏自治区",
            "city": "昌都市",
            "district": "丁青县"
        }
    },
    {
        "id": "457543819390935827",
        "title": "公共厕所",
        "address": "西藏自治区昌都市左贡县G318与康德路交叉口正西方向41米左右",
        "tel": "",
        "category": "基础设施:公共设施:公共厕所",
        "type": 0,
        "location": {
            "lat": 29.670082,
            "lng": 97.844676
        },
        "ad_info": {
            "adcode": 540327,
            "province": "西藏自治区",
            "city": "昌都市",
            "district": "左贡县"
        }
    },
    {
        "id": "10124278260049963658",
        "title": "公共厕所",
        "address": "西藏自治区昌都市八宿县G214与G318交叉口东南方向1010米左右",
        "tel": "",
        "category": "基础设施:公共设施:公共厕所",
        "type": 0,
        "location": {
            "lat": 30.205174,
            "lng": 97.301371
        },
        "ad_info": {
            "adcode": 540326,
            "province": "西藏自治区",
            "city": "昌都市",
            "district": "八宿县"
        }
    },
    {
        "id": "15145698464580383293",
        "title": "公共厕所",
        "address": "西藏自治区昌都市左贡县318国道南50米",
        "tel": "",
        "category": "基础设施:公共设施:公共厕所",
        "type": 0,
        "location": {
            "lat": 29.890903,
            "lng": 97.631142
        },
        "ad_info": {
            "adcode": 540327,
            "province": "西藏自治区",
            "city": "昌都市",
            "district": "左贡县"
        }
    },
    {
        "id": "14839647579204188626",
        "title": "公共厕所",
        "address": "西藏自治区昌都市洛隆县303省道南50米",
        "tel": "",
        "category": "基础设施:公共设施:公共厕所",
        "type": 0,
        "location": {
            "lat": 30.782998,
            "lng": 95.335561
        },
        "ad_info": {
            "adcode": 540329,
            "province": "西藏自治区",
            "city": "昌都市",
            "district": "洛隆县"
        }
    },
    {
        "id": "6879832620560878271",
        "title": "公共厕所",
        "address": "西藏自治区昌都市洛隆县303省道北100米",
        "tel": "",
        "category": "基础设施:公共设施:公共厕所",
        "type": 0,
        "location": {
            "lat": 30.901669,
            "lng": 96.476967
        },
        "ad_info": {
            "adcode": 540329,
            "province": "西藏自治区",
            "city": "昌都市",
            "district": "洛隆县"
        }
    },
    {
        "id": "1278568848823297168",
        "title": "公共厕所",
        "address": "西藏自治区昌都市洛隆县G349与怒江大桥交叉口正西方向107米左右",
        "tel": "",
        "category": "基础设施:公共设施:公共厕所",
        "type": 0,
        "location": {
            "lat": 30.875132,
            "lng": 96.198461
        },
        "ad_info": {
            "adcode": 540329,
            "province": "西藏自治区",
            "city": "昌都市",
            "district": "洛隆县"
        }
    },
    {
        "id": "6402867504797503970",
        "title": "公共厕所",
        "address": "西藏自治区昌都市察雅县G214",
        "tel": "",
        "category": "基础设施:公共设施:公共厕所",
        "type": 0,
        "location": {
            "lat": 30.819251,
            "lng": 97.346662
        },
        "ad_info": {
            "adcode": 540325,
            "province": "西藏自治区",
            "city": "昌都市",
            "district": "察雅县"
        }
    },
    {
        "id": "2847717024198051410",
        "title": "公共厕所",
        "address": "西藏自治区昌都市洛隆县马利镇布许沟扎西尼玛",
        "tel": "",
        "category": "基础设施:公共设施:公共厕所",
        "type": 0,
        "location": {
            "lat": 30.89188,
            "lng": 96.488908
        },
        "ad_info": {
            "adcode": 540329,
            "province": "西藏自治区",
            "city": "昌都市",
            "district": "洛隆县"
        }
    },
    {
        "id": "14727766130191229951",
        "title": "公共厕所",
        "address": "西藏自治区昌都市卡若区海南路与聚盛路交叉口东北方向19米左右",
        "tel": "",
        "category": "基础设施:公共设施:公共厕所",
        "type": 0,
        "location": {
            "lat": 31.138042,
            "lng": 97.182849
        },
        "ad_info": {
            "adcode": 540302,
            "province": "西藏自治区",
            "city": "昌都市",
            "district": "卡若区"
        }
    },
    {
        "id": "10553814881297739152",
        "title": "公共厕所",
        "address": "西藏自治区昌都市类乌齐县发展路与渝中平安路交叉口正西方向62米左右",
        "tel": "",
        "category": "基础设施:公共设施:公共厕所",
        "type": 0,
        "location": {
            "lat": 31.211686,
            "lng": 96.601624
        },
        "ad_info": {
            "adcode": 540323,
            "province": "西藏自治区",
            "city": "昌都市",
            "district": "类乌齐县"
        }
    },
    {
        "id": "5766909563414731626",
        "title": "旅游公共厕所",
        "address": "西藏自治区昌都市八宿县景秀园宾馆东北侧80米",
        "tel": "",
        "category": "基础设施:公共设施:公共厕所",
        "type": 0,
        "location": {
            "lat": 29.490411,
            "lng": 96.693101
        },
        "ad_info": {
            "adcode": 540326,
            "province": "西藏自治区",
            "city": "昌都市",
            "district": "八宿县"
        }
    },
    {
        "id": "9849494031557989724",
        "title": "旅游厕所",
        "address": "西藏自治区昌都市江达县G215与岗托隧道交叉口西北方向425米左右",
        "tel": "",
        "category": "基础设施:公共设施:公共厕所",
        "type": 0,
        "location": {
            "lat": 31.627002,
            "lng": 98.585841
        },
        "ad_info": {
            "adcode": 540321,
            "province": "西藏自治区",
            "city": "昌都市",
            "district": "江达县"
        }
    },
    {
        "id": "6864440276722567306",
        "title": "嘉仓门诊部公共厕所",
        "address": "西藏自治区昌都市江达县Y512(德瓦段)",
        "tel": "",
        "category": "基础设施:公共设施:公共厕所",
        "type": 0,
        "location": {
            "lat": 31.745879,
            "lng": 98.337651
        },
        "ad_info": {
            "adcode": 540321,
            "province": "西藏自治区",
            "city": "昌都市",
            "district": "江达县"
        }
    },
    {
        "id": "6135958031928566910",
        "title": "西藏公路公共厕所",
        "address": "西藏自治区昌都市洛隆县",
        "tel": "",
        "category": "基础设施:公共设施:公共厕所",
        "type": 0,
        "location": {
            "lat": 30.722819,
            "lng": 96.081161
        },
        "ad_info": {
            "adcode": 540329,
            "province": "西藏自治区",
            "city": "昌都市",
            "district": "洛隆县"
        }
    }
]