[
    {
        "id": "1265849653190373110",
        "title": "公共厕所",
        "address": "山西省晋城市泽州县丹河快线晋城东站停车场",
        "tel": "",
        "category": "基础设施:公共设施:公共厕所",
        "type": 0,
        "location": {
            "lat": 35.535999,
            "lng": 112.983758
        },
        "ad_info": {
            "adcode": 140525,
            "province": "山西省",
            "city": "晋城市",
            "district": "泽州县"
        }
    },
    {
        "id": "8849633302964294264",
        "title": "公共卫生间",
        "address": "山西省晋城市城区钟家庄街道钟家庄办事处文昌东街凤鸣小区60号楼",
        "tel": "",
        "category": "基础设施:公共设施:公共厕所",
        "type": 0,
        "location": {
            "lat": 35.487379,
            "lng": 112.863908
        },
        "ad_info": {
            "adcode": 140502,
            "province": "山西省",
            "city": "晋城市",
            "district": "城区"
        }
    },
    {
        "id": "10320234491840603564",
        "title": "公共厕所",
        "address": "山西省晋城市城区中原东街与文博路交叉口东南方向425米左右",
        "tel": "",
        "category": "基础设施:公共设施:公共厕所",
        "type": 0,
        "location": {
            "lat": 35.47794,
            "lng": 112.874044
        },
        "ad_info": {
            "adcode": 140502,
            "province": "山西省",
            "city": "晋城市",
            "district": "城区"
        }
    },
    {
        "id": "3804041409373448009",
        "title": "公共厕所",
        "address": "山西省晋城市城区黄华街与白水街十字路口口腔医院旁边",
        "tel": "",
        "category": "基础设施:公共设施:公共厕所",
        "type": 0,
        "location": {
            "lat": 35.473449,
            "lng": 112.844915
        },
        "ad_info": {
            "adcode": 140502,
            "province": "山西省",
            "city": "晋城市",
            "district": "城区"
        }
    },
    {
        "id": "13961100688129844107",
        "title": "公共厕所",
        "address": "山西省晋城市城区新市西街与景忠路交叉口东北方向204米左右",
        "tel": "",
        "category": "基础设施:公共设施:公共厕所",
        "type": 0,
        "location": {
            "lat": 35.501783,
            "lng": 112.847565
        },
        "ad_info": {
            "adcode": 140502,
            "province": "山西省",
            "city": "晋城市",
            "district": "城区"
        }
    },
    {
        "id": "16595567707920702187",
        "title": "公共厕所",
        "address": "山西省晋城市沁水县田园沐歌休闲会馆西北侧",
        "tel": "",
        "category": "基础设施:公共设施:公共厕所",
        "type": 0,
        "location": {
            "lat": 35.577515,
            "lng": 112.521302
        },
        "ad_info": {
            "adcode": 140521,
            "province": "山西省",
            "city": "晋城市",
            "district": "沁水县"
        }
    },
    {
        "id": "10488344159615082016",
        "title": "公共卫生间",
        "address": "山西省晋城市城区花新南巷凤台小学",
        "tel": "",
        "category": "基础设施:公共设施:公共厕所",
        "type": 0,
        "location": {
            "lat": 35.498718,
            "lng": 112.858092
        },
        "ad_info": {
            "adcode": 140502,
            "province": "山西省",
            "city": "晋城市",
            "district": "城区"
        }
    },
    {
        "id": "4574576224051003995",
        "title": "公共厕所",
        "address": "山西省晋城市城区西街派出所西侧",
        "tel": "",
        "category": "基础设施:公共设施:公共厕所",
        "type": 0,
        "location": {
            "lat": 35.49874,
            "lng": 112.827715
        },
        "ad_info": {
            "adcode": 140502,
            "province": "山西省",
            "city": "晋城市",
            "district": "城区"
        }
    },
    {
        "id": "16045613235708856522",
        "title": "公共厕所",
        "address": "山西省晋城市城区北环街与景西路交叉口正西方向398米左右",
        "tel": "",
        "category": "基础设施:公共设施:公共厕所",
        "type": 0,
        "location": {
            "lat": 35.520181,
            "lng": 112.813189
        },
        "ad_info": {
            "adcode": 140502,
            "province": "山西省",
            "city": "晋城市",
            "district": "城区"
        }
    },
    {
        "id": "8286202047306163228",
        "title": "公共厕所",
        "address": "山西省晋城市泽州县二十八星宿灯阵东南侧160米",
        "tel": "",
        "category": "基础设施:公共设施:公共厕所",
        "type": 0,
        "location": {
            "lat": 35.512456,
            "lng": 112.946225
        },
        "ad_info": {
            "adcode": 140525,
            "province": "山西省",
            "city": "晋城市",
            "district": "泽州县"
        }
    },
    {
        "id": "12610870674014737497",
        "title": "公共厕所",
        "address": "山西省晋城市城区红星东街与颐翠路交叉口西南方向225米左右",
        "tel": "",
        "category": "基础设施:公共设施:公共厕所",
        "type": 0,
        "location": {
            "lat": 35.495145,
            "lng": 112.87586
        },
        "ad_info": {
            "adcode": 140502,
            "province": "山西省",
            "city": "晋城市",
            "district": "城区"
        }
    },
    {
        "id": "8912244820535209690",
        "title": "公共厕所",
        "address": "山西省晋城市城区泽州南路与白水东街交叉口东南方向532米左右",
        "tel": "",
        "category": "基础设施:公共设施:公共厕所",
        "type": 0,
        "location": {
            "lat": 35.468392,
            "lng": 112.859363
        },
        "ad_info": {
            "adcode": 140502,
            "province": "山西省",
            "city": "晋城市",
            "district": "城区"
        }
    },
    {
        "id": "11080159122930644868",
        "title": "公共厕所",
        "address": "山西省晋城市城区新市东街与弘泽街交叉口西北260米",
        "tel": "",
        "category": "基础设施:公共设施:公共厕所",
        "type": 0,
        "location": {
            "lat": 35.505626,
            "lng": 112.872466
        },
        "ad_info": {
            "adcode": 140502,
            "province": "山西省",
            "city": "晋城市",
            "district": "城区"
        }
    },
    {
        "id": "903816133982487207",
        "title": "公共厕所",
        "address": "山西省晋城市城区新市西街与苗孟路交叉口东北方向27米左右",
        "tel": "",
        "category": "基础设施:公共设施:公共厕所",
        "type": 0,
        "location": {
            "lat": 35.498914,
            "lng": 112.834727
        },
        "ad_info": {
            "adcode": 140502,
            "province": "山西省",
            "city": "晋城市",
            "district": "城区"
        }
    },
    {
        "id": "10013801449360847573",
        "title": "公共厕所",
        "address": "山西省晋城市城区向阳街与泽州路辅路交叉口正西方向30米左右",
        "tel": "",
        "category": "基础设施:公共设施:公共厕所",
        "type": 0,
        "location": {
            "lat": 35.494323,
            "lng": 112.854151
        },
        "ad_info": {
            "adcode": 140502,
            "province": "山西省",
            "city": "晋城市",
            "district": "城区"
        }
    },
    {
        "id": "13516940612134481737",
        "title": "公共厕所",
        "address": "山西省晋城市城区弘泽街与文华路交叉口东北方向147米左右",
        "tel": "",
        "category": "基础设施:公共设施:公共厕所",
        "type": 0,
        "location": {
            "lat": 35.504144,
            "lng": 112.875167
        },
        "ad_info": {
            "adcode": 140502,
            "province": "山西省",
            "city": "晋城市",
            "district": "城区"
        }
    },
    {
        "id": "113958594997534419",
        "title": "公共厕所",
        "address": "山西省晋城市泽州县孟金路与金凤路交叉口西北方向105米左右",
        "tel": "",
        "category": "基础设施:公共设施:公共厕所",
        "type": 0,
        "location": {
            "lat": 35.501916,
            "lng": 112.902097
        },
        "ad_info": {
            "adcode": 140525,
            "province": "山西省",
            "city": "晋城市",
            "district": "泽州县"
        }
    },
    {
        "id": "5698415410005310488",
        "title": "公共厕所",
        "address": "山西省晋城市城区南村镇文昌西街岭杰小区北门",
        "tel": "",
        "category": "基础设施:公共设施:公共厕所",
        "type": 0,
        "location": {
            "lat": 35.483207,
            "lng": 112.831946
        },
        "ad_info": {
            "adcode": 140502,
            "province": "山西省",
            "city": "晋城市",
            "district": "城区"
        }
    },
    {
        "id": "3906544208551245155",
        "title": "公共厕所",
        "address": "山西省晋城市城区景西路与泰康街交叉口东南方向202米左右",
        "tel": "",
        "category": "基础设施:公共设施:公共厕所",
        "type": 0,
        "location": {
            "lat": 35.506924,
            "lng": 112.831304
        },
        "ad_info": {
            "adcode": 140502,
            "province": "山西省",
            "city": "晋城市",
            "district": "城区"
        }
    },
    {
        "id": "11427361078247172222",
        "title": "公共厕所",
        "address": "山西省晋城市沁水县坪安路与沿河路交叉口东南方向1688米左右",
        "tel": "",
        "category": "基础设施:公共设施:公共厕所",
        "type": 0,
        "location": {
            "lat": 35.636161,
            "lng": 112.534903
        },
        "ad_info": {
            "adcode": 140521,
            "province": "山西省",
            "city": "晋城市",
            "district": "沁水县"
        }
    },
    {
        "id": "15453794047655545340",
        "title": "公共厕所",
        "address": "山西省晋城市城区景西路与凤台西街辅路交叉口西北120米",
        "tel": "",
        "category": "基础设施:公共设施:公共厕所",
        "type": 0,
        "location": {
            "lat": 35.491152,
            "lng": 112.833075
        },
        "ad_info": {
            "adcode": 140502,
            "province": "山西省",
            "city": "晋城市",
            "district": "城区"
        }
    },
    {
        "id": "9733104624373989392",
        "title": "公共厕所",
        "address": "山西省晋城市城区文华路与文昌东街交叉口西北方向264米左右",
        "tel": "",
        "category": "基础设施:公共设施:公共厕所",
        "type": 0,
        "location": {
            "lat": 35.487089,
            "lng": 112.872587
        },
        "ad_info": {
            "adcode": 140502,
            "province": "山西省",
            "city": "晋城市",
            "district": "城区"
        }
    },
    {
        "id": "11354418491851232753",
        "title": "公共厕所",
        "address": "山西省晋城市高平市古城路与长平西街交叉口正南方向103米左右",
        "tel": "",
        "category": "基础设施:公共设施:公共厕所",
        "type": 0,
        "location": {
            "lat": 35.796816,
            "lng": 112.92385
        },
        "ad_info": {
            "adcode": 140581,
            "province": "山西省",
            "city": "晋城市",
            "district": "高平市"
        }
    },
    {
        "id": "17980569426631214580",
        "title": "公共厕所",
        "address": "山西省晋城市泽州县东大路与北大街交叉口西南方向175米左右",
        "tel": "",
        "category": "基础设施:公共设施:公共厕所",
        "type": 0,
        "location": {
            "lat": 35.594586,
            "lng": 112.962195
        },
        "ad_info": {
            "adcode": 140525,
            "province": "山西省",
            "city": "晋城市",
            "district": "泽州县"
        }
    },
    {
        "id": "10706332059004012059",
        "title": "公共厕所",
        "address": "山西省晋城市城区迎宾街150号",
        "tel": "",
        "category": "基础设施:公共设施:公共厕所",
        "type": 0,
        "location": {
            "lat": 35.479698,
            "lng": 112.855966
        },
        "ad_info": {
            "adcode": 140502,
            "province": "山西省",
            "city": "晋城市",
            "district": "城区"
        }
    },
    {
        "id": "5180681556254130018",
        "title": "公共厕所",
        "address": "山西省晋城市城区新华南巷晋城市城南三小",
        "tel": "",
        "category": "基础设施:公共设施:公共厕所",
        "type": 0,
        "location": {
            "lat": 35.491645,
            "lng": 112.841762
        },
        "ad_info": {
            "adcode": 140502,
            "province": "山西省",
            "city": "晋城市",
            "district": "城区"
        }
    },
    {
        "id": "10688706376460616271",
        "title": "公共厕所",
        "address": "山西省晋城市泽州县陵沁线与北环街辅路交叉口东北160米",
        "tel": "",
        "category": "基础设施:公共设施:公共厕所",
        "type": 0,
        "location": {
            "lat": 35.532634,
            "lng": 112.928677
        },
        "ad_info": {
            "adcode": 140525,
            "province": "山西省",
            "city": "晋城市",
            "district": "泽州县"
        }
    },
    {
        "id": "12449420748576133153",
        "title": "公共厕所",
        "address": "山西省晋城市城区文华路与红星东街辅路交叉口正北方向144米左右",
        "tel": "",
        "category": "基础设施:公共设施:公共厕所",
        "type": 0,
        "location": {
            "lat": 35.49789,
            "lng": 112.874529
        },
        "ad_info": {
            "adcode": 140502,
            "province": "山西省",
            "city": "晋城市",
            "district": "城区"
        }
    },
    {
        "id": "1922703755301322487",
        "title": "公共厕所",
        "address": "山西省晋城市城区书院街与景忠路交叉口东北方向261米左右",
        "tel": "",
        "category": "基础设施:公共设施:公共厕所",
        "type": 0,
        "location": {
            "lat": 35.51252,
            "lng": 112.84763
        },
        "ad_info": {
            "adcode": 140502,
            "province": "山西省",
            "city": "晋城市",
            "district": "城区"
        }
    },
    {
        "id": "4349668009910262339",
        "title": "公共厕所",
        "address": "山西省晋城市城区Y003与凤凰东路交叉口正西方向339米左右",
        "tel": "",
        "category": "基础设施:公共设施:公共厕所",
        "type": 0,
        "location": {
            "lat": 35.568481,
            "lng": 112.876842
        },
        "ad_info": {
            "adcode": 140502,
            "province": "山西省",
            "city": "晋城市",
            "district": "城区"
        }
    },
    {
        "id": "2376739217162761457",
        "title": "公共厕所",
        "address": "山西省晋城市沁水县东街与坪曲线交叉口正西方向329米左右",
        "tel": "",
        "category": "基础设施:公共设施:公共厕所",
        "type": 0,
        "location": {
            "lat": 35.677457,
            "lng": 112.52061
        },
        "ad_info": {
            "adcode": 140521,
            "province": "山西省",
            "city": "晋城市",
            "district": "沁水县"
        }
    },
    {
        "id": "6774733510833205515",
        "title": "公共厕所",
        "address": "山西省晋城市城区泽州路辅路与书院街交叉口西北300米",
        "tel": "",
        "category": "基础设施:公共设施:公共厕所",
        "type": 0,
        "location": {
            "lat": 35.510526,
            "lng": 112.851227
        },
        "ad_info": {
            "adcode": 140502,
            "province": "山西省",
            "city": "晋城市",
            "district": "城区"
        }
    },
    {
        "id": "14434932685176219309",
        "title": "公共厕所",
        "address": "山西省晋城市沁水县坪曲线与花园路交叉口正南方向176米左右",
        "tel": "",
        "category": "基础设施:公共设施:公共厕所",
        "type": 0,
        "location": {
            "lat": 35.701682,
            "lng": 112.175465
        },
        "ad_info": {
            "adcode": 140521,
            "province": "山西省",
            "city": "晋城市",
            "district": "沁水县"
        }
    },
    {
        "id": "13608265196943172640",
        "title": "公共厕所",
        "address": "山西省晋城市城区南牛线与陵沁线交叉口东南方向309米左右",
        "tel": "",
        "category": "基础设施:公共设施:公共厕所",
        "type": 0,
        "location": {
            "lat": 35.53092,
            "lng": 112.80915
        },
        "ad_info": {
            "adcode": 140502,
            "province": "山西省",
            "city": "晋城市",
            "district": "城区"
        }
    },
    {
        "id": "1357090543417510774",
        "title": "公共厕所",
        "address": "山西省晋城市城区东二区南侧140米",
        "tel": "",
        "category": "基础设施:公共设施:公共厕所",
        "type": 0,
        "location": {
            "lat": 35.54305,
            "lng": 112.909186
        },
        "ad_info": {
            "adcode": 140502,
            "province": "山西省",
            "city": "晋城市",
            "district": "城区"
        }
    },
    {
        "id": "9380354435553333646",
        "title": "公共厕所",
        "address": "山西省晋城市沁水县坪曲线与樊青线交叉口西北方向22米左右",
        "tel": "",
        "category": "基础设施:公共设施:公共厕所",
        "type": 0,
        "location": {
            "lat": 35.731434,
            "lng": 112.136642
        },
        "ad_info": {
            "adcode": 140521,
            "province": "山西省",
            "city": "晋城市",
            "district": "沁水县"
        }
    },
    {
        "id": "10715103649067650658",
        "title": "公共厕所",
        "address": "山西省晋城市城区书院街与电厂路交叉口东南方向188米左右",
        "tel": "",
        "category": "基础设施:公共设施:公共厕所",
        "type": 0,
        "location": {
            "lat": 35.510085,
            "lng": 112.818558
        },
        "ad_info": {
            "adcode": 140502,
            "province": "山西省",
            "city": "晋城市",
            "district": "城区"
        }
    },
    {
        "id": "18248604836253222991",
        "title": "公共厕所",
        "address": "山西省晋城市沁水县杏河新路与车站路交叉口正东方向28米左右",
        "tel": "",
        "category": "基础设施:公共设施:公共厕所",
        "type": 0,
        "location": {
            "lat": 35.68459,
            "lng": 112.177106
        },
        "ad_info": {
            "adcode": 140521,
            "province": "山西省",
            "city": "晋城市",
            "district": "沁水县"
        }
    },
    {
        "id": "11785666358342302583",
        "title": "公共厕所",
        "address": "山西省晋城市城区新市西街与驿后路交叉口西北方向34米左右",
        "tel": "",
        "category": "基础设施:公共设施:公共厕所",
        "type": 0,
        "location": {
            "lat": 35.500163,
            "lng": 112.842939
        },
        "ad_info": {
            "adcode": 140502,
            "province": "山西省",
            "city": "晋城市",
            "district": "城区"
        }
    },
    {
        "id": "7117333988099140639",
        "title": "公共厕所",
        "address": "山西省晋城市城区上辇街与金银巷交叉口东南方向76米左右",
        "tel": "",
        "category": "基础设施:公共设施:公共厕所",
        "type": 0,
        "location": {
            "lat": 35.492504,
            "lng": 112.860136
        },
        "ad_info": {
            "adcode": 140502,
            "province": "山西省",
            "city": "晋城市",
            "district": "城区"
        }
    },
    {
        "id": "10962909132300917313",
        "title": "公共厕所",
        "address": "山西省晋城市城区建设路与红星西街交叉口正南方向96米左右",
        "tel": "",
        "category": "基础设施:公共设施:公共厕所",
        "type": 0,
        "location": {
            "lat": 35.494798,
            "lng": 112.849922
        },
        "ad_info": {
            "adcode": 140502,
            "province": "山西省",
            "city": "晋城市",
            "district": "城区"
        }
    },
    {
        "id": "14093330996202518789",
        "title": "公共厕所",
        "address": "山西省晋城市城区塔东街与文峰路交叉口正西方向488米左右",
        "tel": "",
        "category": "基础设施:公共设施:公共厕所",
        "type": 0,
        "location": {
            "lat": 35.476143,
            "lng": 112.873288
        },
        "ad_info": {
            "adcode": 140502,
            "province": "山西省",
            "city": "晋城市",
            "district": "城区"
        }
    },
    {
        "id": "11877883861027835990",
        "title": "公共厕所",
        "address": "山西省晋城市城区东大街与观巷交叉口东北方向98米左右",
        "tel": "",
        "category": "基础设施:公共设施:公共厕所",
        "type": 0,
        "location": {
            "lat": 35.506161,
            "lng": 112.843975
        },
        "ad_info": {
            "adcode": 140502,
            "province": "山西省",
            "city": "晋城市",
            "district": "城区"
        }
    },
    {
        "id": "12634769151178567106",
        "title": "公共厕所",
        "address": "山西省晋城市城区东大街与庙台底交叉口正南方向67米左右",
        "tel": "",
        "category": "基础设施:公共设施:公共厕所",
        "type": 0,
        "location": {
            "lat": 35.505006,
            "lng": 112.842215
        },
        "ad_info": {
            "adcode": 140502,
            "province": "山西省",
            "city": "晋城市",
            "district": "城区"
        }
    },
    {
        "id": "17790394343635258191",
        "title": "公共厕所",
        "address": "山西省晋城市沁水县331省道南50米",
        "tel": "",
        "category": "基础设施:公共设施:公共厕所",
        "type": 0,
        "location": {
            "lat": 35.737343,
            "lng": 112.060499
        },
        "ad_info": {
            "adcode": 140521,
            "province": "山西省",
            "city": "晋城市",
            "district": "沁水县"
        }
    },
    {
        "id": "5934128032511376368",
        "title": "公共厕所",
        "address": "山西省晋城市城区文博路安居小区",
        "tel": "",
        "category": "基础设施:公共设施:公共厕所",
        "type": 0,
        "location": {
            "lat": 35.483772,
            "lng": 112.870616
        },
        "ad_info": {
            "adcode": 140502,
            "province": "山西省",
            "city": "晋城市",
            "district": "城区"
        }
    },
    {
        "id": "1946418455863773953",
        "title": "公共厕所",
        "address": "山西省晋城市城区G5512晋新高速与凤凰岭桥交叉口东南280米",
        "tel": "",
        "category": "基础设施:公共设施:公共厕所",
        "type": 0,
        "location": {
            "lat": 35.485386,
            "lng": 112.896822
        },
        "ad_info": {
            "adcode": 140502,
            "province": "山西省",
            "city": "晋城市",
            "district": "城区"
        }
    },
    {
        "id": "17644857347581644899",
        "title": "公共厕所",
        "address": "山西省晋城市泽州县公路街与S86晋运高速入口交叉口西南120米",
        "tel": "",
        "category": "基础设施:公共设施:公共厕所",
        "type": 0,
        "location": {
            "lat": 35.494293,
            "lng": 112.656935
        },
        "ad_info": {
            "adcode": 140525,
            "province": "山西省",
            "city": "晋城市",
            "district": "泽州县"
        }
    },
    {
        "id": "17694915762839576828",
        "title": "公共厕所",
        "address": "山西省晋城市城区北环街与焦山路交叉口西北方向292米左右",
        "tel": "",
        "category": "基础设施:公共设施:公共厕所",
        "type": 0,
        "location": {
            "lat": 35.524881,
            "lng": 112.838781
        },
        "ad_info": {
            "adcode": 140502,
            "province": "山西省",
            "city": "晋城市",
            "district": "城区"
        }
    },
    {
        "id": "8755339478458468622",
        "title": "公共厕所",
        "address": "山西省晋城市城区S227与泽凤路交叉口正北方向437米左右",
        "tel": "",
        "category": "基础设施:公共设施:公共厕所",
        "type": 0,
        "location": {
            "lat": 35.56445,
            "lng": 112.869219
        },
        "ad_info": {
            "adcode": 140502,
            "province": "山西省",
            "city": "晋城市",
            "district": "城区"
        }
    },
    {
        "id": "11762395954675048728",
        "title": "公共厕所",
        "address": "山西省晋城市城区东上庄立交桥与金凤路交叉口正北方向290米左右",
        "tel": "",
        "category": "基础设施:公共设施:公共厕所",
        "type": 0,
        "location": {
            "lat": 35.492406,
            "lng": 112.896622
        },
        "ad_info": {
            "adcode": 140502,
            "province": "山西省",
            "city": "晋城市",
            "district": "城区"
        }
    },
    {
        "id": "4579891055135452023",
        "title": "公共厕所",
        "address": "山西省晋城市沁水县331省道西50米",
        "tel": "",
        "category": "基础设施:公共设施:公共厕所",
        "type": 0,
        "location": {
            "lat": 35.724299,
            "lng": 112.578965
        },
        "ad_info": {
            "adcode": 140521,
            "province": "山西省",
            "city": "晋城市",
            "district": "沁水县"
        }
    },
    {
        "id": "6000129986761943450",
        "title": "公共厕所",
        "address": "山西省晋城市高平市友谊西街辅路与定林路交叉口正北方向72米左右",
        "tel": "",
        "category": "基础设施:公共设施:公共厕所",
        "type": 0,
        "location": {
            "lat": 35.801955,
            "lng": 112.921119
        },
        "ad_info": {
            "adcode": 140581,
            "province": "山西省",
            "city": "晋城市",
            "district": "高平市"
        }
    },
    {
        "id": "10848774100544069373",
        "title": "公共厕所",
        "address": "山西省晋城市高平市南内环街与精卫路交叉口东南方向183米左右",
        "tel": "",
        "category": "基础设施:公共设施:公共厕所",
        "type": 0,
        "location": {
            "lat": 35.768202,
            "lng": 112.943809
        },
        "ad_info": {
            "adcode": 140581,
            "province": "山西省",
            "city": "晋城市",
            "district": "高平市"
        }
    },
    {
        "id": "14296620289026822036",
        "title": "公共厕所",
        "address": "山西省晋城市城区友谊小学东侧140米",
        "tel": "",
        "category": "基础设施:公共设施:公共厕所",
        "type": 0,
        "location": {
            "lat": 35.487234,
            "lng": 112.817461
        },
        "ad_info": {
            "adcode": 140502,
            "province": "山西省",
            "city": "晋城市",
            "district": "城区"
        }
    },
    {
        "id": "17558557118341168443",
        "title": "公共厕所",
        "address": "山西省晋城市泽州县丹河快线与朝阳街交叉口西南方向481米左右",
        "tel": "",
        "category": "基础设施:公共设施:公共厕所",
        "type": 0,
        "location": {
            "lat": 35.553512,
            "lng": 112.978077
        },
        "ad_info": {
            "adcode": 140525,
            "province": "山西省",
            "city": "晋城市",
            "district": "泽州县"
        }
    },
    {
        "id": "7067204716395333148",
        "title": "公共厕所",
        "address": "山西省晋城市城区景西路1089号",
        "tel": "",
        "category": "基础设施:公共设施:公共厕所",
        "type": 0,
        "location": {
            "lat": 35.49953,
            "lng": 112.829863
        },
        "ad_info": {
            "adcode": 140502,
            "province": "山西省",
            "city": "晋城市",
            "district": "城区"
        }
    },
    {
        "id": "14416425196844627795",
        "title": "公共厕所",
        "address": "山西省晋城市高平市康乐东街与康乐西街交叉口正北方向160米左右",
        "tel": "",
        "category": "基础设施:公共设施:公共厕所",
        "type": 0,
        "location": {
            "lat": 35.786217,
            "lng": 112.929081
        },
        "ad_info": {
            "adcode": 140581,
            "province": "山西省",
            "city": "晋城市",
            "district": "高平市"
        }
    },
    {
        "id": "10474062197785134389",
        "title": "公共厕所",
        "address": "山西省晋城市陵川县卧龙路与崇安西街交叉口正北方向87米左右",
        "tel": "",
        "category": "基础设施:公共设施:公共厕所",
        "type": 0,
        "location": {
            "lat": 35.778185,
            "lng": 113.27585
        },
        "ad_info": {
            "adcode": 140524,
            "province": "山西省",
            "city": "晋城市",
            "district": "陵川县"
        }
    },
    {
        "id": "16932089619611970788",
        "title": "公共厕所",
        "address": "山西省晋城市城区东上庄立交桥与中原东街交叉口正南方向91米左右",
        "tel": "",
        "category": "基础设施:公共设施:公共厕所",
        "type": 0,
        "location": {
            "lat": 35.484962,
            "lng": 112.891182
        },
        "ad_info": {
            "adcode": 140502,
            "province": "山西省",
            "city": "晋城市",
            "district": "城区"
        }
    },
    {
        "id": "9160433299892140979",
        "title": "公共厕所",
        "address": "山西省晋城市城区书院街1261号古书院矿小区",
        "tel": "",
        "category": "基础设施:公共设施:公共厕所",
        "type": 0,
        "location": {
            "lat": 35.51167,
            "lng": 112.84124
        },
        "ad_info": {
            "adcode": 140502,
            "province": "山西省",
            "city": "晋城市",
            "district": "城区"
        }
    },
    {
        "id": "14893173165934083497",
        "title": "公共厕所",
        "address": "山西省晋城市城区安泰路与平安街交叉口正南方向64米左右",
        "tel": "",
        "category": "基础设施:公共设施:公共厕所",
        "type": 0,
        "location": {
            "lat": 35.514855,
            "lng": 112.807919
        },
        "ad_info": {
            "adcode": 140502,
            "province": "山西省",
            "city": "晋城市",
            "district": "城区"
        }
    },
    {
        "id": "5342545802181061977",
        "title": "公共厕所",
        "address": "山西省晋城市泽州县二淅线与商业西街交叉口正西方向1019米左右",
        "tel": "",
        "category": "基础设施:公共设施:公共厕所",
        "type": 0,
        "location": {
            "lat": 35.641093,
            "lng": 112.939456
        },
        "ad_info": {
            "adcode": 140525,
            "province": "山西省",
            "city": "晋城市",
            "district": "泽州县"
        }
    },
    {
        "id": "4281899790935421763",
        "title": "公共厕所",
        "address": "山西省晋城市城区府南巷与新市西街交叉口正北方向75米左右",
        "tel": "",
        "category": "基础设施:公共设施:公共厕所",
        "type": 0,
        "location": {
            "lat": 35.501936,
            "lng": 112.852871
        },
        "ad_info": {
            "adcode": 140502,
            "province": "山西省",
            "city": "晋城市",
            "district": "城区"
        }
    },
    {
        "id": "9703228177546925656",
        "title": "公共厕所",
        "address": "山西省晋城市城区向阳街与泽州路辅路交叉口正西方向73米左右",
        "tel": "",
        "category": "基础设施:公共设施:公共厕所",
        "type": 0,
        "location": {
            "lat": 35.494562,
            "lng": 112.853666
        },
        "ad_info": {
            "adcode": 140502,
            "province": "山西省",
            "city": "晋城市",
            "district": "城区"
        }
    },
    {
        "id": "8086636171367421270",
        "title": "公共厕所",
        "address": "山西省晋城市城区一小巷与润龙巷交叉口正东方向118米左右",
        "tel": "",
        "category": "基础设施:公共设施:公共厕所",
        "type": 0,
        "location": {
            "lat": 35.486239,
            "lng": 112.831726
        },
        "ad_info": {
            "adcode": 140502,
            "province": "山西省",
            "city": "晋城市",
            "district": "城区"
        }
    },
    {
        "id": "4688276796066437237",
        "title": "公共厕所",
        "address": "山西省晋城市城区东谷洞与观巷交叉口东北方向13米左右",
        "tel": "",
        "category": "基础设施:公共设施:公共厕所",
        "type": 0,
        "location": {
            "lat": 35.502801,
            "lng": 112.843483
        },
        "ad_info": {
            "adcode": 140502,
            "province": "山西省",
            "city": "晋城市",
            "district": "城区"
        }
    },
    {
        "id": "12679526706359932630",
        "title": "公共厕所",
        "address": "山西省晋城市城区向阳街与红星西街交叉口正东方向89米左右",
        "tel": "",
        "category": "基础设施:公共设施:公共厕所",
        "type": 0,
        "location": {
            "lat": 35.495566,
            "lng": 112.851817
        },
        "ad_info": {
            "adcode": 140502,
            "province": "山西省",
            "city": "晋城市",
            "district": "城区"
        }
    },
    {
        "id": "15453135399591100763",
        "title": "公共厕所",
        "address": "山西省晋城市沁水县北坛路与北梅巷交叉口东北方向14米左右",
        "tel": "",
        "category": "基础设施:公共设施:公共厕所",
        "type": 0,
        "location": {
            "lat": 35.697569,
            "lng": 112.180596
        },
        "ad_info": {
            "adcode": 140521,
            "province": "山西省",
            "city": "晋城市",
            "district": "沁水县"
        }
    },
    {
        "id": "17689129173968028434",
        "title": "公共厕所",
        "address": "山西省晋城市高平市友谊西街龙丰医药对面",
        "tel": "",
        "category": "基础设施:公共设施:公共厕所",
        "type": 0,
        "location": {
            "lat": 35.80103,
            "lng": 112.926019
        },
        "ad_info": {
            "adcode": 140581,
            "province": "山西省",
            "city": "晋城市",
            "district": "高平市"
        }
    },
    {
        "id": "3496868823491237217",
        "title": "公共厕所",
        "address": "山西省晋城市城区凤台西街凤翔小区",
        "tel": "",
        "category": "基础设施:公共设施:公共厕所",
        "type": 0,
        "location": {
            "lat": 35.488612,
            "lng": 112.852808
        },
        "ad_info": {
            "adcode": 140502,
            "province": "山西省",
            "city": "晋城市",
            "district": "城区"
        }
    },
    {
        "id": "2867663938524909230",
        "title": "公共厕所",
        "address": "山西省晋城市高平市育英街高平市体育中心",
        "tel": "",
        "category": "基础设施:公共设施:公共厕所",
        "type": 0,
        "location": {
            "lat": 35.795347,
            "lng": 112.930918
        },
        "ad_info": {
            "adcode": 140581,
            "province": "山西省",
            "city": "晋城市",
            "district": "高平市"
        }
    },
    {
        "id": "2474434423704625787",
        "title": "公共厕所",
        "address": "山西省晋城市城区S227与小车渠大桥交叉口东北方向273米左右",
        "tel": "",
        "category": "基础设施:公共设施:公共厕所",
        "type": 0,
        "location": {
            "lat": 35.566453,
            "lng": 112.863317
        },
        "ad_info": {
            "adcode": 140502,
            "province": "山西省",
            "city": "晋城市",
            "district": "城区"
        }
    },
    {
        "id": "5664394643471299361",
        "title": "公共厕所",
        "address": "山西省晋城市陵川县古陵南路661号",
        "tel": "",
        "category": "基础设施:公共设施:公共厕所",
        "type": 0,
        "location": {
            "lat": 35.762731,
            "lng": 113.275643
        },
        "ad_info": {
            "adcode": 140524,
            "province": "山西省",
            "city": "晋城市",
            "district": "陵川县"
        }
    },
    {
        "id": "1278392823082794040",
        "title": "公共厕所",
        "address": "山西省晋城市陵川县开元街与横杨线交叉口东300米",
        "tel": "",
        "category": "基础设施:公共设施:公共厕所",
        "type": 0,
        "location": {
            "lat": 35.855097,
            "lng": 113.175056
        },
        "ad_info": {
            "adcode": 140524,
            "province": "山西省",
            "city": "晋城市",
            "district": "陵川县"
        }
    },
    {
        "id": "13783886863651251390",
        "title": "公共厕所",
        "address": "山西省晋城市陵川县G207与乌海线交叉口西南方向159米左右",
        "tel": "",
        "category": "基础设施:公共设施:公共厕所",
        "type": 0,
        "location": {
            "lat": 35.816277,
            "lng": 113.303274
        },
        "ad_info": {
            "adcode": 140524,
            "province": "山西省",
            "city": "晋城市",
            "district": "陵川县"
        }
    },
    {
        "id": "6744007148554980192",
        "title": "公共厕所",
        "address": "山西省晋城市城区矿区街道晋煤机关步行街晋城煤业集团",
        "tel": "",
        "category": "基础设施:公共设施:公共厕所",
        "type": 0,
        "location": {
            "lat": 35.547199,
            "lng": 112.906062
        },
        "ad_info": {
            "adcode": 140502,
            "province": "山西省",
            "city": "晋城市",
            "district": "城区"
        }
    },
    {
        "id": "6601792372341948050",
        "title": "公共厕所",
        "address": "山西省晋城市城区兰花路与凤台东街交叉口东南方向261米左右",
        "tel": "",
        "category": "基础设施:公共设施:公共厕所",
        "type": 0,
        "location": {
            "lat": 35.489515,
            "lng": 112.882451
        },
        "ad_info": {
            "adcode": 140502,
            "province": "山西省",
            "city": "晋城市",
            "district": "城区"
        }
    },
    {
        "id": "1964472991234185689",
        "title": "公共厕所",
        "address": "山西省晋城市城区泽州路辅路与花新街交叉口正西方向99米左右",
        "tel": "",
        "category": "基础设施:公共设施:公共厕所",
        "type": 0,
        "location": {
            "lat": 35.49957,
            "lng": 112.85357
        },
        "ad_info": {
            "adcode": 140502,
            "province": "山西省",
            "city": "晋城市",
            "district": "城区"
        }
    },
    {
        "id": "7426750315779703992",
        "title": "人民广场公共厕所",
        "address": "山西省晋城市城区南大街与新市西街交叉口正西方向95米左右",
        "tel": "",
        "category": "基础设施:公共设施:公共厕所",
        "type": 0,
        "location": {
            "lat": 35.499447,
            "lng": 112.840816
        },
        "ad_info": {
            "adcode": 140502,
            "province": "山西省",
            "city": "晋城市",
            "district": "城区"
        }
    },
    {
        "id": "12477188345228963642",
        "title": "公共厕所",
        "address": "山西省晋城市城区太行路与晋回路交叉口东南方向47米左右",
        "tel": "",
        "category": "基础设施:公共设施:公共厕所",
        "type": 0,
        "location": {
            "lat": 35.483144,
            "lng": 112.861603
        },
        "ad_info": {
            "adcode": 140502,
            "province": "山西省",
            "city": "晋城市",
            "district": "城区"
        }
    },
    {
        "id": "5982509885432125111",
        "title": "公共卫生间",
        "address": "山西省晋城市城区太岳街辅路与苑北路交叉口正南方向111米左右",
        "tel": "",
        "category": "基础设施:公共设施:公共厕所",
        "type": 0,
        "location": {
            "lat": 35.507762,
            "lng": 112.864184
        },
        "ad_info": {
            "adcode": 140502,
            "province": "山西省",
            "city": "晋城市",
            "district": "城区"
        }
    },
    {
        "id": "10913610376500765121",
        "title": "公共厕所",
        "address": "山西省晋城市城区庄景街与苑北路交叉口东北方向112米左右",
        "tel": "",
        "category": "基础设施:公共设施:公共厕所",
        "type": 0,
        "location": {
            "lat": 35.513539,
            "lng": 112.864978
        },
        "ad_info": {
            "adcode": 140502,
            "province": "山西省",
            "city": "晋城市",
            "district": "城区"
        }
    },
    {
        "id": "14219025202481193482",
        "title": "公共厕所",
        "address": "山西省晋城市城区红星东街与花新南巷交叉口正北方向37米左右",
        "tel": "",
        "category": "基础设施:公共设施:公共厕所",
        "type": 0,
        "location": {
            "lat": 35.496379,
            "lng": 112.85934
        },
        "ad_info": {
            "adcode": 140502,
            "province": "山西省",
            "city": "晋城市",
            "district": "城区"
        }
    },
    {
        "id": "13182204526419214248",
        "title": "公共厕所",
        "address": "山西省晋城市城区东谷洞与南大街交叉口东北方向35米左右",
        "tel": "",
        "category": "基础设施:公共设施:公共厕所",
        "type": 0,
        "location": {
            "lat": 35.502672,
            "lng": 112.841641
        },
        "ad_info": {
            "adcode": 140502,
            "province": "山西省",
            "city": "晋城市",
            "district": "城区"
        }
    },
    {
        "id": "3074889563069278910",
        "title": "公共厕所",
        "address": "山西省晋城市泽州县孟匠路与武庄路交叉口正东方向533米左右",
        "tel": "",
        "category": "基础设施:公共设施:公共厕所",
        "type": 0,
        "location": {
            "lat": 35.508972,
            "lng": 112.899045
        },
        "ad_info": {
            "adcode": 140525,
            "province": "山西省",
            "city": "晋城市",
            "district": "泽州县"
        }
    },
    {
        "id": "16507156146249392614",
        "title": "公共厕所",
        "address": "山西省晋城市城区泽州路凤翔小区",
        "tel": "",
        "category": "基础设施:公共设施:公共厕所",
        "type": 0,
        "location": {
            "lat": 35.486279,
            "lng": 112.853018
        },
        "ad_info": {
            "adcode": 140502,
            "province": "山西省",
            "city": "晋城市",
            "district": "城区"
        }
    },
    {
        "id": "2728701148214685009",
        "title": "公共厕所",
        "address": "山西省晋城市城区十米巷与凤台西街辅路交叉口西南200米",
        "tel": "",
        "category": "基础设施:公共设施:公共厕所",
        "type": 0,
        "location": {
            "lat": 35.488528,
            "lng": 112.831753
        },
        "ad_info": {
            "adcode": 140502,
            "province": "山西省",
            "city": "晋城市",
            "district": "城区"
        }
    },
    {
        "id": "1517249329462946651",
        "title": "公共厕所",
        "address": "山西省晋城市沁水县北坛路与梅河大桥交叉口西北方向60米左右",
        "tel": "",
        "category": "基础设施:公共设施:公共厕所",
        "type": 0,
        "location": {
            "lat": 35.691228,
            "lng": 112.189094
        },
        "ad_info": {
            "adcode": 140521,
            "province": "山西省",
            "city": "晋城市",
            "district": "沁水县"
        }
    },
    {
        "id": "14848581882881194072",
        "title": "公共厕所",
        "address": "山西省晋城市城区下元巷212号",
        "tel": "",
        "category": "基础设施:公共设施:公共厕所",
        "type": 0,
        "location": {
            "lat": 35.501333,
            "lng": 112.838841
        },
        "ad_info": {
            "adcode": 140502,
            "province": "山西省",
            "city": "晋城市",
            "district": "城区"
        }
    },
    {
        "id": "1318835503626588920",
        "title": "公共厕所",
        "address": "山西省晋城市高平市丹西巷与建设北路交叉口西北方向28米左右",
        "tel": "",
        "category": "基础设施:公共设施:公共厕所",
        "type": 0,
        "location": {
            "lat": 35.796898,
            "lng": 112.929235
        },
        "ad_info": {
            "adcode": 140581,
            "province": "山西省",
            "city": "晋城市",
            "district": "高平市"
        }
    },
    {
        "id": "16595976806345533740",
        "title": "高平服务区公共厕所",
        "address": "山西省晋城市高平市二广高速高平服务区",
        "tel": "",
        "category": "基础设施:公共设施:公共厕所",
        "type": 0,
        "location": {
            "lat": 35.742564,
            "lng": 112.974601
        },
        "ad_info": {
            "adcode": 140581,
            "province": "山西省",
            "city": "晋城市",
            "district": "高平市"
        }
    },
    {
        "id": "13187283897546069593",
        "title": "无障碍公共厕所",
        "address": "山西省晋城市陵川县平安南路与文峰街交叉口东北方向194米左右",
        "tel": "",
        "category": "基础设施:公共设施:公共厕所",
        "type": 0,
        "location": {
            "lat": 35.755208,
            "lng": 113.272636
        },
        "ad_info": {
            "adcode": 140524,
            "province": "山西省",
            "city": "晋城市",
            "district": "陵川县"
        }
    },
    {
        "id": "4898602932310690542",
        "title": "公共厕所",
        "address": "山西省晋城市泽州县东大北路与东大南路交叉口正西方向338米左右",
        "tel": "",
        "category": "基础设施:公共设施:公共厕所",
        "type": 0,
        "location": {
            "lat": 35.56233,
            "lng": 112.706891
        },
        "ad_info": {
            "adcode": 140525,
            "province": "山西省",
            "city": "晋城市",
            "district": "泽州县"
        }
    },
    {
        "id": "1556945810519098571",
        "title": "无障碍公共厕所",
        "address": "山西省晋城市城区新市东街大金华汽车服务站",
        "tel": "",
        "category": "基础设施:公共设施:公共厕所",
        "type": 0,
        "location": {
            "lat": 35.502611,
            "lng": 112.86434
        },
        "ad_info": {
            "adcode": 140502,
            "province": "山西省",
            "city": "晋城市",
            "district": "城区"
        }
    },
    {
        "id": "14604368252858136409",
        "title": "小寨沟景区-公共厕所",
        "address": "山西省晋城市陵川县云台山风景名胜区内",
        "tel": "",
        "category": "基础设施:公共设施:公共厕所",
        "type": 0,
        "location": {
            "lat": 35.474053,
            "lng": 113.34277
        },
        "ad_info": {
            "adcode": 140524,
            "province": "山西省",
            "city": "晋城市",
            "district": "陵川县"
        }
    },
    {
        "id": "13283544892054752106",
        "title": "晋城西服务区公共厕所",
        "address": "山西省晋城市泽州县晋城绕城高速晋城西服务区",
        "tel": "",
        "category": "基础设施:公共设施:公共厕所",
        "type": 0,
        "location": {
            "lat": 35.483604,
            "lng": 112.782883
        },
        "ad_info": {
            "adcode": 140525,
            "province": "山西省",
            "city": "晋城市",
            "district": "泽州县"
        }
    },
    {
        "id": "8729533271799628340",
        "title": "公共厕所",
        "address": "山西省晋城市阳城县南城东街16号",
        "tel": "",
        "category": "基础设施:公共设施:公共厕所",
        "type": 0,
        "location": {
            "lat": 35.479781,
            "lng": 112.430052
        },
        "ad_info": {
            "adcode": 140522,
            "province": "山西省",
            "city": "晋城市",
            "district": "阳城县"
        }
    },
    {
        "id": "8772956706590570135",
        "title": "公共厕所",
        "address": "山西省晋城市阳城县清林路与阳端线交叉口正北方向849米左右",
        "tel": "",
        "category": "基础设施:公共设施:公共厕所",
        "type": 0,
        "location": {
            "lat": 35.500003,
            "lng": 112.439665
        },
        "ad_info": {
            "adcode": 140522,
            "province": "山西省",
            "city": "晋城市",
            "district": "阳城县"
        }
    },
    {
        "id": "10239563834245094818",
        "title": "公共厕所",
        "address": "山西省晋城市阳城县町店派出所(芦河西街南)",
        "tel": "",
        "category": "基础设施:公共设施:公共厕所",
        "type": 0,
        "location": {
            "lat": 35.550178,
            "lng": 112.432017
        },
        "ad_info": {
            "adcode": 140522,
            "province": "山西省",
            "city": "晋城市",
            "district": "阳城县"
        }
    },
    {
        "id": "14180748923960556548",
        "title": "公共厕所",
        "address": "山西省晋城市阳城县家园招待所(阳城汽车站南)",
        "tel": "",
        "category": "基础设施:公共设施:公共厕所",
        "type": 0,
        "location": {
            "lat": 35.478072,
            "lng": 112.424016
        },
        "ad_info": {
            "adcode": 140522,
            "province": "山西省",
            "city": "晋城市",
            "district": "阳城县"
        }
    },
    {
        "id": "8141935864455856293",
        "title": "公共厕所",
        "address": "山西省晋城市阳城县南环东街与滨河西路交叉口正南方向119米左右",
        "tel": "",
        "category": "基础设施:公共设施:公共厕所",
        "type": 0,
        "location": {
            "lat": 35.475519,
            "lng": 112.431234
        },
        "ad_info": {
            "adcode": 140522,
            "province": "山西省",
            "city": "晋城市",
            "district": "阳城县"
        }
    },
    {
        "id": "792390751658502251",
        "title": "公共厕所",
        "address": "山西省晋城市阳城县皇城相府文化生态旅游区内",
        "tel": "",
        "category": "基础设施:公共设施:公共厕所",
        "type": 0,
        "location": {
            "lat": 35.515643,
            "lng": 112.58379
        },
        "ad_info": {
            "adcode": 140522,
            "province": "山西省",
            "city": "晋城市",
            "district": "阳城县"
        }
    },
    {
        "id": "8642017364649708865",
        "title": "公共厕所",
        "address": "山西省晋城市阳城县建设南路与西池街交叉口东南方向87米左右",
        "tel": "",
        "category": "基础设施:公共设施:公共厕所",
        "type": 0,
        "location": {
            "lat": 35.482289,
            "lng": 112.417113
        },
        "ad_info": {
            "adcode": 140522,
            "province": "山西省",
            "city": "晋城市",
            "district": "阳城县"
        }
    },
    {
        "id": "15663075080927989315",
        "title": "公共厕所",
        "address": "山西省晋城市阳城县右岸大道与滨河东路交叉口东北方向120米左右",
        "tel": "",
        "category": "基础设施:公共设施:公共厕所",
        "type": 0,
        "location": {
            "lat": 35.474929,
            "lng": 112.432745
        },
        "ad_info": {
            "adcode": 140522,
            "province": "山西省",
            "city": "晋城市",
            "district": "阳城县"
        }
    },
    {
        "id": "6577457945270426704",
        "title": "公共厕所",
        "address": "山西省晋城市阳城县皇城相府生态文化旅游区内",
        "tel": "",
        "category": "基础设施:公共设施:公共厕所",
        "type": 0,
        "location": {
            "lat": 35.516112,
            "lng": 112.583774
        },
        "ad_info": {
            "adcode": 140522,
            "province": "山西省",
            "city": "晋城市",
            "district": "阳城县"
        }
    },
    {
        "id": "2320925362672357442",
        "title": "公共厕所",
        "address": "山西省晋城市阳城县河北镇杨柏村",
        "tel": "",
        "category": "基础设施:公共设施:公共厕所",
        "type": 0,
        "location": {
            "lat": 35.306559,
            "lng": 112.2534
        },
        "ad_info": {
            "adcode": 140522,
            "province": "山西省",
            "city": "晋城市",
            "district": "阳城县"
        }
    },
    {
        "id": "200706238941992899",
        "title": "无障碍公共厕所",
        "address": "山西省晋城市城区景德路与泰康街交叉口正北方向45米左右",
        "tel": "",
        "category": "基础设施:公共设施:公共厕所",
        "type": 0,
        "location": {
            "lat": 35.508643,
            "lng": 112.833319
        },
        "ad_info": {
            "adcode": 140502,
            "province": "山西省",
            "city": "晋城市",
            "district": "城区"
        }
    },
    {
        "id": "6703521478074081456",
        "title": "公共厕所",
        "address": "山西省晋城市阳城县文华街与田园路交叉口西北方向54米左右",
        "tel": "",
        "category": "基础设施:公共设施:公共厕所",
        "type": 0,
        "location": {
            "lat": 35.487917,
            "lng": 112.433138
        },
        "ad_info": {
            "adcode": 140522,
            "province": "山西省",
            "city": "晋城市",
            "district": "阳城县"
        }
    },
    {
        "id": "481949268225891263",
        "title": "公共厕所",
        "address": "山西省晋城市阳城县阳云线南50米",
        "tel": "",
        "category": "基础设施:公共设施:公共厕所",
        "type": 0,
        "location": {
            "lat": 35.475015,
            "lng": 112.232075
        },
        "ad_info": {
            "adcode": 140522,
            "province": "山西省",
            "city": "晋城市",
            "district": "阳城县"
        }
    },
    {
        "id": "14655096691773428824",
        "title": "公共厕所",
        "address": "山西省晋城市阳城县皇城相府景区内",
        "tel": "",
        "category": "基础设施:公共设施:公共厕所",
        "type": 0,
        "location": {
            "lat": 35.515648,
            "lng": 112.582988
        },
        "ad_info": {
            "adcode": 140522,
            "province": "山西省",
            "city": "晋城市",
            "district": "阳城县"
        }
    },
    {
        "id": "200290913866631619",
        "title": "公共厕所",
        "address": "山西省晋城市阳城县Y007与陵沁线交叉口东南方向92米左右",
        "tel": "",
        "category": "基础设施:公共设施:公共厕所",
        "type": 0,
        "location": {
            "lat": 35.486948,
            "lng": 112.461882
        },
        "ad_info": {
            "adcode": 140522,
            "province": "山西省",
            "city": "晋城市",
            "district": "阳城县"
        }
    },
    {
        "id": "15062799829385394954",
        "title": "公共厕所",
        "address": "山西省晋城市阳城县水帘洞附近",
        "tel": "",
        "category": "基础设施:公共设施:公共厕所",
        "type": 0,
        "location": {
            "lat": 35.283723,
            "lng": 112.635626
        },
        "ad_info": {
            "adcode": 140522,
            "province": "山西省",
            "city": "晋城市",
            "district": "阳城县"
        }
    },
    {
        "id": "3836979968870000854",
        "title": "公共厕所",
        "address": "山西省晋城市阳城县岳庄路与滨河东路交叉口正北方向134米左右",
        "tel": "",
        "category": "基础设施:公共设施:公共厕所",
        "type": 0,
        "location": {
            "lat": 35.471016,
            "lng": 112.430248
        },
        "ad_info": {
            "adcode": 140522,
            "province": "山西省",
            "city": "晋城市",
            "district": "阳城县"
        }
    },
    {
        "id": "1220889763545254891",
        "title": "公共厕所",
        "address": "山西省晋城市阳城县凤凰西街与天桥路交叉口西北方向178米左右",
        "tel": "",
        "category": "基础设施:公共设施:公共厕所",
        "type": 0,
        "location": {
            "lat": 35.48306,
            "lng": 112.422253
        },
        "ad_info": {
            "adcode": 140522,
            "province": "山西省",
            "city": "晋城市",
            "district": "阳城县"
        }
    },
    {
        "id": "15036218302696919528",
        "title": "无障碍公共厕所",
        "address": "山西省晋城市阳城县建南桥与建设北路交叉口正东方向228米左右",
        "tel": "",
        "category": "基础设施:公共设施:公共厕所",
        "type": 0,
        "location": {
            "lat": 35.483919,
            "lng": 112.419723
        },
        "ad_info": {
            "adcode": 140522,
            "province": "山西省",
            "city": "晋城市",
            "district": "阳城县"
        }
    },
    {
        "id": "12276003884192184756",
        "title": "无障碍公共厕所",
        "address": "山西省晋城市阳城县天门头路与荣泽路交叉口正东方向236米左右",
        "tel": "",
        "category": "基础设施:公共设施:公共厕所",
        "type": 0,
        "location": {
            "lat": 35.484215,
            "lng": 112.425381
        },
        "ad_info": {
            "adcode": 140522,
            "province": "山西省",
            "city": "晋城市",
            "district": "阳城县"
        }
    },
    {
        "id": "13255202545457510196",
        "title": "阳城服务区公共厕所",
        "address": "山西省晋城市阳城县安阳高速阳城服务区",
        "tel": "",
        "category": "基础设施:公共设施:公共厕所",
        "type": 0,
        "location": {
            "lat": 35.528445,
            "lng": 112.427482
        },
        "ad_info": {
            "adcode": 140522,
            "province": "山西省",
            "city": "晋城市",
            "district": "阳城县"
        }
    },
    {
        "id": "11624864496361721998",
        "title": "公共厕所",
        "address": "山西省晋城市城区新市西街晋城市第二人民医院",
        "tel": "",
        "category": "基础设施:公共设施:公共厕所",
        "type": 0,
        "location": {
            "lat": 35.501854,
            "lng": 112.848045
        },
        "ad_info": {
            "adcode": 140502,
            "province": "山西省",
            "city": "晋城市",
            "district": "城区"
        }
    },
    {
        "id": "12939839779125258231",
        "title": "公共厕所",
        "address": "山西省晋城市阳城县园区中央大道与迎宾北路交叉口正东方向382米左右",
        "tel": "",
        "category": "基础设施:公共设施:公共厕所",
        "type": 0,
        "location": {
            "lat": 35.47342,
            "lng": 112.572391
        },
        "ad_info": {
            "adcode": 140522,
            "province": "山西省",
            "city": "晋城市",
            "district": "阳城县"
        }
    },
    {
        "id": "15889714194124340944",
        "title": "公共厕所",
        "address": "山西省晋城市泽州县二淅线与北街交叉口东北方向674米左右",
        "tel": "",
        "category": "基础设施:公共设施:公共厕所",
        "type": 0,
        "location": {
            "lat": 35.328809,
            "lng": 112.775655
        },
        "ad_info": {
            "adcode": 140525,
            "province": "山西省",
            "city": "晋城市",
            "district": "泽州县"
        }
    },
    {
        "id": "3773947222337417688",
        "title": "阳电体育广场-公共厕所",
        "address": "山西省晋城市城区金辇西街与长安路交叉口正北方向57米左右",
        "tel": "",
        "category": "基础设施:公共设施:公共厕所",
        "type": 0,
        "location": {
            "lat": 35.487336,
            "lng": 112.857848
        },
        "ad_info": {
            "adcode": 140502,
            "province": "山西省",
            "city": "晋城市",
            "district": "城区"
        }
    },
    {
        "id": "15954054699677096953",
        "title": "公共厕所",
        "address": "山西省晋城市陵川县平安南路与黄围西街交叉口正西方向939米左右",
        "tel": "",
        "category": "基础设施:公共设施:公共厕所",
        "type": 0,
        "location": {
            "lat": 35.764798,
            "lng": 113.262014
        },
        "ad_info": {
            "adcode": 140524,
            "province": "山西省",
            "city": "晋城市",
            "district": "陵川县"
        }
    },
    {
        "id": "7272332300386741332",
        "title": "公共卫生间",
        "address": "山西省晋城市城区书院街与景忠路交叉口正东方向309米左右",
        "tel": "",
        "category": "基础设施:公共设施:公共厕所",
        "type": 0,
        "location": {
            "lat": 35.511869,
            "lng": 112.848625
        },
        "ad_info": {
            "adcode": 140502,
            "province": "山西省",
            "city": "晋城市",
            "district": "城区"
        }
    },
    {
        "id": "10496471090953787045",
        "title": "公共厕所",
        "address": "山西省晋城市阳城县皇城相府景区内",
        "tel": "",
        "category": "基础设施:公共设施:公共厕所",
        "type": 0,
        "location": {
            "lat": 35.514552,
            "lng": 112.583618
        },
        "ad_info": {
            "adcode": 140522,
            "province": "山西省",
            "city": "晋城市",
            "district": "阳城县"
        }
    },
    {
        "id": "11603226106331924908",
        "title": "公共厕所",
        "address": "山西省晋城市城区朝泽公园东南侧220米",
        "tel": "",
        "category": "基础设施:公共设施:公共厕所",
        "type": 0,
        "location": {
            "lat": 35.56598,
            "lng": 112.896427
        },
        "ad_info": {
            "adcode": 140502,
            "province": "山西省",
            "city": "晋城市",
            "district": "城区"
        }
    },
    {
        "id": "7977943039514544066",
        "title": "公共厕所",
        "address": "山西省晋城市城区中原东街2507号",
        "tel": "",
        "category": "基础设施:公共设施:公共厕所",
        "type": 0,
        "location": {
            "lat": 35.48005,
            "lng": 112.865525
        },
        "ad_info": {
            "adcode": 140502,
            "province": "山西省",
            "city": "晋城市",
            "district": "城区"
        }
    },
    {
        "id": "8608082879276631122",
        "title": "东郜加油站厕所",
        "address": "山西省晋城市泽州县巴公镇晋城石油东郜加油站",
        "tel": "",
        "category": "基础设施:公共设施:公共厕所",
        "type": 0,
        "location": {
            "lat": 35.668064,
            "lng": 112.884517
        },
        "ad_info": {
            "adcode": 140525,
            "province": "山西省",
            "city": "晋城市",
            "district": "泽州县"
        }
    },
    {
        "id": "3267995657828250774",
        "title": "公共厕所",
        "address": "山西省晋城市泽州县北站路与锦绣西街交叉口西南方向296米左右",
        "tel": "",
        "category": "基础设施:公共设施:公共厕所",
        "type": 0,
        "location": {
            "lat": 35.506905,
            "lng": 112.902746
        },
        "ad_info": {
            "adcode": 140525,
            "province": "山西省",
            "city": "晋城市",
            "district": "泽州县"
        }
    },
    {
        "id": "7558462109326281084",
        "title": "公共厕所",
        "address": "山西省晋城市阳城县南城东街与左岸大道交叉口正西方向58米左右",
        "tel": "",
        "category": "基础设施:公共设施:公共厕所",
        "type": 0,
        "location": {
            "lat": 35.479017,
            "lng": 112.433449
        },
        "ad_info": {
            "adcode": 140522,
            "province": "山西省",
            "city": "晋城市",
            "district": "阳城县"
        }
    },
    {
        "id": "11965087483462814223",
        "title": "公共厕所",
        "address": "山西省晋城市沁水县商贸街与长青路交叉口东南方向94米左右",
        "tel": "",
        "category": "基础设施:公共设施:公共厕所",
        "type": 0,
        "location": {
            "lat": 35.566012,
            "lng": 112.531759
        },
        "ad_info": {
            "adcode": 140521,
            "province": "山西省",
            "city": "晋城市",
            "district": "沁水县"
        }
    },
    {
        "id": "620858855460966650",
        "title": "公共厕所",
        "address": "山西省晋城市沁水县X754与坪曲线交叉口正东方向1816米左右",
        "tel": "",
        "category": "基础设施:公共设施:公共厕所",
        "type": 0,
        "location": {
            "lat": 35.728433,
            "lng": 112.576434
        },
        "ad_info": {
            "adcode": 140521,
            "province": "山西省",
            "city": "晋城市",
            "district": "沁水县"
        }
    },
    {
        "id": "6810621530121990509",
        "title": "公共厕所",
        "address": "山西省晋城市阳城县建安路与滨河西路交叉口西南方向130米左右",
        "tel": "",
        "category": "基础设施:公共设施:公共厕所",
        "type": 0,
        "location": {
            "lat": 35.467551,
            "lng": 112.425149
        },
        "ad_info": {
            "adcode": 140522,
            "province": "山西省",
            "city": "晋城市",
            "district": "阳城县"
        }
    },
    {
        "id": "6323813083141706533",
        "title": "公共厕所",
        "address": "山西省晋城市阳城县园区中央大道与迎宾北路交叉口正西方向156米左右",
        "tel": "",
        "category": "基础设施:公共设施:公共厕所",
        "type": 0,
        "location": {
            "lat": 35.47355,
            "lng": 112.56653
        },
        "ad_info": {
            "adcode": 140522,
            "province": "山西省",
            "city": "晋城市",
            "district": "阳城县"
        }
    },
    {
        "id": "10003642376950577141",
        "title": "公共厕所",
        "address": "山西省晋城市阳城县下芹村锦华小区南侧250米",
        "tel": "",
        "category": "基础设施:公共设施:公共厕所",
        "type": 0,
        "location": {
            "lat": 35.480613,
            "lng": 112.400669
        },
        "ad_info": {
            "adcode": 140522,
            "province": "山西省",
            "city": "晋城市",
            "district": "阳城县"
        }
    },
    {
        "id": "660078873794158783",
        "title": "公共厕所",
        "address": "山西省晋城市阳城县惠泽路与高风街交叉口西南方向144米左右",
        "tel": "",
        "category": "基础设施:公共设施:公共厕所",
        "type": 0,
        "location": {
            "lat": 35.48942,
            "lng": 112.413308
        },
        "ad_info": {
            "adcode": 140522,
            "province": "山西省",
            "city": "晋城市",
            "district": "阳城县"
        }
    },
    {
        "id": "11978190291048672834",
        "title": "公共厕所",
        "address": "山西省晋城市城区泽州路辅路与金辇西街交叉口正东方向71米左右",
        "tel": "",
        "category": "基础设施:公共设施:公共厕所",
        "type": 0,
        "location": {
            "lat": 35.486564,
            "lng": 112.855963
        },
        "ad_info": {
            "adcode": 140502,
            "province": "山西省",
            "city": "晋城市",
            "district": "城区"
        }
    },
    {
        "id": "14854103394831586068",
        "title": "公共厕所",
        "address": "山西省晋城市城区泽凤路与泽州路交叉口东南方向114米左右",
        "tel": "",
        "category": "基础设施:公共设施:公共厕所",
        "type": 0,
        "location": {
            "lat": 35.528614,
            "lng": 112.852882
        },
        "ad_info": {
            "adcode": 140502,
            "province": "山西省",
            "city": "晋城市",
            "district": "城区"
        }
    },
    {
        "id": "13209699340728338811",
        "title": "公共厕所",
        "address": "山西省晋城市沁水县圆盘南巷与杨河新路交叉口正东方向79米左右",
        "tel": "",
        "category": "基础设施:公共设施:公共厕所",
        "type": 0,
        "location": {
            "lat": 35.687881,
            "lng": 112.202704
        },
        "ad_info": {
            "adcode": 140521,
            "province": "山西省",
            "city": "晋城市",
            "district": "沁水县"
        }
    },
    {
        "id": "8531397025580554237",
        "title": "马村服务区公共厕所",
        "address": "山西省晋城市高平市马村服务区",
        "tel": "",
        "category": "基础设施:公共设施:公共厕所",
        "type": 0,
        "location": {
            "lat": 35.721961,
            "lng": 112.832778
        },
        "ad_info": {
            "adcode": 140581,
            "province": "山西省",
            "city": "晋城市",
            "district": "高平市"
        }
    },
    {
        "id": "3006440412848359358",
        "title": "公共厕所",
        "address": "山西省晋城市沁水县新建西街与西街交叉口东南方向12米左右",
        "tel": "",
        "category": "基础设施:公共设施:公共厕所",
        "type": 0,
        "location": {
            "lat": 35.688208,
            "lng": 112.182926
        },
        "ad_info": {
            "adcode": 140521,
            "province": "山西省",
            "city": "晋城市",
            "district": "沁水县"
        }
    },
    {
        "id": "6627193445771487170",
        "title": "郑庄服务区公共厕所",
        "address": "山西省晋城市沁水县S80陵侯高速与郑庄服务区交叉口西南180米",
        "tel": "",
        "category": "基础设施:公共设施:公共厕所",
        "type": 0,
        "location": {
            "lat": 35.721916,
            "lng": 112.436719
        },
        "ad_info": {
            "adcode": 140521,
            "province": "山西省",
            "city": "晋城市",
            "district": "沁水县"
        }
    },
    {
        "id": "707209418699198254",
        "title": "公共厕所",
        "address": "山西省晋城市城区凤韩巷与晋韩街交叉口东南方向131米左右",
        "tel": "",
        "category": "基础设施:公共设施:公共厕所",
        "type": 0,
        "location": {
            "lat": 35.487536,
            "lng": 112.839199
        },
        "ad_info": {
            "adcode": 140502,
            "province": "山西省",
            "city": "晋城市",
            "district": "城区"
        }
    },
    {
        "id": "9978538288045196241",
        "title": "公共厕所",
        "address": "山西省晋城市沁水县花园路548号",
        "tel": "",
        "category": "基础设施:公共设施:公共厕所",
        "type": 0,
        "location": {
            "lat": 35.692688,
            "lng": 112.18823
        },
        "ad_info": {
            "adcode": 140521,
            "province": "山西省",
            "city": "晋城市",
            "district": "沁水县"
        }
    },
    {
        "id": "14276908686776168763",
        "title": "公共厕所",
        "address": "山西省晋城市高平市友谊东街与友谊西街交叉口西南方向65米左右",
        "tel": "",
        "category": "基础设施:公共设施:公共厕所",
        "type": 0,
        "location": {
            "lat": 35.801373,
            "lng": 112.928866
        },
        "ad_info": {
            "adcode": 140581,
            "province": "山西省",
            "city": "晋城市",
            "district": "高平市"
        }
    },
    {
        "id": "15095395614606977934",
        "title": "公共厕所",
        "address": "山西省晋城市泽州县G55二广高速与G5512晋新高速交叉口东南360米",
        "tel": "",
        "category": "基础设施:公共设施:公共厕所",
        "type": 0,
        "location": {
            "lat": 35.480652,
            "lng": 112.914904
        },
        "ad_info": {
            "adcode": 140525,
            "province": "山西省",
            "city": "晋城市",
            "district": "泽州县"
        }
    },
    {
        "id": "16216384832744747288",
        "title": "公共厕所",
        "address": "山西省晋城市高平市苏庄村文化活动中心西北侧190米",
        "tel": "",
        "category": "基础设施:公共设施:公共厕所",
        "type": 0,
        "location": {
            "lat": 35.728585,
            "lng": 112.9434
        },
        "ad_info": {
            "adcode": 140581,
            "province": "山西省",
            "city": "晋城市",
            "district": "高平市"
        }
    },
    {
        "id": "12170178884544349927",
        "title": "公共厕所",
        "address": "山西省晋城市泽州县霍秀小学西北侧80米",
        "tel": "",
        "category": "基础设施:公共设施:公共厕所",
        "type": 0,
        "location": {
            "lat": 35.504967,
            "lng": 112.914673
        },
        "ad_info": {
            "adcode": 140525,
            "province": "山西省",
            "city": "晋城市",
            "district": "泽州县"
        }
    },
    {
        "id": "8140241707980804677",
        "title": "公共厕所",
        "address": "山西省晋城市沁水县东街与坪曲线交叉口西南方向647米左右",
        "tel": "",
        "category": "基础设施:公共设施:公共厕所",
        "type": 0,
        "location": {
            "lat": 35.674758,
            "lng": 112.518278
        },
        "ad_info": {
            "adcode": 140521,
            "province": "山西省",
            "city": "晋城市",
            "district": "沁水县"
        }
    },
    {
        "id": "9977641939780567433",
        "title": "公共厕所",
        "address": "山西省晋城市城区匠星街与电厂路交叉口西南方向384米左右",
        "tel": "",
        "category": "基础设施:公共设施:公共厕所",
        "type": 0,
        "location": {
            "lat": 35.50213,
            "lng": 112.8145
        },
        "ad_info": {
            "adcode": 140502,
            "province": "山西省",
            "city": "晋城市",
            "district": "城区"
        }
    },
    {
        "id": "7845291205266451261",
        "title": "公共厕所",
        "address": "山西省晋城市泽州县X742与南高线交叉口正西方向1200米左右",
        "tel": "",
        "category": "基础设施:公共设施:公共厕所",
        "type": 0,
        "location": {
            "lat": 35.462959,
            "lng": 112.768019
        },
        "ad_info": {
            "adcode": 140525,
            "province": "山西省",
            "city": "晋城市",
            "district": "泽州县"
        }
    },
    {
        "id": "2970910227408787541",
        "title": "公共厕所",
        "address": "山西省晋城市城区钟家庄办事处西田石村",
        "tel": "",
        "category": "基础设施:公共设施:公共厕所",
        "type": 0,
        "location": {
            "lat": 35.464692,
            "lng": 112.842525
        },
        "ad_info": {
            "adcode": 140502,
            "province": "山西省",
            "city": "晋城市",
            "district": "城区"
        }
    },
    {
        "id": "8800050274192689116",
        "title": "公共厕所",
        "address": "山西省晋城市城区东安巷与泽州路辅路交叉口正西方向181米左右",
        "tel": "",
        "category": "基础设施:公共设施:公共厕所",
        "type": 0,
        "location": {
            "lat": 35.51207,
            "lng": 112.851975
        },
        "ad_info": {
            "adcode": 140502,
            "province": "山西省",
            "city": "晋城市",
            "district": "城区"
        }
    },
    {
        "id": "8743661265604751837",
        "title": "公共厕所",
        "address": "山西省晋城市泽州县333省道东50米",
        "tel": "",
        "category": "基础设施:公共设施:公共厕所",
        "type": 0,
        "location": {
            "lat": 35.278769,
            "lng": 112.904215
        },
        "ad_info": {
            "adcode": 140525,
            "province": "山西省",
            "city": "晋城市",
            "district": "泽州县"
        }
    },
    {
        "id": "18145424877119833274",
        "title": "公共厕所",
        "address": "山西省晋城市高平市北大街与炎帝大道交叉口正北方向164米左右",
        "tel": "",
        "category": "基础设施:公共设施:公共厕所",
        "type": 0,
        "location": {
            "lat": 35.821182,
            "lng": 112.95964
        },
        "ad_info": {
            "adcode": 140581,
            "province": "山西省",
            "city": "晋城市",
            "district": "高平市"
        }
    },
    {
        "id": "416975843563160117",
        "title": "公共厕所",
        "address": "山西省晋城市城区东来巷与观巷交叉口正东方向20米左右",
        "tel": "",
        "category": "基础设施:公共设施:公共厕所",
        "type": 0,
        "location": {
            "lat": 35.501042,
            "lng": 112.843853
        },
        "ad_info": {
            "adcode": 140502,
            "province": "山西省",
            "city": "晋城市",
            "district": "城区"
        }
    },
    {
        "id": "4439526792302364740",
        "title": "公共厕所",
        "address": "山西省晋城市城区府衙街与西大街交叉口正西方向87米左右",
        "tel": "",
        "category": "基础设施:公共设施:公共厕所",
        "type": 0,
        "location": {
            "lat": 35.505627,
            "lng": 112.838725
        },
        "ad_info": {
            "adcode": 140502,
            "province": "山西省",
            "city": "晋城市",
            "district": "城区"
        }
    },
    {
        "id": "4645941409090803848",
        "title": "公共厕所",
        "address": "山西省晋城市城区东仓巷一化小区",
        "tel": "",
        "category": "基础设施:公共设施:公共厕所",
        "type": 0,
        "location": {
            "lat": 35.508208,
            "lng": 112.843723
        },
        "ad_info": {
            "adcode": 140502,
            "province": "山西省",
            "city": "晋城市",
            "district": "城区"
        }
    },
    {
        "id": "11753539680113910164",
        "title": "公共厕所",
        "address": "山西省晋城市城区泽州路华森小区B区西门(晋城一中北)",
        "tel": "",
        "category": "基础设施:公共设施:公共厕所",
        "type": 0,
        "location": {
            "lat": 35.51186,
            "lng": 112.850558
        },
        "ad_info": {
            "adcode": 140502,
            "province": "山西省",
            "city": "晋城市",
            "district": "城区"
        }
    },
    {
        "id": "7760717048484686514",
        "title": "公共厕所",
        "address": "山西省晋城市城区凤城路与凤台西街辅路交叉口南60米",
        "tel": "",
        "category": "基础设施:公共设施:公共厕所",
        "type": 0,
        "location": {
            "lat": 35.489374,
            "lng": 112.827832
        },
        "ad_info": {
            "adcode": 140502,
            "province": "山西省",
            "city": "晋城市",
            "district": "城区"
        }
    },
    {
        "id": "6901907679526314934",
        "title": "公共厕所",
        "address": "山西省晋城市泽州县红星东街与龙化路交叉口西北方向544米左右",
        "tel": "",
        "category": "基础设施:公共设施:公共厕所",
        "type": 0,
        "location": {
            "lat": 35.496038,
            "lng": 112.901988
        },
        "ad_info": {
            "adcode": 140525,
            "province": "山西省",
            "city": "晋城市",
            "district": "泽州县"
        }
    },
    {
        "id": "18106114813512107384",
        "title": "公共厕所",
        "address": "山西省晋城市阳城县兴仁巷与凤凰西街交叉口东北方向263米左右",
        "tel": "",
        "category": "基础设施:公共设施:公共厕所",
        "type": 0,
        "location": {
            "lat": 35.48405,
            "lng": 112.426262
        },
        "ad_info": {
            "adcode": 140522,
            "province": "山西省",
            "city": "晋城市",
            "district": "阳城县"
        }
    },
    {
        "id": "11990391438016992409",
        "title": "公共厕所",
        "address": "山西省晋城市沁水县331省道与S80陵侯高速交叉口西北200米",
        "tel": "",
        "category": "基础设施:公共设施:公共厕所",
        "type": 0,
        "location": {
            "lat": 35.712128,
            "lng": 112.590294
        },
        "ad_info": {
            "adcode": 140521,
            "province": "山西省",
            "city": "晋城市",
            "district": "沁水县"
        }
    },
    {
        "id": "15352459298353082062",
        "title": "公共厕所",
        "address": "山西省晋城市城区匠星街与西环路交叉口西北方向301米左右",
        "tel": "",
        "category": "基础设施:公共设施:公共厕所",
        "type": 0,
        "location": {
            "lat": 35.509984,
            "lng": 112.800588
        },
        "ad_info": {
            "adcode": 140502,
            "province": "山西省",
            "city": "晋城市",
            "district": "城区"
        }
    },
    {
        "id": "3539629905178956287",
        "title": "公共厕所",
        "address": "山西省晋城市高平市石河线与龙司线交叉口正东方向136米左右",
        "tel": "",
        "category": "基础设施:公共设施:公共厕所",
        "type": 0,
        "location": {
            "lat": 35.713988,
            "lng": 112.945703
        },
        "ad_info": {
            "adcode": 140581,
            "province": "山西省",
            "city": "晋城市",
            "district": "高平市"
        }
    },
    {
        "id": "15343453249504804276",
        "title": "公共厕所",
        "address": "山西省晋城市沁水县331省道南50米",
        "tel": "",
        "category": "基础设施:公共设施:公共厕所",
        "type": 0,
        "location": {
            "lat": 35.736792,
            "lng": 112.098466
        },
        "ad_info": {
            "adcode": 140521,
            "province": "山西省",
            "city": "晋城市",
            "district": "沁水县"
        }
    },
    {
        "id": "15870187702327255855",
        "title": "公共厕所",
        "address": "山西省晋城市阳城县三号隧道西200米",
        "tel": "",
        "category": "基础设施:公共设施:公共厕所",
        "type": 0,
        "location": {
            "lat": 35.517802,
            "lng": 112.585994
        },
        "ad_info": {
            "adcode": 140522,
            "province": "山西省",
            "city": "晋城市",
            "district": "阳城县"
        }
    },
    {
        "id": "3905717246668779913",
        "title": "公共厕所",
        "address": "山西省晋城市城区下东关后巷与东街场巷交叉口南80米",
        "tel": "",
        "category": "基础设施:公共设施:公共厕所",
        "type": 0,
        "location": {
            "lat": 35.506982,
            "lng": 112.845944
        },
        "ad_info": {
            "adcode": 140502,
            "province": "山西省",
            "city": "晋城市",
            "district": "城区"
        }
    },
    {
        "id": "13576936148485296515",
        "title": "公共厕所",
        "address": "山西省晋城市陵川县331省道西50米",
        "tel": "",
        "category": "基础设施:公共设施:公共厕所",
        "type": 0,
        "location": {
            "lat": 35.808029,
            "lng": 113.371308
        },
        "ad_info": {
            "adcode": 140524,
            "province": "山西省",
            "city": "晋城市",
            "district": "陵川县"
        }
    },
    {
        "id": "10825437923138350306",
        "title": "公共厕所",
        "address": "山西省晋城市阳城县凤城镇下芹小学西侧230米",
        "tel": "",
        "category": "基础设施:公共设施:公共厕所",
        "type": 0,
        "location": {
            "lat": 35.483434,
            "lng": 112.39855
        },
        "ad_info": {
            "adcode": 140522,
            "province": "山西省",
            "city": "晋城市",
            "district": "阳城县"
        }
    },
    {
        "id": "13273505842494250253",
        "title": "公共厕所",
        "address": "山西省晋城市高平市掘山村卫生室南侧290米",
        "tel": "",
        "category": "基础设施:公共设施:公共厕所",
        "type": 0,
        "location": {
            "lat": 35.914181,
            "lng": 112.855093
        },
        "ad_info": {
            "adcode": 140581,
            "province": "山西省",
            "city": "晋城市",
            "district": "高平市"
        }
    },
    {
        "id": "13836513897949272844",
        "title": "公共厕所",
        "address": "山西省晋城市阳城县索横线与阳云线交叉口西北方向241米左右",
        "tel": "",
        "category": "基础设施:公共设施:公共厕所",
        "type": 0,
        "location": {
            "lat": 35.415243,
            "lng": 112.16289
        },
        "ad_info": {
            "adcode": 140522,
            "province": "山西省",
            "city": "晋城市",
            "district": "阳城县"
        }
    },
    {
        "id": "12335505460226506033",
        "title": "公共厕所",
        "address": "山西省晋城市阳城县商业中街与商业西街交叉口正南方向262米左右",
        "tel": "",
        "category": "基础设施:公共设施:公共厕所",
        "type": 0,
        "location": {
            "lat": 35.476241,
            "lng": 112.569903
        },
        "ad_info": {
            "adcode": 140522,
            "province": "山西省",
            "city": "晋城市",
            "district": "阳城县"
        }
    },
    {
        "id": "2459928288868888256",
        "title": "公共厕所",
        "address": "山西省晋城市高平市双北线与建董线交叉口正东方向463米左右",
        "tel": "",
        "category": "基础设施:公共设施:公共厕所",
        "type": 0,
        "location": {
            "lat": 35.754174,
            "lng": 113.079456
        },
        "ad_info": {
            "adcode": 140581,
            "province": "山西省",
            "city": "晋城市",
            "district": "高平市"
        }
    },
    {
        "id": "2634562886026856257",
        "title": "公共厕所",
        "address": "山西省晋城市阳城县南城西街与南环西街交叉口正东方向47米左右",
        "tel": "",
        "category": "基础设施:公共设施:公共厕所",
        "type": 0,
        "location": {
            "lat": 35.480827,
            "lng": 112.424348
        },
        "ad_info": {
            "adcode": 140522,
            "province": "山西省",
            "city": "晋城市",
            "district": "阳城县"
        }
    },
    {
        "id": "11399637037919209273",
        "title": "公共厕所",
        "address": "山西省晋城市城区凤台西街辅路与前进路交叉口东北220米",
        "tel": "",
        "category": "基础设施:公共设施:公共厕所",
        "type": 0,
        "location": {
            "lat": 35.491147,
            "lng": 112.839465
        },
        "ad_info": {
            "adcode": 140502,
            "province": "山西省",
            "city": "晋城市",
            "district": "城区"
        }
    },
    {
        "id": "407061892281912418",
        "title": "公共厕所",
        "address": "山西省晋城市城区凤韩巷与晋韩街交叉口东南方向309米左右",
        "tel": "",
        "category": "基础设施:公共设施:公共厕所",
        "type": 0,
        "location": {
            "lat": 35.486908,
            "lng": 112.84102
        },
        "ad_info": {
            "adcode": 140502,
            "province": "山西省",
            "city": "晋城市",
            "district": "城区"
        }
    },
    {
        "id": "18026459165617772613",
        "title": "公共厕所",
        "address": "山西省晋城市泽州县碗周线与西二街交叉口东南方向1242米左右",
        "tel": "",
        "category": "基础设施:公共设施:公共厕所",
        "type": 0,
        "location": {
            "lat": 35.348325,
            "lng": 112.812911
        },
        "ad_info": {
            "adcode": 140525,
            "province": "山西省",
            "city": "晋城市",
            "district": "泽州县"
        }
    },
    {
        "id": "3741634522589086749",
        "title": "公共厕所",
        "address": "山西省晋城市城区下元巷与西安街交叉口东南方向104米左右",
        "tel": "",
        "category": "基础设施:公共设施:公共厕所",
        "type": 0,
        "location": {
            "lat": 35.50154,
            "lng": 112.839722
        },
        "ad_info": {
            "adcode": 140502,
            "province": "山西省",
            "city": "晋城市",
            "district": "城区"
        }
    },
    {
        "id": "18280600997713580229",
        "title": "公共厕所",
        "address": "山西省晋城市阳城县晋运高速与晋阳高速交叉口正东方向1175米左右",
        "tel": "",
        "category": "基础设施:公共设施:公共厕所",
        "type": 0,
        "location": {
            "lat": 35.498735,
            "lng": 112.569133
        },
        "ad_info": {
            "adcode": 140522,
            "province": "山西省",
            "city": "晋城市",
            "district": "阳城县"
        }
    },
    {
        "id": "5463296476199078694",
        "title": "晋城西服务区公共厕所",
        "address": "山西省晋城市泽州县晋城绕城高速晋城西服务区",
        "tel": "",
        "category": "基础设施:公共设施:公共厕所",
        "type": 0,
        "location": {
            "lat": 35.485252,
            "lng": 112.785606
        },
        "ad_info": {
            "adcode": 140525,
            "province": "山西省",
            "city": "晋城市",
            "district": "泽州县"
        }
    },
    {
        "id": "12295175296885119932",
        "title": "公共厕所",
        "address": "山西省晋城市阳城县八芹线与芦河东大道交叉口正东方向684米左右",
        "tel": "",
        "category": "基础设施:公共设施:公共厕所",
        "type": 0,
        "location": {
            "lat": 35.590937,
            "lng": 112.371754
        },
        "ad_info": {
            "adcode": 140522,
            "province": "山西省",
            "city": "晋城市",
            "district": "阳城县"
        }
    },
    {
        "id": "7085736626708182348",
        "title": "公共厕所",
        "address": "山西省晋城市城区匠星街与西环路交叉口东南方向758米左右",
        "tel": "",
        "category": "基础设施:公共设施:公共厕所",
        "type": 0,
        "location": {
            "lat": 35.503472,
            "lng": 112.808914
        },
        "ad_info": {
            "adcode": 140502,
            "province": "山西省",
            "city": "晋城市",
            "district": "城区"
        }
    },
    {
        "id": "4961499576180812682",
        "title": "公共厕所",
        "address": "山西省晋城市阳城县新坛路与通济路交叉口正西方向159米左右",
        "tel": "",
        "category": "基础设施:公共设施:公共厕所",
        "type": 0,
        "location": {
            "lat": 35.483741,
            "lng": 112.429397
        },
        "ad_info": {
            "adcode": 140522,
            "province": "山西省",
            "city": "晋城市",
            "district": "阳城县"
        }
    },
    {
        "id": "18135605739464537064",
        "title": "公共厕所",
        "address": "山西省晋城市沁水县331省道北50米",
        "tel": "",
        "category": "基础设施:公共设施:公共厕所",
        "type": 0,
        "location": {
            "lat": 35.706906,
            "lng": 112.604179
        },
        "ad_info": {
            "adcode": 140521,
            "province": "山西省",
            "city": "晋城市",
            "district": "沁水县"
        }
    },
    {
        "id": "9085270993154140372",
        "title": "公共厕所",
        "address": "山西省晋城市高平市太华路与迎宾路交叉口正东方向44米左右",
        "tel": "",
        "category": "基础设施:公共设施:公共厕所",
        "type": 0,
        "location": {
            "lat": 35.805698,
            "lng": 112.923078
        },
        "ad_info": {
            "adcode": 140581,
            "province": "山西省",
            "city": "晋城市",
            "district": "高平市"
        }
    },
    {
        "id": "6140890192954084971",
        "title": "公共厕所",
        "address": "山西省晋城市泽州县日凤线与陵沁线交叉口西南方向486米左右",
        "tel": "",
        "category": "基础设施:公共设施:公共厕所",
        "type": 0,
        "location": {
            "lat": 35.545719,
            "lng": 112.701426
        },
        "ad_info": {
            "adcode": 140525,
            "province": "山西省",
            "city": "晋城市",
            "district": "泽州县"
        }
    },
    {
        "id": "18173506259487874933",
        "title": "公共厕所",
        "address": "山西省晋城市阳城县八芹线与日凤线交叉口西北方向263米左右",
        "tel": "",
        "category": "基础设施:公共设施:公共厕所",
        "type": 0,
        "location": {
            "lat": 35.483767,
            "lng": 112.498151
        },
        "ad_info": {
            "adcode": 140522,
            "province": "山西省",
            "city": "晋城市",
            "district": "阳城县"
        }
    },
    {
        "id": "11327491593585148461",
        "title": "公共厕所",
        "address": "山西省晋城市城区东上庄立交桥与晋张线交叉口正南方向113米左右",
        "tel": "",
        "category": "基础设施:公共设施:公共厕所",
        "type": 0,
        "location": {
            "lat": 35.484903,
            "lng": 112.894616
        },
        "ad_info": {
            "adcode": 140502,
            "province": "山西省",
            "city": "晋城市",
            "district": "城区"
        }
    },
    {
        "id": "13608324687594217950",
        "title": "公共厕所",
        "address": "山西省晋城市高平市坪曲线与陈老线交叉口东北方向135米左右",
        "tel": "",
        "category": "基础设施:公共设施:公共厕所",
        "type": 0,
        "location": {
            "lat": 35.753609,
            "lng": 112.835577
        },
        "ad_info": {
            "adcode": 140581,
            "province": "山西省",
            "city": "晋城市",
            "district": "高平市"
        }
    },
    {
        "id": "10778958806413021274",
        "title": "公共厕所",
        "address": "山西省晋城市沁水县太行1号路沁水段支线与翼舜线交叉口西北方向1175米左右",
        "tel": "",
        "category": "基础设施:公共设施:公共厕所",
        "type": 0,
        "location": {
            "lat": 35.565732,
            "lng": 111.985691
        },
        "ad_info": {
            "adcode": 140521,
            "province": "山西省",
            "city": "晋城市",
            "district": "沁水县"
        }
    },
    {
        "id": "1105128881134862314",
        "title": "公共厕所",
        "address": "山西省晋城市城区畅安路与康平街交叉口正西方向1127米",
        "tel": "",
        "category": "基础设施:公共设施:公共厕所",
        "type": 0,
        "location": {
            "lat": 35.550202,
            "lng": 112.890957
        },
        "ad_info": {
            "adcode": 140502,
            "province": "山西省",
            "city": "晋城市",
            "district": "城区"
        }
    },
    {
        "id": "5914042619597902196",
        "title": "陵川服务区公共厕所",
        "address": "山西省晋城市陵川县陵川服务区附近",
        "tel": "",
        "category": "基础设施:公共设施:公共厕所",
        "type": 0,
        "location": {
            "lat": 35.745005,
            "lng": 113.278848
        },
        "ad_info": {
            "adcode": 140524,
            "province": "山西省",
            "city": "晋城市",
            "district": "陵川县"
        }
    },
    {
        "id": "4044454797350334112",
        "title": "公共厕所",
        "address": "山西省晋城市泽州县晋张线与珏山青莲寺旅游公路交叉口正东方向124米左右",
        "tel": "",
        "category": "基础设施:公共设施:公共厕所",
        "type": 0,
        "location": {
            "lat": 35.473579,
            "lng": 113.002145
        },
        "ad_info": {
            "adcode": 140525,
            "province": "山西省",
            "city": "晋城市",
            "district": "泽州县"
        }
    },
    {
        "id": "1068199887093208184",
        "title": "公共厕所",
        "address": "山西省晋城市高平市坪曲线与杨界线交叉口正东方向1807米左右",
        "tel": "",
        "category": "基础设施:公共设施:公共厕所",
        "type": 0,
        "location": {
            "lat": 35.765255,
            "lng": 112.887164
        },
        "ad_info": {
            "adcode": 140581,
            "province": "山西省",
            "city": "晋城市",
            "district": "高平市"
        }
    },
    {
        "id": "1882449914007445532",
        "title": "公共厕所",
        "address": "山西省晋城市城区西仓巷与西仓西巷交叉口西北方向182米左右",
        "tel": "",
        "category": "基础设施:公共设施:公共厕所",
        "type": 0,
        "location": {
            "lat": 35.508351,
            "lng": 112.836442
        },
        "ad_info": {
            "adcode": 140502,
            "province": "山西省",
            "city": "晋城市",
            "district": "城区"
        }
    },
    {
        "id": "12376760781890988540",
        "title": "公共厕所",
        "address": "山西省晋城市阳城县新阳西街辅路与新风路交叉口东南方向190米左右",
        "tel": "",
        "category": "基础设施:公共设施:公共厕所",
        "type": 0,
        "location": {
            "lat": 35.489124,
            "lng": 112.409477
        },
        "ad_info": {
            "adcode": 140522,
            "province": "山西省",
            "city": "晋城市",
            "district": "阳城县"
        }
    },
    {
        "id": "12771180056510682043",
        "title": "公共厕所",
        "address": "山西省晋城市城区东环辅路与畅安路交叉口西南方向411米左右",
        "tel": "",
        "category": "基础设施:公共设施:公共厕所",
        "type": 0,
        "location": {
            "lat": 35.565031,
            "lng": 112.902066
        },
        "ad_info": {
            "adcode": 140502,
            "province": "山西省",
            "city": "晋城市",
            "district": "城区"
        }
    },
    {
        "id": "6325099430494721691",
        "title": "公共厕所",
        "address": "山西省晋城市城区凤台东街与泽州路交叉口东南方向159米左右",
        "tel": "",
        "category": "基础设施:公共设施:公共厕所",
        "type": 0,
        "location": {
            "lat": 35.488933,
            "lng": 112.856233
        },
        "ad_info": {
            "adcode": 140502,
            "province": "山西省",
            "city": "晋城市",
            "district": "城区"
        }
    },
    {
        "id": "12148653423505209794",
        "title": "公共厕所",
        "address": "山西省晋城市城区春晖路与白水东街交叉口西南方向161米左右",
        "tel": "",
        "category": "基础设施:公共设施:公共厕所",
        "type": 0,
        "location": {
            "lat": 35.474727,
            "lng": 112.883477
        },
        "ad_info": {
            "adcode": 140502,
            "province": "山西省",
            "city": "晋城市",
            "district": "城区"
        }
    },
    {
        "id": "5463296476199078694",
        "title": "晋城西服务区公共厕所",
        "address": "山西省晋城市泽州县晋城绕城高速晋城西服务区",
        "tel": "",
        "category": "基础设施:公共设施:公共厕所",
        "type": 0,
        "location": {
            "lat": 35.485252,
            "lng": 112.785606
        },
        "ad_info": {
            "adcode": 140525,
            "province": "山西省",
            "city": "晋城市",
            "district": "泽州县"
        }
    },
    {
        "id": "12295175296885119932",
        "title": "公共厕所",
        "address": "山西省晋城市阳城县八芹线与芦河东大道交叉口正东方向684米左右",
        "tel": "",
        "category": "基础设施:公共设施:公共厕所",
        "type": 0,
        "location": {
            "lat": 35.590937,
            "lng": 112.371754
        },
        "ad_info": {
            "adcode": 140522,
            "province": "山西省",
            "city": "晋城市",
            "district": "阳城县"
        }
    },
    {
        "id": "7085736626708182348",
        "title": "公共厕所",
        "address": "山西省晋城市城区匠星街与西环路交叉口东南方向758米左右",
        "tel": "",
        "category": "基础设施:公共设施:公共厕所",
        "type": 0,
        "location": {
            "lat": 35.503472,
            "lng": 112.808914
        },
        "ad_info": {
            "adcode": 140502,
            "province": "山西省",
            "city": "晋城市",
            "district": "城区"
        }
    },
    {
        "id": "4961499576180812682",
        "title": "公共厕所",
        "address": "山西省晋城市阳城县新坛路与通济路交叉口正西方向159米左右",
        "tel": "",
        "category": "基础设施:公共设施:公共厕所",
        "type": 0,
        "location": {
            "lat": 35.483741,
            "lng": 112.429397
        },
        "ad_info": {
            "adcode": 140522,
            "province": "山西省",
            "city": "晋城市",
            "district": "阳城县"
        }
    },
    {
        "id": "18135605739464537064",
        "title": "公共厕所",
        "address": "山西省晋城市沁水县331省道北50米",
        "tel": "",
        "category": "基础设施:公共设施:公共厕所",
        "type": 0,
        "location": {
            "lat": 35.706906,
            "lng": 112.604179
        },
        "ad_info": {
            "adcode": 140521,
            "province": "山西省",
            "city": "晋城市",
            "district": "沁水县"
        }
    },
    {
        "id": "9085270993154140372",
        "title": "公共厕所",
        "address": "山西省晋城市高平市太华路与迎宾路交叉口正东方向44米左右",
        "tel": "",
        "category": "基础设施:公共设施:公共厕所",
        "type": 0,
        "location": {
            "lat": 35.805698,
            "lng": 112.923078
        },
        "ad_info": {
            "adcode": 140581,
            "province": "山西省",
            "city": "晋城市",
            "district": "高平市"
        }
    },
    {
        "id": "6140890192954084971",
        "title": "公共厕所",
        "address": "山西省晋城市泽州县日凤线与陵沁线交叉口西南方向486米左右",
        "tel": "",
        "category": "基础设施:公共设施:公共厕所",
        "type": 0,
        "location": {
            "lat": 35.545719,
            "lng": 112.701426
        },
        "ad_info": {
            "adcode": 140525,
            "province": "山西省",
            "city": "晋城市",
            "district": "泽州县"
        }
    },
    {
        "id": "18173506259487874933",
        "title": "公共厕所",
        "address": "山西省晋城市阳城县八芹线与日凤线交叉口西北方向263米左右",
        "tel": "",
        "category": "基础设施:公共设施:公共厕所",
        "type": 0,
        "location": {
            "lat": 35.483767,
            "lng": 112.498151
        },
        "ad_info": {
            "adcode": 140522,
            "province": "山西省",
            "city": "晋城市",
            "district": "阳城县"
        }
    },
    {
        "id": "11327491593585148461",
        "title": "公共厕所",
        "address": "山西省晋城市城区东上庄立交桥与晋张线交叉口正南方向113米左右",
        "tel": "",
        "category": "基础设施:公共设施:公共厕所",
        "type": 0,
        "location": {
            "lat": 35.484903,
            "lng": 112.894616
        },
        "ad_info": {
            "adcode": 140502,
            "province": "山西省",
            "city": "晋城市",
            "district": "城区"
        }
    },
    {
        "id": "13608324687594217950",
        "title": "公共厕所",
        "address": "山西省晋城市高平市坪曲线与陈老线交叉口东北方向135米左右",
        "tel": "",
        "category": "基础设施:公共设施:公共厕所",
        "type": 0,
        "location": {
            "lat": 35.753609,
            "lng": 112.835577
        },
        "ad_info": {
            "adcode": 140581,
            "province": "山西省",
            "city": "晋城市",
            "district": "高平市"
        }
    },
    {
        "id": "10778958806413021274",
        "title": "公共厕所",
        "address": "山西省晋城市沁水县太行1号路沁水段支线与翼舜线交叉口西北方向1175米左右",
        "tel": "",
        "category": "基础设施:公共设施:公共厕所",
        "type": 0,
        "location": {
            "lat": 35.565732,
            "lng": 111.985691
        },
        "ad_info": {
            "adcode": 140521,
            "province": "山西省",
            "city": "晋城市",
            "district": "沁水县"
        }
    },
    {
        "id": "1105128881134862314",
        "title": "公共厕所",
        "address": "山西省晋城市城区畅安路与康平街交叉口正西方向1127米",
        "tel": "",
        "category": "基础设施:公共设施:公共厕所",
        "type": 0,
        "location": {
            "lat": 35.550202,
            "lng": 112.890957
        },
        "ad_info": {
            "adcode": 140502,
            "province": "山西省",
            "city": "晋城市",
            "district": "城区"
        }
    },
    {
        "id": "5914042619597902196",
        "title": "陵川服务区公共厕所",
        "address": "山西省晋城市陵川县陵川服务区附近",
        "tel": "",
        "category": "基础设施:公共设施:公共厕所",
        "type": 0,
        "location": {
            "lat": 35.745005,
            "lng": 113.278848
        },
        "ad_info": {
            "adcode": 140524,
            "province": "山西省",
            "city": "晋城市",
            "district": "陵川县"
        }
    },
    {
        "id": "4044454797350334112",
        "title": "公共厕所",
        "address": "山西省晋城市泽州县晋张线与珏山青莲寺旅游公路交叉口正东方向124米左右",
        "tel": "",
        "category": "基础设施:公共设施:公共厕所",
        "type": 0,
        "location": {
            "lat": 35.473579,
            "lng": 113.002145
        },
        "ad_info": {
            "adcode": 140525,
            "province": "山西省",
            "city": "晋城市",
            "district": "泽州县"
        }
    },
    {
        "id": "1068199887093208184",
        "title": "公共厕所",
        "address": "山西省晋城市高平市坪曲线与杨界线交叉口正东方向1807米左右",
        "tel": "",
        "category": "基础设施:公共设施:公共厕所",
        "type": 0,
        "location": {
            "lat": 35.765255,
            "lng": 112.887164
        },
        "ad_info": {
            "adcode": 140581,
            "province": "山西省",
            "city": "晋城市",
            "district": "高平市"
        }
    },
    {
        "id": "1882449914007445532",
        "title": "公共厕所",
        "address": "山西省晋城市城区西仓巷与西仓西巷交叉口西北方向182米左右",
        "tel": "",
        "category": "基础设施:公共设施:公共厕所",
        "type": 0,
        "location": {
            "lat": 35.508351,
            "lng": 112.836442
        },
        "ad_info": {
            "adcode": 140502,
            "province": "山西省",
            "city": "晋城市",
            "district": "城区"
        }
    },
    {
        "id": "12376760781890988540",
        "title": "公共厕所",
        "address": "山西省晋城市阳城县新阳西街辅路与新风路交叉口东南方向190米左右",
        "tel": "",
        "category": "基础设施:公共设施:公共厕所",
        "type": 0,
        "location": {
            "lat": 35.489124,
            "lng": 112.409477
        },
        "ad_info": {
            "adcode": 140522,
            "province": "山西省",
            "city": "晋城市",
            "district": "阳城县"
        }
    },
    {
        "id": "12771180056510682043",
        "title": "公共厕所",
        "address": "山西省晋城市城区东环辅路与畅安路交叉口西南方向411米左右",
        "tel": "",
        "category": "基础设施:公共设施:公共厕所",
        "type": 0,
        "location": {
            "lat": 35.565031,
            "lng": 112.902066
        },
        "ad_info": {
            "adcode": 140502,
            "province": "山西省",
            "city": "晋城市",
            "district": "城区"
        }
    },
    {
        "id": "6325099430494721691",
        "title": "公共厕所",
        "address": "山西省晋城市城区凤台东街与泽州路交叉口东南方向159米左右",
        "tel": "",
        "category": "基础设施:公共设施:公共厕所",
        "type": 0,
        "location": {
            "lat": 35.488933,
            "lng": 112.856233
        },
        "ad_info": {
            "adcode": 140502,
            "province": "山西省",
            "city": "晋城市",
            "district": "城区"
        }
    },
    {
        "id": "12148653423505209794",
        "title": "公共厕所",
        "address": "山西省晋城市城区春晖路与白水东街交叉口西南方向161米左右",
        "tel": "",
        "category": "基础设施:公共设施:公共厕所",
        "type": 0,
        "location": {
            "lat": 35.474727,
            "lng": 112.883477
        },
        "ad_info": {
            "adcode": 140502,
            "province": "山西省",
            "city": "晋城市",
            "district": "城区"
        }
    },
    {
        "id": "5463296476199078694",
        "title": "晋城西服务区公共厕所",
        "address": "山西省晋城市泽州县晋城绕城高速晋城西服务区",
        "tel": "",
        "category": "基础设施:公共设施:公共厕所",
        "type": 0,
        "location": {
            "lat": 35.485252,
            "lng": 112.785606
        },
        "ad_info": {
            "adcode": 140525,
            "province": "山西省",
            "city": "晋城市",
            "district": "泽州县"
        }
    },
    {
        "id": "12295175296885119932",
        "title": "公共厕所",
        "address": "山西省晋城市阳城县八芹线与芦河东大道交叉口正东方向684米左右",
        "tel": "",
        "category": "基础设施:公共设施:公共厕所",
        "type": 0,
        "location": {
            "lat": 35.590937,
            "lng": 112.371754
        },
        "ad_info": {
            "adcode": 140522,
            "province": "山西省",
            "city": "晋城市",
            "district": "阳城县"
        }
    },
    {
        "id": "7085736626708182348",
        "title": "公共厕所",
        "address": "山西省晋城市城区匠星街与西环路交叉口东南方向758米左右",
        "tel": "",
        "category": "基础设施:公共设施:公共厕所",
        "type": 0,
        "location": {
            "lat": 35.503472,
            "lng": 112.808914
        },
        "ad_info": {
            "adcode": 140502,
            "province": "山西省",
            "city": "晋城市",
            "district": "城区"
        }
    },
    {
        "id": "4961499576180812682",
        "title": "公共厕所",
        "address": "山西省晋城市阳城县新坛路与通济路交叉口正西方向159米左右",
        "tel": "",
        "category": "基础设施:公共设施:公共厕所",
        "type": 0,
        "location": {
            "lat": 35.483741,
            "lng": 112.429397
        },
        "ad_info": {
            "adcode": 140522,
            "province": "山西省",
            "city": "晋城市",
            "district": "阳城县"
        }
    },
    {
        "id": "18135605739464537064",
        "title": "公共厕所",
        "address": "山西省晋城市沁水县331省道北50米",
        "tel": "",
        "category": "基础设施:公共设施:公共厕所",
        "type": 0,
        "location": {
            "lat": 35.706906,
            "lng": 112.604179
        },
        "ad_info": {
            "adcode": 140521,
            "province": "山西省",
            "city": "晋城市",
            "district": "沁水县"
        }
    },
    {
        "id": "9085270993154140372",
        "title": "公共厕所",
        "address": "山西省晋城市高平市太华路与迎宾路交叉口正东方向44米左右",
        "tel": "",
        "category": "基础设施:公共设施:公共厕所",
        "type": 0,
        "location": {
            "lat": 35.805698,
            "lng": 112.923078
        },
        "ad_info": {
            "adcode": 140581,
            "province": "山西省",
            "city": "晋城市",
            "district": "高平市"
        }
    },
    {
        "id": "6140890192954084971",
        "title": "公共厕所",
        "address": "山西省晋城市泽州县日凤线与陵沁线交叉口西南方向486米左右",
        "tel": "",
        "category": "基础设施:公共设施:公共厕所",
        "type": 0,
        "location": {
            "lat": 35.545719,
            "lng": 112.701426
        },
        "ad_info": {
            "adcode": 140525,
            "province": "山西省",
            "city": "晋城市",
            "district": "泽州县"
        }
    },
    {
        "id": "18173506259487874933",
        "title": "公共厕所",
        "address": "山西省晋城市阳城县八芹线与日凤线交叉口西北方向263米左右",
        "tel": "",
        "category": "基础设施:公共设施:公共厕所",
        "type": 0,
        "location": {
            "lat": 35.483767,
            "lng": 112.498151
        },
        "ad_info": {
            "adcode": 140522,
            "province": "山西省",
            "city": "晋城市",
            "district": "阳城县"
        }
    },
    {
        "id": "11327491593585148461",
        "title": "公共厕所",
        "address": "山西省晋城市城区东上庄立交桥与晋张线交叉口正南方向113米左右",
        "tel": "",
        "category": "基础设施:公共设施:公共厕所",
        "type": 0,
        "location": {
            "lat": 35.484903,
            "lng": 112.894616
        },
        "ad_info": {
            "adcode": 140502,
            "province": "山西省",
            "city": "晋城市",
            "district": "城区"
        }
    },
    {
        "id": "13608324687594217950",
        "title": "公共厕所",
        "address": "山西省晋城市高平市坪曲线与陈老线交叉口东北方向135米左右",
        "tel": "",
        "category": "基础设施:公共设施:公共厕所",
        "type": 0,
        "location": {
            "lat": 35.753609,
            "lng": 112.835577
        },
        "ad_info": {
            "adcode": 140581,
            "province": "山西省",
            "city": "晋城市",
            "district": "高平市"
        }
    },
    {
        "id": "10778958806413021274",
        "title": "公共厕所",
        "address": "山西省晋城市沁水县太行1号路沁水段支线与翼舜线交叉口西北方向1175米左右",
        "tel": "",
        "category": "基础设施:公共设施:公共厕所",
        "type": 0,
        "location": {
            "lat": 35.565732,
            "lng": 111.985691
        },
        "ad_info": {
            "adcode": 140521,
            "province": "山西省",
            "city": "晋城市",
            "district": "沁水县"
        }
    },
    {
        "id": "1105128881134862314",
        "title": "公共厕所",
        "address": "山西省晋城市城区畅安路与康平街交叉口正西方向1127米",
        "tel": "",
        "category": "基础设施:公共设施:公共厕所",
        "type": 0,
        "location": {
            "lat": 35.550202,
            "lng": 112.890957
        },
        "ad_info": {
            "adcode": 140502,
            "province": "山西省",
            "city": "晋城市",
            "district": "城区"
        }
    },
    {
        "id": "5914042619597902196",
        "title": "陵川服务区公共厕所",
        "address": "山西省晋城市陵川县陵川服务区附近",
        "tel": "",
        "category": "基础设施:公共设施:公共厕所",
        "type": 0,
        "location": {
            "lat": 35.745005,
            "lng": 113.278848
        },
        "ad_info": {
            "adcode": 140524,
            "province": "山西省",
            "city": "晋城市",
            "district": "陵川县"
        }
    },
    {
        "id": "4044454797350334112",
        "title": "公共厕所",
        "address": "山西省晋城市泽州县晋张线与珏山青莲寺旅游公路交叉口正东方向124米左右",
        "tel": "",
        "category": "基础设施:公共设施:公共厕所",
        "type": 0,
        "location": {
            "lat": 35.473579,
            "lng": 113.002145
        },
        "ad_info": {
            "adcode": 140525,
            "province": "山西省",
            "city": "晋城市",
            "district": "泽州县"
        }
    },
    {
        "id": "1068199887093208184",
        "title": "公共厕所",
        "address": "山西省晋城市高平市坪曲线与杨界线交叉口正东方向1807米左右",
        "tel": "",
        "category": "基础设施:公共设施:公共厕所",
        "type": 0,
        "location": {
            "lat": 35.765255,
            "lng": 112.887164
        },
        "ad_info": {
            "adcode": 140581,
            "province": "山西省",
            "city": "晋城市",
            "district": "高平市"
        }
    },
    {
        "id": "1882449914007445532",
        "title": "公共厕所",
        "address": "山西省晋城市城区西仓巷与西仓西巷交叉口西北方向182米左右",
        "tel": "",
        "category": "基础设施:公共设施:公共厕所",
        "type": 0,
        "location": {
            "lat": 35.508351,
            "lng": 112.836442
        },
        "ad_info": {
            "adcode": 140502,
            "province": "山西省",
            "city": "晋城市",
            "district": "城区"
        }
    },
    {
        "id": "12376760781890988540",
        "title": "公共厕所",
        "address": "山西省晋城市阳城县新阳西街辅路与新风路交叉口东南方向190米左右",
        "tel": "",
        "category": "基础设施:公共设施:公共厕所",
        "type": 0,
        "location": {
            "lat": 35.489124,
            "lng": 112.409477
        },
        "ad_info": {
            "adcode": 140522,
            "province": "山西省",
            "city": "晋城市",
            "district": "阳城县"
        }
    },
    {
        "id": "12771180056510682043",
        "title": "公共厕所",
        "address": "山西省晋城市城区东环辅路与畅安路交叉口西南方向411米左右",
        "tel": "",
        "category": "基础设施:公共设施:公共厕所",
        "type": 0,
        "location": {
            "lat": 35.565031,
            "lng": 112.902066
        },
        "ad_info": {
            "adcode": 140502,
            "province": "山西省",
            "city": "晋城市",
            "district": "城区"
        }
    },
    {
        "id": "6325099430494721691",
        "title": "公共厕所",
        "address": "山西省晋城市城区凤台东街与泽州路交叉口东南方向159米左右",
        "tel": "",
        "category": "基础设施:公共设施:公共厕所",
        "type": 0,
        "location": {
            "lat": 35.488933,
            "lng": 112.856233
        },
        "ad_info": {
            "adcode": 140502,
            "province": "山西省",
            "city": "晋城市",
            "district": "城区"
        }
    },
    {
        "id": "12148653423505209794",
        "title": "公共厕所",
        "address": "山西省晋城市城区春晖路与白水东街交叉口西南方向161米左右",
        "tel": "",
        "category": "基础设施:公共设施:公共厕所",
        "type": 0,
        "location": {
            "lat": 35.474727,
            "lng": 112.883477
        },
        "ad_info": {
            "adcode": 140502,
            "province": "山西省",
            "city": "晋城市",
            "district": "城区"
        }
    },
    {
        "id": "5463296476199078694",
        "title": "晋城西服务区公共厕所",
        "address": "山西省晋城市泽州县晋城绕城高速晋城西服务区",
        "tel": "",
        "category": "基础设施:公共设施:公共厕所",
        "type": 0,
        "location": {
            "lat": 35.485252,
            "lng": 112.785606
        },
        "ad_info": {
            "adcode": 140525,
            "province": "山西省",
            "city": "晋城市",
            "district": "泽州县"
        }
    },
    {
        "id": "12295175296885119932",
        "title": "公共厕所",
        "address": "山西省晋城市阳城县八芹线与芦河东大道交叉口正东方向684米左右",
        "tel": "",
        "category": "基础设施:公共设施:公共厕所",
        "type": 0,
        "location": {
            "lat": 35.590937,
            "lng": 112.371754
        },
        "ad_info": {
            "adcode": 140522,
            "province": "山西省",
            "city": "晋城市",
            "district": "阳城县"
        }
    },
    {
        "id": "7085736626708182348",
        "title": "公共厕所",
        "address": "山西省晋城市城区匠星街与西环路交叉口东南方向758米左右",
        "tel": "",
        "category": "基础设施:公共设施:公共厕所",
        "type": 0,
        "location": {
            "lat": 35.503472,
            "lng": 112.808914
        },
        "ad_info": {
            "adcode": 140502,
            "province": "山西省",
            "city": "晋城市",
            "district": "城区"
        }
    },
    {
        "id": "4961499576180812682",
        "title": "公共厕所",
        "address": "山西省晋城市阳城县新坛路与通济路交叉口正西方向159米左右",
        "tel": "",
        "category": "基础设施:公共设施:公共厕所",
        "type": 0,
        "location": {
            "lat": 35.483741,
            "lng": 112.429397
        },
        "ad_info": {
            "adcode": 140522,
            "province": "山西省",
            "city": "晋城市",
            "district": "阳城县"
        }
    },
    {
        "id": "18135605739464537064",
        "title": "公共厕所",
        "address": "山西省晋城市沁水县331省道北50米",
        "tel": "",
        "category": "基础设施:公共设施:公共厕所",
        "type": 0,
        "location": {
            "lat": 35.706906,
            "lng": 112.604179
        },
        "ad_info": {
            "adcode": 140521,
            "province": "山西省",
            "city": "晋城市",
            "district": "沁水县"
        }
    },
    {
        "id": "9085270993154140372",
        "title": "公共厕所",
        "address": "山西省晋城市高平市太华路与迎宾路交叉口正东方向44米左右",
        "tel": "",
        "category": "基础设施:公共设施:公共厕所",
        "type": 0,
        "location": {
            "lat": 35.805698,
            "lng": 112.923078
        },
        "ad_info": {
            "adcode": 140581,
            "province": "山西省",
            "city": "晋城市",
            "district": "高平市"
        }
    },
    {
        "id": "6140890192954084971",
        "title": "公共厕所",
        "address": "山西省晋城市泽州县日凤线与陵沁线交叉口西南方向486米左右",
        "tel": "",
        "category": "基础设施:公共设施:公共厕所",
        "type": 0,
        "location": {
            "lat": 35.545719,
            "lng": 112.701426
        },
        "ad_info": {
            "adcode": 140525,
            "province": "山西省",
            "city": "晋城市",
            "district": "泽州县"
        }
    },
    {
        "id": "18173506259487874933",
        "title": "公共厕所",
        "address": "山西省晋城市阳城县八芹线与日凤线交叉口西北方向263米左右",
        "tel": "",
        "category": "基础设施:公共设施:公共厕所",
        "type": 0,
        "location": {
            "lat": 35.483767,
            "lng": 112.498151
        },
        "ad_info": {
            "adcode": 140522,
            "province": "山西省",
            "city": "晋城市",
            "district": "阳城县"
        }
    },
    {
        "id": "11327491593585148461",
        "title": "公共厕所",
        "address": "山西省晋城市城区东上庄立交桥与晋张线交叉口正南方向113米左右",
        "tel": "",
        "category": "基础设施:公共设施:公共厕所",
        "type": 0,
        "location": {
            "lat": 35.484903,
            "lng": 112.894616
        },
        "ad_info": {
            "adcode": 140502,
            "province": "山西省",
            "city": "晋城市",
            "district": "城区"
        }
    },
    {
        "id": "13608324687594217950",
        "title": "公共厕所",
        "address": "山西省晋城市高平市坪曲线与陈老线交叉口东北方向135米左右",
        "tel": "",
        "category": "基础设施:公共设施:公共厕所",
        "type": 0,
        "location": {
            "lat": 35.753609,
            "lng": 112.835577
        },
        "ad_info": {
            "adcode": 140581,
            "province": "山西省",
            "city": "晋城市",
            "district": "高平市"
        }
    },
    {
        "id": "10778958806413021274",
        "title": "公共厕所",
        "address": "山西省晋城市沁水县太行1号路沁水段支线与翼舜线交叉口西北方向1175米左右",
        "tel": "",
        "category": "基础设施:公共设施:公共厕所",
        "type": 0,
        "location": {
            "lat": 35.565732,
            "lng": 111.985691
        },
        "ad_info": {
            "adcode": 140521,
            "province": "山西省",
            "city": "晋城市",
            "district": "沁水县"
        }
    },
    {
        "id": "1105128881134862314",
        "title": "公共厕所",
        "address": "山西省晋城市城区畅安路与康平街交叉口正西方向1127米",
        "tel": "",
        "category": "基础设施:公共设施:公共厕所",
        "type": 0,
        "location": {
            "lat": 35.550202,
            "lng": 112.890957
        },
        "ad_info": {
            "adcode": 140502,
            "province": "山西省",
            "city": "晋城市",
            "district": "城区"
        }
    },
    {
        "id": "5914042619597902196",
        "title": "陵川服务区公共厕所",
        "address": "山西省晋城市陵川县陵川服务区附近",
        "tel": "",
        "category": "基础设施:公共设施:公共厕所",
        "type": 0,
        "location": {
            "lat": 35.745005,
            "lng": 113.278848
        },
        "ad_info": {
            "adcode": 140524,
            "province": "山西省",
            "city": "晋城市",
            "district": "陵川县"
        }
    },
    {
        "id": "4044454797350334112",
        "title": "公共厕所",
        "address": "山西省晋城市泽州县晋张线与珏山青莲寺旅游公路交叉口正东方向124米左右",
        "tel": "",
        "category": "基础设施:公共设施:公共厕所",
        "type": 0,
        "location": {
            "lat": 35.473579,
            "lng": 113.002145
        },
        "ad_info": {
            "adcode": 140525,
            "province": "山西省",
            "city": "晋城市",
            "district": "泽州县"
        }
    },
    {
        "id": "1068199887093208184",
        "title": "公共厕所",
        "address": "山西省晋城市高平市坪曲线与杨界线交叉口正东方向1807米左右",
        "tel": "",
        "category": "基础设施:公共设施:公共厕所",
        "type": 0,
        "location": {
            "lat": 35.765255,
            "lng": 112.887164
        },
        "ad_info": {
            "adcode": 140581,
            "province": "山西省",
            "city": "晋城市",
            "district": "高平市"
        }
    },
    {
        "id": "1882449914007445532",
        "title": "公共厕所",
        "address": "山西省晋城市城区西仓巷与西仓西巷交叉口西北方向182米左右",
        "tel": "",
        "category": "基础设施:公共设施:公共厕所",
        "type": 0,
        "location": {
            "lat": 35.508351,
            "lng": 112.836442
        },
        "ad_info": {
            "adcode": 140502,
            "province": "山西省",
            "city": "晋城市",
            "district": "城区"
        }
    },
    {
        "id": "12376760781890988540",
        "title": "公共厕所",
        "address": "山西省晋城市阳城县新阳西街辅路与新风路交叉口东南方向190米左右",
        "tel": "",
        "category": "基础设施:公共设施:公共厕所",
        "type": 0,
        "location": {
            "lat": 35.489124,
            "lng": 112.409477
        },
        "ad_info": {
            "adcode": 140522,
            "province": "山西省",
            "city": "晋城市",
            "district": "阳城县"
        }
    },
    {
        "id": "12771180056510682043",
        "title": "公共厕所",
        "address": "山西省晋城市城区东环辅路与畅安路交叉口西南方向411米左右",
        "tel": "",
        "category": "基础设施:公共设施:公共厕所",
        "type": 0,
        "location": {
            "lat": 35.565031,
            "lng": 112.902066
        },
        "ad_info": {
            "adcode": 140502,
            "province": "山西省",
            "city": "晋城市",
            "district": "城区"
        }
    },
    {
        "id": "6325099430494721691",
        "title": "公共厕所",
        "address": "山西省晋城市城区凤台东街与泽州路交叉口东南方向159米左右",
        "tel": "",
        "category": "基础设施:公共设施:公共厕所",
        "type": 0,
        "location": {
            "lat": 35.488933,
            "lng": 112.856233
        },
        "ad_info": {
            "adcode": 140502,
            "province": "山西省",
            "city": "晋城市",
            "district": "城区"
        }
    },
    {
        "id": "12148653423505209794",
        "title": "公共厕所",
        "address": "山西省晋城市城区春晖路与白水东街交叉口西南方向161米左右",
        "tel": "",
        "category": "基础设施:公共设施:公共厕所",
        "type": 0,
        "location": {
            "lat": 35.474727,
            "lng": 112.883477
        },
        "ad_info": {
            "adcode": 140502,
            "province": "山西省",
            "city": "晋城市",
            "district": "城区"
        }
    },
    {
        "id": "5463296476199078694",
        "title": "晋城西服务区公共厕所",
        "address": "山西省晋城市泽州县晋城绕城高速晋城西服务区",
        "tel": "",
        "category": "基础设施:公共设施:公共厕所",
        "type": 0,
        "location": {
            "lat": 35.485252,
            "lng": 112.785606
        },
        "ad_info": {
            "adcode": 140525,
            "province": "山西省",
            "city": "晋城市",
            "district": "泽州县"
        }
    },
    {
        "id": "12295175296885119932",
        "title": "公共厕所",
        "address": "山西省晋城市阳城县八芹线与芦河东大道交叉口正东方向684米左右",
        "tel": "",
        "category": "基础设施:公共设施:公共厕所",
        "type": 0,
        "location": {
            "lat": 35.590937,
            "lng": 112.371754
        },
        "ad_info": {
            "adcode": 140522,
            "province": "山西省",
            "city": "晋城市",
            "district": "阳城县"
        }
    },
    {
        "id": "7085736626708182348",
        "title": "公共厕所",
        "address": "山西省晋城市城区匠星街与西环路交叉口东南方向758米左右",
        "tel": "",
        "category": "基础设施:公共设施:公共厕所",
        "type": 0,
        "location": {
            "lat": 35.503472,
            "lng": 112.808914
        },
        "ad_info": {
            "adcode": 140502,
            "province": "山西省",
            "city": "晋城市",
            "district": "城区"
        }
    },
    {
        "id": "4961499576180812682",
        "title": "公共厕所",
        "address": "山西省晋城市阳城县新坛路与通济路交叉口正西方向159米左右",
        "tel": "",
        "category": "基础设施:公共设施:公共厕所",
        "type": 0,
        "location": {
            "lat": 35.483741,
            "lng": 112.429397
        },
        "ad_info": {
            "adcode": 140522,
            "province": "山西省",
            "city": "晋城市",
            "district": "阳城县"
        }
    },
    {
        "id": "18135605739464537064",
        "title": "公共厕所",
        "address": "山西省晋城市沁水县331省道北50米",
        "tel": "",
        "category": "基础设施:公共设施:公共厕所",
        "type": 0,
        "location": {
            "lat": 35.706906,
            "lng": 112.604179
        },
        "ad_info": {
            "adcode": 140521,
            "province": "山西省",
            "city": "晋城市",
            "district": "沁水县"
        }
    },
    {
        "id": "9085270993154140372",
        "title": "公共厕所",
        "address": "山西省晋城市高平市太华路与迎宾路交叉口正东方向44米左右",
        "tel": "",
        "category": "基础设施:公共设施:公共厕所",
        "type": 0,
        "location": {
            "lat": 35.805698,
            "lng": 112.923078
        },
        "ad_info": {
            "adcode": 140581,
            "province": "山西省",
            "city": "晋城市",
            "district": "高平市"
        }
    },
    {
        "id": "6140890192954084971",
        "title": "公共厕所",
        "address": "山西省晋城市泽州县日凤线与陵沁线交叉口西南方向486米左右",
        "tel": "",
        "category": "基础设施:公共设施:公共厕所",
        "type": 0,
        "location": {
            "lat": 35.545719,
            "lng": 112.701426
        },
        "ad_info": {
            "adcode": 140525,
            "province": "山西省",
            "city": "晋城市",
            "district": "泽州县"
        }
    },
    {
        "id": "18173506259487874933",
        "title": "公共厕所",
        "address": "山西省晋城市阳城县八芹线与日凤线交叉口西北方向263米左右",
        "tel": "",
        "category": "基础设施:公共设施:公共厕所",
        "type": 0,
        "location": {
            "lat": 35.483767,
            "lng": 112.498151
        },
        "ad_info": {
            "adcode": 140522,
            "province": "山西省",
            "city": "晋城市",
            "district": "阳城县"
        }
    },
    {
        "id": "11327491593585148461",
        "title": "公共厕所",
        "address": "山西省晋城市城区东上庄立交桥与晋张线交叉口正南方向113米左右",
        "tel": "",
        "category": "基础设施:公共设施:公共厕所",
        "type": 0,
        "location": {
            "lat": 35.484903,
            "lng": 112.894616
        },
        "ad_info": {
            "adcode": 140502,
            "province": "山西省",
            "city": "晋城市",
            "district": "城区"
        }
    },
    {
        "id": "13608324687594217950",
        "title": "公共厕所",
        "address": "山西省晋城市高平市坪曲线与陈老线交叉口东北方向135米左右",
        "tel": "",
        "category": "基础设施:公共设施:公共厕所",
        "type": 0,
        "location": {
            "lat": 35.753609,
            "lng": 112.835577
        },
        "ad_info": {
            "adcode": 140581,
            "province": "山西省",
            "city": "晋城市",
            "district": "高平市"
        }
    },
    {
        "id": "10778958806413021274",
        "title": "公共厕所",
        "address": "山西省晋城市沁水县太行1号路沁水段支线与翼舜线交叉口西北方向1175米左右",
        "tel": "",
        "category": "基础设施:公共设施:公共厕所",
        "type": 0,
        "location": {
            "lat": 35.565732,
            "lng": 111.985691
        },
        "ad_info": {
            "adcode": 140521,
            "province": "山西省",
            "city": "晋城市",
            "district": "沁水县"
        }
    },
    {
        "id": "1105128881134862314",
        "title": "公共厕所",
        "address": "山西省晋城市城区畅安路与康平街交叉口正西方向1127米",
        "tel": "",
        "category": "基础设施:公共设施:公共厕所",
        "type": 0,
        "location": {
            "lat": 35.550202,
            "lng": 112.890957
        },
        "ad_info": {
            "adcode": 140502,
            "province": "山西省",
            "city": "晋城市",
            "district": "城区"
        }
    },
    {
        "id": "5914042619597902196",
        "title": "陵川服务区公共厕所",
        "address": "山西省晋城市陵川县陵川服务区附近",
        "tel": "",
        "category": "基础设施:公共设施:公共厕所",
        "type": 0,
        "location": {
            "lat": 35.745005,
            "lng": 113.278848
        },
        "ad_info": {
            "adcode": 140524,
            "province": "山西省",
            "city": "晋城市",
            "district": "陵川县"
        }
    },
    {
        "id": "4044454797350334112",
        "title": "公共厕所",
        "address": "山西省晋城市泽州县晋张线与珏山青莲寺旅游公路交叉口正东方向124米左右",
        "tel": "",
        "category": "基础设施:公共设施:公共厕所",
        "type": 0,
        "location": {
            "lat": 35.473579,
            "lng": 113.002145
        },
        "ad_info": {
            "adcode": 140525,
            "province": "山西省",
            "city": "晋城市",
            "district": "泽州县"
        }
    },
    {
        "id": "1068199887093208184",
        "title": "公共厕所",
        "address": "山西省晋城市高平市坪曲线与杨界线交叉口正东方向1807米左右",
        "tel": "",
        "category": "基础设施:公共设施:公共厕所",
        "type": 0,
        "location": {
            "lat": 35.765255,
            "lng": 112.887164
        },
        "ad_info": {
            "adcode": 140581,
            "province": "山西省",
            "city": "晋城市",
            "district": "高平市"
        }
    },
    {
        "id": "1882449914007445532",
        "title": "公共厕所",
        "address": "山西省晋城市城区西仓巷与西仓西巷交叉口西北方向182米左右",
        "tel": "",
        "category": "基础设施:公共设施:公共厕所",
        "type": 0,
        "location": {
            "lat": 35.508351,
            "lng": 112.836442
        },
        "ad_info": {
            "adcode": 140502,
            "province": "山西省",
            "city": "晋城市",
            "district": "城区"
        }
    },
    {
        "id": "12376760781890988540",
        "title": "公共厕所",
        "address": "山西省晋城市阳城县新阳西街辅路与新风路交叉口东南方向190米左右",
        "tel": "",
        "category": "基础设施:公共设施:公共厕所",
        "type": 0,
        "location": {
            "lat": 35.489124,
            "lng": 112.409477
        },
        "ad_info": {
            "adcode": 140522,
            "province": "山西省",
            "city": "晋城市",
            "district": "阳城县"
        }
    },
    {
        "id": "12771180056510682043",
        "title": "公共厕所",
        "address": "山西省晋城市城区东环辅路与畅安路交叉口西南方向411米左右",
        "tel": "",
        "category": "基础设施:公共设施:公共厕所",
        "type": 0,
        "location": {
            "lat": 35.565031,
            "lng": 112.902066
        },
        "ad_info": {
            "adcode": 140502,
            "province": "山西省",
            "city": "晋城市",
            "district": "城区"
        }
    },
    {
        "id": "6325099430494721691",
        "title": "公共厕所",
        "address": "山西省晋城市城区凤台东街与泽州路交叉口东南方向159米左右",
        "tel": "",
        "category": "基础设施:公共设施:公共厕所",
        "type": 0,
        "location": {
            "lat": 35.488933,
            "lng": 112.856233
        },
        "ad_info": {
            "adcode": 140502,
            "province": "山西省",
            "city": "晋城市",
            "district": "城区"
        }
    },
    {
        "id": "12148653423505209794",
        "title": "公共厕所",
        "address": "山西省晋城市城区春晖路与白水东街交叉口西南方向161米左右",
        "tel": "",
        "category": "基础设施:公共设施:公共厕所",
        "type": 0,
        "location": {
            "lat": 35.474727,
            "lng": 112.883477
        },
        "ad_info": {
            "adcode": 140502,
            "province": "山西省",
            "city": "晋城市",
            "district": "城区"
        }
    },
    {
        "id": "5463296476199078694",
        "title": "晋城西服务区公共厕所",
        "address": "山西省晋城市泽州县晋城绕城高速晋城西服务区",
        "tel": "",
        "category": "基础设施:公共设施:公共厕所",
        "type": 0,
        "location": {
            "lat": 35.485252,
            "lng": 112.785606
        },
        "ad_info": {
            "adcode": 140525,
            "province": "山西省",
            "city": "晋城市",
            "district": "泽州县"
        }
    },
    {
        "id": "12295175296885119932",
        "title": "公共厕所",
        "address": "山西省晋城市阳城县八芹线与芦河东大道交叉口正东方向684米左右",
        "tel": "",
        "category": "基础设施:公共设施:公共厕所",
        "type": 0,
        "location": {
            "lat": 35.590937,
            "lng": 112.371754
        },
        "ad_info": {
            "adcode": 140522,
            "province": "山西省",
            "city": "晋城市",
            "district": "阳城县"
        }
    },
    {
        "id": "7085736626708182348",
        "title": "公共厕所",
        "address": "山西省晋城市城区匠星街与西环路交叉口东南方向758米左右",
        "tel": "",
        "category": "基础设施:公共设施:公共厕所",
        "type": 0,
        "location": {
            "lat": 35.503472,
            "lng": 112.808914
        },
        "ad_info": {
            "adcode": 140502,
            "province": "山西省",
            "city": "晋城市",
            "district": "城区"
        }
    },
    {
        "id": "4961499576180812682",
        "title": "公共厕所",
        "address": "山西省晋城市阳城县新坛路与通济路交叉口正西方向159米左右",
        "tel": "",
        "category": "基础设施:公共设施:公共厕所",
        "type": 0,
        "location": {
            "lat": 35.483741,
            "lng": 112.429397
        },
        "ad_info": {
            "adcode": 140522,
            "province": "山西省",
            "city": "晋城市",
            "district": "阳城县"
        }
    },
    {
        "id": "18135605739464537064",
        "title": "公共厕所",
        "address": "山西省晋城市沁水县331省道北50米",
        "tel": "",
        "category": "基础设施:公共设施:公共厕所",
        "type": 0,
        "location": {
            "lat": 35.706906,
            "lng": 112.604179
        },
        "ad_info": {
            "adcode": 140521,
            "province": "山西省",
            "city": "晋城市",
            "district": "沁水县"
        }
    },
    {
        "id": "9085270993154140372",
        "title": "公共厕所",
        "address": "山西省晋城市高平市太华路与迎宾路交叉口正东方向44米左右",
        "tel": "",
        "category": "基础设施:公共设施:公共厕所",
        "type": 0,
        "location": {
            "lat": 35.805698,
            "lng": 112.923078
        },
        "ad_info": {
            "adcode": 140581,
            "province": "山西省",
            "city": "晋城市",
            "district": "高平市"
        }
    },
    {
        "id": "6140890192954084971",
        "title": "公共厕所",
        "address": "山西省晋城市泽州县日凤线与陵沁线交叉口西南方向486米左右",
        "tel": "",
        "category": "基础设施:公共设施:公共厕所",
        "type": 0,
        "location": {
            "lat": 35.545719,
            "lng": 112.701426
        },
        "ad_info": {
            "adcode": 140525,
            "province": "山西省",
            "city": "晋城市",
            "district": "泽州县"
        }
    },
    {
        "id": "18173506259487874933",
        "title": "公共厕所",
        "address": "山西省晋城市阳城县八芹线与日凤线交叉口西北方向263米左右",
        "tel": "",
        "category": "基础设施:公共设施:公共厕所",
        "type": 0,
        "location": {
            "lat": 35.483767,
            "lng": 112.498151
        },
        "ad_info": {
            "adcode": 140522,
            "province": "山西省",
            "city": "晋城市",
            "district": "阳城县"
        }
    },
    {
        "id": "11327491593585148461",
        "title": "公共厕所",
        "address": "山西省晋城市城区东上庄立交桥与晋张线交叉口正南方向113米左右",
        "tel": "",
        "category": "基础设施:公共设施:公共厕所",
        "type": 0,
        "location": {
            "lat": 35.484903,
            "lng": 112.894616
        },
        "ad_info": {
            "adcode": 140502,
            "province": "山西省",
            "city": "晋城市",
            "district": "城区"
        }
    },
    {
        "id": "13608324687594217950",
        "title": "公共厕所",
        "address": "山西省晋城市高平市坪曲线与陈老线交叉口东北方向135米左右",
        "tel": "",
        "category": "基础设施:公共设施:公共厕所",
        "type": 0,
        "location": {
            "lat": 35.753609,
            "lng": 112.835577
        },
        "ad_info": {
            "adcode": 140581,
            "province": "山西省",
            "city": "晋城市",
            "district": "高平市"
        }
    },
    {
        "id": "10778958806413021274",
        "title": "公共厕所",
        "address": "山西省晋城市沁水县太行1号路沁水段支线与翼舜线交叉口西北方向1175米左右",
        "tel": "",
        "category": "基础设施:公共设施:公共厕所",
        "type": 0,
        "location": {
            "lat": 35.565732,
            "lng": 111.985691
        },
        "ad_info": {
            "adcode": 140521,
            "province": "山西省",
            "city": "晋城市",
            "district": "沁水县"
        }
    },
    {
        "id": "1105128881134862314",
        "title": "公共厕所",
        "address": "山西省晋城市城区畅安路与康平街交叉口正西方向1127米",
        "tel": "",
        "category": "基础设施:公共设施:公共厕所",
        "type": 0,
        "location": {
            "lat": 35.550202,
            "lng": 112.890957
        },
        "ad_info": {
            "adcode": 140502,
            "province": "山西省",
            "city": "晋城市",
            "district": "城区"
        }
    },
    {
        "id": "5914042619597902196",
        "title": "陵川服务区公共厕所",
        "address": "山西省晋城市陵川县陵川服务区附近",
        "tel": "",
        "category": "基础设施:公共设施:公共厕所",
        "type": 0,
        "location": {
            "lat": 35.745005,
            "lng": 113.278848
        },
        "ad_info": {
            "adcode": 140524,
            "province": "山西省",
            "city": "晋城市",
            "district": "陵川县"
        }
    },
    {
        "id": "4044454797350334112",
        "title": "公共厕所",
        "address": "山西省晋城市泽州县晋张线与珏山青莲寺旅游公路交叉口正东方向124米左右",
        "tel": "",
        "category": "基础设施:公共设施:公共厕所",
        "type": 0,
        "location": {
            "lat": 35.473579,
            "lng": 113.002145
        },
        "ad_info": {
            "adcode": 140525,
            "province": "山西省",
            "city": "晋城市",
            "district": "泽州县"
        }
    },
    {
        "id": "1068199887093208184",
        "title": "公共厕所",
        "address": "山西省晋城市高平市坪曲线与杨界线交叉口正东方向1807米左右",
        "tel": "",
        "category": "基础设施:公共设施:公共厕所",
        "type": 0,
        "location": {
            "lat": 35.765255,
            "lng": 112.887164
        },
        "ad_info": {
            "adcode": 140581,
            "province": "山西省",
            "city": "晋城市",
            "district": "高平市"
        }
    },
    {
        "id": "1882449914007445532",
        "title": "公共厕所",
        "address": "山西省晋城市城区西仓巷与西仓西巷交叉口西北方向182米左右",
        "tel": "",
        "category": "基础设施:公共设施:公共厕所",
        "type": 0,
        "location": {
            "lat": 35.508351,
            "lng": 112.836442
        },
        "ad_info": {
            "adcode": 140502,
            "province": "山西省",
            "city": "晋城市",
            "district": "城区"
        }
    },
    {
        "id": "12376760781890988540",
        "title": "公共厕所",
        "address": "山西省晋城市阳城县新阳西街辅路与新风路交叉口东南方向190米左右",
        "tel": "",
        "category": "基础设施:公共设施:公共厕所",
        "type": 0,
        "location": {
            "lat": 35.489124,
            "lng": 112.409477
        },
        "ad_info": {
            "adcode": 140522,
            "province": "山西省",
            "city": "晋城市",
            "district": "阳城县"
        }
    },
    {
        "id": "12771180056510682043",
        "title": "公共厕所",
        "address": "山西省晋城市城区东环辅路与畅安路交叉口西南方向411米左右",
        "tel": "",
        "category": "基础设施:公共设施:公共厕所",
        "type": 0,
        "location": {
            "lat": 35.565031,
            "lng": 112.902066
        },
        "ad_info": {
            "adcode": 140502,
            "province": "山西省",
            "city": "晋城市",
            "district": "城区"
        }
    },
    {
        "id": "6325099430494721691",
        "title": "公共厕所",
        "address": "山西省晋城市城区凤台东街与泽州路交叉口东南方向159米左右",
        "tel": "",
        "category": "基础设施:公共设施:公共厕所",
        "type": 0,
        "location": {
            "lat": 35.488933,
            "lng": 112.856233
        },
        "ad_info": {
            "adcode": 140502,
            "province": "山西省",
            "city": "晋城市",
            "district": "城区"
        }
    },
    {
        "id": "12148653423505209794",
        "title": "公共厕所",
        "address": "山西省晋城市城区春晖路与白水东街交叉口西南方向161米左右",
        "tel": "",
        "category": "基础设施:公共设施:公共厕所",
        "type": 0,
        "location": {
            "lat": 35.474727,
            "lng": 112.883477
        },
        "ad_info": {
            "adcode": 140502,
            "province": "山西省",
            "city": "晋城市",
            "district": "城区"
        }
    },
    {
        "id": "5463296476199078694",
        "title": "晋城西服务区公共厕所",
        "address": "山西省晋城市泽州县晋城绕城高速晋城西服务区",
        "tel": "",
        "category": "基础设施:公共设施:公共厕所",
        "type": 0,
        "location": {
            "lat": 35.485252,
            "lng": 112.785606
        },
        "ad_info": {
            "adcode": 140525,
            "province": "山西省",
            "city": "晋城市",
            "district": "泽州县"
        }
    },
    {
        "id": "12295175296885119932",
        "title": "公共厕所",
        "address": "山西省晋城市阳城县八芹线与芦河东大道交叉口正东方向684米左右",
        "tel": "",
        "category": "基础设施:公共设施:公共厕所",
        "type": 0,
        "location": {
            "lat": 35.590937,
            "lng": 112.371754
        },
        "ad_info": {
            "adcode": 140522,
            "province": "山西省",
            "city": "晋城市",
            "district": "阳城县"
        }
    },
    {
        "id": "7085736626708182348",
        "title": "公共厕所",
        "address": "山西省晋城市城区匠星街与西环路交叉口东南方向758米左右",
        "tel": "",
        "category": "基础设施:公共设施:公共厕所",
        "type": 0,
        "location": {
            "lat": 35.503472,
            "lng": 112.808914
        },
        "ad_info": {
            "adcode": 140502,
            "province": "山西省",
            "city": "晋城市",
            "district": "城区"
        }
    },
    {
        "id": "4961499576180812682",
        "title": "公共厕所",
        "address": "山西省晋城市阳城县新坛路与通济路交叉口正西方向159米左右",
        "tel": "",
        "category": "基础设施:公共设施:公共厕所",
        "type": 0,
        "location": {
            "lat": 35.483741,
            "lng": 112.429397
        },
        "ad_info": {
            "adcode": 140522,
            "province": "山西省",
            "city": "晋城市",
            "district": "阳城县"
        }
    },
    {
        "id": "18135605739464537064",
        "title": "公共厕所",
        "address": "山西省晋城市沁水县331省道北50米",
        "tel": "",
        "category": "基础设施:公共设施:公共厕所",
        "type": 0,
        "location": {
            "lat": 35.706906,
            "lng": 112.604179
        },
        "ad_info": {
            "adcode": 140521,
            "province": "山西省",
            "city": "晋城市",
            "district": "沁水县"
        }
    },
    {
        "id": "9085270993154140372",
        "title": "公共厕所",
        "address": "山西省晋城市高平市太华路与迎宾路交叉口正东方向44米左右",
        "tel": "",
        "category": "基础设施:公共设施:公共厕所",
        "type": 0,
        "location": {
            "lat": 35.805698,
            "lng": 112.923078
        },
        "ad_info": {
            "adcode": 140581,
            "province": "山西省",
            "city": "晋城市",
            "district": "高平市"
        }
    },
    {
        "id": "6140890192954084971",
        "title": "公共厕所",
        "address": "山西省晋城市泽州县日凤线与陵沁线交叉口西南方向486米左右",
        "tel": "",
        "category": "基础设施:公共设施:公共厕所",
        "type": 0,
        "location": {
            "lat": 35.545719,
            "lng": 112.701426
        },
        "ad_info": {
            "adcode": 140525,
            "province": "山西省",
            "city": "晋城市",
            "district": "泽州县"
        }
    },
    {
        "id": "18173506259487874933",
        "title": "公共厕所",
        "address": "山西省晋城市阳城县八芹线与日凤线交叉口西北方向263米左右",
        "tel": "",
        "category": "基础设施:公共设施:公共厕所",
        "type": 0,
        "location": {
            "lat": 35.483767,
            "lng": 112.498151
        },
        "ad_info": {
            "adcode": 140522,
            "province": "山西省",
            "city": "晋城市",
            "district": "阳城县"
        }
    },
    {
        "id": "11327491593585148461",
        "title": "公共厕所",
        "address": "山西省晋城市城区东上庄立交桥与晋张线交叉口正南方向113米左右",
        "tel": "",
        "category": "基础设施:公共设施:公共厕所",
        "type": 0,
        "location": {
            "lat": 35.484903,
            "lng": 112.894616
        },
        "ad_info": {
            "adcode": 140502,
            "province": "山西省",
            "city": "晋城市",
            "district": "城区"
        }
    },
    {
        "id": "13608324687594217950",
        "title": "公共厕所",
        "address": "山西省晋城市高平市坪曲线与陈老线交叉口东北方向135米左右",
        "tel": "",
        "category": "基础设施:公共设施:公共厕所",
        "type": 0,
        "location": {
            "lat": 35.753609,
            "lng": 112.835577
        },
        "ad_info": {
            "adcode": 140581,
            "province": "山西省",
            "city": "晋城市",
            "district": "高平市"
        }
    },
    {
        "id": "10778958806413021274",
        "title": "公共厕所",
        "address": "山西省晋城市沁水县太行1号路沁水段支线与翼舜线交叉口西北方向1175米左右",
        "tel": "",
        "category": "基础设施:公共设施:公共厕所",
        "type": 0,
        "location": {
            "lat": 35.565732,
            "lng": 111.985691
        },
        "ad_info": {
            "adcode": 140521,
            "province": "山西省",
            "city": "晋城市",
            "district": "沁水县"
        }
    },
    {
        "id": "1105128881134862314",
        "title": "公共厕所",
        "address": "山西省晋城市城区畅安路与康平街交叉口正西方向1127米",
        "tel": "",
        "category": "基础设施:公共设施:公共厕所",
        "type": 0,
        "location": {
            "lat": 35.550202,
            "lng": 112.890957
        },
        "ad_info": {
            "adcode": 140502,
            "province": "山西省",
            "city": "晋城市",
            "district": "城区"
        }
    },
    {
        "id": "5914042619597902196",
        "title": "陵川服务区公共厕所",
        "address": "山西省晋城市陵川县陵川服务区附近",
        "tel": "",
        "category": "基础设施:公共设施:公共厕所",
        "type": 0,
        "location": {
            "lat": 35.745005,
            "lng": 113.278848
        },
        "ad_info": {
            "adcode": 140524,
            "province": "山西省",
            "city": "晋城市",
            "district": "陵川县"
        }
    },
    {
        "id": "4044454797350334112",
        "title": "公共厕所",
        "address": "山西省晋城市泽州县晋张线与珏山青莲寺旅游公路交叉口正东方向124米左右",
        "tel": "",
        "category": "基础设施:公共设施:公共厕所",
        "type": 0,
        "location": {
            "lat": 35.473579,
            "lng": 113.002145
        },
        "ad_info": {
            "adcode": 140525,
            "province": "山西省",
            "city": "晋城市",
            "district": "泽州县"
        }
    },
    {
        "id": "1068199887093208184",
        "title": "公共厕所",
        "address": "山西省晋城市高平市坪曲线与杨界线交叉口正东方向1807米左右",
        "tel": "",
        "category": "基础设施:公共设施:公共厕所",
        "type": 0,
        "location": {
            "lat": 35.765255,
            "lng": 112.887164
        },
        "ad_info": {
            "adcode": 140581,
            "province": "山西省",
            "city": "晋城市",
            "district": "高平市"
        }
    },
    {
        "id": "1882449914007445532",
        "title": "公共厕所",
        "address": "山西省晋城市城区西仓巷与西仓西巷交叉口西北方向182米左右",
        "tel": "",
        "category": "基础设施:公共设施:公共厕所",
        "type": 0,
        "location": {
            "lat": 35.508351,
            "lng": 112.836442
        },
        "ad_info": {
            "adcode": 140502,
            "province": "山西省",
            "city": "晋城市",
            "district": "城区"
        }
    },
    {
        "id": "12376760781890988540",
        "title": "公共厕所",
        "address": "山西省晋城市阳城县新阳西街辅路与新风路交叉口东南方向190米左右",
        "tel": "",
        "category": "基础设施:公共设施:公共厕所",
        "type": 0,
        "location": {
            "lat": 35.489124,
            "lng": 112.409477
        },
        "ad_info": {
            "adcode": 140522,
            "province": "山西省",
            "city": "晋城市",
            "district": "阳城县"
        }
    },
    {
        "id": "12771180056510682043",
        "title": "公共厕所",
        "address": "山西省晋城市城区东环辅路与畅安路交叉口西南方向411米左右",
        "tel": "",
        "category": "基础设施:公共设施:公共厕所",
        "type": 0,
        "location": {
            "lat": 35.565031,
            "lng": 112.902066
        },
        "ad_info": {
            "adcode": 140502,
            "province": "山西省",
            "city": "晋城市",
            "district": "城区"
        }
    },
    {
        "id": "6325099430494721691",
        "title": "公共厕所",
        "address": "山西省晋城市城区凤台东街与泽州路交叉口东南方向159米左右",
        "tel": "",
        "category": "基础设施:公共设施:公共厕所",
        "type": 0,
        "location": {
            "lat": 35.488933,
            "lng": 112.856233
        },
        "ad_info": {
            "adcode": 140502,
            "province": "山西省",
            "city": "晋城市",
            "district": "城区"
        }
    },
    {
        "id": "12148653423505209794",
        "title": "公共厕所",
        "address": "山西省晋城市城区春晖路与白水东街交叉口西南方向161米左右",
        "tel": "",
        "category": "基础设施:公共设施:公共厕所",
        "type": 0,
        "location": {
            "lat": 35.474727,
            "lng": 112.883477
        },
        "ad_info": {
            "adcode": 140502,
            "province": "山西省",
            "city": "晋城市",
            "district": "城区"
        }
    },
    {
        "id": "5463296476199078694",
        "title": "晋城西服务区公共厕所",
        "address": "山西省晋城市泽州县晋城绕城高速晋城西服务区",
        "tel": "",
        "category": "基础设施:公共设施:公共厕所",
        "type": 0,
        "location": {
            "lat": 35.485252,
            "lng": 112.785606
        },
        "ad_info": {
            "adcode": 140525,
            "province": "山西省",
            "city": "晋城市",
            "district": "泽州县"
        }
    },
    {
        "id": "12295175296885119932",
        "title": "公共厕所",
        "address": "山西省晋城市阳城县八芹线与芦河东大道交叉口正东方向684米左右",
        "tel": "",
        "category": "基础设施:公共设施:公共厕所",
        "type": 0,
        "location": {
            "lat": 35.590937,
            "lng": 112.371754
        },
        "ad_info": {
            "adcode": 140522,
            "province": "山西省",
            "city": "晋城市",
            "district": "阳城县"
        }
    },
    {
        "id": "7085736626708182348",
        "title": "公共厕所",
        "address": "山西省晋城市城区匠星街与西环路交叉口东南方向758米左右",
        "tel": "",
        "category": "基础设施:公共设施:公共厕所",
        "type": 0,
        "location": {
            "lat": 35.503472,
            "lng": 112.808914
        },
        "ad_info": {
            "adcode": 140502,
            "province": "山西省",
            "city": "晋城市",
            "district": "城区"
        }
    },
    {
        "id": "4961499576180812682",
        "title": "公共厕所",
        "address": "山西省晋城市阳城县新坛路与通济路交叉口正西方向159米左右",
        "tel": "",
        "category": "基础设施:公共设施:公共厕所",
        "type": 0,
        "location": {
            "lat": 35.483741,
            "lng": 112.429397
        },
        "ad_info": {
            "adcode": 140522,
            "province": "山西省",
            "city": "晋城市",
            "district": "阳城县"
        }
    },
    {
        "id": "18135605739464537064",
        "title": "公共厕所",
        "address": "山西省晋城市沁水县331省道北50米",
        "tel": "",
        "category": "基础设施:公共设施:公共厕所",
        "type": 0,
        "location": {
            "lat": 35.706906,
            "lng": 112.604179
        },
        "ad_info": {
            "adcode": 140521,
            "province": "山西省",
            "city": "晋城市",
            "district": "沁水县"
        }
    },
    {
        "id": "9085270993154140372",
        "title": "公共厕所",
        "address": "山西省晋城市高平市太华路与迎宾路交叉口正东方向44米左右",
        "tel": "",
        "category": "基础设施:公共设施:公共厕所",
        "type": 0,
        "location": {
            "lat": 35.805698,
            "lng": 112.923078
        },
        "ad_info": {
            "adcode": 140581,
            "province": "山西省",
            "city": "晋城市",
            "district": "高平市"
        }
    },
    {
        "id": "6140890192954084971",
        "title": "公共厕所",
        "address": "山西省晋城市泽州县日凤线与陵沁线交叉口西南方向486米左右",
        "tel": "",
        "category": "基础设施:公共设施:公共厕所",
        "type": 0,
        "location": {
            "lat": 35.545719,
            "lng": 112.701426
        },
        "ad_info": {
            "adcode": 140525,
            "province": "山西省",
            "city": "晋城市",
            "district": "泽州县"
        }
    },
    {
        "id": "18173506259487874933",
        "title": "公共厕所",
        "address": "山西省晋城市阳城县八芹线与日凤线交叉口西北方向263米左右",
        "tel": "",
        "category": "基础设施:公共设施:公共厕所",
        "type": 0,
        "location": {
            "lat": 35.483767,
            "lng": 112.498151
        },
        "ad_info": {
            "adcode": 140522,
            "province": "山西省",
            "city": "晋城市",
            "district": "阳城县"
        }
    },
    {
        "id": "11327491593585148461",
        "title": "公共厕所",
        "address": "山西省晋城市城区东上庄立交桥与晋张线交叉口正南方向113米左右",
        "tel": "",
        "category": "基础设施:公共设施:公共厕所",
        "type": 0,
        "location": {
            "lat": 35.484903,
            "lng": 112.894616
        },
        "ad_info": {
            "adcode": 140502,
            "province": "山西省",
            "city": "晋城市",
            "district": "城区"
        }
    },
    {
        "id": "13608324687594217950",
        "title": "公共厕所",
        "address": "山西省晋城市高平市坪曲线与陈老线交叉口东北方向135米左右",
        "tel": "",
        "category": "基础设施:公共设施:公共厕所",
        "type": 0,
        "location": {
            "lat": 35.753609,
            "lng": 112.835577
        },
        "ad_info": {
            "adcode": 140581,
            "province": "山西省",
            "city": "晋城市",
            "district": "高平市"
        }
    },
    {
        "id": "10778958806413021274",
        "title": "公共厕所",
        "address": "山西省晋城市沁水县太行1号路沁水段支线与翼舜线交叉口西北方向1175米左右",
        "tel": "",
        "category": "基础设施:公共设施:公共厕所",
        "type": 0,
        "location": {
            "lat": 35.565732,
            "lng": 111.985691
        },
        "ad_info": {
            "adcode": 140521,
            "province": "山西省",
            "city": "晋城市",
            "district": "沁水县"
        }
    },
    {
        "id": "1105128881134862314",
        "title": "公共厕所",
        "address": "山西省晋城市城区畅安路与康平街交叉口正西方向1127米",
        "tel": "",
        "category": "基础设施:公共设施:公共厕所",
        "type": 0,
        "location": {
            "lat": 35.550202,
            "lng": 112.890957
        },
        "ad_info": {
            "adcode": 140502,
            "province": "山西省",
            "city": "晋城市",
            "district": "城区"
        }
    },
    {
        "id": "5914042619597902196",
        "title": "陵川服务区公共厕所",
        "address": "山西省晋城市陵川县陵川服务区附近",
        "tel": "",
        "category": "基础设施:公共设施:公共厕所",
        "type": 0,
        "location": {
            "lat": 35.745005,
            "lng": 113.278848
        },
        "ad_info": {
            "adcode": 140524,
            "province": "山西省",
            "city": "晋城市",
            "district": "陵川县"
        }
    },
    {
        "id": "4044454797350334112",
        "title": "公共厕所",
        "address": "山西省晋城市泽州县晋张线与珏山青莲寺旅游公路交叉口正东方向124米左右",
        "tel": "",
        "category": "基础设施:公共设施:公共厕所",
        "type": 0,
        "location": {
            "lat": 35.473579,
            "lng": 113.002145
        },
        "ad_info": {
            "adcode": 140525,
            "province": "山西省",
            "city": "晋城市",
            "district": "泽州县"
        }
    },
    {
        "id": "1068199887093208184",
        "title": "公共厕所",
        "address": "山西省晋城市高平市坪曲线与杨界线交叉口正东方向1807米左右",
        "tel": "",
        "category": "基础设施:公共设施:公共厕所",
        "type": 0,
        "location": {
            "lat": 35.765255,
            "lng": 112.887164
        },
        "ad_info": {
            "adcode": 140581,
            "province": "山西省",
            "city": "晋城市",
            "district": "高平市"
        }
    },
    {
        "id": "1882449914007445532",
        "title": "公共厕所",
        "address": "山西省晋城市城区西仓巷与西仓西巷交叉口西北方向182米左右",
        "tel": "",
        "category": "基础设施:公共设施:公共厕所",
        "type": 0,
        "location": {
            "lat": 35.508351,
            "lng": 112.836442
        },
        "ad_info": {
            "adcode": 140502,
            "province": "山西省",
            "city": "晋城市",
            "district": "城区"
        }
    },
    {
        "id": "12376760781890988540",
        "title": "公共厕所",
        "address": "山西省晋城市阳城县新阳西街辅路与新风路交叉口东南方向190米左右",
        "tel": "",
        "category": "基础设施:公共设施:公共厕所",
        "type": 0,
        "location": {
            "lat": 35.489124,
            "lng": 112.409477
        },
        "ad_info": {
            "adcode": 140522,
            "province": "山西省",
            "city": "晋城市",
            "district": "阳城县"
        }
    },
    {
        "id": "12771180056510682043",
        "title": "公共厕所",
        "address": "山西省晋城市城区东环辅路与畅安路交叉口西南方向411米左右",
        "tel": "",
        "category": "基础设施:公共设施:公共厕所",
        "type": 0,
        "location": {
            "lat": 35.565031,
            "lng": 112.902066
        },
        "ad_info": {
            "adcode": 140502,
            "province": "山西省",
            "city": "晋城市",
            "district": "城区"
        }
    },
    {
        "id": "6325099430494721691",
        "title": "公共厕所",
        "address": "山西省晋城市城区凤台东街与泽州路交叉口东南方向159米左右",
        "tel": "",
        "category": "基础设施:公共设施:公共厕所",
        "type": 0,
        "location": {
            "lat": 35.488933,
            "lng": 112.856233
        },
        "ad_info": {
            "adcode": 140502,
            "province": "山西省",
            "city": "晋城市",
            "district": "城区"
        }
    },
    {
        "id": "12148653423505209794",
        "title": "公共厕所",
        "address": "山西省晋城市城区春晖路与白水东街交叉口西南方向161米左右",
        "tel": "",
        "category": "基础设施:公共设施:公共厕所",
        "type": 0,
        "location": {
            "lat": 35.474727,
            "lng": 112.883477
        },
        "ad_info": {
            "adcode": 140502,
            "province": "山西省",
            "city": "晋城市",
            "district": "城区"
        }
    },
    {
        "id": "5463296476199078694",
        "title": "晋城西服务区公共厕所",
        "address": "山西省晋城市泽州县晋城绕城高速晋城西服务区",
        "tel": "",
        "category": "基础设施:公共设施:公共厕所",
        "type": 0,
        "location": {
            "lat": 35.485252,
            "lng": 112.785606
        },
        "ad_info": {
            "adcode": 140525,
            "province": "山西省",
            "city": "晋城市",
            "district": "泽州县"
        }
    },
    {
        "id": "12295175296885119932",
        "title": "公共厕所",
        "address": "山西省晋城市阳城县八芹线与芦河东大道交叉口正东方向684米左右",
        "tel": "",
        "category": "基础设施:公共设施:公共厕所",
        "type": 0,
        "location": {
            "lat": 35.590937,
            "lng": 112.371754
        },
        "ad_info": {
            "adcode": 140522,
            "province": "山西省",
            "city": "晋城市",
            "district": "阳城县"
        }
    },
    {
        "id": "7085736626708182348",
        "title": "公共厕所",
        "address": "山西省晋城市城区匠星街与西环路交叉口东南方向758米左右",
        "tel": "",
        "category": "基础设施:公共设施:公共厕所",
        "type": 0,
        "location": {
            "lat": 35.503472,
            "lng": 112.808914
        },
        "ad_info": {
            "adcode": 140502,
            "province": "山西省",
            "city": "晋城市",
            "district": "城区"
        }
    },
    {
        "id": "4961499576180812682",
        "title": "公共厕所",
        "address": "山西省晋城市阳城县新坛路与通济路交叉口正西方向159米左右",
        "tel": "",
        "category": "基础设施:公共设施:公共厕所",
        "type": 0,
        "location": {
            "lat": 35.483741,
            "lng": 112.429397
        },
        "ad_info": {
            "adcode": 140522,
            "province": "山西省",
            "city": "晋城市",
            "district": "阳城县"
        }
    },
    {
        "id": "18135605739464537064",
        "title": "公共厕所",
        "address": "山西省晋城市沁水县331省道北50米",
        "tel": "",
        "category": "基础设施:公共设施:公共厕所",
        "type": 0,
        "location": {
            "lat": 35.706906,
            "lng": 112.604179
        },
        "ad_info": {
            "adcode": 140521,
            "province": "山西省",
            "city": "晋城市",
            "district": "沁水县"
        }
    },
    {
        "id": "9085270993154140372",
        "title": "公共厕所",
        "address": "山西省晋城市高平市太华路与迎宾路交叉口正东方向44米左右",
        "tel": "",
        "category": "基础设施:公共设施:公共厕所",
        "type": 0,
        "location": {
            "lat": 35.805698,
            "lng": 112.923078
        },
        "ad_info": {
            "adcode": 140581,
            "province": "山西省",
            "city": "晋城市",
            "district": "高平市"
        }
    },
    {
        "id": "6140890192954084971",
        "title": "公共厕所",
        "address": "山西省晋城市泽州县日凤线与陵沁线交叉口西南方向486米左右",
        "tel": "",
        "category": "基础设施:公共设施:公共厕所",
        "type": 0,
        "location": {
            "lat": 35.545719,
            "lng": 112.701426
        },
        "ad_info": {
            "adcode": 140525,
            "province": "山西省",
            "city": "晋城市",
            "district": "泽州县"
        }
    },
    {
        "id": "18173506259487874933",
        "title": "公共厕所",
        "address": "山西省晋城市阳城县八芹线与日凤线交叉口西北方向263米左右",
        "tel": "",
        "category": "基础设施:公共设施:公共厕所",
        "type": 0,
        "location": {
            "lat": 35.483767,
            "lng": 112.498151
        },
        "ad_info": {
            "adcode": 140522,
            "province": "山西省",
            "city": "晋城市",
            "district": "阳城县"
        }
    },
    {
        "id": "11327491593585148461",
        "title": "公共厕所",
        "address": "山西省晋城市城区东上庄立交桥与晋张线交叉口正南方向113米左右",
        "tel": "",
        "category": "基础设施:公共设施:公共厕所",
        "type": 0,
        "location": {
            "lat": 35.484903,
            "lng": 112.894616
        },
        "ad_info": {
            "adcode": 140502,
            "province": "山西省",
            "city": "晋城市",
            "district": "城区"
        }
    },
    {
        "id": "13608324687594217950",
        "title": "公共厕所",
        "address": "山西省晋城市高平市坪曲线与陈老线交叉口东北方向135米左右",
        "tel": "",
        "category": "基础设施:公共设施:公共厕所",
        "type": 0,
        "location": {
            "lat": 35.753609,
            "lng": 112.835577
        },
        "ad_info": {
            "adcode": 140581,
            "province": "山西省",
            "city": "晋城市",
            "district": "高平市"
        }
    },
    {
        "id": "10778958806413021274",
        "title": "公共厕所",
        "address": "山西省晋城市沁水县太行1号路沁水段支线与翼舜线交叉口西北方向1175米左右",
        "tel": "",
        "category": "基础设施:公共设施:公共厕所",
        "type": 0,
        "location": {
            "lat": 35.565732,
            "lng": 111.985691
        },
        "ad_info": {
            "adcode": 140521,
            "province": "山西省",
            "city": "晋城市",
            "district": "沁水县"
        }
    },
    {
        "id": "1105128881134862314",
        "title": "公共厕所",
        "address": "山西省晋城市城区畅安路与康平街交叉口正西方向1127米",
        "tel": "",
        "category": "基础设施:公共设施:公共厕所",
        "type": 0,
        "location": {
            "lat": 35.550202,
            "lng": 112.890957
        },
        "ad_info": {
            "adcode": 140502,
            "province": "山西省",
            "city": "晋城市",
            "district": "城区"
        }
    },
    {
        "id": "5914042619597902196",
        "title": "陵川服务区公共厕所",
        "address": "山西省晋城市陵川县陵川服务区附近",
        "tel": "",
        "category": "基础设施:公共设施:公共厕所",
        "type": 0,
        "location": {
            "lat": 35.745005,
            "lng": 113.278848
        },
        "ad_info": {
            "adcode": 140524,
            "province": "山西省",
            "city": "晋城市",
            "district": "陵川县"
        }
    },
    {
        "id": "4044454797350334112",
        "title": "公共厕所",
        "address": "山西省晋城市泽州县晋张线与珏山青莲寺旅游公路交叉口正东方向124米左右",
        "tel": "",
        "category": "基础设施:公共设施:公共厕所",
        "type": 0,
        "location": {
            "lat": 35.473579,
            "lng": 113.002145
        },
        "ad_info": {
            "adcode": 140525,
            "province": "山西省",
            "city": "晋城市",
            "district": "泽州县"
        }
    },
    {
        "id": "1068199887093208184",
        "title": "公共厕所",
        "address": "山西省晋城市高平市坪曲线与杨界线交叉口正东方向1807米左右",
        "tel": "",
        "category": "基础设施:公共设施:公共厕所",
        "type": 0,
        "location": {
            "lat": 35.765255,
            "lng": 112.887164
        },
        "ad_info": {
            "adcode": 140581,
            "province": "山西省",
            "city": "晋城市",
            "district": "高平市"
        }
    },
    {
        "id": "1882449914007445532",
        "title": "公共厕所",
        "address": "山西省晋城市城区西仓巷与西仓西巷交叉口西北方向182米左右",
        "tel": "",
        "category": "基础设施:公共设施:公共厕所",
        "type": 0,
        "location": {
            "lat": 35.508351,
            "lng": 112.836442
        },
        "ad_info": {
            "adcode": 140502,
            "province": "山西省",
            "city": "晋城市",
            "district": "城区"
        }
    },
    {
        "id": "12376760781890988540",
        "title": "公共厕所",
        "address": "山西省晋城市阳城县新阳西街辅路与新风路交叉口东南方向190米左右",
        "tel": "",
        "category": "基础设施:公共设施:公共厕所",
        "type": 0,
        "location": {
            "lat": 35.489124,
            "lng": 112.409477
        },
        "ad_info": {
            "adcode": 140522,
            "province": "山西省",
            "city": "晋城市",
            "district": "阳城县"
        }
    },
    {
        "id": "12771180056510682043",
        "title": "公共厕所",
        "address": "山西省晋城市城区东环辅路与畅安路交叉口西南方向411米左右",
        "tel": "",
        "category": "基础设施:公共设施:公共厕所",
        "type": 0,
        "location": {
            "lat": 35.565031,
            "lng": 112.902066
        },
        "ad_info": {
            "adcode": 140502,
            "province": "山西省",
            "city": "晋城市",
            "district": "城区"
        }
    },
    {
        "id": "6325099430494721691",
        "title": "公共厕所",
        "address": "山西省晋城市城区凤台东街与泽州路交叉口东南方向159米左右",
        "tel": "",
        "category": "基础设施:公共设施:公共厕所",
        "type": 0,
        "location": {
            "lat": 35.488933,
            "lng": 112.856233
        },
        "ad_info": {
            "adcode": 140502,
            "province": "山西省",
            "city": "晋城市",
            "district": "城区"
        }
    },
    {
        "id": "12148653423505209794",
        "title": "公共厕所",
        "address": "山西省晋城市城区春晖路与白水东街交叉口西南方向161米左右",
        "tel": "",
        "category": "基础设施:公共设施:公共厕所",
        "type": 0,
        "location": {
            "lat": 35.474727,
            "lng": 112.883477
        },
        "ad_info": {
            "adcode": 140502,
            "province": "山西省",
            "city": "晋城市",
            "district": "城区"
        }
    },
    {
        "id": "5463296476199078694",
        "title": "晋城西服务区公共厕所",
        "address": "山西省晋城市泽州县晋城绕城高速晋城西服务区",
        "tel": "",
        "category": "基础设施:公共设施:公共厕所",
        "type": 0,
        "location": {
            "lat": 35.485252,
            "lng": 112.785606
        },
        "ad_info": {
            "adcode": 140525,
            "province": "山西省",
            "city": "晋城市",
            "district": "泽州县"
        }
    },
    {
        "id": "12295175296885119932",
        "title": "公共厕所",
        "address": "山西省晋城市阳城县八芹线与芦河东大道交叉口正东方向684米左右",
        "tel": "",
        "category": "基础设施:公共设施:公共厕所",
        "type": 0,
        "location": {
            "lat": 35.590937,
            "lng": 112.371754
        },
        "ad_info": {
            "adcode": 140522,
            "province": "山西省",
            "city": "晋城市",
            "district": "阳城县"
        }
    },
    {
        "id": "7085736626708182348",
        "title": "公共厕所",
        "address": "山西省晋城市城区匠星街与西环路交叉口东南方向758米左右",
        "tel": "",
        "category": "基础设施:公共设施:公共厕所",
        "type": 0,
        "location": {
            "lat": 35.503472,
            "lng": 112.808914
        },
        "ad_info": {
            "adcode": 140502,
            "province": "山西省",
            "city": "晋城市",
            "district": "城区"
        }
    },
    {
        "id": "4961499576180812682",
        "title": "公共厕所",
        "address": "山西省晋城市阳城县新坛路与通济路交叉口正西方向159米左右",
        "tel": "",
        "category": "基础设施:公共设施:公共厕所",
        "type": 0,
        "location": {
            "lat": 35.483741,
            "lng": 112.429397
        },
        "ad_info": {
            "adcode": 140522,
            "province": "山西省",
            "city": "晋城市",
            "district": "阳城县"
        }
    },
    {
        "id": "18135605739464537064",
        "title": "公共厕所",
        "address": "山西省晋城市沁水县331省道北50米",
        "tel": "",
        "category": "基础设施:公共设施:公共厕所",
        "type": 0,
        "location": {
            "lat": 35.706906,
            "lng": 112.604179
        },
        "ad_info": {
            "adcode": 140521,
            "province": "山西省",
            "city": "晋城市",
            "district": "沁水县"
        }
    },
    {
        "id": "9085270993154140372",
        "title": "公共厕所",
        "address": "山西省晋城市高平市太华路与迎宾路交叉口正东方向44米左右",
        "tel": "",
        "category": "基础设施:公共设施:公共厕所",
        "type": 0,
        "location": {
            "lat": 35.805698,
            "lng": 112.923078
        },
        "ad_info": {
            "adcode": 140581,
            "province": "山西省",
            "city": "晋城市",
            "district": "高平市"
        }
    },
    {
        "id": "6140890192954084971",
        "title": "公共厕所",
        "address": "山西省晋城市泽州县日凤线与陵沁线交叉口西南方向486米左右",
        "tel": "",
        "category": "基础设施:公共设施:公共厕所",
        "type": 0,
        "location": {
            "lat": 35.545719,
            "lng": 112.701426
        },
        "ad_info": {
            "adcode": 140525,
            "province": "山西省",
            "city": "晋城市",
            "district": "泽州县"
        }
    },
    {
        "id": "18173506259487874933",
        "title": "公共厕所",
        "address": "山西省晋城市阳城县八芹线与日凤线交叉口西北方向263米左右",
        "tel": "",
        "category": "基础设施:公共设施:公共厕所",
        "type": 0,
        "location": {
            "lat": 35.483767,
            "lng": 112.498151
        },
        "ad_info": {
            "adcode": 140522,
            "province": "山西省",
            "city": "晋城市",
            "district": "阳城县"
        }
    },
    {
        "id": "11327491593585148461",
        "title": "公共厕所",
        "address": "山西省晋城市城区东上庄立交桥与晋张线交叉口正南方向113米左右",
        "tel": "",
        "category": "基础设施:公共设施:公共厕所",
        "type": 0,
        "location": {
            "lat": 35.484903,
            "lng": 112.894616
        },
        "ad_info": {
            "adcode": 140502,
            "province": "山西省",
            "city": "晋城市",
            "district": "城区"
        }
    },
    {
        "id": "13608324687594217950",
        "title": "公共厕所",
        "address": "山西省晋城市高平市坪曲线与陈老线交叉口东北方向135米左右",
        "tel": "",
        "category": "基础设施:公共设施:公共厕所",
        "type": 0,
        "location": {
            "lat": 35.753609,
            "lng": 112.835577
        },
        "ad_info": {
            "adcode": 140581,
            "province": "山西省",
            "city": "晋城市",
            "district": "高平市"
        }
    },
    {
        "id": "10778958806413021274",
        "title": "公共厕所",
        "address": "山西省晋城市沁水县太行1号路沁水段支线与翼舜线交叉口西北方向1175米左右",
        "tel": "",
        "category": "基础设施:公共设施:公共厕所",
        "type": 0,
        "location": {
            "lat": 35.565732,
            "lng": 111.985691
        },
        "ad_info": {
            "adcode": 140521,
            "province": "山西省",
            "city": "晋城市",
            "district": "沁水县"
        }
    },
    {
        "id": "1105128881134862314",
        "title": "公共厕所",
        "address": "山西省晋城市城区畅安路与康平街交叉口正西方向1127米",
        "tel": "",
        "category": "基础设施:公共设施:公共厕所",
        "type": 0,
        "location": {
            "lat": 35.550202,
            "lng": 112.890957
        },
        "ad_info": {
            "adcode": 140502,
            "province": "山西省",
            "city": "晋城市",
            "district": "城区"
        }
    },
    {
        "id": "5914042619597902196",
        "title": "陵川服务区公共厕所",
        "address": "山西省晋城市陵川县陵川服务区附近",
        "tel": "",
        "category": "基础设施:公共设施:公共厕所",
        "type": 0,
        "location": {
            "lat": 35.745005,
            "lng": 113.278848
        },
        "ad_info": {
            "adcode": 140524,
            "province": "山西省",
            "city": "晋城市",
            "district": "陵川县"
        }
    },
    {
        "id": "4044454797350334112",
        "title": "公共厕所",
        "address": "山西省晋城市泽州县晋张线与珏山青莲寺旅游公路交叉口正东方向124米左右",
        "tel": "",
        "category": "基础设施:公共设施:公共厕所",
        "type": 0,
        "location": {
            "lat": 35.473579,
            "lng": 113.002145
        },
        "ad_info": {
            "adcode": 140525,
            "province": "山西省",
            "city": "晋城市",
            "district": "泽州县"
        }
    },
    {
        "id": "1068199887093208184",
        "title": "公共厕所",
        "address": "山西省晋城市高平市坪曲线与杨界线交叉口正东方向1807米左右",
        "tel": "",
        "category": "基础设施:公共设施:公共厕所",
        "type": 0,
        "location": {
            "lat": 35.765255,
            "lng": 112.887164
        },
        "ad_info": {
            "adcode": 140581,
            "province": "山西省",
            "city": "晋城市",
            "district": "高平市"
        }
    },
    {
        "id": "1882449914007445532",
        "title": "公共厕所",
        "address": "山西省晋城市城区西仓巷与西仓西巷交叉口西北方向182米左右",
        "tel": "",
        "category": "基础设施:公共设施:公共厕所",
        "type": 0,
        "location": {
            "lat": 35.508351,
            "lng": 112.836442
        },
        "ad_info": {
            "adcode": 140502,
            "province": "山西省",
            "city": "晋城市",
            "district": "城区"
        }
    },
    {
        "id": "12376760781890988540",
        "title": "公共厕所",
        "address": "山西省晋城市阳城县新阳西街辅路与新风路交叉口东南方向190米左右",
        "tel": "",
        "category": "基础设施:公共设施:公共厕所",
        "type": 0,
        "location": {
            "lat": 35.489124,
            "lng": 112.409477
        },
        "ad_info": {
            "adcode": 140522,
            "province": "山西省",
            "city": "晋城市",
            "district": "阳城县"
        }
    },
    {
        "id": "12771180056510682043",
        "title": "公共厕所",
        "address": "山西省晋城市城区东环辅路与畅安路交叉口西南方向411米左右",
        "tel": "",
        "category": "基础设施:公共设施:公共厕所",
        "type": 0,
        "location": {
            "lat": 35.565031,
            "lng": 112.902066
        },
        "ad_info": {
            "adcode": 140502,
            "province": "山西省",
            "city": "晋城市",
            "district": "城区"
        }
    },
    {
        "id": "6325099430494721691",
        "title": "公共厕所",
        "address": "山西省晋城市城区凤台东街与泽州路交叉口东南方向159米左右",
        "tel": "",
        "category": "基础设施:公共设施:公共厕所",
        "type": 0,
        "location": {
            "lat": 35.488933,
            "lng": 112.856233
        },
        "ad_info": {
            "adcode": 140502,
            "province": "山西省",
            "city": "晋城市",
            "district": "城区"
        }
    },
    {
        "id": "12148653423505209794",
        "title": "公共厕所",
        "address": "山西省晋城市城区春晖路与白水东街交叉口西南方向161米左右",
        "tel": "",
        "category": "基础设施:公共设施:公共厕所",
        "type": 0,
        "location": {
            "lat": 35.474727,
            "lng": 112.883477
        },
        "ad_info": {
            "adcode": 140502,
            "province": "山西省",
            "city": "晋城市",
            "district": "城区"
        }
    },
    {
        "id": "5463296476199078694",
        "title": "晋城西服务区公共厕所",
        "address": "山西省晋城市泽州县晋城绕城高速晋城西服务区",
        "tel": "",
        "category": "基础设施:公共设施:公共厕所",
        "type": 0,
        "location": {
            "lat": 35.485252,
            "lng": 112.785606
        },
        "ad_info": {
            "adcode": 140525,
            "province": "山西省",
            "city": "晋城市",
            "district": "泽州县"
        }
    },
    {
        "id": "12295175296885119932",
        "title": "公共厕所",
        "address": "山西省晋城市阳城县八芹线与芦河东大道交叉口正东方向684米左右",
        "tel": "",
        "category": "基础设施:公共设施:公共厕所",
        "type": 0,
        "location": {
            "lat": 35.590937,
            "lng": 112.371754
        },
        "ad_info": {
            "adcode": 140522,
            "province": "山西省",
            "city": "晋城市",
            "district": "阳城县"
        }
    },
    {
        "id": "7085736626708182348",
        "title": "公共厕所",
        "address": "山西省晋城市城区匠星街与西环路交叉口东南方向758米左右",
        "tel": "",
        "category": "基础设施:公共设施:公共厕所",
        "type": 0,
        "location": {
            "lat": 35.503472,
            "lng": 112.808914
        },
        "ad_info": {
            "adcode": 140502,
            "province": "山西省",
            "city": "晋城市",
            "district": "城区"
        }
    },
    {
        "id": "4961499576180812682",
        "title": "公共厕所",
        "address": "山西省晋城市阳城县新坛路与通济路交叉口正西方向159米左右",
        "tel": "",
        "category": "基础设施:公共设施:公共厕所",
        "type": 0,
        "location": {
            "lat": 35.483741,
            "lng": 112.429397
        },
        "ad_info": {
            "adcode": 140522,
            "province": "山西省",
            "city": "晋城市",
            "district": "阳城县"
        }
    },
    {
        "id": "18135605739464537064",
        "title": "公共厕所",
        "address": "山西省晋城市沁水县331省道北50米",
        "tel": "",
        "category": "基础设施:公共设施:公共厕所",
        "type": 0,
        "location": {
            "lat": 35.706906,
            "lng": 112.604179
        },
        "ad_info": {
            "adcode": 140521,
            "province": "山西省",
            "city": "晋城市",
            "district": "沁水县"
        }
    },
    {
        "id": "9085270993154140372",
        "title": "公共厕所",
        "address": "山西省晋城市高平市太华路与迎宾路交叉口正东方向44米左右",
        "tel": "",
        "category": "基础设施:公共设施:公共厕所",
        "type": 0,
        "location": {
            "lat": 35.805698,
            "lng": 112.923078
        },
        "ad_info": {
            "adcode": 140581,
            "province": "山西省",
            "city": "晋城市",
            "district": "高平市"
        }
    },
    {
        "id": "6140890192954084971",
        "title": "公共厕所",
        "address": "山西省晋城市泽州县日凤线与陵沁线交叉口西南方向486米左右",
        "tel": "",
        "category": "基础设施:公共设施:公共厕所",
        "type": 0,
        "location": {
            "lat": 35.545719,
            "lng": 112.701426
        },
        "ad_info": {
            "adcode": 140525,
            "province": "山西省",
            "city": "晋城市",
            "district": "泽州县"
        }
    },
    {
        "id": "18173506259487874933",
        "title": "公共厕所",
        "address": "山西省晋城市阳城县八芹线与日凤线交叉口西北方向263米左右",
        "tel": "",
        "category": "基础设施:公共设施:公共厕所",
        "type": 0,
        "location": {
            "lat": 35.483767,
            "lng": 112.498151
        },
        "ad_info": {
            "adcode": 140522,
            "province": "山西省",
            "city": "晋城市",
            "district": "阳城县"
        }
    },
    {
        "id": "11327491593585148461",
        "title": "公共厕所",
        "address": "山西省晋城市城区东上庄立交桥与晋张线交叉口正南方向113米左右",
        "tel": "",
        "category": "基础设施:公共设施:公共厕所",
        "type": 0,
        "location": {
            "lat": 35.484903,
            "lng": 112.894616
        },
        "ad_info": {
            "adcode": 140502,
            "province": "山西省",
            "city": "晋城市",
            "district": "城区"
        }
    },
    {
        "id": "13608324687594217950",
        "title": "公共厕所",
        "address": "山西省晋城市高平市坪曲线与陈老线交叉口东北方向135米左右",
        "tel": "",
        "category": "基础设施:公共设施:公共厕所",
        "type": 0,
        "location": {
            "lat": 35.753609,
            "lng": 112.835577
        },
        "ad_info": {
            "adcode": 140581,
            "province": "山西省",
            "city": "晋城市",
            "district": "高平市"
        }
    },
    {
        "id": "10778958806413021274",
        "title": "公共厕所",
        "address": "山西省晋城市沁水县太行1号路沁水段支线与翼舜线交叉口西北方向1175米左右",
        "tel": "",
        "category": "基础设施:公共设施:公共厕所",
        "type": 0,
        "location": {
            "lat": 35.565732,
            "lng": 111.985691
        },
        "ad_info": {
            "adcode": 140521,
            "province": "山西省",
            "city": "晋城市",
            "district": "沁水县"
        }
    },
    {
        "id": "1105128881134862314",
        "title": "公共厕所",
        "address": "山西省晋城市城区畅安路与康平街交叉口正西方向1127米",
        "tel": "",
        "category": "基础设施:公共设施:公共厕所",
        "type": 0,
        "location": {
            "lat": 35.550202,
            "lng": 112.890957
        },
        "ad_info": {
            "adcode": 140502,
            "province": "山西省",
            "city": "晋城市",
            "district": "城区"
        }
    },
    {
        "id": "5914042619597902196",
        "title": "陵川服务区公共厕所",
        "address": "山西省晋城市陵川县陵川服务区附近",
        "tel": "",
        "category": "基础设施:公共设施:公共厕所",
        "type": 0,
        "location": {
            "lat": 35.745005,
            "lng": 113.278848
        },
        "ad_info": {
            "adcode": 140524,
            "province": "山西省",
            "city": "晋城市",
            "district": "陵川县"
        }
    },
    {
        "id": "4044454797350334112",
        "title": "公共厕所",
        "address": "山西省晋城市泽州县晋张线与珏山青莲寺旅游公路交叉口正东方向124米左右",
        "tel": "",
        "category": "基础设施:公共设施:公共厕所",
        "type": 0,
        "location": {
            "lat": 35.473579,
            "lng": 113.002145
        },
        "ad_info": {
            "adcode": 140525,
            "province": "山西省",
            "city": "晋城市",
            "district": "泽州县"
        }
    },
    {
        "id": "1068199887093208184",
        "title": "公共厕所",
        "address": "山西省晋城市高平市坪曲线与杨界线交叉口正东方向1807米左右",
        "tel": "",
        "category": "基础设施:公共设施:公共厕所",
        "type": 0,
        "location": {
            "lat": 35.765255,
            "lng": 112.887164
        },
        "ad_info": {
            "adcode": 140581,
            "province": "山西省",
            "city": "晋城市",
            "district": "高平市"
        }
    },
    {
        "id": "1882449914007445532",
        "title": "公共厕所",
        "address": "山西省晋城市城区西仓巷与西仓西巷交叉口西北方向182米左右",
        "tel": "",
        "category": "基础设施:公共设施:公共厕所",
        "type": 0,
        "location": {
            "lat": 35.508351,
            "lng": 112.836442
        },
        "ad_info": {
            "adcode": 140502,
            "province": "山西省",
            "city": "晋城市",
            "district": "城区"
        }
    },
    {
        "id": "12376760781890988540",
        "title": "公共厕所",
        "address": "山西省晋城市阳城县新阳西街辅路与新风路交叉口东南方向190米左右",
        "tel": "",
        "category": "基础设施:公共设施:公共厕所",
        "type": 0,
        "location": {
            "lat": 35.489124,
            "lng": 112.409477
        },
        "ad_info": {
            "adcode": 140522,
            "province": "山西省",
            "city": "晋城市",
            "district": "阳城县"
        }
    },
    {
        "id": "12771180056510682043",
        "title": "公共厕所",
        "address": "山西省晋城市城区东环辅路与畅安路交叉口西南方向411米左右",
        "tel": "",
        "category": "基础设施:公共设施:公共厕所",
        "type": 0,
        "location": {
            "lat": 35.565031,
            "lng": 112.902066
        },
        "ad_info": {
            "adcode": 140502,
            "province": "山西省",
            "city": "晋城市",
            "district": "城区"
        }
    },
    {
        "id": "6325099430494721691",
        "title": "公共厕所",
        "address": "山西省晋城市城区凤台东街与泽州路交叉口东南方向159米左右",
        "tel": "",
        "category": "基础设施:公共设施:公共厕所",
        "type": 0,
        "location": {
            "lat": 35.488933,
            "lng": 112.856233
        },
        "ad_info": {
            "adcode": 140502,
            "province": "山西省",
            "city": "晋城市",
            "district": "城区"
        }
    },
    {
        "id": "12148653423505209794",
        "title": "公共厕所",
        "address": "山西省晋城市城区春晖路与白水东街交叉口西南方向161米左右",
        "tel": "",
        "category": "基础设施:公共设施:公共厕所",
        "type": 0,
        "location": {
            "lat": 35.474727,
            "lng": 112.883477
        },
        "ad_info": {
            "adcode": 140502,
            "province": "山西省",
            "city": "晋城市",
            "district": "城区"
        }
    },
    {
        "id": "5463296476199078694",
        "title": "晋城西服务区公共厕所",
        "address": "山西省晋城市泽州县晋城绕城高速晋城西服务区",
        "tel": "",
        "category": "基础设施:公共设施:公共厕所",
        "type": 0,
        "location": {
            "lat": 35.485252,
            "lng": 112.785606
        },
        "ad_info": {
            "adcode": 140525,
            "province": "山西省",
            "city": "晋城市",
            "district": "泽州县"
        }
    },
    {
        "id": "12295175296885119932",
        "title": "公共厕所",
        "address": "山西省晋城市阳城县八芹线与芦河东大道交叉口正东方向684米左右",
        "tel": "",
        "category": "基础设施:公共设施:公共厕所",
        "type": 0,
        "location": {
            "lat": 35.590937,
            "lng": 112.371754
        },
        "ad_info": {
            "adcode": 140522,
            "province": "山西省",
            "city": "晋城市",
            "district": "阳城县"
        }
    },
    {
        "id": "7085736626708182348",
        "title": "公共厕所",
        "address": "山西省晋城市城区匠星街与西环路交叉口东南方向758米左右",
        "tel": "",
        "category": "基础设施:公共设施:公共厕所",
        "type": 0,
        "location": {
            "lat": 35.503472,
            "lng": 112.808914
        },
        "ad_info": {
            "adcode": 140502,
            "province": "山西省",
            "city": "晋城市",
            "district": "城区"
        }
    },
    {
        "id": "4961499576180812682",
        "title": "公共厕所",
        "address": "山西省晋城市阳城县新坛路与通济路交叉口正西方向159米左右",
        "tel": "",
        "category": "基础设施:公共设施:公共厕所",
        "type": 0,
        "location": {
            "lat": 35.483741,
            "lng": 112.429397
        },
        "ad_info": {
            "adcode": 140522,
            "province": "山西省",
            "city": "晋城市",
            "district": "阳城县"
        }
    },
    {
        "id": "18135605739464537064",
        "title": "公共厕所",
        "address": "山西省晋城市沁水县331省道北50米",
        "tel": "",
        "category": "基础设施:公共设施:公共厕所",
        "type": 0,
        "location": {
            "lat": 35.706906,
            "lng": 112.604179
        },
        "ad_info": {
            "adcode": 140521,
            "province": "山西省",
            "city": "晋城市",
            "district": "沁水县"
        }
    },
    {
        "id": "9085270993154140372",
        "title": "公共厕所",
        "address": "山西省晋城市高平市太华路与迎宾路交叉口正东方向44米左右",
        "tel": "",
        "category": "基础设施:公共设施:公共厕所",
        "type": 0,
        "location": {
            "lat": 35.805698,
            "lng": 112.923078
        },
        "ad_info": {
            "adcode": 140581,
            "province": "山西省",
            "city": "晋城市",
            "district": "高平市"
        }
    },
    {
        "id": "6140890192954084971",
        "title": "公共厕所",
        "address": "山西省晋城市泽州县日凤线与陵沁线交叉口西南方向486米左右",
        "tel": "",
        "category": "基础设施:公共设施:公共厕所",
        "type": 0,
        "location": {
            "lat": 35.545719,
            "lng": 112.701426
        },
        "ad_info": {
            "adcode": 140525,
            "province": "山西省",
            "city": "晋城市",
            "district": "泽州县"
        }
    },
    {
        "id": "18173506259487874933",
        "title": "公共厕所",
        "address": "山西省晋城市阳城县八芹线与日凤线交叉口西北方向263米左右",
        "tel": "",
        "category": "基础设施:公共设施:公共厕所",
        "type": 0,
        "location": {
            "lat": 35.483767,
            "lng": 112.498151
        },
        "ad_info": {
            "adcode": 140522,
            "province": "山西省",
            "city": "晋城市",
            "district": "阳城县"
        }
    },
    {
        "id": "11327491593585148461",
        "title": "公共厕所",
        "address": "山西省晋城市城区东上庄立交桥与晋张线交叉口正南方向113米左右",
        "tel": "",
        "category": "基础设施:公共设施:公共厕所",
        "type": 0,
        "location": {
            "lat": 35.484903,
            "lng": 112.894616
        },
        "ad_info": {
            "adcode": 140502,
            "province": "山西省",
            "city": "晋城市",
            "district": "城区"
        }
    },
    {
        "id": "13608324687594217950",
        "title": "公共厕所",
        "address": "山西省晋城市高平市坪曲线与陈老线交叉口东北方向135米左右",
        "tel": "",
        "category": "基础设施:公共设施:公共厕所",
        "type": 0,
        "location": {
            "lat": 35.753609,
            "lng": 112.835577
        },
        "ad_info": {
            "adcode": 140581,
            "province": "山西省",
            "city": "晋城市",
            "district": "高平市"
        }
    },
    {
        "id": "10778958806413021274",
        "title": "公共厕所",
        "address": "山西省晋城市沁水县太行1号路沁水段支线与翼舜线交叉口西北方向1175米左右",
        "tel": "",
        "category": "基础设施:公共设施:公共厕所",
        "type": 0,
        "location": {
            "lat": 35.565732,
            "lng": 111.985691
        },
        "ad_info": {
            "adcode": 140521,
            "province": "山西省",
            "city": "晋城市",
            "district": "沁水县"
        }
    },
    {
        "id": "1105128881134862314",
        "title": "公共厕所",
        "address": "山西省晋城市城区畅安路与康平街交叉口正西方向1127米",
        "tel": "",
        "category": "基础设施:公共设施:公共厕所",
        "type": 0,
        "location": {
            "lat": 35.550202,
            "lng": 112.890957
        },
        "ad_info": {
            "adcode": 140502,
            "province": "山西省",
            "city": "晋城市",
            "district": "城区"
        }
    },
    {
        "id": "5914042619597902196",
        "title": "陵川服务区公共厕所",
        "address": "山西省晋城市陵川县陵川服务区附近",
        "tel": "",
        "category": "基础设施:公共设施:公共厕所",
        "type": 0,
        "location": {
            "lat": 35.745005,
            "lng": 113.278848
        },
        "ad_info": {
            "adcode": 140524,
            "province": "山西省",
            "city": "晋城市",
            "district": "陵川县"
        }
    },
    {
        "id": "4044454797350334112",
        "title": "公共厕所",
        "address": "山西省晋城市泽州县晋张线与珏山青莲寺旅游公路交叉口正东方向124米左右",
        "tel": "",
        "category": "基础设施:公共设施:公共厕所",
        "type": 0,
        "location": {
            "lat": 35.473579,
            "lng": 113.002145
        },
        "ad_info": {
            "adcode": 140525,
            "province": "山西省",
            "city": "晋城市",
            "district": "泽州县"
        }
    },
    {
        "id": "1068199887093208184",
        "title": "公共厕所",
        "address": "山西省晋城市高平市坪曲线与杨界线交叉口正东方向1807米左右",
        "tel": "",
        "category": "基础设施:公共设施:公共厕所",
        "type": 0,
        "location": {
            "lat": 35.765255,
            "lng": 112.887164
        },
        "ad_info": {
            "adcode": 140581,
            "province": "山西省",
            "city": "晋城市",
            "district": "高平市"
        }
    },
    {
        "id": "1882449914007445532",
        "title": "公共厕所",
        "address": "山西省晋城市城区西仓巷与西仓西巷交叉口西北方向182米左右",
        "tel": "",
        "category": "基础设施:公共设施:公共厕所",
        "type": 0,
        "location": {
            "lat": 35.508351,
            "lng": 112.836442
        },
        "ad_info": {
            "adcode": 140502,
            "province": "山西省",
            "city": "晋城市",
            "district": "城区"
        }
    },
    {
        "id": "12376760781890988540",
        "title": "公共厕所",
        "address": "山西省晋城市阳城县新阳西街辅路与新风路交叉口东南方向190米左右",
        "tel": "",
        "category": "基础设施:公共设施:公共厕所",
        "type": 0,
        "location": {
            "lat": 35.489124,
            "lng": 112.409477
        },
        "ad_info": {
            "adcode": 140522,
            "province": "山西省",
            "city": "晋城市",
            "district": "阳城县"
        }
    },
    {
        "id": "12771180056510682043",
        "title": "公共厕所",
        "address": "山西省晋城市城区东环辅路与畅安路交叉口西南方向411米左右",
        "tel": "",
        "category": "基础设施:公共设施:公共厕所",
        "type": 0,
        "location": {
            "lat": 35.565031,
            "lng": 112.902066
        },
        "ad_info": {
            "adcode": 140502,
            "province": "山西省",
            "city": "晋城市",
            "district": "城区"
        }
    },
    {
        "id": "6325099430494721691",
        "title": "公共厕所",
        "address": "山西省晋城市城区凤台东街与泽州路交叉口东南方向159米左右",
        "tel": "",
        "category": "基础设施:公共设施:公共厕所",
        "type": 0,
        "location": {
            "lat": 35.488933,
            "lng": 112.856233
        },
        "ad_info": {
            "adcode": 140502,
            "province": "山西省",
            "city": "晋城市",
            "district": "城区"
        }
    },
    {
        "id": "12148653423505209794",
        "title": "公共厕所",
        "address": "山西省晋城市城区春晖路与白水东街交叉口西南方向161米左右",
        "tel": "",
        "category": "基础设施:公共设施:公共厕所",
        "type": 0,
        "location": {
            "lat": 35.474727,
            "lng": 112.883477
        },
        "ad_info": {
            "adcode": 140502,
            "province": "山西省",
            "city": "晋城市",
            "district": "城区"
        }
    }
]