[
    {
        "id": "4533427445404779647",
        "title": "公共厕所",
        "address": "云南省普洱市景东彝族自治县G215与凌云路交叉口东北方向284米左右",
        "tel": "",
        "category": "基础设施:公共设施:公共厕所",
        "type": 0,
        "location": {
            "lat": 24.457744,
            "lng": 100.831503
        },
        "ad_info": {
            "adcode": 530823,
            "province": "云南省",
            "city": "普洱市",
            "district": "景东彝族自治县"
        }
    },
    {
        "id": "11196643467753568750",
        "title": "公共厕所",
        "address": "云南省普洱市景东彝族自治县凌云路与无量大道交叉口正南方向331米左右",
        "tel": "",
        "category": "基础设施:公共设施:公共厕所",
        "type": 0,
        "location": {
            "lat": 24.435333,
            "lng": 100.856712
        },
        "ad_info": {
            "adcode": 530823,
            "province": "云南省",
            "city": "普洱市",
            "district": "景东彝族自治县"
        }
    },
    {
        "id": "5943449640421014561",
        "title": "公共厕所",
        "address": "云南省普洱市澜沧拉祜族自治县东朗路与建设路交叉口西南方向51米左右",
        "tel": "",
        "category": "基础设施:公共设施:公共厕所",
        "type": 0,
        "location": {
            "lat": 22.555515,
            "lng": 99.929331
        },
        "ad_info": {
            "adcode": 530828,
            "province": "云南省",
            "city": "普洱市",
            "district": "澜沧拉祜族自治县"
        }
    },
    {
        "id": "7977357175911874289",
        "title": "公共厕所",
        "address": "云南省普洱市景东彝族自治县九龙路与者干路交叉口东北方向251米左右",
        "tel": "",
        "category": "基础设施:公共设施:公共厕所",
        "type": 0,
        "location": {
            "lat": 24.44626,
            "lng": 100.852211
        },
        "ad_info": {
            "adcode": 530823,
            "province": "云南省",
            "city": "普洱市",
            "district": "景东彝族自治县"
        }
    },
    {
        "id": "9356279227740866501",
        "title": "公共厕所",
        "address": "云南省普洱市景东彝族自治县景东四中东侧170米",
        "tel": "",
        "category": "基础设施:公共设施:公共厕所",
        "type": 0,
        "location": {
            "lat": 24.308257,
            "lng": 100.928263
        },
        "ad_info": {
            "adcode": 530823,
            "province": "云南省",
            "city": "普洱市",
            "district": "景东彝族自治县"
        }
    },
    {
        "id": "4127508926023804420",
        "title": "公共厕所",
        "address": "云南省普洱市思茅区天民街与太平街交叉口东南方向88米左右",
        "tel": "",
        "category": "基础设施:公共设施:公共厕所",
        "type": 0,
        "location": {
            "lat": 22.784013,
            "lng": 100.974203
        },
        "ad_info": {
            "adcode": 530802,
            "province": "云南省",
            "city": "普洱市",
            "district": "思茅区"
        }
    },
    {
        "id": "17210122218914300991",
        "title": "公共厕所",
        "address": "云南省普洱市澜沧拉祜族自治县东朗路与建设路交叉口西北方向135米左右",
        "tel": "",
        "category": "基础设施:公共设施:公共厕所",
        "type": 0,
        "location": {
            "lat": 22.556622,
            "lng": 99.92865
        },
        "ad_info": {
            "adcode": 530828,
            "province": "云南省",
            "city": "普洱市",
            "district": "澜沧拉祜族自治县"
        }
    },
    {
        "id": "10478500492245773575",
        "title": "公共厕所",
        "address": "云南省普洱市澜沧拉祜族自治县勐朗街与芦笙路交叉口正南方向179米左右",
        "tel": "",
        "category": "基础设施:公共设施:公共厕所",
        "type": 0,
        "location": {
            "lat": 22.547879,
            "lng": 99.93022
        },
        "ad_info": {
            "adcode": 530828,
            "province": "云南省",
            "city": "普洱市",
            "district": "澜沧拉祜族自治县"
        }
    },
    {
        "id": "6721625135586526289",
        "title": "公共厕所",
        "address": "云南省普洱市思茅区学苑路思茅第六中学西北侧约30米",
        "tel": "",
        "category": "基础设施:公共设施:公共厕所",
        "type": 0,
        "location": {
            "lat": 22.765736,
            "lng": 100.997573
        },
        "ad_info": {
            "adcode": 530802,
            "province": "云南省",
            "city": "普洱市",
            "district": "思茅区"
        }
    },
    {
        "id": "4370503470602905947",
        "title": "公共厕所",
        "address": "云南省普洱市思茅区孟连路与德化路交叉口西南方向90米左右",
        "tel": "",
        "category": "基础设施:公共设施:公共厕所",
        "type": 0,
        "location": {
            "lat": 22.809519,
            "lng": 100.970226
        },
        "ad_info": {
            "adcode": 530802,
            "province": "云南省",
            "city": "普洱市",
            "district": "思茅区"
        }
    },
    {
        "id": "1186278593920856956",
        "title": "公共厕所",
        "address": "云南省普洱市镇沅彝族哈尼族拉祜族自治县向阳北路与迎宾路交叉口正南方向75米左右",
        "tel": "",
        "category": "基础设施:公共设施:公共厕所",
        "type": 0,
        "location": {
            "lat": 24.001858,
            "lng": 101.109612
        },
        "ad_info": {
            "adcode": 530825,
            "province": "云南省",
            "city": "普洱市",
            "district": "镇沅彝族哈尼族拉祜族自治县"
        }
    },
    {
        "id": "9491141570862325277",
        "title": "公共厕所",
        "address": "云南省普洱市镇沅彝族哈尼族拉祜族自治县恩水路与绿海路交叉口西北方向205米左右",
        "tel": "",
        "category": "基础设施:公共设施:公共厕所",
        "type": 0,
        "location": {
            "lat": 24.000056,
            "lng": 101.114712
        },
        "ad_info": {
            "adcode": 530825,
            "province": "云南省",
            "city": "普洱市",
            "district": "镇沅彝族哈尼族拉祜族自治县"
        }
    },
    {
        "id": "8846000799023213396",
        "title": "公共厕所",
        "address": "云南省普洱市思茅区明礼巷与通商路交叉口西南方向47米左右",
        "tel": "",
        "category": "基础设施:公共设施:公共厕所",
        "type": 0,
        "location": {
            "lat": 22.774885,
            "lng": 100.973403
        },
        "ad_info": {
            "adcode": 530802,
            "province": "云南省",
            "city": "普洱市",
            "district": "思茅区"
        }
    },
    {
        "id": "5124545358028632561",
        "title": "公共厕所",
        "address": "云南省普洱市江城哈尼族彝族自治县勐烈大街与联谊路交叉口西南方向41米左右",
        "tel": "",
        "category": "基础设施:公共设施:公共厕所",
        "type": 0,
        "location": {
            "lat": 22.585774,
            "lng": 101.855139
        },
        "ad_info": {
            "adcode": 530826,
            "province": "云南省",
            "city": "普洱市",
            "district": "江城哈尼族彝族自治县"
        }
    },
    {
        "id": "3487138900260073744",
        "title": "公共厕所",
        "address": "云南省普洱市思茅区振兴南路与旅游环线交叉口东南方向270米左右",
        "tel": "",
        "category": "基础设施:公共设施:公共厕所",
        "type": 0,
        "location": {
            "lat": 22.749367,
            "lng": 100.957356
        },
        "ad_info": {
            "adcode": 530802,
            "province": "云南省",
            "city": "普洱市",
            "district": "思茅区"
        }
    },
    {
        "id": "10070703388646072704",
        "title": "公共厕所",
        "address": "云南省普洱市江城哈尼族彝族自治县一中路与勐烈大街交叉口正西方向11米左右",
        "tel": "",
        "category": "基础设施:公共设施:公共厕所",
        "type": 0,
        "location": {
            "lat": 22.584186,
            "lng": 101.861261
        },
        "ad_info": {
            "adcode": 530826,
            "province": "云南省",
            "city": "普洱市",
            "district": "江城哈尼族彝族自治县"
        }
    },
    {
        "id": "2933152690782940763",
        "title": "公共厕所",
        "address": "云南省普洱市江城哈尼族彝族自治县G227",
        "tel": "",
        "category": "基础设施:公共设施:公共厕所",
        "type": 0,
        "location": {
            "lat": 22.540582,
            "lng": 101.483431
        },
        "ad_info": {
            "adcode": 530826,
            "province": "云南省",
            "city": "普洱市",
            "district": "江城哈尼族彝族自治县"
        }
    },
    {
        "id": "7904738161877441440",
        "title": "公共厕所",
        "address": "云南省普洱市镇沅彝族哈尼族拉祜族自治县者东镇中心卫生院核酸采样点东侧140米",
        "tel": "",
        "category": "基础设施:公共设施:公共厕所",
        "type": 0,
        "location": {
            "lat": 24.00111,
            "lng": 101.279233
        },
        "ad_info": {
            "adcode": 530825,
            "province": "云南省",
            "city": "普洱市",
            "district": "镇沅彝族哈尼族拉祜族自治县"
        }
    },
    {
        "id": "10641917807204420276",
        "title": "公共厕所",
        "address": "云南省普洱市澜沧拉祜族自治县勐朗街177号",
        "tel": "",
        "category": "基础设施:公共设施:公共厕所",
        "type": 0,
        "location": {
            "lat": 22.554678,
            "lng": 99.931351
        },
        "ad_info": {
            "adcode": 530828,
            "province": "云南省",
            "city": "普洱市",
            "district": "澜沧拉祜族自治县"
        }
    },
    {
        "id": "18236920810499511296",
        "title": "公共厕所",
        "address": "云南省普洱市思茅区林源路与迎春巷交叉口正西方向74米左右",
        "tel": "",
        "category": "基础设施:公共设施:公共厕所",
        "type": 0,
        "location": {
            "lat": 22.768103,
            "lng": 100.974527
        },
        "ad_info": {
            "adcode": 530802,
            "province": "云南省",
            "city": "普洱市",
            "district": "思茅区"
        }
    },
    {
        "id": "11798790017134216584",
        "title": "公共厕所",
        "address": "云南省普洱市镇沅彝族哈尼族拉祜族自治县G323与恩水路交叉口西南方向672米左右",
        "tel": "",
        "category": "基础设施:公共设施:公共厕所",
        "type": 0,
        "location": {
            "lat": 23.952582,
            "lng": 101.129292
        },
        "ad_info": {
            "adcode": 530825,
            "province": "云南省",
            "city": "普洱市",
            "district": "镇沅彝族哈尼族拉祜族自治县"
        }
    },
    {
        "id": "11096502672374114839",
        "title": "公共厕所",
        "address": "云南省普洱市思茅区同心路与普洱大道交叉口正南方向46米左右",
        "tel": "",
        "category": "基础设施:公共设施:公共厕所",
        "type": 0,
        "location": {
            "lat": 22.819864,
            "lng": 100.979842
        },
        "ad_info": {
            "adcode": 530802,
            "province": "云南省",
            "city": "普洱市",
            "district": "思茅区"
        }
    },
    {
        "id": "4323000200133706874",
        "title": "公共厕所",
        "address": "云南省普洱市澜沧拉祜族自治县佛房路与六一路交叉口正南方向326米左右",
        "tel": "",
        "category": "基础设施:公共设施:公共厕所",
        "type": 0,
        "location": {
            "lat": 22.552659,
            "lng": 99.937275
        },
        "ad_info": {
            "adcode": 530828,
            "province": "云南省",
            "city": "普洱市",
            "district": "澜沧拉祜族自治县"
        }
    },
    {
        "id": "5917443547965920505",
        "title": "公共厕所",
        "address": "云南省普洱市思茅区振兴大道与长青巷交叉口正西方向140米左右",
        "tel": "",
        "category": "基础设施:公共设施:公共厕所",
        "type": 0,
        "location": {
            "lat": 22.772878,
            "lng": 100.969038
        },
        "ad_info": {
            "adcode": 530802,
            "province": "云南省",
            "city": "普洱市",
            "district": "思茅区"
        }
    },
    {
        "id": "6870430716622827612",
        "title": "公共厕所",
        "address": "云南省普洱市思茅区红旗会堂55号",
        "tel": "",
        "category": "基础设施:公共设施:公共厕所",
        "type": 0,
        "location": {
            "lat": 22.778972,
            "lng": 100.971136
        },
        "ad_info": {
            "adcode": 530802,
            "province": "云南省",
            "city": "普洱市",
            "district": "思茅区"
        }
    },
    {
        "id": "48127493543794359",
        "title": "公共厕所",
        "address": "云南省普洱市景东彝族自治县222省道东50米",
        "tel": "",
        "category": "基础设施:公共设施:公共厕所",
        "type": 0,
        "location": {
            "lat": 24.099965,
            "lng": 101.053041
        },
        "ad_info": {
            "adcode": 530823,
            "province": "云南省",
            "city": "普洱市",
            "district": "景东彝族自治县"
        }
    },
    {
        "id": "4452296812858099668",
        "title": "公共厕所",
        "address": "云南省普洱市镇沅彝族哈尼族拉祜族自治县农家傣味菜馆西南侧",
        "tel": "",
        "category": "基础设施:公共设施:公共厕所",
        "type": 0,
        "location": {
            "lat": 23.848868,
            "lng": 100.637532
        },
        "ad_info": {
            "adcode": 530825,
            "province": "云南省",
            "city": "普洱市",
            "district": "镇沅彝族哈尼族拉祜族自治县"
        }
    },
    {
        "id": "9254978186117383597",
        "title": "公共厕所",
        "address": "云南省普洱市思茅区林源路(阳光合园)",
        "tel": "",
        "category": "基础设施:公共设施:公共厕所",
        "type": 0,
        "location": {
            "lat": 22.763336,
            "lng": 100.968876
        },
        "ad_info": {
            "adcode": 530802,
            "province": "云南省",
            "city": "普洱市",
            "district": "思茅区"
        }
    },
    {
        "id": "3421284544788884645",
        "title": "公共厕所",
        "address": "云南省普洱市思茅区振兴北路与石龙路交叉口西北方向86米左右",
        "tel": "",
        "category": "基础设施:公共设施:公共厕所",
        "type": 0,
        "location": {
            "lat": 22.8034,
            "lng": 100.972581
        },
        "ad_info": {
            "adcode": 530802,
            "province": "云南省",
            "city": "普洱市",
            "district": "思茅区"
        }
    },
    {
        "id": "17803941789819730374",
        "title": "公共厕所",
        "address": "云南省普洱市思茅区林源路与迎春巷交叉口正西方向161米左右",
        "tel": "",
        "category": "基础设施:公共设施:公共厕所",
        "type": 0,
        "location": {
            "lat": 22.768381,
            "lng": 100.973668
        },
        "ad_info": {
            "adcode": 530802,
            "province": "云南省",
            "city": "普洱市",
            "district": "思茅区"
        }
    },
    {
        "id": "13089083532734906153",
        "title": "公共厕所",
        "address": "云南省普洱市思茅区振兴大道与民航路交叉口正西方向98米左右",
        "tel": "",
        "category": "基础设施:公共设施:公共厕所",
        "type": 0,
        "location": {
            "lat": 22.780279,
            "lng": 100.970708
        },
        "ad_info": {
            "adcode": 530802,
            "province": "云南省",
            "city": "普洱市",
            "district": "思茅区"
        }
    },
    {
        "id": "2339927921384318995",
        "title": "公共厕所",
        "address": "云南省普洱市思茅区物资巷与边城路交叉口正西方向79米左右",
        "tel": "",
        "category": "基础设施:公共设施:公共厕所",
        "type": 0,
        "location": {
            "lat": 22.785986,
            "lng": 100.967943
        },
        "ad_info": {
            "adcode": 530802,
            "province": "云南省",
            "city": "普洱市",
            "district": "思茅区"
        }
    },
    {
        "id": "12699761328869620606",
        "title": "公共厕所",
        "address": "云南省普洱市思茅区北门街与思亭路交叉口东北方向58米左右",
        "tel": "",
        "category": "基础设施:公共设施:公共厕所",
        "type": 0,
        "location": {
            "lat": 22.791741,
            "lng": 100.976455
        },
        "ad_info": {
            "adcode": 530802,
            "province": "云南省",
            "city": "普洱市",
            "district": "思茅区"
        }
    },
    {
        "id": "3920253156194929136",
        "title": "公共厕所",
        "address": "云南省普洱市思茅区文华路与茶苑路交叉口正北方向139米左右",
        "tel": "",
        "category": "基础设施:公共设施:公共厕所",
        "type": 0,
        "location": {
            "lat": 22.76235,
            "lng": 100.97834
        },
        "ad_info": {
            "adcode": 530802,
            "province": "云南省",
            "city": "普洱市",
            "district": "思茅区"
        }
    },
    {
        "id": "3508899908941765845",
        "title": "公共厕所",
        "address": "云南省普洱市思茅区振兴大道73号",
        "tel": "",
        "category": "基础设施:公共设施:公共厕所",
        "type": 0,
        "location": {
            "lat": 22.774821,
            "lng": 100.97112
        },
        "ad_info": {
            "adcode": 530802,
            "province": "云南省",
            "city": "普洱市",
            "district": "思茅区"
        }
    },
    {
        "id": "18254344657007259088",
        "title": "公共厕所",
        "address": "云南省普洱市江城哈尼族彝族自治县三江大道与尚景路交叉口东南方向107米左右",
        "tel": "",
        "category": "基础设施:公共设施:公共厕所",
        "type": 0,
        "location": {
            "lat": 22.560797,
            "lng": 101.875495
        },
        "ad_info": {
            "adcode": 530826,
            "province": "云南省",
            "city": "普洱市",
            "district": "江城哈尼族彝族自治县"
        }
    },
    {
        "id": "17380674110917667934",
        "title": "公共厕所",
        "address": "云南省普洱市澜沧拉祜族自治县G214与上允段交叉口西南方向239米左右",
        "tel": "",
        "category": "基础设施:公共设施:公共厕所",
        "type": 0,
        "location": {
            "lat": 23.046748,
            "lng": 99.827237
        },
        "ad_info": {
            "adcode": 530828,
            "province": "云南省",
            "city": "普洱市",
            "district": "澜沧拉祜族自治县"
        }
    },
    {
        "id": "4921211150487182752",
        "title": "公共厕所",
        "address": "云南省普洱市江城哈尼族彝族自治县",
        "tel": "",
        "category": "基础设施:公共设施:公共厕所",
        "type": 0,
        "location": {
            "lat": 22.480925,
            "lng": 101.532024
        },
        "ad_info": {
            "adcode": 530826,
            "province": "云南省",
            "city": "普洱市",
            "district": "江城哈尼族彝族自治县"
        }
    },
    {
        "id": "4744949538413866772",
        "title": "公共厕所",
        "address": "云南省普洱市江城哈尼族彝族自治县",
        "tel": "",
        "category": "基础设施:公共设施:公共厕所",
        "type": 0,
        "location": {
            "lat": 22.503297,
            "lng": 102.179488
        },
        "ad_info": {
            "adcode": 530826,
            "province": "云南省",
            "city": "普洱市",
            "district": "江城哈尼族彝族自治县"
        }
    },
    {
        "id": "2777787212324852333",
        "title": "公共厕所",
        "address": "云南省普洱市江城哈尼族彝族自治县康平镇中国石油和平寨加油站",
        "tel": "",
        "category": "基础设施:公共设施:公共厕所",
        "type": 0,
        "location": {
            "lat": 22.555529,
            "lng": 101.667327
        },
        "ad_info": {
            "adcode": 530826,
            "province": "云南省",
            "city": "普洱市",
            "district": "江城哈尼族彝族自治县"
        }
    },
    {
        "id": "17014662495428818511",
        "title": "公共厕所",
        "address": "云南省普洱市镇沅彝族哈尼族拉祜族自治县千家寨风景名胜区",
        "tel": "",
        "category": "基础设施:公共设施:公共厕所",
        "type": 0,
        "location": {
            "lat": 24.26255,
            "lng": 101.258406
        },
        "ad_info": {
            "adcode": 530825,
            "province": "云南省",
            "city": "普洱市",
            "district": "镇沅彝族哈尼族拉祜族自治县"
        }
    },
    {
        "id": "13369669234599695901",
        "title": "公共厕所",
        "address": "云南省普洱市思茅区振兴大道与边城路交叉口正南方向189米左右",
        "tel": "",
        "category": "基础设施:公共设施:公共厕所",
        "type": 0,
        "location": {
            "lat": 22.783918,
            "lng": 100.971269
        },
        "ad_info": {
            "adcode": 530802,
            "province": "云南省",
            "city": "普洱市",
            "district": "思茅区"
        }
    },
    {
        "id": "11756420358785471328",
        "title": "公共厕所",
        "address": "云南省普洱市思茅区新兴街与洗马河路交叉口正南方向150米左右",
        "tel": "",
        "category": "基础设施:公共设施:公共厕所",
        "type": 0,
        "location": {
            "lat": 22.78262,
            "lng": 100.979524
        },
        "ad_info": {
            "adcode": 530802,
            "province": "云南省",
            "city": "普洱市",
            "district": "思茅区"
        }
    },
    {
        "id": "8002933069125440506",
        "title": "公共厕所",
        "address": "云南省普洱市镇沅彝族哈尼族拉祜族自治县",
        "tel": "",
        "category": "基础设施:公共设施:公共厕所",
        "type": 0,
        "location": {
            "lat": 23.931542,
            "lng": 101.425268
        },
        "ad_info": {
            "adcode": 530825,
            "province": "云南省",
            "city": "普洱市",
            "district": "镇沅彝族哈尼族拉祜族自治县"
        }
    },
    {
        "id": "8797035511566015857",
        "title": "公共厕所",
        "address": "云南省普洱市思茅区人民东路与林源路交叉口西南方向129米左右",
        "tel": "",
        "category": "基础设施:公共设施:公共厕所",
        "type": 0,
        "location": {
            "lat": 22.772759,
            "lng": 100.979581
        },
        "ad_info": {
            "adcode": 530802,
            "province": "云南省",
            "city": "普洱市",
            "district": "思茅区"
        }
    },
    {
        "id": "15644421204604703905",
        "title": "公共厕所",
        "address": "云南省普洱市思茅区振兴南路与曙光路交叉口东北方向128米左右",
        "tel": "",
        "category": "基础设施:公共设施:公共厕所",
        "type": 0,
        "location": {
            "lat": 22.7625,
            "lng": 100.961791
        },
        "ad_info": {
            "adcode": 530802,
            "province": "云南省",
            "city": "普洱市",
            "district": "思茅区"
        }
    },
    {
        "id": "3240227821675643471",
        "title": "公共厕所",
        "address": "云南省普洱市思茅区鱼水路茶花园(西南角)",
        "tel": "",
        "category": "基础设施:公共设施:公共厕所",
        "type": 0,
        "location": {
            "lat": 22.764368,
            "lng": 100.979375
        },
        "ad_info": {
            "adcode": 530802,
            "province": "云南省",
            "city": "普洱市",
            "district": "思茅区"
        }
    },
    {
        "id": "4406303762116071120",
        "title": "公共厕所",
        "address": "云南省普洱市思茅区嘎龙路与振兴北路交叉口西南方向139米左右",
        "tel": "",
        "category": "基础设施:公共设施:公共厕所",
        "type": 0,
        "location": {
            "lat": 22.804224,
            "lng": 100.972023
        },
        "ad_info": {
            "adcode": 530802,
            "province": "云南省",
            "city": "普洱市",
            "district": "思茅区"
        }
    },
    {
        "id": "9729814843172054189",
        "title": "公共厕所",
        "address": "云南省普洱市思茅区北11号路与普洱大道交叉口正北方向190米左右",
        "tel": "",
        "category": "基础设施:公共设施:公共厕所",
        "type": 0,
        "location": {
            "lat": 22.821029,
            "lng": 100.981658
        },
        "ad_info": {
            "adcode": 530802,
            "province": "云南省",
            "city": "普洱市",
            "district": "思茅区"
        }
    },
    {
        "id": "3057309245822641329",
        "title": "公共厕所",
        "address": "云南省普洱市思茅区菩提路与鱼水路交叉口东南方向52米左右",
        "tel": "",
        "category": "基础设施:公共设施:公共厕所",
        "type": 0,
        "location": {
            "lat": 22.762748,
            "lng": 100.993003
        },
        "ad_info": {
            "adcode": 530802,
            "province": "云南省",
            "city": "普洱市",
            "district": "思茅区"
        }
    },
    {
        "id": "13257492875190264168",
        "title": "公共厕所",
        "address": "云南省普洱市思茅区G227与木乃河路交叉口西北方向784米左右",
        "tel": "",
        "category": "基础设施:公共设施:公共厕所",
        "type": 0,
        "location": {
            "lat": 22.783542,
            "lng": 100.904076
        },
        "ad_info": {
            "adcode": 530802,
            "province": "云南省",
            "city": "普洱市",
            "district": "思茅区"
        }
    },
    {
        "id": "1954608272007523442",
        "title": "公共厕所",
        "address": "云南省普洱市思茅区思茅镇中国石化云南普洱西园加油站",
        "tel": "",
        "category": "基础设施:公共设施:公共厕所",
        "type": 0,
        "location": {
            "lat": 22.778603,
            "lng": 100.964635
        },
        "ad_info": {
            "adcode": 530802,
            "province": "云南省",
            "city": "普洱市",
            "district": "思茅区"
        }
    },
    {
        "id": "14836677927858508362",
        "title": "公共厕所",
        "address": "云南省普洱市澜沧拉祜族自治县G219与东岗隧道交叉口东南方向327米左右",
        "tel": "",
        "category": "基础设施:公共设施:公共厕所",
        "type": 0,
        "location": {
            "lat": 22.437085,
            "lng": 99.793108
        },
        "ad_info": {
            "adcode": 530828,
            "province": "云南省",
            "city": "普洱市",
            "district": "澜沧拉祜族自治县"
        }
    },
    {
        "id": "18206323927512945650",
        "title": "公共厕所",
        "address": "云南省普洱市思茅区凤凰巷与迎春巷交叉口正南方向130米左右",
        "tel": "",
        "category": "基础设施:公共设施:公共厕所",
        "type": 0,
        "location": {
            "lat": 22.769137,
            "lng": 100.973974
        },
        "ad_info": {
            "adcode": 530802,
            "province": "云南省",
            "city": "普洱市",
            "district": "思茅区"
        }
    },
    {
        "id": "5730766408666448701",
        "title": "公共厕所",
        "address": "云南省普洱市思茅区普洱大道辅路与茶城大道交叉口东北60米",
        "tel": "",
        "category": "基础设施:公共设施:公共厕所",
        "type": 0,
        "location": {
            "lat": 22.766849,
            "lng": 100.981658
        },
        "ad_info": {
            "adcode": 530802,
            "province": "云南省",
            "city": "普洱市",
            "district": "思茅区"
        }
    },
    {
        "id": "14908994389627371729",
        "title": "公共厕所",
        "address": "云南省普洱市思茅区利民巷与振兴大道交叉口正北方向105米左右",
        "tel": "",
        "category": "基础设施:公共设施:公共厕所",
        "type": 0,
        "location": {
            "lat": 22.78272,
            "lng": 100.971448
        },
        "ad_info": {
            "adcode": 530802,
            "province": "云南省",
            "city": "普洱市",
            "district": "思茅区"
        }
    },
    {
        "id": "1913039966381467735",
        "title": "公共厕所",
        "address": "云南省普洱市思茅区墨江路与茶苑路交叉口正南方向77米左右",
        "tel": "",
        "category": "基础设施:公共设施:公共厕所",
        "type": 0,
        "location": {
            "lat": 22.758642,
            "lng": 100.974095
        },
        "ad_info": {
            "adcode": 530802,
            "province": "云南省",
            "city": "普洱市",
            "district": "思茅区"
        }
    },
    {
        "id": "10410335269206252471",
        "title": "公共厕所",
        "address": "云南省普洱市思茅区五一路与南正街交叉口正东方向169米左右",
        "tel": "",
        "category": "基础设施:公共设施:公共厕所",
        "type": 0,
        "location": {
            "lat": 22.782612,
            "lng": 100.976682
        },
        "ad_info": {
            "adcode": 530802,
            "province": "云南省",
            "city": "普洱市",
            "district": "思茅区"
        }
    },
    {
        "id": "6635085968826828443",
        "title": "公共厕所",
        "address": "云南省普洱市思茅区普洱路与茶城大道交叉口正东方向193米左右",
        "tel": "",
        "category": "基础设施:公共设施:公共厕所",
        "type": 0,
        "location": {
            "lat": 22.800362,
            "lng": 100.980586
        },
        "ad_info": {
            "adcode": 530802,
            "province": "云南省",
            "city": "普洱市",
            "district": "思茅区"
        }
    },
    {
        "id": "7193808966202260404",
        "title": "公共厕所",
        "address": "云南省普洱市思茅区振兴大道普洱市人民医院",
        "tel": "",
        "category": "基础设施:公共设施:公共厕所",
        "type": 0,
        "location": {
            "lat": 22.780947,
            "lng": 100.972708
        },
        "ad_info": {
            "adcode": 530802,
            "province": "云南省",
            "city": "普洱市",
            "district": "思茅区"
        }
    },
    {
        "id": "2168744617888108837",
        "title": "公共厕所",
        "address": "云南省普洱市思茅区茶苑路中国石油",
        "tel": "",
        "category": "基础设施:公共设施:公共厕所",
        "type": 0,
        "location": {
            "lat": 22.754735,
            "lng": 100.964537
        },
        "ad_info": {
            "adcode": 530802,
            "province": "云南省",
            "city": "普洱市",
            "district": "思茅区"
        }
    },
    {
        "id": "10717464467794095530",
        "title": "公共厕所",
        "address": "云南省普洱市思茅区南屏路与振兴南路交叉口正南方向86米左右",
        "tel": "",
        "category": "基础设施:公共设施:公共厕所",
        "type": 0,
        "location": {
            "lat": 22.757862,
            "lng": 100.958361
        },
        "ad_info": {
            "adcode": 530802,
            "province": "云南省",
            "city": "普洱市",
            "district": "思茅区"
        }
    },
    {
        "id": "2093774350715110466",
        "title": "公共厕所",
        "address": "云南省普洱市思茅区墨江路与旅游环线交叉口正西方向233米左右",
        "tel": "",
        "category": "基础设施:公共设施:公共厕所",
        "type": 0,
        "location": {
            "lat": 22.755636,
            "lng": 100.973957
        },
        "ad_info": {
            "adcode": 530802,
            "province": "云南省",
            "city": "普洱市",
            "district": "思茅区"
        }
    },
    {
        "id": "1401872706208673130",
        "title": "公共厕所",
        "address": "云南省普洱市思茅区振兴大道与西门街交叉口东南方向124米左右",
        "tel": "",
        "category": "基础设施:公共设施:公共厕所",
        "type": 0,
        "location": {
            "lat": 22.786779,
            "lng": 100.972679
        },
        "ad_info": {
            "adcode": 530802,
            "province": "云南省",
            "city": "普洱市",
            "district": "思茅区"
        }
    },
    {
        "id": "9503439447693857161",
        "title": "公共厕所",
        "address": "云南省普洱市思茅区茶城大道56号",
        "tel": "",
        "category": "基础设施:公共设施:公共厕所",
        "type": 0,
        "location": {
            "lat": 22.775593,
            "lng": 100.976807
        },
        "ad_info": {
            "adcode": 530802,
            "province": "云南省",
            "city": "普洱市",
            "district": "思茅区"
        }
    },
    {
        "id": "2207951733631554832",
        "title": "公共厕所",
        "address": "云南省普洱市思茅区南屏路与振兴南路交叉口西南方向229米左右",
        "tel": "",
        "category": "基础设施:公共设施:公共厕所",
        "type": 0,
        "location": {
            "lat": 22.756787,
            "lng": 100.957104
        },
        "ad_info": {
            "adcode": 530802,
            "province": "云南省",
            "city": "普洱市",
            "district": "思茅区"
        }
    },
    {
        "id": "17834903176657118687",
        "title": "公共厕所",
        "address": "云南省普洱市镇沅彝族哈尼族拉祜族自治县学海路与绿海路交叉口正南方向57米左右",
        "tel": "",
        "category": "基础设施:公共设施:公共厕所",
        "type": 0,
        "location": {
            "lat": 24.008774,
            "lng": 101.105932
        },
        "ad_info": {
            "adcode": 530825,
            "province": "云南省",
            "city": "普洱市",
            "district": "镇沅彝族哈尼族拉祜族自治县"
        }
    },
    {
        "id": "17544834417173860032",
        "title": "公共厕所",
        "address": "云南省普洱市思茅区振兴北路与普洱路交叉口东北方向150米左右",
        "tel": "",
        "category": "基础设施:公共设施:公共厕所",
        "type": 0,
        "location": {
            "lat": 22.800104,
            "lng": 100.973197
        },
        "ad_info": {
            "adcode": 530802,
            "province": "云南省",
            "city": "普洱市",
            "district": "思茅区"
        }
    },
    {
        "id": "10145100958233224804",
        "title": "公共厕所",
        "address": "云南省普洱市镇沅彝族哈尼族拉祜族自治县恩水路与融林巷交叉口西北方向50米左右",
        "tel": "",
        "category": "基础设施:公共设施:公共厕所",
        "type": 0,
        "location": {
            "lat": 24.005411,
            "lng": 101.10979
        },
        "ad_info": {
            "adcode": 530825,
            "province": "云南省",
            "city": "普洱市",
            "district": "镇沅彝族哈尼族拉祜族自治县"
        }
    },
    {
        "id": "15190084918872497511",
        "title": "公共厕所",
        "address": "云南省普洱市思茅区人民东路与人民中路交叉口东北方向102米左右",
        "tel": "",
        "category": "基础设施:公共设施:公共厕所",
        "type": 0,
        "location": {
            "lat": 22.773359,
            "lng": 100.973518
        },
        "ad_info": {
            "adcode": 530802,
            "province": "云南省",
            "city": "普洱市",
            "district": "思茅区"
        }
    },
    {
        "id": "11358246633513022038",
        "title": "公共厕所",
        "address": "云南省普洱市思茅区德化路与无量路交叉口西北方向99米左右",
        "tel": "",
        "category": "基础设施:公共设施:公共厕所",
        "type": 0,
        "location": {
            "lat": 22.813882,
            "lng": 100.970183
        },
        "ad_info": {
            "adcode": 530802,
            "province": "云南省",
            "city": "普洱市",
            "district": "思茅区"
        }
    },
    {
        "id": "17627224785175777390",
        "title": "公共厕所",
        "address": "云南省普洱市思茅区普洱路6号",
        "tel": "",
        "category": "基础设施:公共设施:公共厕所",
        "type": 0,
        "location": {
            "lat": 22.801219,
            "lng": 100.981823
        },
        "ad_info": {
            "adcode": 530802,
            "province": "云南省",
            "city": "普洱市",
            "district": "思茅区"
        }
    },
    {
        "id": "3908518521217670373",
        "title": "公共厕所",
        "address": "云南省普洱市孟连傣族拉祜族佤族自治县S309与孟芒线交叉口西南方向891米左右",
        "tel": "",
        "category": "基础设施:公共设施:公共厕所",
        "type": 0,
        "location": {
            "lat": 22.302571,
            "lng": 99.589146
        },
        "ad_info": {
            "adcode": 530827,
            "province": "云南省",
            "city": "普洱市",
            "district": "孟连傣族拉祜族佤族自治县"
        }
    },
    {
        "id": "15662602878187524373",
        "title": "公共厕所",
        "address": "云南省普洱市思茅区天恒小区内",
        "tel": "",
        "category": "基础设施:公共设施:公共厕所",
        "type": 0,
        "location": {
            "lat": 22.787141,
            "lng": 100.967235
        },
        "ad_info": {
            "adcode": 530802,
            "province": "云南省",
            "city": "普洱市",
            "district": "思茅区"
        }
    },
    {
        "id": "8863709362225526303",
        "title": "公共厕所",
        "address": "云南省普洱市思茅区德化路与普洱大道交叉口正东方向213米左右",
        "tel": "",
        "category": "基础设施:公共设施:公共厕所",
        "type": 0,
        "location": {
            "lat": 22.820838,
            "lng": 100.97251
        },
        "ad_info": {
            "adcode": 530802,
            "province": "云南省",
            "city": "普洱市",
            "district": "思茅区"
        }
    },
    {
        "id": "786118563551199057",
        "title": "公共厕所",
        "address": "云南省普洱市思茅区一号路与福莲路交叉口西北方向384米左右",
        "tel": "",
        "category": "基础设施:公共设施:公共厕所",
        "type": 0,
        "location": {
            "lat": 22.791395,
            "lng": 100.996205
        },
        "ad_info": {
            "adcode": 530802,
            "province": "云南省",
            "city": "普洱市",
            "district": "思茅区"
        }
    },
    {
        "id": "6904069931553929536",
        "title": "公共厕所",
        "address": "云南省普洱市思茅区",
        "tel": "",
        "category": "基础设施:公共设施:公共厕所",
        "type": 0,
        "location": {
            "lat": 22.730165,
            "lng": 100.93399
        },
        "ad_info": {
            "adcode": 530802,
            "province": "云南省",
            "city": "普洱市",
            "district": "思茅区"
        }
    },
    {
        "id": "2967217294964574537",
        "title": "公共厕所",
        "address": "云南省普洱市孟连傣族拉祜族佤族自治县城东路与新城公路交叉口正东方向388米左右",
        "tel": "",
        "category": "基础设施:公共设施:公共厕所",
        "type": 0,
        "location": {
            "lat": 22.333509,
            "lng": 99.605801
        },
        "ad_info": {
            "adcode": 530827,
            "province": "云南省",
            "city": "普洱市",
            "district": "孟连傣族拉祜族佤族自治县"
        }
    },
    {
        "id": "6410742781862337630",
        "title": "公共厕所",
        "address": "云南省普洱市澜沧拉祜族自治县G227与江勐高速交叉口正东方向1572米左右",
        "tel": "",
        "category": "基础设施:公共设施:公共厕所",
        "type": 0,
        "location": {
            "lat": 22.585085,
            "lng": 100.476171
        },
        "ad_info": {
            "adcode": 530828,
            "province": "云南省",
            "city": "普洱市",
            "district": "澜沧拉祜族自治县"
        }
    },
    {
        "id": "13061417722341483421",
        "title": "公共厕所",
        "address": "云南省普洱市孟连傣族拉祜族佤族自治县帕当路与建设路交叉口正东方向122米左右",
        "tel": "",
        "category": "基础设施:公共设施:公共厕所",
        "type": 0,
        "location": {
            "lat": 22.327385,
            "lng": 99.589018
        },
        "ad_info": {
            "adcode": 530827,
            "province": "云南省",
            "city": "普洱市",
            "district": "孟连傣族拉祜族佤族自治县"
        }
    },
    {
        "id": "14285705347841542138",
        "title": "公共厕所",
        "address": "云南省普洱市澜沧拉祜族自治县G214(西景线)",
        "tel": "",
        "category": "基础设施:公共设施:公共厕所",
        "type": 0,
        "location": {
            "lat": 22.274281,
            "lng": 100.071319
        },
        "ad_info": {
            "adcode": 530828,
            "province": "云南省",
            "city": "普洱市",
            "district": "澜沧拉祜族自治县"
        }
    },
    {
        "id": "4769346384839250313",
        "title": "公共厕所",
        "address": "云南省普洱市思茅区S309(思澜公路)",
        "tel": "",
        "category": "基础设施:公共设施:公共厕所",
        "type": 0,
        "location": {
            "lat": 22.72705,
            "lng": 100.802612
        },
        "ad_info": {
            "adcode": 530802,
            "province": "云南省",
            "city": "普洱市",
            "district": "思茅区"
        }
    },
    {
        "id": "13908096814888452979",
        "title": "公共厕所",
        "address": "云南省普洱市澜沧拉祜族自治县G227与江勐高速交叉口西北方向579米左右",
        "tel": "",
        "category": "基础设施:公共设施:公共厕所",
        "type": 0,
        "location": {
            "lat": 22.588229,
            "lng": 100.255478
        },
        "ad_info": {
            "adcode": 530828,
            "province": "云南省",
            "city": "普洱市",
            "district": "澜沧拉祜族自治县"
        }
    },
    {
        "id": "7617531445697258692",
        "title": "公共厕所",
        "address": "云南省普洱市景谷傣族彝族自治县团结路与芒乡路交叉口正北方向175米左右",
        "tel": "",
        "category": "基础设施:公共设施:公共厕所",
        "type": 0,
        "location": {
            "lat": 23.500423,
            "lng": 100.71502
        },
        "ad_info": {
            "adcode": 530824,
            "province": "云南省",
            "city": "普洱市",
            "district": "景谷傣族彝族自治县"
        }
    },
    {
        "id": "1631428960300805027",
        "title": "公共厕所",
        "address": "云南省普洱市景谷傣族彝族自治县G215与G323交叉口正北方向135米左右",
        "tel": "",
        "category": "基础设施:公共设施:公共厕所",
        "type": 0,
        "location": {
            "lat": 23.503125,
            "lng": 100.72507
        },
        "ad_info": {
            "adcode": 530824,
            "province": "云南省",
            "city": "普洱市",
            "district": "景谷傣族彝族自治县"
        }
    },
    {
        "id": "16706079366777102207",
        "title": "公共厕所",
        "address": "云南省普洱市思茅区物资巷与边城路交叉口西北方向189米左右",
        "tel": "",
        "category": "基础设施:公共设施:公共厕所",
        "type": 0,
        "location": {
            "lat": 22.787296,
            "lng": 100.967756
        },
        "ad_info": {
            "adcode": 530802,
            "province": "云南省",
            "city": "普洱市",
            "district": "思茅区"
        }
    },
    {
        "id": "14626314669495300621",
        "title": "公共厕所",
        "address": "云南省普洱市墨江哈尼族自治县南正街29号",
        "tel": "",
        "category": "基础设施:公共设施:公共厕所",
        "type": 0,
        "location": {
            "lat": 23.431487,
            "lng": 101.691889
        },
        "ad_info": {
            "adcode": 530822,
            "province": "云南省",
            "city": "普洱市",
            "district": "墨江哈尼族自治县"
        }
    },
    {
        "id": "11453052351465058599",
        "title": "公共厕所",
        "address": "云南省普洱市墨江哈尼族自治县紫金大道与龙泉路交叉口西北方向107米左右",
        "tel": "",
        "category": "基础设施:公共设施:公共厕所",
        "type": 0,
        "location": {
            "lat": 23.422329,
            "lng": 101.684437
        },
        "ad_info": {
            "adcode": 530822,
            "province": "云南省",
            "city": "普洱市",
            "district": "墨江哈尼族自治县"
        }
    },
    {
        "id": "15258718067701310432",
        "title": "公共厕所",
        "address": "云南省普洱市景谷傣族彝族自治县益智路与金田路交叉口正北方向588米左右",
        "tel": "",
        "category": "基础设施:公共设施:公共厕所",
        "type": 0,
        "location": {
            "lat": 23.508233,
            "lng": 100.704225
        },
        "ad_info": {
            "adcode": 530824,
            "province": "云南省",
            "city": "普洱市",
            "district": "景谷傣族彝族自治县"
        }
    },
    {
        "id": "8197635554846877518",
        "title": "市政公共厕所",
        "address": "云南省普洱市镇沅彝族哈尼族拉祜族自治县向阳中路与向阳路交叉口东南方向53米左右",
        "tel": "",
        "category": "基础设施:公共设施:公共厕所",
        "type": 0,
        "location": {
            "lat": 24.001907,
            "lng": 101.107264
        },
        "ad_info": {
            "adcode": 530825,
            "province": "云南省",
            "city": "普洱市",
            "district": "镇沅彝族哈尼族拉祜族自治县"
        }
    },
    {
        "id": "2327304707703431838",
        "title": "公共厕所",
        "address": "云南省普洱市宁洱哈尼族彝族自治县东门路与凤新街交叉口东北方向52米左右",
        "tel": "",
        "category": "基础设施:公共设施:公共厕所",
        "type": 0,
        "location": {
            "lat": 23.064257,
            "lng": 101.046652
        },
        "ad_info": {
            "adcode": 530821,
            "province": "云南省",
            "city": "普洱市",
            "district": "宁洱哈尼族彝族自治县"
        }
    },
    {
        "id": "5725635899835499112",
        "title": "公共厕所",
        "address": "云南省普洱市孟连傣族拉祜族佤族自治县159县道与孟勐线交叉口东北260米",
        "tel": "",
        "category": "基础设施:公共设施:公共厕所",
        "type": 0,
        "location": {
            "lat": 22.17803,
            "lng": 99.180419
        },
        "ad_info": {
            "adcode": 530827,
            "province": "云南省",
            "city": "普洱市",
            "district": "孟连傣族拉祜族佤族自治县"
        }
    },
    {
        "id": "7875481436516680251",
        "title": "木依吉神谷厕所",
        "address": "云南省普洱市西盟佤族自治县G219与S230交叉口西南方向1826米左右",
        "tel": "",
        "category": "基础设施:公共设施:公共厕所",
        "type": 0,
        "location": {
            "lat": 22.6177,
            "lng": 99.5975
        },
        "ad_info": {
            "adcode": 530829,
            "province": "云南省",
            "city": "普洱市",
            "district": "西盟佤族自治县"
        }
    },
    {
        "id": "5652466827599685785",
        "title": "公共厕所",
        "address": "云南省普洱市宁洱哈尼族彝族自治县宁洱镇第二小学东侧130米",
        "tel": "",
        "category": "基础设施:公共设施:公共厕所",
        "type": 0,
        "location": {
            "lat": 23.075841,
            "lng": 101.061004
        },
        "ad_info": {
            "adcode": 530821,
            "province": "云南省",
            "city": "普洱市",
            "district": "宁洱哈尼族彝族自治县"
        }
    },
    {
        "id": "3396191773344822536",
        "title": "公共厕所",
        "address": "云南省普洱市宁洱哈尼族彝族自治县那柯里停车区东侧",
        "tel": "",
        "category": "基础设施:公共设施:公共厕所",
        "type": 0,
        "location": {
            "lat": 22.91035,
            "lng": 101.041162
        },
        "ad_info": {
            "adcode": 530821,
            "province": "云南省",
            "city": "普洱市",
            "district": "宁洱哈尼族彝族自治县"
        }
    },
    {
        "id": "13840297035931900120",
        "title": "公共厕所",
        "address": "云南省普洱市景谷傣族彝族自治县G323与威永公路交叉口西北方向294米左右",
        "tel": "",
        "category": "基础设施:公共设施:公共厕所",
        "type": 0,
        "location": {
            "lat": 23.43805,
            "lng": 100.406563
        },
        "ad_info": {
            "adcode": 530824,
            "province": "云南省",
            "city": "普洱市",
            "district": "景谷傣族彝族自治县"
        }
    },
    {
        "id": "5010287594734492195",
        "title": "公共厕所",
        "address": "云南省普洱市墨江哈尼族自治县回归大道与步行街交叉口正东方向246米左右",
        "tel": "",
        "category": "基础设施:公共设施:公共厕所",
        "type": 0,
        "location": {
            "lat": 23.426964,
            "lng": 101.689473
        },
        "ad_info": {
            "adcode": 530822,
            "province": "云南省",
            "city": "普洱市",
            "district": "墨江哈尼族自治县"
        }
    },
    {
        "id": "6379546554191813697",
        "title": "公共厕所",
        "address": "云南省普洱市墨江哈尼族自治县太阳广场与联珠大道交叉口西北方向132米左右",
        "tel": "",
        "category": "基础设施:公共设施:公共厕所",
        "type": 0,
        "location": {
            "lat": 23.42691,
            "lng": 101.683627
        },
        "ad_info": {
            "adcode": 530822,
            "province": "云南省",
            "city": "普洱市",
            "district": "墨江哈尼族自治县"
        }
    },
    {
        "id": "4293148310277169030",
        "title": "公共厕所",
        "address": "云南省普洱市景谷傣族彝族自治县景五公路与沙河公路交叉口正南方向1665米左右",
        "tel": "",
        "category": "基础设施:公共设施:公共厕所",
        "type": 0,
        "location": {
            "lat": 23.822979,
            "lng": 100.633544
        },
        "ad_info": {
            "adcode": 530824,
            "province": "云南省",
            "city": "普洱市",
            "district": "景谷傣族彝族自治县"
        }
    },
    {
        "id": "11136663463065968812",
        "title": "公共厕所",
        "address": "云南省普洱市宁洱哈尼族彝族自治县东山路与天壁路交叉口东南方向106米左右",
        "tel": "",
        "category": "基础设施:公共设施:公共厕所",
        "type": 0,
        "location": {
            "lat": 23.052398,
            "lng": 101.049058
        },
        "ad_info": {
            "adcode": 530821,
            "province": "云南省",
            "city": "普洱市",
            "district": "宁洱哈尼族彝族自治县"
        }
    },
    {
        "id": "10582882435226250231",
        "title": "梅子湖公园-公共厕所",
        "address": "云南省普洱市思茅区旅游环线与梅园路交叉口正南方向302米左右",
        "tel": "",
        "category": "基础设施:公共设施:公共厕所",
        "type": 0,
        "location": {
            "lat": 22.755029,
            "lng": 100.988296
        },
        "ad_info": {
            "adcode": 530802,
            "province": "云南省",
            "city": "普洱市",
            "district": "思茅区"
        }
    },
    {
        "id": "13972425762520637815",
        "title": "公共厕所(高家寨农贸市场二楼)",
        "address": "云南省普洱市思茅区园丁路与旅游环线交叉口东北方向288米左右",
        "tel": "",
        "category": "基础设施:公共设施:公共厕所",
        "type": 0,
        "location": {
            "lat": 22.759115,
            "lng": 100.98248
        },
        "ad_info": {
            "adcode": 530802,
            "province": "云南省",
            "city": "普洱市",
            "district": "思茅区"
        }
    },
    {
        "id": "2769445511273522681",
        "title": "公共厕所",
        "address": "云南省普洱市宁洱哈尼族彝族自治县S245与东山路交叉口正东方向1218米左右",
        "tel": "",
        "category": "基础设施:公共设施:公共厕所",
        "type": 0,
        "location": {
            "lat": 23.026789,
            "lng": 101.061237
        },
        "ad_info": {
            "adcode": 530821,
            "province": "云南省",
            "city": "普洱市",
            "district": "宁洱哈尼族彝族自治县"
        }
    },
    {
        "id": "4450864260319637452",
        "title": "生态系统研究站公厕",
        "address": "云南省普洱市景东彝族自治县杜鹃湖景区东北角中国科学院哀牢山亚热带森林生态系统研究站东侧",
        "tel": "",
        "category": "基础设施:公共设施:公共厕所",
        "type": 0,
        "location": {
            "lat": 24.54136,
            "lng": 101.02948
        },
        "ad_info": {
            "adcode": 530823,
            "province": "云南省",
            "city": "普洱市",
            "district": "景东彝族自治县"
        }
    },
    {
        "id": "12538919797579996990",
        "title": "公共厕所",
        "address": "云南省普洱市宁洱哈尼族彝族自治县东山路与怀远路交叉口正南方向305米左右",
        "tel": "",
        "category": "基础设施:公共设施:公共厕所",
        "type": 0,
        "location": {
            "lat": 23.056044,
            "lng": 101.049605
        },
        "ad_info": {
            "adcode": 530821,
            "province": "云南省",
            "city": "普洱市",
            "district": "宁洱哈尼族彝族自治县"
        }
    },
    {
        "id": "13614840297331343911",
        "title": "五指树公厕",
        "address": "云南省普洱市景东彝族自治县环湖南路与环湖东路交叉口",
        "tel": "",
        "category": "基础设施:公共设施:公共厕所",
        "type": 0,
        "location": {
            "lat": 24.53497,
            "lng": 101.02881
        },
        "ad_info": {
            "adcode": 530823,
            "province": "云南省",
            "city": "普洱市",
            "district": "景东彝族自治县"
        }
    },
    {
        "id": "3213143503139005822",
        "title": "曼k量贩公共厕所",
        "address": "云南省普洱市思茅区阳光悦城19栋",
        "tel": "",
        "category": "基础设施:公共设施:公共厕所",
        "type": 0,
        "location": {
            "lat": 22.778706,
            "lng": 100.978574
        },
        "ad_info": {
            "adcode": 530802,
            "province": "云南省",
            "city": "普洱市",
            "district": "思茅区"
        }
    },
    {
        "id": "15209384871264283246",
        "title": "勐梭龙潭卫生间",
        "address": "云南省普洱市西盟佤族自治县G219与勐梭路交叉口正西方向351米左右",
        "tel": "",
        "category": "基础设施:公共设施:公共厕所",
        "type": 0,
        "location": {
            "lat": 22.63544,
            "lng": 99.60135
        },
        "ad_info": {
            "adcode": 530829,
            "province": "云南省",
            "city": "普洱市",
            "district": "西盟佤族自治县"
        }
    },
    {
        "id": "16810066812039587868",
        "title": "公共厕所",
        "address": "云南省普洱市墨江哈尼族自治县果园路40号",
        "tel": "",
        "category": "基础设施:公共设施:公共厕所",
        "type": 0,
        "location": {
            "lat": 23.434095,
            "lng": 101.691191
        },
        "ad_info": {
            "adcode": 530822,
            "province": "云南省",
            "city": "普洱市",
            "district": "墨江哈尼族自治县"
        }
    },
    {
        "id": "8068021219511298168",
        "title": "免费公共厕所",
        "address": "云南省普洱市澜沧拉祜族自治县佛房路与六一路交叉口正北方向188米左右",
        "tel": "",
        "category": "基础设施:公共设施:公共厕所",
        "type": 0,
        "location": {
            "lat": 22.557204,
            "lng": 99.936697
        },
        "ad_info": {
            "adcode": 530828,
            "province": "云南省",
            "city": "普洱市",
            "district": "澜沧拉祜族自治县"
        }
    },
    {
        "id": "1798893247261801638",
        "title": "公共厕所",
        "address": "云南省普洱市景谷傣族彝族自治县振平东路与振平北路交叉口西南方向88米左右",
        "tel": "",
        "category": "基础设施:公共设施:公共厕所",
        "type": 0,
        "location": {
            "lat": 23.41446,
            "lng": 100.397001
        },
        "ad_info": {
            "adcode": 530824,
            "province": "云南省",
            "city": "普洱市",
            "district": "景谷傣族彝族自治县"
        }
    },
    {
        "id": "494128836615264655",
        "title": "无障碍公共厕所",
        "address": "云南省普洱市思茅区柏枝林路与顺城街交叉口西南方向24米左右",
        "tel": "",
        "category": "基础设施:公共设施:公共厕所",
        "type": 0,
        "location": {
            "lat": 22.785164,
            "lng": 100.97722
        },
        "ad_info": {
            "adcode": 530802,
            "province": "云南省",
            "city": "普洱市",
            "district": "思茅区"
        }
    },
    {
        "id": "1857140691195024460",
        "title": "公共厕所",
        "address": "云南省普洱市宁洱哈尼族彝族自治县G213与民主路交叉口西南方向1105米左右",
        "tel": "",
        "category": "基础设施:公共设施:公共厕所",
        "type": 0,
        "location": {
            "lat": 23.090775,
            "lng": 101.067682
        },
        "ad_info": {
            "adcode": 530821,
            "province": "云南省",
            "city": "普洱市",
            "district": "宁洱哈尼族彝族自治县"
        }
    },
    {
        "id": "14956199991241040353",
        "title": "小熊猫公厕",
        "address": "云南省普洱市思茅区大开河段与菜阳河度假村段交叉口正北方向1861米左右",
        "tel": "",
        "category": "基础设施:公共设施:公共厕所",
        "type": 0,
        "location": {
            "lat": 22.61332,
            "lng": 101.10739
        },
        "ad_info": {
            "adcode": 530802,
            "province": "云南省",
            "city": "普洱市",
            "district": "思茅区"
        }
    },
    {
        "id": "2574564230095597596",
        "title": "表演馆公厕",
        "address": "云南省普洱市思茅区大开河段与菜阳河度假村段交叉口正西方向1776米左右",
        "tel": "",
        "category": "基础设施:公共设施:公共厕所",
        "type": 0,
        "location": {
            "lat": 22.602863,
            "lng": 101.097266
        },
        "ad_info": {
            "adcode": 530802,
            "province": "云南省",
            "city": "普洱市",
            "district": "思茅区"
        }
    },
    {
        "id": "8927218587026274230",
        "title": "树型公厕",
        "address": "云南省普洱市思茅区大开河段与菜阳河度假村段交叉口正西方向1742米左右",
        "tel": "",
        "category": "基础设施:公共设施:公共厕所",
        "type": 0,
        "location": {
            "lat": 22.60203,
            "lng": 101.09732
        },
        "ad_info": {
            "adcode": 530802,
            "province": "云南省",
            "city": "普洱市",
            "district": "思茅区"
        }
    },
    {
        "id": "1735465310216245829",
        "title": "中转站公厕",
        "address": "云南省普洱市思茅区国家公园犀牛坪景区内",
        "tel": "",
        "category": "基础设施:公共设施:公共厕所",
        "type": 0,
        "location": {
            "lat": 22.61336,
            "lng": 101.09982
        },
        "ad_info": {
            "adcode": 530802,
            "province": "云南省",
            "city": "普洱市",
            "district": "思茅区"
        }
    },
    {
        "id": "17745323757049705064",
        "title": "通关服务区第一公共厕所",
        "address": "云南省普洱市墨江哈尼族自治县通关停车区与G8511昆磨高速交叉口东北50米",
        "tel": "",
        "category": "基础设施:公共设施:公共厕所",
        "type": 0,
        "location": {
            "lat": 23.297769,
            "lng": 101.38407
        },
        "ad_info": {
            "adcode": 530822,
            "province": "云南省",
            "city": "普洱市",
            "district": "墨江哈尼族自治县"
        }
    },
    {
        "id": "14732099614613399539",
        "title": "墨江服务区第二公共厕所",
        "address": "云南省普洱市墨江哈尼族自治县双胞大道与哈尼大道交叉口西北方向454米左右",
        "tel": "",
        "category": "基础设施:公共设施:公共厕所",
        "type": 0,
        "location": {
            "lat": 23.428181,
            "lng": 101.678952
        },
        "ad_info": {
            "adcode": 530822,
            "province": "云南省",
            "city": "普洱市",
            "district": "墨江哈尼族自治县"
        }
    },
    {
        "id": "2123607060822061847",
        "title": "免费公共厕所",
        "address": "云南省普洱市宁洱哈尼族彝族自治县宏远路与西街交叉口正东方向120米左右",
        "tel": "",
        "category": "基础设施:公共设施:公共厕所",
        "type": 0,
        "location": {
            "lat": 23.063336,
            "lng": 101.044973
        },
        "ad_info": {
            "adcode": 530821,
            "province": "云南省",
            "city": "普洱市",
            "district": "宁洱哈尼族彝族自治县"
        }
    },
    {
        "id": "16201609817196595642",
        "title": "公共厕所",
        "address": "云南省普洱市思茅区普洱大道乘龙汽车旁",
        "tel": "",
        "category": "基础设施:公共设施:公共厕所",
        "type": 0,
        "location": {
            "lat": 22.81057,
            "lng": 100.98917
        },
        "ad_info": {
            "adcode": 530802,
            "province": "云南省",
            "city": "普洱市",
            "district": "思茅区"
        }
    },
    {
        "id": "17000520188789554941",
        "title": "公共厕所",
        "address": "云南省普洱市镇沅彝族哈尼族拉祜族自治县人民路与恩水路交叉口正北方向118米左右",
        "tel": "",
        "category": "基础设施:公共设施:公共厕所",
        "type": 0,
        "location": {
            "lat": 24.003343,
            "lng": 101.114184
        },
        "ad_info": {
            "adcode": 530825,
            "province": "云南省",
            "city": "普洱市",
            "district": "镇沅彝族哈尼族拉祜族自治县"
        }
    },
    {
        "id": "18188623096236348970",
        "title": "公共厕所",
        "address": "云南省普洱市西盟佤族自治县勐卡路607号",
        "tel": "",
        "category": "基础设施:公共设施:公共厕所",
        "type": 0,
        "location": {
            "lat": 22.645382,
            "lng": 99.596992
        },
        "ad_info": {
            "adcode": 530829,
            "province": "云南省",
            "city": "普洱市",
            "district": "西盟佤族自治县"
        }
    },
    {
        "id": "10405913818320996625",
        "title": "公共厕所",
        "address": "云南省普洱市景东彝族自治县南岳路与彝兴路交叉口正北方向34米左右",
        "tel": "",
        "category": "基础设施:公共设施:公共厕所",
        "type": 0,
        "location": {
            "lat": 24.447347,
            "lng": 100.838921
        },
        "ad_info": {
            "adcode": 530823,
            "province": "云南省",
            "city": "普洱市",
            "district": "景东彝族自治县"
        }
    },
    {
        "id": "12708723238104797189",
        "title": "公共厕所",
        "address": "云南省普洱市墨江哈尼族自治县双龙烧烤城东南侧100米",
        "tel": "",
        "category": "基础设施:公共设施:公共厕所",
        "type": 0,
        "location": {
            "lat": 23.432623,
            "lng": 101.615205
        },
        "ad_info": {
            "adcode": 530822,
            "province": "云南省",
            "city": "普洱市",
            "district": "墨江哈尼族自治县"
        }
    },
    {
        "id": "6683112224186060582",
        "title": "大型货车加水站公共厕所",
        "address": "云南省普洱市宁洱哈尼族彝族自治县加水站与G8511昆磨高速交叉口南180米",
        "tel": "",
        "category": "基础设施:公共设施:公共厕所",
        "type": 0,
        "location": {
            "lat": 23.055757,
            "lng": 101.085033
        },
        "ad_info": {
            "adcode": 530821,
            "province": "云南省",
            "city": "普洱市",
            "district": "宁洱哈尼族彝族自治县"
        }
    },
    {
        "id": "2789214749706676931",
        "title": "公共厕所",
        "address": "云南省普洱市思茅区宁洱大道与思亭路交叉口正北方向157米左右",
        "tel": "",
        "category": "基础设施:公共设施:公共厕所",
        "type": 0,
        "location": {
            "lat": 22.7932,
            "lng": 100.96825
        },
        "ad_info": {
            "adcode": 530802,
            "province": "云南省",
            "city": "普洱市",
            "district": "思茅区"
        }
    },
    {
        "id": "2144951565984298767",
        "title": "公共厕所",
        "address": "云南省普洱市墨江哈尼族自治县G213与新建路交叉口正西方向144米左右",
        "tel": "",
        "category": "基础设施:公共设施:公共厕所",
        "type": 0,
        "location": {
            "lat": 23.432551,
            "lng": 101.689555
        },
        "ad_info": {
            "adcode": 530822,
            "province": "云南省",
            "city": "普洱市",
            "district": "墨江哈尼族自治县"
        }
    },
    {
        "id": "11320848534494312583",
        "title": "公共厕所",
        "address": "云南省普洱市思茅区梅园路梅子湖公园内",
        "tel": "",
        "category": "基础设施:公共设施:公共厕所",
        "type": 0,
        "location": {
            "lat": 22.7543,
            "lng": 100.988273
        },
        "ad_info": {
            "adcode": 530802,
            "province": "云南省",
            "city": "普洱市",
            "district": "思茅区"
        }
    },
    {
        "id": "12397441863495375935",
        "title": "公共厕所",
        "address": "云南省普洱市孟连傣族拉祜族佤族自治县S340与南抗公路交叉口西南方向1320米左右",
        "tel": "",
        "category": "基础设施:公共设施:公共厕所",
        "type": 0,
        "location": {
            "lat": 22.182435,
            "lng": 99.230065
        },
        "ad_info": {
            "adcode": 530827,
            "province": "云南省",
            "city": "普洱市",
            "district": "孟连傣族拉祜族佤族自治县"
        }
    },
    {
        "id": "17883516521520430245",
        "title": "公共厕所",
        "address": "云南省普洱市江城哈尼族彝族自治县勐烈南路1号",
        "tel": "",
        "category": "基础设施:公共设施:公共厕所",
        "type": 0,
        "location": {
            "lat": 22.585635,
            "lng": 101.859922
        },
        "ad_info": {
            "adcode": 530826,
            "province": "云南省",
            "city": "普洱市",
            "district": "江城哈尼族彝族自治县"
        }
    },
    {
        "id": "12475616216027568614",
        "title": "公共厕所",
        "address": "云南省普洱市思茅区永生农家乐东南侧",
        "tel": "",
        "category": "基础设施:公共设施:公共厕所",
        "type": 0,
        "location": {
            "lat": 22.749969,
            "lng": 101.030672
        },
        "ad_info": {
            "adcode": 530802,
            "province": "云南省",
            "city": "普洱市",
            "district": "思茅区"
        }
    },
    {
        "id": "1567124735870779140",
        "title": "长臂猿公厕",
        "address": "云南省普洱市思茅区国家公园犀牛坪景区内",
        "tel": "",
        "category": "基础设施:公共设施:公共厕所",
        "type": 0,
        "location": {
            "lat": 22.61327,
            "lng": 101.09497
        },
        "ad_info": {
            "adcode": 530802,
            "province": "云南省",
            "city": "普洱市",
            "district": "思茅区"
        }
    },
    {
        "id": "5910799034824057998",
        "title": "公共厕所",
        "address": "云南省普洱市景谷傣族彝族自治县滨河东路与芒乡路交叉口东南方向204米左右",
        "tel": "",
        "category": "基础设施:公共设施:公共厕所",
        "type": 0,
        "location": {
            "lat": 23.501663,
            "lng": 100.715857
        },
        "ad_info": {
            "adcode": 530824,
            "province": "云南省",
            "city": "普洱市",
            "district": "景谷傣族彝族自治县"
        }
    },
    {
        "id": "10990541032808561803",
        "title": "公共厕所",
        "address": "云南省普洱市思茅区",
        "tel": "",
        "category": "基础设施:公共设施:公共厕所",
        "type": 0,
        "location": {
            "lat": 22.752121,
            "lng": 100.943952
        },
        "ad_info": {
            "adcode": 530802,
            "province": "云南省",
            "city": "普洱市",
            "district": "思茅区"
        }
    },
    {
        "id": "3834099761706915993",
        "title": "公共厕所",
        "address": "云南省普洱市思茅区利民巷与民航路交叉口东北方向182米左右",
        "tel": "",
        "category": "基础设施:公共设施:公共厕所",
        "type": 0,
        "location": {
            "lat": 22.782233,
            "lng": 100.969697
        },
        "ad_info": {
            "adcode": 530802,
            "province": "云南省",
            "city": "普洱市",
            "district": "思茅区"
        }
    },
    {
        "id": "12606978102895630581",
        "title": "公共厕所",
        "address": "云南省普洱市思茅区五一路与物资巷交叉口东南方向180米左右",
        "tel": "",
        "category": "基础设施:公共设施:公共厕所",
        "type": 0,
        "location": {
            "lat": 22.78246,
            "lng": 100.969791
        },
        "ad_info": {
            "adcode": 530802,
            "province": "云南省",
            "city": "普洱市",
            "district": "思茅区"
        }
    },
    {
        "id": "1586392052968922581",
        "title": "公共厕所",
        "address": "云南省普洱市思茅区月光路思茅体育馆",
        "tel": "",
        "category": "基础设施:公共设施:公共厕所",
        "type": 0,
        "location": {
            "lat": 22.778311,
            "lng": 100.969989
        },
        "ad_info": {
            "adcode": 530802,
            "province": "云南省",
            "city": "普洱市",
            "district": "思茅区"
        }
    },
    {
        "id": "12754367579083839965",
        "title": "无障碍公共厕所",
        "address": "云南省普洱市宁洱哈尼族彝族自治县怀远路与茶源路交叉口东北方向19米左右",
        "tel": "",
        "category": "基础设施:公共设施:公共厕所",
        "type": 0,
        "location": {
            "lat": 23.059987,
            "lng": 101.045748
        },
        "ad_info": {
            "adcode": 530821,
            "province": "云南省",
            "city": "普洱市",
            "district": "宁洱哈尼族彝族自治县"
        }
    },
    {
        "id": "1907967812280536020",
        "title": "公共厕所",
        "address": "云南省普洱市澜沧拉祜族自治县G227与S338交叉口东北方向650米左右",
        "tel": "",
        "category": "基础设施:公共设施:公共厕所",
        "type": 0,
        "location": {
            "lat": 22.641941,
            "lng": 100.11847
        },
        "ad_info": {
            "adcode": 530828,
            "province": "云南省",
            "city": "普洱市",
            "district": "澜沧拉祜族自治县"
        }
    },
    {
        "id": "16198842058664003704",
        "title": "公共厕所",
        "address": "云南省普洱市景谷傣族彝族自治县民乐路与滨河西路交叉口正南方向883米左右",
        "tel": "",
        "category": "基础设施:公共设施:公共厕所",
        "type": 0,
        "location": {
            "lat": 23.484134,
            "lng": 100.712251
        },
        "ad_info": {
            "adcode": 530824,
            "province": "云南省",
            "city": "普洱市",
            "district": "景谷傣族彝族自治县"
        }
    },
    {
        "id": "636047479695539110",
        "title": "公共厕所",
        "address": "云南省普洱市思茅区振兴大道与环卫巷交叉口东南方向40米左右",
        "tel": "",
        "category": "基础设施:公共设施:公共厕所",
        "type": 0,
        "location": {
            "lat": 22.767196,
            "lng": 100.967732
        },
        "ad_info": {
            "adcode": 530802,
            "province": "云南省",
            "city": "普洱市",
            "district": "思茅区"
        }
    },
    {
        "id": "11988182604875178208",
        "title": "公共厕所",
        "address": "云南省普洱市墨江哈尼族自治县G213与大寨段交叉口正北方向713米左右",
        "tel": "",
        "category": "基础设施:公共设施:公共厕所",
        "type": 0,
        "location": {
            "lat": 23.289136,
            "lng": 101.394211
        },
        "ad_info": {
            "adcode": 530822,
            "province": "云南省",
            "city": "普洱市",
            "district": "墨江哈尼族自治县"
        }
    },
    {
        "id": "4838904470059266714",
        "title": "公共厕所",
        "address": "云南省普洱市孟连傣族拉祜族佤族自治县帕当路与建设路交叉口正东方向89米左右",
        "tel": "",
        "category": "基础设施:公共设施:公共厕所",
        "type": 0,
        "location": {
            "lat": 22.32734,
            "lng": 99.5887
        },
        "ad_info": {
            "adcode": 530827,
            "province": "云南省",
            "city": "普洱市",
            "district": "孟连傣族拉祜族佤族自治县"
        }
    },
    {
        "id": "2193842499365394149",
        "title": "公共厕所",
        "address": "云南省普洱市思茅区五一路与梦茶道交叉口东南方向81米左右",
        "tel": "",
        "category": "基础设施:公共设施:公共厕所",
        "type": 0,
        "location": {
            "lat": 22.780935,
            "lng": 100.978424
        },
        "ad_info": {
            "adcode": 530802,
            "province": "云南省",
            "city": "普洱市",
            "district": "思茅区"
        }
    },
    {
        "id": "1886262109371112089",
        "title": "公共厕所",
        "address": "云南省普洱市景东彝族自治县漫湾路与瑞屏路交叉口正东方向26米左右",
        "tel": "",
        "category": "基础设施:公共设施:公共厕所",
        "type": 0,
        "location": {
            "lat": 24.447713,
            "lng": 100.842532
        },
        "ad_info": {
            "adcode": 530823,
            "province": "云南省",
            "city": "普洱市",
            "district": "景东彝族自治县"
        }
    },
    {
        "id": "485411087239395415",
        "title": "香河服务区公共厕所",
        "address": "云南省普洱市思茅区G213与老徐寨公路交叉口西南方向1426米左右",
        "tel": "",
        "category": "基础设施:公共设施:公共厕所",
        "type": 0,
        "location": {
            "lat": 22.66662,
            "lng": 100.939087
        },
        "ad_info": {
            "adcode": 530802,
            "province": "云南省",
            "city": "普洱市",
            "district": "思茅区"
        }
    },
    {
        "id": "11887213702303103651",
        "title": "公共厕所",
        "address": "云南省普洱市西盟佤族自治县江三木罗剧院广场",
        "tel": "",
        "category": "基础设施:公共设施:公共厕所",
        "type": 0,
        "location": {
            "lat": 22.643483,
            "lng": 99.593619
        },
        "ad_info": {
            "adcode": 530829,
            "province": "云南省",
            "city": "普洱市",
            "district": "西盟佤族自治县"
        }
    },
    {
        "id": "6610951791121255401",
        "title": "公共厕所",
        "address": "云南省普洱市思茅区振兴大道与月光路交叉口正西方向96米左右",
        "tel": "",
        "category": "基础设施:公共设施:公共厕所",
        "type": 0,
        "location": {
            "lat": 22.777976,
            "lng": 100.970702
        },
        "ad_info": {
            "adcode": 530802,
            "province": "云南省",
            "city": "普洱市",
            "district": "思茅区"
        }
    },
    {
        "id": "17822731974386462587",
        "title": "公共厕所",
        "address": "云南省普洱市思茅区思亭路与普洱大道辅路交叉口西南方向18米左右",
        "tel": "",
        "category": "基础设施:公共设施:公共厕所",
        "type": 0,
        "location": {
            "lat": 22.79136,
            "lng": 100.984011
        },
        "ad_info": {
            "adcode": 530802,
            "province": "云南省",
            "city": "普洱市",
            "district": "思茅区"
        }
    },
    {
        "id": "8473245351737616877",
        "title": "公共厕所",
        "address": "云南省普洱市思茅区思亭路与茶城大道交叉口正北方向312米左右",
        "tel": "",
        "category": "基础设施:公共设施:公共厕所",
        "type": 0,
        "location": {
            "lat": 22.793971,
            "lng": 100.977845
        },
        "ad_info": {
            "adcode": 530802,
            "province": "云南省",
            "city": "普洱市",
            "district": "思茅区"
        }
    },
    {
        "id": "15828149326709711734",
        "title": "公共厕所",
        "address": "云南省普洱市景东彝族自治县双拥路与玉屏路交叉口正北方向30米左右",
        "tel": "",
        "category": "基础设施:公共设施:公共厕所",
        "type": 0,
        "location": {
            "lat": 24.447852,
            "lng": 100.832914
        },
        "ad_info": {
            "adcode": 530823,
            "province": "云南省",
            "city": "普洱市",
            "district": "景东彝族自治县"
        }
    },
    {
        "id": "11989712659453660693",
        "title": "公共厕所",
        "address": "云南省普洱市景谷傣族彝族自治县景镇休息处东南侧",
        "tel": "",
        "category": "基础设施:公共设施:公共厕所",
        "type": 0,
        "location": {
            "lat": 23.77264,
            "lng": 100.843721
        },
        "ad_info": {
            "adcode": 530824,
            "province": "云南省",
            "city": "普洱市",
            "district": "景谷傣族彝族自治县"
        }
    },
    {
        "id": "11663522468401460440",
        "title": "公共厕所",
        "address": "云南省普洱市景谷傣族彝族自治县XJ85与正兴公路交叉口西南方向234米左右",
        "tel": "",
        "category": "基础设施:公共设施:公共厕所",
        "type": 0,
        "location": {
            "lat": 23.329882,
            "lng": 100.964531
        },
        "ad_info": {
            "adcode": 530824,
            "province": "云南省",
            "city": "普洱市",
            "district": "景谷傣族彝族自治县"
        }
    },
    {
        "id": "3853359988296163273",
        "title": "公共厕所",
        "address": "云南省普洱市思茅区曙光路与茶苑路交叉口西南方向174米左右",
        "tel": "",
        "category": "基础设施:公共设施:公共厕所",
        "type": 0,
        "location": {
            "lat": 22.754269,
            "lng": 100.963819
        },
        "ad_info": {
            "adcode": 530802,
            "province": "云南省",
            "city": "普洱市",
            "district": "思茅区"
        }
    },
    {
        "id": "9709034525801664895",
        "title": "通关服务区公共厕所",
        "address": "云南省普洱市墨江哈尼族自治县G8511昆磨高速与G8511昆磨高速出口交叉口东南140米",
        "tel": "",
        "category": "基础设施:公共设施:公共厕所",
        "type": 0,
        "location": {
            "lat": 23.295229,
            "lng": 101.385614
        },
        "ad_info": {
            "adcode": 530822,
            "province": "云南省",
            "city": "普洱市",
            "district": "墨江哈尼族自治县"
        }
    },
    {
        "id": "17566933094863620008",
        "title": "公共厕所",
        "address": "云南省普洱市思茅区民航路36号",
        "tel": "",
        "category": "基础设施:公共设施:公共厕所",
        "type": 0,
        "location": {
            "lat": 22.78098,
            "lng": 100.968126
        },
        "ad_info": {
            "adcode": 530802,
            "province": "云南省",
            "city": "普洱市",
            "district": "思茅区"
        }
    },
    {
        "id": "8868986617498830363",
        "title": "公共厕所",
        "address": "云南省普洱市澜沧拉祜族自治县纳百利(芦笙路西)",
        "tel": "",
        "category": "基础设施:公共设施:公共厕所",
        "type": 0,
        "location": {
            "lat": 22.554233,
            "lng": 99.923488
        },
        "ad_info": {
            "adcode": 530828,
            "province": "云南省",
            "city": "普洱市",
            "district": "澜沧拉祜族自治县"
        }
    },
    {
        "id": "4859979511643271563",
        "title": "公共厕所",
        "address": "云南省普洱市澜沧拉祜族自治县G214与G227交叉口正西方向25米左右",
        "tel": "",
        "category": "基础设施:公共设施:公共厕所",
        "type": 0,
        "location": {
            "lat": 22.565634,
            "lng": 99.910763
        },
        "ad_info": {
            "adcode": 530828,
            "province": "云南省",
            "city": "普洱市",
            "district": "澜沧拉祜族自治县"
        }
    },
    {
        "id": "16775837853203540843",
        "title": "公共厕所",
        "address": "云南省普洱市江城哈尼族彝族自治县前进公路与宝黎公路交叉口正北方向507米左右",
        "tel": "",
        "category": "基础设施:公共设施:公共厕所",
        "type": 0,
        "location": {
            "lat": 22.690028,
            "lng": 101.648518
        },
        "ad_info": {
            "adcode": 530826,
            "province": "云南省",
            "city": "普洱市",
            "district": "江城哈尼族彝族自治县"
        }
    },
    {
        "id": "4675632912019777258",
        "title": "墨江服务区公共厕所",
        "address": "云南省普洱市墨江哈尼族自治县G8511昆磨高速与墨江服务区交叉口西南160米",
        "tel": "",
        "category": "基础设施:公共设施:公共厕所",
        "type": 0,
        "location": {
            "lat": 23.42873,
            "lng": 101.678035
        },
        "ad_info": {
            "adcode": 530822,
            "province": "云南省",
            "city": "普洱市",
            "district": "墨江哈尼族自治县"
        }
    },
    {
        "id": "10692472495515109809",
        "title": "公共厕所",
        "address": "云南省普洱市思茅区物资巷与边城路交叉口东南方向30米左右",
        "tel": "",
        "category": "基础设施:公共设施:公共厕所",
        "type": 0,
        "location": {
            "lat": 22.785666,
            "lng": 100.968949
        },
        "ad_info": {
            "adcode": 530802,
            "province": "云南省",
            "city": "普洱市",
            "district": "思茅区"
        }
    },
    {
        "id": "15692355346991763112",
        "title": "公共厕所",
        "address": "云南省普洱市澜沧拉祜族自治县云南农信24小时自助银行(景迈机场)南侧150米",
        "tel": "",
        "category": "基础设施:公共设施:公共厕所",
        "type": 0,
        "location": {
            "lat": 22.409531,
            "lng": 99.784237
        },
        "ad_info": {
            "adcode": 530828,
            "province": "云南省",
            "city": "普洱市",
            "district": "澜沧拉祜族自治县"
        }
    },
    {
        "id": "1278349396397130484",
        "title": "公共厕所",
        "address": "云南省普洱市思茅区西郊路思茅区教育科学研究所",
        "tel": "",
        "category": "基础设施:公共设施:公共厕所",
        "type": 0,
        "location": {
            "lat": 22.769498,
            "lng": 100.966406
        },
        "ad_info": {
            "adcode": 530802,
            "province": "云南省",
            "city": "普洱市",
            "district": "思茅区"
        }
    },
    {
        "id": "2405548230741789079",
        "title": "公共厕所",
        "address": "云南省普洱市景谷傣族彝族自治县威远江民族文化走廊与滨河东路交叉口正南方向138米左右",
        "tel": "",
        "category": "基础设施:公共设施:公共厕所",
        "type": 0,
        "location": {
            "lat": 23.497372,
            "lng": 100.710974
        },
        "ad_info": {
            "adcode": 530824,
            "province": "云南省",
            "city": "普洱市",
            "district": "景谷傣族彝族自治县"
        }
    },
    {
        "id": "8583179980909249766",
        "title": "公共卫生间",
        "address": "云南省普洱市思茅区五一路与民航路交叉口正北方向116米左右",
        "tel": "",
        "category": "基础设施:公共设施:公共厕所",
        "type": 0,
        "location": {
            "lat": 22.784661,
            "lng": 100.967333
        },
        "ad_info": {
            "adcode": 530802,
            "province": "云南省",
            "city": "普洱市",
            "district": "思茅区"
        }
    },
    {
        "id": "4263157603507073824",
        "title": "公共厕所",
        "address": "云南省普洱市景谷傣族彝族自治县沿河路71号",
        "tel": "",
        "category": "基础设施:公共设施:公共厕所",
        "type": 0,
        "location": {
            "lat": 23.674074,
            "lng": 100.795457
        },
        "ad_info": {
            "adcode": 530824,
            "province": "云南省",
            "city": "普洱市",
            "district": "景谷傣族彝族自治县"
        }
    },
    {
        "id": "17192624472356580272",
        "title": "公共厕所",
        "address": "云南省普洱市思茅区思亭路与振兴北路交叉口东北方向199米左右",
        "tel": "",
        "category": "基础设施:公共设施:公共厕所",
        "type": 0,
        "location": {
            "lat": 22.792636,
            "lng": 100.973587
        },
        "ad_info": {
            "adcode": 530802,
            "province": "云南省",
            "city": "普洱市",
            "district": "思茅区"
        }
    },
    {
        "id": "4305265085902947417",
        "title": "公共厕所",
        "address": "云南省普洱市宁洱哈尼族彝族自治县化良路与普德线交叉口正东方向550米左右",
        "tel": "",
        "category": "基础设施:公共设施:公共厕所",
        "type": 0,
        "location": {
            "lat": 23.042543,
            "lng": 101.006402
        },
        "ad_info": {
            "adcode": 530821,
            "province": "云南省",
            "city": "普洱市",
            "district": "宁洱哈尼族彝族自治县"
        }
    },
    {
        "id": "17385111367311606478",
        "title": "公共厕所",
        "address": "云南省普洱市西盟佤族自治县G219与勐梭路交叉口东北方向1045米左右",
        "tel": "",
        "category": "基础设施:公共设施:公共厕所",
        "type": 0,
        "location": {
            "lat": 22.6565,
            "lng": 99.601995
        },
        "ad_info": {
            "adcode": 530829,
            "province": "云南省",
            "city": "普洱市",
            "district": "西盟佤族自治县"
        }
    },
    {
        "id": "7392160330687546875",
        "title": "公共厕所",
        "address": "云南省普洱市思茅区振兴南路兰花茗苑",
        "tel": "",
        "category": "基础设施:公共设施:公共厕所",
        "type": 0,
        "location": {
            "lat": 22.765579,
            "lng": 100.96849
        },
        "ad_info": {
            "adcode": 530802,
            "province": "云南省",
            "city": "普洱市",
            "district": "思茅区"
        }
    },
    {
        "id": "17369171378250040894",
        "title": "公共厕所",
        "address": "云南省普洱市墨江哈尼族自治县G213与X152交叉口东北方向1289米左右",
        "tel": "",
        "category": "基础设施:公共设施:公共厕所",
        "type": 0,
        "location": {
            "lat": 23.305302,
            "lng": 101.413931
        },
        "ad_info": {
            "adcode": 530822,
            "province": "云南省",
            "city": "普洱市",
            "district": "墨江哈尼族自治县"
        }
    },
    {
        "id": "5630689028942457257",
        "title": "公共厕所",
        "address": "云南省普洱市思茅区景谷路与林源路交叉口正北方向259米左右",
        "tel": "",
        "category": "基础设施:公共设施:公共厕所",
        "type": 0,
        "location": {
            "lat": 22.765777,
            "lng": 100.969573
        },
        "ad_info": {
            "adcode": 530802,
            "province": "云南省",
            "city": "普洱市",
            "district": "思茅区"
        }
    },
    {
        "id": "17100122530099653365",
        "title": "公共厕所",
        "address": "云南省普洱市宁洱哈尼族彝族自治县323国道西50米",
        "tel": "",
        "category": "基础设施:公共设施:公共厕所",
        "type": 0,
        "location": {
            "lat": 23.233099,
            "lng": 101.146224
        },
        "ad_info": {
            "adcode": 530821,
            "province": "云南省",
            "city": "普洱市",
            "district": "宁洱哈尼族彝族自治县"
        }
    },
    {
        "id": "16817554135175886895",
        "title": "公共厕所",
        "address": "云南省普洱市宁洱哈尼族彝族自治县国道213旁正南方向30米",
        "tel": "",
        "category": "基础设施:公共设施:公共厕所",
        "type": 0,
        "location": {
            "lat": 22.90919,
            "lng": 101.03979
        },
        "ad_info": {
            "adcode": 530821,
            "province": "云南省",
            "city": "普洱市",
            "district": "宁洱哈尼族彝族自治县"
        }
    },
    {
        "id": "7283769989063869023",
        "title": "公共厕所",
        "address": "云南省普洱市思茅区旅游环线与江城路交叉口正南方向745米左右",
        "tel": "",
        "category": "基础设施:公共设施:公共厕所",
        "type": 0,
        "location": {
            "lat": 22.756872,
            "lng": 101.005017
        },
        "ad_info": {
            "adcode": 530802,
            "province": "云南省",
            "city": "普洱市",
            "district": "思茅区"
        }
    },
    {
        "id": "1385417447611761350",
        "title": "公共厕所",
        "address": "云南省普洱市墨江哈尼族自治县新建路与果园路交叉口东北方向113米左右",
        "tel": "",
        "category": "基础设施:公共设施:公共厕所",
        "type": 0,
        "location": {
            "lat": 23.434347,
            "lng": 101.692139
        },
        "ad_info": {
            "adcode": 530822,
            "province": "云南省",
            "city": "普洱市",
            "district": "墨江哈尼族自治县"
        }
    },
    {
        "id": "275982416851911611",
        "title": "公共厕所",
        "address": "云南省普洱市思茅区小熊猫庄园东北300米",
        "tel": "",
        "category": "基础设施:公共设施:公共厕所",
        "type": 0,
        "location": {
            "lat": 22.60509,
            "lng": 101.10143
        },
        "ad_info": {
            "adcode": 530802,
            "province": "云南省",
            "city": "普洱市",
            "district": "思茅区"
        }
    },
    {
        "id": "11805290292997932841",
        "title": "公共厕所",
        "address": "云南省普洱市思茅区永平路茶马古镇A区",
        "tel": "",
        "category": "基础设施:公共设施:公共厕所",
        "type": 0,
        "location": {
            "lat": 22.800395,
            "lng": 100.966462
        },
        "ad_info": {
            "adcode": 530802,
            "province": "云南省",
            "city": "普洱市",
            "district": "思茅区"
        }
    },
    {
        "id": "13334818575653514245",
        "title": "公共厕所",
        "address": "云南省普洱市孟连傣族拉祜族佤族自治县S309与城东路交叉口西南方向125米左右",
        "tel": "",
        "category": "基础设施:公共设施:公共厕所",
        "type": 0,
        "location": {
            "lat": 22.343304,
            "lng": 99.62166
        },
        "ad_info": {
            "adcode": 530827,
            "province": "云南省",
            "city": "普洱市",
            "district": "孟连傣族拉祜族佤族自治县"
        }
    },
    {
        "id": "14780864750874693951",
        "title": "公共厕所",
        "address": "云南省普洱市西盟佤族自治县勐卡路与勐梭路交叉口正北方向99米左右",
        "tel": "",
        "category": "基础设施:公共设施:公共厕所",
        "type": 0,
        "location": {
            "lat": 22.646693,
            "lng": 99.602732
        },
        "ad_info": {
            "adcode": 530829,
            "province": "云南省",
            "city": "普洱市",
            "district": "西盟佤族自治县"
        }
    },
    {
        "id": "13344525737519126503",
        "title": "公共厕所",
        "address": "云南省普洱市思茅区人力资源和社会保障局",
        "tel": "",
        "category": "基础设施:公共设施:公共厕所",
        "type": 0,
        "location": {
            "lat": 22.776204,
            "lng": 100.969658
        },
        "ad_info": {
            "adcode": 530802,
            "province": "云南省",
            "city": "普洱市",
            "district": "思茅区"
        }
    },
    {
        "id": "16891108377566248541",
        "title": "公共厕所",
        "address": "云南省普洱市景谷傣族彝族自治县S335与响水路交叉口西北方向347米左右",
        "tel": "",
        "category": "基础设施:公共设施:公共厕所",
        "type": 0,
        "location": {
            "lat": 23.505978,
            "lng": 100.685948
        },
        "ad_info": {
            "adcode": 530824,
            "province": "云南省",
            "city": "普洱市",
            "district": "景谷傣族彝族自治县"
        }
    },
    {
        "id": "9516604244053680856",
        "title": "公共厕所",
        "address": "云南省普洱市思茅区德化路与无量路交叉口西南方向129米左右",
        "tel": "",
        "category": "基础设施:公共设施:公共厕所",
        "type": 0,
        "location": {
            "lat": 22.812381,
            "lng": 100.969536
        },
        "ad_info": {
            "adcode": 530802,
            "province": "云南省",
            "city": "普洱市",
            "district": "思茅区"
        }
    },
    {
        "id": "3472785517610058649",
        "title": "公共厕所",
        "address": "云南省普洱市思茅区振兴南路与普洱大道交叉口西北方向80米左右",
        "tel": "",
        "category": "基础设施:公共设施:公共厕所",
        "type": 0,
        "location": {
            "lat": 22.755021,
            "lng": 100.955321
        },
        "ad_info": {
            "adcode": 530802,
            "province": "云南省",
            "city": "普洱市",
            "district": "思茅区"
        }
    },
    {
        "id": "3763785099915960983",
        "title": "公共厕所",
        "address": "云南省普洱市孟连傣族拉祜族佤族自治县城东路与芒卡线交叉口西南方向317米左右",
        "tel": "",
        "category": "基础设施:公共设施:公共厕所",
        "type": 0,
        "location": {
            "lat": 22.335951,
            "lng": 99.612976
        },
        "ad_info": {
            "adcode": 530827,
            "province": "云南省",
            "city": "普洱市",
            "district": "孟连傣族拉祜族佤族自治县"
        }
    },
    {
        "id": "863655025463394499",
        "title": "公共厕所",
        "address": "云南省普洱市澜沧拉祜族自治县G214与G219交叉口正南方向288米左右",
        "tel": "",
        "category": "基础设施:公共设施:公共厕所",
        "type": 0,
        "location": {
            "lat": 22.54592,
            "lng": 99.923922
        },
        "ad_info": {
            "adcode": 530828,
            "province": "云南省",
            "city": "普洱市",
            "district": "澜沧拉祜族自治县"
        }
    },
    {
        "id": "2764753992477941712",
        "title": "公共厕所",
        "address": "云南省普洱市思茅区振兴大道与西门街交叉口正北方向68米左右",
        "tel": "",
        "category": "基础设施:公共设施:公共厕所",
        "type": 0,
        "location": {
            "lat": 22.787961,
            "lng": 100.971408
        },
        "ad_info": {
            "adcode": 530802,
            "province": "云南省",
            "city": "普洱市",
            "district": "思茅区"
        }
    },
    {
        "id": "9681319131336544235",
        "title": "公共厕所",
        "address": "云南省普洱市思茅区江城路与菩提路交叉口南200米",
        "tel": "",
        "category": "基础设施:公共设施:公共厕所",
        "type": 0,
        "location": {
            "lat": 22.764825,
            "lng": 101.001727
        },
        "ad_info": {
            "adcode": 530802,
            "province": "云南省",
            "city": "普洱市",
            "district": "思茅区"
        }
    },
    {
        "id": "12302251664602104754",
        "title": "公共厕所",
        "address": "云南省普洱市思茅区太平街与边城路交叉口正东方向85米左右",
        "tel": "",
        "category": "基础设施:公共设施:公共厕所",
        "type": 0,
        "location": {
            "lat": 22.785697,
            "lng": 100.974616
        },
        "ad_info": {
            "adcode": 530802,
            "province": "云南省",
            "city": "普洱市",
            "district": "思茅区"
        }
    },
    {
        "id": "13260362464519614427",
        "title": "公共厕所",
        "address": "云南省普洱市景谷傣族彝族自治县益智路与金田路交叉口正北方向71米左右",
        "tel": "",
        "category": "基础设施:公共设施:公共厕所",
        "type": 0,
        "location": {
            "lat": 23.503564,
            "lng": 100.703962
        },
        "ad_info": {
            "adcode": 530824,
            "province": "云南省",
            "city": "普洱市",
            "district": "景谷傣族彝族自治县"
        }
    },
    {
        "id": "12029837804076026918",
        "title": "公共厕所",
        "address": "云南省普洱市江城哈尼族彝族自治县G219与瑶家山铜矿公路交叉口正东方向453米左右",
        "tel": "",
        "category": "基础设施:公共设施:公共厕所",
        "type": 0,
        "location": {
            "lat": 22.553306,
            "lng": 101.679442
        },
        "ad_info": {
            "adcode": 530826,
            "province": "云南省",
            "city": "普洱市",
            "district": "江城哈尼族彝族自治县"
        }
    },
    {
        "id": "3337474469875644643",
        "title": "公共厕所",
        "address": "云南省普洱市西盟佤族自治县娜妥段与新厂路交叉口正南方向1269米左右",
        "tel": "",
        "category": "基础设施:公共设施:公共厕所",
        "type": 0,
        "location": {
            "lat": 22.784439,
            "lng": 99.430459
        },
        "ad_info": {
            "adcode": 530829,
            "province": "云南省",
            "city": "普洱市",
            "district": "西盟佤族自治县"
        }
    },
    {
        "id": "1612512754157517164",
        "title": "杜鹃坝公厕",
        "address": "云南省普洱市景东彝族自治县观景台北行150米左右",
        "tel": "",
        "category": "基础设施:公共设施:公共厕所",
        "type": 0,
        "location": {
            "lat": 24.53507,
            "lng": 101.00997
        },
        "ad_info": {
            "adcode": 530823,
            "province": "云南省",
            "city": "普洱市",
            "district": "景东彝族自治县"
        }
    },
    {
        "id": "3869374929843574671",
        "title": "旅游厕所",
        "address": "云南省普洱市澜沧拉祜族自治县G227与江勐高速交叉口西北方向561米左右",
        "tel": "",
        "category": "基础设施:公共设施:公共厕所",
        "type": 0,
        "location": {
            "lat": 22.587987,
            "lng": 100.255548
        },
        "ad_info": {
            "adcode": 530828,
            "province": "云南省",
            "city": "普洱市",
            "district": "澜沧拉祜族自治县"
        }
    },
    {
        "id": "12336501131365406452",
        "title": "公共厕所",
        "address": "云南省普洱市思茅区振兴大道154号",
        "tel": "",
        "category": "基础设施:公共设施:公共厕所",
        "type": 0,
        "location": {
            "lat": 22.75648,
            "lng": 100.957404
        },
        "ad_info": {
            "adcode": 530802,
            "province": "云南省",
            "city": "普洱市",
            "district": "思茅区"
        }
    },
    {
        "id": "10852835262255146908",
        "title": "公共厕所",
        "address": "云南省普洱市思茅区菩提路与鱼水路交叉口正西方向75米左右",
        "tel": "",
        "category": "基础设施:公共设施:公共厕所",
        "type": 0,
        "location": {
            "lat": 22.763132,
            "lng": 100.991958
        },
        "ad_info": {
            "adcode": 530802,
            "province": "云南省",
            "city": "普洱市",
            "district": "思茅区"
        }
    },
    {
        "id": "1728114092609965543",
        "title": "公共厕所",
        "address": "云南省普洱市江城哈尼族彝族自治县中波路与联谊路交叉口正西方向29米左右",
        "tel": "",
        "category": "基础设施:公共设施:公共厕所",
        "type": 0,
        "location": {
            "lat": 22.587938,
            "lng": 101.857511
        },
        "ad_info": {
            "adcode": 530826,
            "province": "云南省",
            "city": "普洱市",
            "district": "江城哈尼族彝族自治县"
        }
    },
    {
        "id": "12888909145485317558",
        "title": "公共卫生间",
        "address": "云南省普洱市景谷傣族彝族自治县临江巷与正兴路交叉口正北方向91米左右",
        "tel": "",
        "category": "基础设施:公共设施:公共厕所",
        "type": 0,
        "location": {
            "lat": 23.494804,
            "lng": 100.710216
        },
        "ad_info": {
            "adcode": 530824,
            "province": "云南省",
            "city": "普洱市",
            "district": "景谷傣族彝族自治县"
        }
    },
    {
        "id": "9531982518371621275",
        "title": "公共厕所",
        "address": "云南省普洱市景谷傣族彝族自治县响水路与永安路交叉口正东方向80米左右",
        "tel": "",
        "category": "基础设施:公共设施:公共厕所",
        "type": 0,
        "location": {
            "lat": 23.494515,
            "lng": 100.704357
        },
        "ad_info": {
            "adcode": 530824,
            "province": "云南省",
            "city": "普洱市",
            "district": "景谷傣族彝族自治县"
        }
    },
    {
        "id": "14780864750874693951",
        "title": "公共厕所",
        "address": "云南省普洱市西盟佤族自治县勐卡路与勐梭路交叉口正北方向99米左右",
        "tel": "",
        "category": "基础设施:公共设施:公共厕所",
        "type": 0,
        "location": {
            "lat": 22.646693,
            "lng": 99.602732
        },
        "ad_info": {
            "adcode": 530829,
            "province": "云南省",
            "city": "普洱市",
            "district": "西盟佤族自治县"
        }
    },
    {
        "id": "13344525737519126503",
        "title": "公共厕所",
        "address": "云南省普洱市思茅区人力资源和社会保障局",
        "tel": "",
        "category": "基础设施:公共设施:公共厕所",
        "type": 0,
        "location": {
            "lat": 22.776204,
            "lng": 100.969658
        },
        "ad_info": {
            "adcode": 530802,
            "province": "云南省",
            "city": "普洱市",
            "district": "思茅区"
        }
    },
    {
        "id": "16891108377566248541",
        "title": "公共厕所",
        "address": "云南省普洱市景谷傣族彝族自治县S335与响水路交叉口西北方向347米左右",
        "tel": "",
        "category": "基础设施:公共设施:公共厕所",
        "type": 0,
        "location": {
            "lat": 23.505978,
            "lng": 100.685948
        },
        "ad_info": {
            "adcode": 530824,
            "province": "云南省",
            "city": "普洱市",
            "district": "景谷傣族彝族自治县"
        }
    },
    {
        "id": "9516604244053680856",
        "title": "公共厕所",
        "address": "云南省普洱市思茅区德化路与无量路交叉口西南方向129米左右",
        "tel": "",
        "category": "基础设施:公共设施:公共厕所",
        "type": 0,
        "location": {
            "lat": 22.812381,
            "lng": 100.969536
        },
        "ad_info": {
            "adcode": 530802,
            "province": "云南省",
            "city": "普洱市",
            "district": "思茅区"
        }
    },
    {
        "id": "3472785517610058649",
        "title": "公共厕所",
        "address": "云南省普洱市思茅区振兴南路与普洱大道交叉口西北方向80米左右",
        "tel": "",
        "category": "基础设施:公共设施:公共厕所",
        "type": 0,
        "location": {
            "lat": 22.755021,
            "lng": 100.955321
        },
        "ad_info": {
            "adcode": 530802,
            "province": "云南省",
            "city": "普洱市",
            "district": "思茅区"
        }
    },
    {
        "id": "3763785099915960983",
        "title": "公共厕所",
        "address": "云南省普洱市孟连傣族拉祜族佤族自治县城东路与芒卡线交叉口西南方向317米左右",
        "tel": "",
        "category": "基础设施:公共设施:公共厕所",
        "type": 0,
        "location": {
            "lat": 22.335951,
            "lng": 99.612976
        },
        "ad_info": {
            "adcode": 530827,
            "province": "云南省",
            "city": "普洱市",
            "district": "孟连傣族拉祜族佤族自治县"
        }
    },
    {
        "id": "863655025463394499",
        "title": "公共厕所",
        "address": "云南省普洱市澜沧拉祜族自治县G214与G219交叉口正南方向288米左右",
        "tel": "",
        "category": "基础设施:公共设施:公共厕所",
        "type": 0,
        "location": {
            "lat": 22.54592,
            "lng": 99.923922
        },
        "ad_info": {
            "adcode": 530828,
            "province": "云南省",
            "city": "普洱市",
            "district": "澜沧拉祜族自治县"
        }
    },
    {
        "id": "2764753992477941712",
        "title": "公共厕所",
        "address": "云南省普洱市思茅区振兴大道与西门街交叉口正北方向68米左右",
        "tel": "",
        "category": "基础设施:公共设施:公共厕所",
        "type": 0,
        "location": {
            "lat": 22.787961,
            "lng": 100.971408
        },
        "ad_info": {
            "adcode": 530802,
            "province": "云南省",
            "city": "普洱市",
            "district": "思茅区"
        }
    },
    {
        "id": "9681319131336544235",
        "title": "公共厕所",
        "address": "云南省普洱市思茅区江城路与菩提路交叉口南200米",
        "tel": "",
        "category": "基础设施:公共设施:公共厕所",
        "type": 0,
        "location": {
            "lat": 22.764825,
            "lng": 101.001727
        },
        "ad_info": {
            "adcode": 530802,
            "province": "云南省",
            "city": "普洱市",
            "district": "思茅区"
        }
    },
    {
        "id": "12302251664602104754",
        "title": "公共厕所",
        "address": "云南省普洱市思茅区太平街与边城路交叉口正东方向85米左右",
        "tel": "",
        "category": "基础设施:公共设施:公共厕所",
        "type": 0,
        "location": {
            "lat": 22.785697,
            "lng": 100.974616
        },
        "ad_info": {
            "adcode": 530802,
            "province": "云南省",
            "city": "普洱市",
            "district": "思茅区"
        }
    },
    {
        "id": "13260362464519614427",
        "title": "公共厕所",
        "address": "云南省普洱市景谷傣族彝族自治县益智路与金田路交叉口正北方向71米左右",
        "tel": "",
        "category": "基础设施:公共设施:公共厕所",
        "type": 0,
        "location": {
            "lat": 23.503564,
            "lng": 100.703962
        },
        "ad_info": {
            "adcode": 530824,
            "province": "云南省",
            "city": "普洱市",
            "district": "景谷傣族彝族自治县"
        }
    },
    {
        "id": "12029837804076026918",
        "title": "公共厕所",
        "address": "云南省普洱市江城哈尼族彝族自治县G219与瑶家山铜矿公路交叉口正东方向453米左右",
        "tel": "",
        "category": "基础设施:公共设施:公共厕所",
        "type": 0,
        "location": {
            "lat": 22.553306,
            "lng": 101.679442
        },
        "ad_info": {
            "adcode": 530826,
            "province": "云南省",
            "city": "普洱市",
            "district": "江城哈尼族彝族自治县"
        }
    },
    {
        "id": "3337474469875644643",
        "title": "公共厕所",
        "address": "云南省普洱市西盟佤族自治县娜妥段与新厂路交叉口正南方向1269米左右",
        "tel": "",
        "category": "基础设施:公共设施:公共厕所",
        "type": 0,
        "location": {
            "lat": 22.784439,
            "lng": 99.430459
        },
        "ad_info": {
            "adcode": 530829,
            "province": "云南省",
            "city": "普洱市",
            "district": "西盟佤族自治县"
        }
    },
    {
        "id": "1612512754157517164",
        "title": "杜鹃坝公厕",
        "address": "云南省普洱市景东彝族自治县观景台北行150米左右",
        "tel": "",
        "category": "基础设施:公共设施:公共厕所",
        "type": 0,
        "location": {
            "lat": 24.53507,
            "lng": 101.00997
        },
        "ad_info": {
            "adcode": 530823,
            "province": "云南省",
            "city": "普洱市",
            "district": "景东彝族自治县"
        }
    },
    {
        "id": "3869374929843574671",
        "title": "旅游厕所",
        "address": "云南省普洱市澜沧拉祜族自治县G227与江勐高速交叉口西北方向561米左右",
        "tel": "",
        "category": "基础设施:公共设施:公共厕所",
        "type": 0,
        "location": {
            "lat": 22.587987,
            "lng": 100.255548
        },
        "ad_info": {
            "adcode": 530828,
            "province": "云南省",
            "city": "普洱市",
            "district": "澜沧拉祜族自治县"
        }
    },
    {
        "id": "12336501131365406452",
        "title": "公共厕所",
        "address": "云南省普洱市思茅区振兴大道154号",
        "tel": "",
        "category": "基础设施:公共设施:公共厕所",
        "type": 0,
        "location": {
            "lat": 22.75648,
            "lng": 100.957404
        },
        "ad_info": {
            "adcode": 530802,
            "province": "云南省",
            "city": "普洱市",
            "district": "思茅区"
        }
    },
    {
        "id": "10852835262255146908",
        "title": "公共厕所",
        "address": "云南省普洱市思茅区菩提路与鱼水路交叉口正西方向75米左右",
        "tel": "",
        "category": "基础设施:公共设施:公共厕所",
        "type": 0,
        "location": {
            "lat": 22.763132,
            "lng": 100.991958
        },
        "ad_info": {
            "adcode": 530802,
            "province": "云南省",
            "city": "普洱市",
            "district": "思茅区"
        }
    },
    {
        "id": "1728114092609965543",
        "title": "公共厕所",
        "address": "云南省普洱市江城哈尼族彝族自治县中波路与联谊路交叉口正西方向29米左右",
        "tel": "",
        "category": "基础设施:公共设施:公共厕所",
        "type": 0,
        "location": {
            "lat": 22.587938,
            "lng": 101.857511
        },
        "ad_info": {
            "adcode": 530826,
            "province": "云南省",
            "city": "普洱市",
            "district": "江城哈尼族彝族自治县"
        }
    },
    {
        "id": "12888909145485317558",
        "title": "公共卫生间",
        "address": "云南省普洱市景谷傣族彝族自治县临江巷与正兴路交叉口正北方向91米左右",
        "tel": "",
        "category": "基础设施:公共设施:公共厕所",
        "type": 0,
        "location": {
            "lat": 23.494804,
            "lng": 100.710216
        },
        "ad_info": {
            "adcode": 530824,
            "province": "云南省",
            "city": "普洱市",
            "district": "景谷傣族彝族自治县"
        }
    },
    {
        "id": "9531982518371621275",
        "title": "公共厕所",
        "address": "云南省普洱市景谷傣族彝族自治县响水路与永安路交叉口正东方向80米左右",
        "tel": "",
        "category": "基础设施:公共设施:公共厕所",
        "type": 0,
        "location": {
            "lat": 23.494515,
            "lng": 100.704357
        },
        "ad_info": {
            "adcode": 530824,
            "province": "云南省",
            "city": "普洱市",
            "district": "景谷傣族彝族自治县"
        }
    },
    {
        "id": "14780864750874693951",
        "title": "公共厕所",
        "address": "云南省普洱市西盟佤族自治县勐卡路与勐梭路交叉口正北方向99米左右",
        "tel": "",
        "category": "基础设施:公共设施:公共厕所",
        "type": 0,
        "location": {
            "lat": 22.646693,
            "lng": 99.602732
        },
        "ad_info": {
            "adcode": 530829,
            "province": "云南省",
            "city": "普洱市",
            "district": "西盟佤族自治县"
        }
    },
    {
        "id": "13344525737519126503",
        "title": "公共厕所",
        "address": "云南省普洱市思茅区人力资源和社会保障局",
        "tel": "",
        "category": "基础设施:公共设施:公共厕所",
        "type": 0,
        "location": {
            "lat": 22.776204,
            "lng": 100.969658
        },
        "ad_info": {
            "adcode": 530802,
            "province": "云南省",
            "city": "普洱市",
            "district": "思茅区"
        }
    },
    {
        "id": "16891108377566248541",
        "title": "公共厕所",
        "address": "云南省普洱市景谷傣族彝族自治县S335与响水路交叉口西北方向347米左右",
        "tel": "",
        "category": "基础设施:公共设施:公共厕所",
        "type": 0,
        "location": {
            "lat": 23.505978,
            "lng": 100.685948
        },
        "ad_info": {
            "adcode": 530824,
            "province": "云南省",
            "city": "普洱市",
            "district": "景谷傣族彝族自治县"
        }
    },
    {
        "id": "9516604244053680856",
        "title": "公共厕所",
        "address": "云南省普洱市思茅区德化路与无量路交叉口西南方向129米左右",
        "tel": "",
        "category": "基础设施:公共设施:公共厕所",
        "type": 0,
        "location": {
            "lat": 22.812381,
            "lng": 100.969536
        },
        "ad_info": {
            "adcode": 530802,
            "province": "云南省",
            "city": "普洱市",
            "district": "思茅区"
        }
    },
    {
        "id": "3472785517610058649",
        "title": "公共厕所",
        "address": "云南省普洱市思茅区振兴南路与普洱大道交叉口西北方向80米左右",
        "tel": "",
        "category": "基础设施:公共设施:公共厕所",
        "type": 0,
        "location": {
            "lat": 22.755021,
            "lng": 100.955321
        },
        "ad_info": {
            "adcode": 530802,
            "province": "云南省",
            "city": "普洱市",
            "district": "思茅区"
        }
    },
    {
        "id": "3763785099915960983",
        "title": "公共厕所",
        "address": "云南省普洱市孟连傣族拉祜族佤族自治县城东路与芒卡线交叉口西南方向317米左右",
        "tel": "",
        "category": "基础设施:公共设施:公共厕所",
        "type": 0,
        "location": {
            "lat": 22.335951,
            "lng": 99.612976
        },
        "ad_info": {
            "adcode": 530827,
            "province": "云南省",
            "city": "普洱市",
            "district": "孟连傣族拉祜族佤族自治县"
        }
    },
    {
        "id": "863655025463394499",
        "title": "公共厕所",
        "address": "云南省普洱市澜沧拉祜族自治县G214与G219交叉口正南方向288米左右",
        "tel": "",
        "category": "基础设施:公共设施:公共厕所",
        "type": 0,
        "location": {
            "lat": 22.54592,
            "lng": 99.923922
        },
        "ad_info": {
            "adcode": 530828,
            "province": "云南省",
            "city": "普洱市",
            "district": "澜沧拉祜族自治县"
        }
    },
    {
        "id": "2764753992477941712",
        "title": "公共厕所",
        "address": "云南省普洱市思茅区振兴大道与西门街交叉口正北方向68米左右",
        "tel": "",
        "category": "基础设施:公共设施:公共厕所",
        "type": 0,
        "location": {
            "lat": 22.787961,
            "lng": 100.971408
        },
        "ad_info": {
            "adcode": 530802,
            "province": "云南省",
            "city": "普洱市",
            "district": "思茅区"
        }
    },
    {
        "id": "9681319131336544235",
        "title": "公共厕所",
        "address": "云南省普洱市思茅区江城路与菩提路交叉口南200米",
        "tel": "",
        "category": "基础设施:公共设施:公共厕所",
        "type": 0,
        "location": {
            "lat": 22.764825,
            "lng": 101.001727
        },
        "ad_info": {
            "adcode": 530802,
            "province": "云南省",
            "city": "普洱市",
            "district": "思茅区"
        }
    },
    {
        "id": "12302251664602104754",
        "title": "公共厕所",
        "address": "云南省普洱市思茅区太平街与边城路交叉口正东方向85米左右",
        "tel": "",
        "category": "基础设施:公共设施:公共厕所",
        "type": 0,
        "location": {
            "lat": 22.785697,
            "lng": 100.974616
        },
        "ad_info": {
            "adcode": 530802,
            "province": "云南省",
            "city": "普洱市",
            "district": "思茅区"
        }
    },
    {
        "id": "13260362464519614427",
        "title": "公共厕所",
        "address": "云南省普洱市景谷傣族彝族自治县益智路与金田路交叉口正北方向71米左右",
        "tel": "",
        "category": "基础设施:公共设施:公共厕所",
        "type": 0,
        "location": {
            "lat": 23.503564,
            "lng": 100.703962
        },
        "ad_info": {
            "adcode": 530824,
            "province": "云南省",
            "city": "普洱市",
            "district": "景谷傣族彝族自治县"
        }
    },
    {
        "id": "12029837804076026918",
        "title": "公共厕所",
        "address": "云南省普洱市江城哈尼族彝族自治县G219与瑶家山铜矿公路交叉口正东方向453米左右",
        "tel": "",
        "category": "基础设施:公共设施:公共厕所",
        "type": 0,
        "location": {
            "lat": 22.553306,
            "lng": 101.679442
        },
        "ad_info": {
            "adcode": 530826,
            "province": "云南省",
            "city": "普洱市",
            "district": "江城哈尼族彝族自治县"
        }
    },
    {
        "id": "3337474469875644643",
        "title": "公共厕所",
        "address": "云南省普洱市西盟佤族自治县娜妥段与新厂路交叉口正南方向1269米左右",
        "tel": "",
        "category": "基础设施:公共设施:公共厕所",
        "type": 0,
        "location": {
            "lat": 22.784439,
            "lng": 99.430459
        },
        "ad_info": {
            "adcode": 530829,
            "province": "云南省",
            "city": "普洱市",
            "district": "西盟佤族自治县"
        }
    },
    {
        "id": "1612512754157517164",
        "title": "杜鹃坝公厕",
        "address": "云南省普洱市景东彝族自治县观景台北行150米左右",
        "tel": "",
        "category": "基础设施:公共设施:公共厕所",
        "type": 0,
        "location": {
            "lat": 24.53507,
            "lng": 101.00997
        },
        "ad_info": {
            "adcode": 530823,
            "province": "云南省",
            "city": "普洱市",
            "district": "景东彝族自治县"
        }
    },
    {
        "id": "3869374929843574671",
        "title": "旅游厕所",
        "address": "云南省普洱市澜沧拉祜族自治县G227与江勐高速交叉口西北方向561米左右",
        "tel": "",
        "category": "基础设施:公共设施:公共厕所",
        "type": 0,
        "location": {
            "lat": 22.587987,
            "lng": 100.255548
        },
        "ad_info": {
            "adcode": 530828,
            "province": "云南省",
            "city": "普洱市",
            "district": "澜沧拉祜族自治县"
        }
    },
    {
        "id": "12336501131365406452",
        "title": "公共厕所",
        "address": "云南省普洱市思茅区振兴大道154号",
        "tel": "",
        "category": "基础设施:公共设施:公共厕所",
        "type": 0,
        "location": {
            "lat": 22.75648,
            "lng": 100.957404
        },
        "ad_info": {
            "adcode": 530802,
            "province": "云南省",
            "city": "普洱市",
            "district": "思茅区"
        }
    },
    {
        "id": "10852835262255146908",
        "title": "公共厕所",
        "address": "云南省普洱市思茅区菩提路与鱼水路交叉口正西方向75米左右",
        "tel": "",
        "category": "基础设施:公共设施:公共厕所",
        "type": 0,
        "location": {
            "lat": 22.763132,
            "lng": 100.991958
        },
        "ad_info": {
            "adcode": 530802,
            "province": "云南省",
            "city": "普洱市",
            "district": "思茅区"
        }
    },
    {
        "id": "1728114092609965543",
        "title": "公共厕所",
        "address": "云南省普洱市江城哈尼族彝族自治县中波路与联谊路交叉口正西方向29米左右",
        "tel": "",
        "category": "基础设施:公共设施:公共厕所",
        "type": 0,
        "location": {
            "lat": 22.587938,
            "lng": 101.857511
        },
        "ad_info": {
            "adcode": 530826,
            "province": "云南省",
            "city": "普洱市",
            "district": "江城哈尼族彝族自治县"
        }
    },
    {
        "id": "12888909145485317558",
        "title": "公共卫生间",
        "address": "云南省普洱市景谷傣族彝族自治县临江巷与正兴路交叉口正北方向91米左右",
        "tel": "",
        "category": "基础设施:公共设施:公共厕所",
        "type": 0,
        "location": {
            "lat": 23.494804,
            "lng": 100.710216
        },
        "ad_info": {
            "adcode": 530824,
            "province": "云南省",
            "city": "普洱市",
            "district": "景谷傣族彝族自治县"
        }
    },
    {
        "id": "9531982518371621275",
        "title": "公共厕所",
        "address": "云南省普洱市景谷傣族彝族自治县响水路与永安路交叉口正东方向80米左右",
        "tel": "",
        "category": "基础设施:公共设施:公共厕所",
        "type": 0,
        "location": {
            "lat": 23.494515,
            "lng": 100.704357
        },
        "ad_info": {
            "adcode": 530824,
            "province": "云南省",
            "city": "普洱市",
            "district": "景谷傣族彝族自治县"
        }
    },
    {
        "id": "14780864750874693951",
        "title": "公共厕所",
        "address": "云南省普洱市西盟佤族自治县勐卡路与勐梭路交叉口正北方向99米左右",
        "tel": "",
        "category": "基础设施:公共设施:公共厕所",
        "type": 0,
        "location": {
            "lat": 22.646693,
            "lng": 99.602732
        },
        "ad_info": {
            "adcode": 530829,
            "province": "云南省",
            "city": "普洱市",
            "district": "西盟佤族自治县"
        }
    },
    {
        "id": "13344525737519126503",
        "title": "公共厕所",
        "address": "云南省普洱市思茅区人力资源和社会保障局",
        "tel": "",
        "category": "基础设施:公共设施:公共厕所",
        "type": 0,
        "location": {
            "lat": 22.776204,
            "lng": 100.969658
        },
        "ad_info": {
            "adcode": 530802,
            "province": "云南省",
            "city": "普洱市",
            "district": "思茅区"
        }
    },
    {
        "id": "16891108377566248541",
        "title": "公共厕所",
        "address": "云南省普洱市景谷傣族彝族自治县S335与响水路交叉口西北方向347米左右",
        "tel": "",
        "category": "基础设施:公共设施:公共厕所",
        "type": 0,
        "location": {
            "lat": 23.505978,
            "lng": 100.685948
        },
        "ad_info": {
            "adcode": 530824,
            "province": "云南省",
            "city": "普洱市",
            "district": "景谷傣族彝族自治县"
        }
    },
    {
        "id": "9516604244053680856",
        "title": "公共厕所",
        "address": "云南省普洱市思茅区德化路与无量路交叉口西南方向129米左右",
        "tel": "",
        "category": "基础设施:公共设施:公共厕所",
        "type": 0,
        "location": {
            "lat": 22.812381,
            "lng": 100.969536
        },
        "ad_info": {
            "adcode": 530802,
            "province": "云南省",
            "city": "普洱市",
            "district": "思茅区"
        }
    },
    {
        "id": "3472785517610058649",
        "title": "公共厕所",
        "address": "云南省普洱市思茅区振兴南路与普洱大道交叉口西北方向80米左右",
        "tel": "",
        "category": "基础设施:公共设施:公共厕所",
        "type": 0,
        "location": {
            "lat": 22.755021,
            "lng": 100.955321
        },
        "ad_info": {
            "adcode": 530802,
            "province": "云南省",
            "city": "普洱市",
            "district": "思茅区"
        }
    },
    {
        "id": "3763785099915960983",
        "title": "公共厕所",
        "address": "云南省普洱市孟连傣族拉祜族佤族自治县城东路与芒卡线交叉口西南方向317米左右",
        "tel": "",
        "category": "基础设施:公共设施:公共厕所",
        "type": 0,
        "location": {
            "lat": 22.335951,
            "lng": 99.612976
        },
        "ad_info": {
            "adcode": 530827,
            "province": "云南省",
            "city": "普洱市",
            "district": "孟连傣族拉祜族佤族自治县"
        }
    },
    {
        "id": "863655025463394499",
        "title": "公共厕所",
        "address": "云南省普洱市澜沧拉祜族自治县G214与G219交叉口正南方向288米左右",
        "tel": "",
        "category": "基础设施:公共设施:公共厕所",
        "type": 0,
        "location": {
            "lat": 22.54592,
            "lng": 99.923922
        },
        "ad_info": {
            "adcode": 530828,
            "province": "云南省",
            "city": "普洱市",
            "district": "澜沧拉祜族自治县"
        }
    },
    {
        "id": "2764753992477941712",
        "title": "公共厕所",
        "address": "云南省普洱市思茅区振兴大道与西门街交叉口正北方向68米左右",
        "tel": "",
        "category": "基础设施:公共设施:公共厕所",
        "type": 0,
        "location": {
            "lat": 22.787961,
            "lng": 100.971408
        },
        "ad_info": {
            "adcode": 530802,
            "province": "云南省",
            "city": "普洱市",
            "district": "思茅区"
        }
    },
    {
        "id": "9681319131336544235",
        "title": "公共厕所",
        "address": "云南省普洱市思茅区江城路与菩提路交叉口南200米",
        "tel": "",
        "category": "基础设施:公共设施:公共厕所",
        "type": 0,
        "location": {
            "lat": 22.764825,
            "lng": 101.001727
        },
        "ad_info": {
            "adcode": 530802,
            "province": "云南省",
            "city": "普洱市",
            "district": "思茅区"
        }
    },
    {
        "id": "12302251664602104754",
        "title": "公共厕所",
        "address": "云南省普洱市思茅区太平街与边城路交叉口正东方向85米左右",
        "tel": "",
        "category": "基础设施:公共设施:公共厕所",
        "type": 0,
        "location": {
            "lat": 22.785697,
            "lng": 100.974616
        },
        "ad_info": {
            "adcode": 530802,
            "province": "云南省",
            "city": "普洱市",
            "district": "思茅区"
        }
    },
    {
        "id": "13260362464519614427",
        "title": "公共厕所",
        "address": "云南省普洱市景谷傣族彝族自治县益智路与金田路交叉口正北方向71米左右",
        "tel": "",
        "category": "基础设施:公共设施:公共厕所",
        "type": 0,
        "location": {
            "lat": 23.503564,
            "lng": 100.703962
        },
        "ad_info": {
            "adcode": 530824,
            "province": "云南省",
            "city": "普洱市",
            "district": "景谷傣族彝族自治县"
        }
    },
    {
        "id": "12029837804076026918",
        "title": "公共厕所",
        "address": "云南省普洱市江城哈尼族彝族自治县G219与瑶家山铜矿公路交叉口正东方向453米左右",
        "tel": "",
        "category": "基础设施:公共设施:公共厕所",
        "type": 0,
        "location": {
            "lat": 22.553306,
            "lng": 101.679442
        },
        "ad_info": {
            "adcode": 530826,
            "province": "云南省",
            "city": "普洱市",
            "district": "江城哈尼族彝族自治县"
        }
    },
    {
        "id": "3337474469875644643",
        "title": "公共厕所",
        "address": "云南省普洱市西盟佤族自治县娜妥段与新厂路交叉口正南方向1269米左右",
        "tel": "",
        "category": "基础设施:公共设施:公共厕所",
        "type": 0,
        "location": {
            "lat": 22.784439,
            "lng": 99.430459
        },
        "ad_info": {
            "adcode": 530829,
            "province": "云南省",
            "city": "普洱市",
            "district": "西盟佤族自治县"
        }
    },
    {
        "id": "1612512754157517164",
        "title": "杜鹃坝公厕",
        "address": "云南省普洱市景东彝族自治县观景台北行150米左右",
        "tel": "",
        "category": "基础设施:公共设施:公共厕所",
        "type": 0,
        "location": {
            "lat": 24.53507,
            "lng": 101.00997
        },
        "ad_info": {
            "adcode": 530823,
            "province": "云南省",
            "city": "普洱市",
            "district": "景东彝族自治县"
        }
    },
    {
        "id": "3869374929843574671",
        "title": "旅游厕所",
        "address": "云南省普洱市澜沧拉祜族自治县G227与江勐高速交叉口西北方向561米左右",
        "tel": "",
        "category": "基础设施:公共设施:公共厕所",
        "type": 0,
        "location": {
            "lat": 22.587987,
            "lng": 100.255548
        },
        "ad_info": {
            "adcode": 530828,
            "province": "云南省",
            "city": "普洱市",
            "district": "澜沧拉祜族自治县"
        }
    },
    {
        "id": "12336501131365406452",
        "title": "公共厕所",
        "address": "云南省普洱市思茅区振兴大道154号",
        "tel": "",
        "category": "基础设施:公共设施:公共厕所",
        "type": 0,
        "location": {
            "lat": 22.75648,
            "lng": 100.957404
        },
        "ad_info": {
            "adcode": 530802,
            "province": "云南省",
            "city": "普洱市",
            "district": "思茅区"
        }
    },
    {
        "id": "10852835262255146908",
        "title": "公共厕所",
        "address": "云南省普洱市思茅区菩提路与鱼水路交叉口正西方向75米左右",
        "tel": "",
        "category": "基础设施:公共设施:公共厕所",
        "type": 0,
        "location": {
            "lat": 22.763132,
            "lng": 100.991958
        },
        "ad_info": {
            "adcode": 530802,
            "province": "云南省",
            "city": "普洱市",
            "district": "思茅区"
        }
    },
    {
        "id": "1728114092609965543",
        "title": "公共厕所",
        "address": "云南省普洱市江城哈尼族彝族自治县中波路与联谊路交叉口正西方向29米左右",
        "tel": "",
        "category": "基础设施:公共设施:公共厕所",
        "type": 0,
        "location": {
            "lat": 22.587938,
            "lng": 101.857511
        },
        "ad_info": {
            "adcode": 530826,
            "province": "云南省",
            "city": "普洱市",
            "district": "江城哈尼族彝族自治县"
        }
    },
    {
        "id": "12888909145485317558",
        "title": "公共卫生间",
        "address": "云南省普洱市景谷傣族彝族自治县临江巷与正兴路交叉口正北方向91米左右",
        "tel": "",
        "category": "基础设施:公共设施:公共厕所",
        "type": 0,
        "location": {
            "lat": 23.494804,
            "lng": 100.710216
        },
        "ad_info": {
            "adcode": 530824,
            "province": "云南省",
            "city": "普洱市",
            "district": "景谷傣族彝族自治县"
        }
    },
    {
        "id": "9531982518371621275",
        "title": "公共厕所",
        "address": "云南省普洱市景谷傣族彝族自治县响水路与永安路交叉口正东方向80米左右",
        "tel": "",
        "category": "基础设施:公共设施:公共厕所",
        "type": 0,
        "location": {
            "lat": 23.494515,
            "lng": 100.704357
        },
        "ad_info": {
            "adcode": 530824,
            "province": "云南省",
            "city": "普洱市",
            "district": "景谷傣族彝族自治县"
        }
    },
    {
        "id": "14780864750874693951",
        "title": "公共厕所",
        "address": "云南省普洱市西盟佤族自治县勐卡路与勐梭路交叉口正北方向99米左右",
        "tel": "",
        "category": "基础设施:公共设施:公共厕所",
        "type": 0,
        "location": {
            "lat": 22.646693,
            "lng": 99.602732
        },
        "ad_info": {
            "adcode": 530829,
            "province": "云南省",
            "city": "普洱市",
            "district": "西盟佤族自治县"
        }
    },
    {
        "id": "13344525737519126503",
        "title": "公共厕所",
        "address": "云南省普洱市思茅区人力资源和社会保障局",
        "tel": "",
        "category": "基础设施:公共设施:公共厕所",
        "type": 0,
        "location": {
            "lat": 22.776204,
            "lng": 100.969658
        },
        "ad_info": {
            "adcode": 530802,
            "province": "云南省",
            "city": "普洱市",
            "district": "思茅区"
        }
    },
    {
        "id": "16891108377566248541",
        "title": "公共厕所",
        "address": "云南省普洱市景谷傣族彝族自治县S335与响水路交叉口西北方向347米左右",
        "tel": "",
        "category": "基础设施:公共设施:公共厕所",
        "type": 0,
        "location": {
            "lat": 23.505978,
            "lng": 100.685948
        },
        "ad_info": {
            "adcode": 530824,
            "province": "云南省",
            "city": "普洱市",
            "district": "景谷傣族彝族自治县"
        }
    },
    {
        "id": "9516604244053680856",
        "title": "公共厕所",
        "address": "云南省普洱市思茅区德化路与无量路交叉口西南方向129米左右",
        "tel": "",
        "category": "基础设施:公共设施:公共厕所",
        "type": 0,
        "location": {
            "lat": 22.812381,
            "lng": 100.969536
        },
        "ad_info": {
            "adcode": 530802,
            "province": "云南省",
            "city": "普洱市",
            "district": "思茅区"
        }
    },
    {
        "id": "3472785517610058649",
        "title": "公共厕所",
        "address": "云南省普洱市思茅区振兴南路与普洱大道交叉口西北方向80米左右",
        "tel": "",
        "category": "基础设施:公共设施:公共厕所",
        "type": 0,
        "location": {
            "lat": 22.755021,
            "lng": 100.955321
        },
        "ad_info": {
            "adcode": 530802,
            "province": "云南省",
            "city": "普洱市",
            "district": "思茅区"
        }
    },
    {
        "id": "3763785099915960983",
        "title": "公共厕所",
        "address": "云南省普洱市孟连傣族拉祜族佤族自治县城东路与芒卡线交叉口西南方向317米左右",
        "tel": "",
        "category": "基础设施:公共设施:公共厕所",
        "type": 0,
        "location": {
            "lat": 22.335951,
            "lng": 99.612976
        },
        "ad_info": {
            "adcode": 530827,
            "province": "云南省",
            "city": "普洱市",
            "district": "孟连傣族拉祜族佤族自治县"
        }
    },
    {
        "id": "863655025463394499",
        "title": "公共厕所",
        "address": "云南省普洱市澜沧拉祜族自治县G214与G219交叉口正南方向288米左右",
        "tel": "",
        "category": "基础设施:公共设施:公共厕所",
        "type": 0,
        "location": {
            "lat": 22.54592,
            "lng": 99.923922
        },
        "ad_info": {
            "adcode": 530828,
            "province": "云南省",
            "city": "普洱市",
            "district": "澜沧拉祜族自治县"
        }
    },
    {
        "id": "2764753992477941712",
        "title": "公共厕所",
        "address": "云南省普洱市思茅区振兴大道与西门街交叉口正北方向68米左右",
        "tel": "",
        "category": "基础设施:公共设施:公共厕所",
        "type": 0,
        "location": {
            "lat": 22.787961,
            "lng": 100.971408
        },
        "ad_info": {
            "adcode": 530802,
            "province": "云南省",
            "city": "普洱市",
            "district": "思茅区"
        }
    },
    {
        "id": "9681319131336544235",
        "title": "公共厕所",
        "address": "云南省普洱市思茅区江城路与菩提路交叉口南200米",
        "tel": "",
        "category": "基础设施:公共设施:公共厕所",
        "type": 0,
        "location": {
            "lat": 22.764825,
            "lng": 101.001727
        },
        "ad_info": {
            "adcode": 530802,
            "province": "云南省",
            "city": "普洱市",
            "district": "思茅区"
        }
    },
    {
        "id": "12302251664602104754",
        "title": "公共厕所",
        "address": "云南省普洱市思茅区太平街与边城路交叉口正东方向85米左右",
        "tel": "",
        "category": "基础设施:公共设施:公共厕所",
        "type": 0,
        "location": {
            "lat": 22.785697,
            "lng": 100.974616
        },
        "ad_info": {
            "adcode": 530802,
            "province": "云南省",
            "city": "普洱市",
            "district": "思茅区"
        }
    },
    {
        "id": "13260362464519614427",
        "title": "公共厕所",
        "address": "云南省普洱市景谷傣族彝族自治县益智路与金田路交叉口正北方向71米左右",
        "tel": "",
        "category": "基础设施:公共设施:公共厕所",
        "type": 0,
        "location": {
            "lat": 23.503564,
            "lng": 100.703962
        },
        "ad_info": {
            "adcode": 530824,
            "province": "云南省",
            "city": "普洱市",
            "district": "景谷傣族彝族自治县"
        }
    },
    {
        "id": "12029837804076026918",
        "title": "公共厕所",
        "address": "云南省普洱市江城哈尼族彝族自治县G219与瑶家山铜矿公路交叉口正东方向453米左右",
        "tel": "",
        "category": "基础设施:公共设施:公共厕所",
        "type": 0,
        "location": {
            "lat": 22.553306,
            "lng": 101.679442
        },
        "ad_info": {
            "adcode": 530826,
            "province": "云南省",
            "city": "普洱市",
            "district": "江城哈尼族彝族自治县"
        }
    },
    {
        "id": "3337474469875644643",
        "title": "公共厕所",
        "address": "云南省普洱市西盟佤族自治县娜妥段与新厂路交叉口正南方向1269米左右",
        "tel": "",
        "category": "基础设施:公共设施:公共厕所",
        "type": 0,
        "location": {
            "lat": 22.784439,
            "lng": 99.430459
        },
        "ad_info": {
            "adcode": 530829,
            "province": "云南省",
            "city": "普洱市",
            "district": "西盟佤族自治县"
        }
    },
    {
        "id": "1612512754157517164",
        "title": "杜鹃坝公厕",
        "address": "云南省普洱市景东彝族自治县观景台北行150米左右",
        "tel": "",
        "category": "基础设施:公共设施:公共厕所",
        "type": 0,
        "location": {
            "lat": 24.53507,
            "lng": 101.00997
        },
        "ad_info": {
            "adcode": 530823,
            "province": "云南省",
            "city": "普洱市",
            "district": "景东彝族自治县"
        }
    },
    {
        "id": "3869374929843574671",
        "title": "旅游厕所",
        "address": "云南省普洱市澜沧拉祜族自治县G227与江勐高速交叉口西北方向561米左右",
        "tel": "",
        "category": "基础设施:公共设施:公共厕所",
        "type": 0,
        "location": {
            "lat": 22.587987,
            "lng": 100.255548
        },
        "ad_info": {
            "adcode": 530828,
            "province": "云南省",
            "city": "普洱市",
            "district": "澜沧拉祜族自治县"
        }
    },
    {
        "id": "12336501131365406452",
        "title": "公共厕所",
        "address": "云南省普洱市思茅区振兴大道154号",
        "tel": "",
        "category": "基础设施:公共设施:公共厕所",
        "type": 0,
        "location": {
            "lat": 22.75648,
            "lng": 100.957404
        },
        "ad_info": {
            "adcode": 530802,
            "province": "云南省",
            "city": "普洱市",
            "district": "思茅区"
        }
    },
    {
        "id": "10852835262255146908",
        "title": "公共厕所",
        "address": "云南省普洱市思茅区菩提路与鱼水路交叉口正西方向75米左右",
        "tel": "",
        "category": "基础设施:公共设施:公共厕所",
        "type": 0,
        "location": {
            "lat": 22.763132,
            "lng": 100.991958
        },
        "ad_info": {
            "adcode": 530802,
            "province": "云南省",
            "city": "普洱市",
            "district": "思茅区"
        }
    },
    {
        "id": "1728114092609965543",
        "title": "公共厕所",
        "address": "云南省普洱市江城哈尼族彝族自治县中波路与联谊路交叉口正西方向29米左右",
        "tel": "",
        "category": "基础设施:公共设施:公共厕所",
        "type": 0,
        "location": {
            "lat": 22.587938,
            "lng": 101.857511
        },
        "ad_info": {
            "adcode": 530826,
            "province": "云南省",
            "city": "普洱市",
            "district": "江城哈尼族彝族自治县"
        }
    },
    {
        "id": "12888909145485317558",
        "title": "公共卫生间",
        "address": "云南省普洱市景谷傣族彝族自治县临江巷与正兴路交叉口正北方向91米左右",
        "tel": "",
        "category": "基础设施:公共设施:公共厕所",
        "type": 0,
        "location": {
            "lat": 23.494804,
            "lng": 100.710216
        },
        "ad_info": {
            "adcode": 530824,
            "province": "云南省",
            "city": "普洱市",
            "district": "景谷傣族彝族自治县"
        }
    },
    {
        "id": "9531982518371621275",
        "title": "公共厕所",
        "address": "云南省普洱市景谷傣族彝族自治县响水路与永安路交叉口正东方向80米左右",
        "tel": "",
        "category": "基础设施:公共设施:公共厕所",
        "type": 0,
        "location": {
            "lat": 23.494515,
            "lng": 100.704357
        },
        "ad_info": {
            "adcode": 530824,
            "province": "云南省",
            "city": "普洱市",
            "district": "景谷傣族彝族自治县"
        }
    },
    {
        "id": "14780864750874693951",
        "title": "公共厕所",
        "address": "云南省普洱市西盟佤族自治县勐卡路与勐梭路交叉口正北方向99米左右",
        "tel": "",
        "category": "基础设施:公共设施:公共厕所",
        "type": 0,
        "location": {
            "lat": 22.646693,
            "lng": 99.602732
        },
        "ad_info": {
            "adcode": 530829,
            "province": "云南省",
            "city": "普洱市",
            "district": "西盟佤族自治县"
        }
    },
    {
        "id": "13344525737519126503",
        "title": "公共厕所",
        "address": "云南省普洱市思茅区人力资源和社会保障局",
        "tel": "",
        "category": "基础设施:公共设施:公共厕所",
        "type": 0,
        "location": {
            "lat": 22.776204,
            "lng": 100.969658
        },
        "ad_info": {
            "adcode": 530802,
            "province": "云南省",
            "city": "普洱市",
            "district": "思茅区"
        }
    },
    {
        "id": "16891108377566248541",
        "title": "公共厕所",
        "address": "云南省普洱市景谷傣族彝族自治县S335与响水路交叉口西北方向347米左右",
        "tel": "",
        "category": "基础设施:公共设施:公共厕所",
        "type": 0,
        "location": {
            "lat": 23.505978,
            "lng": 100.685948
        },
        "ad_info": {
            "adcode": 530824,
            "province": "云南省",
            "city": "普洱市",
            "district": "景谷傣族彝族自治县"
        }
    },
    {
        "id": "9516604244053680856",
        "title": "公共厕所",
        "address": "云南省普洱市思茅区德化路与无量路交叉口西南方向129米左右",
        "tel": "",
        "category": "基础设施:公共设施:公共厕所",
        "type": 0,
        "location": {
            "lat": 22.812381,
            "lng": 100.969536
        },
        "ad_info": {
            "adcode": 530802,
            "province": "云南省",
            "city": "普洱市",
            "district": "思茅区"
        }
    },
    {
        "id": "3472785517610058649",
        "title": "公共厕所",
        "address": "云南省普洱市思茅区振兴南路与普洱大道交叉口西北方向80米左右",
        "tel": "",
        "category": "基础设施:公共设施:公共厕所",
        "type": 0,
        "location": {
            "lat": 22.755021,
            "lng": 100.955321
        },
        "ad_info": {
            "adcode": 530802,
            "province": "云南省",
            "city": "普洱市",
            "district": "思茅区"
        }
    },
    {
        "id": "3763785099915960983",
        "title": "公共厕所",
        "address": "云南省普洱市孟连傣族拉祜族佤族自治县城东路与芒卡线交叉口西南方向317米左右",
        "tel": "",
        "category": "基础设施:公共设施:公共厕所",
        "type": 0,
        "location": {
            "lat": 22.335951,
            "lng": 99.612976
        },
        "ad_info": {
            "adcode": 530827,
            "province": "云南省",
            "city": "普洱市",
            "district": "孟连傣族拉祜族佤族自治县"
        }
    },
    {
        "id": "863655025463394499",
        "title": "公共厕所",
        "address": "云南省普洱市澜沧拉祜族自治县G214与G219交叉口正南方向288米左右",
        "tel": "",
        "category": "基础设施:公共设施:公共厕所",
        "type": 0,
        "location": {
            "lat": 22.54592,
            "lng": 99.923922
        },
        "ad_info": {
            "adcode": 530828,
            "province": "云南省",
            "city": "普洱市",
            "district": "澜沧拉祜族自治县"
        }
    },
    {
        "id": "2764753992477941712",
        "title": "公共厕所",
        "address": "云南省普洱市思茅区振兴大道与西门街交叉口正北方向68米左右",
        "tel": "",
        "category": "基础设施:公共设施:公共厕所",
        "type": 0,
        "location": {
            "lat": 22.787961,
            "lng": 100.971408
        },
        "ad_info": {
            "adcode": 530802,
            "province": "云南省",
            "city": "普洱市",
            "district": "思茅区"
        }
    },
    {
        "id": "9681319131336544235",
        "title": "公共厕所",
        "address": "云南省普洱市思茅区江城路与菩提路交叉口南200米",
        "tel": "",
        "category": "基础设施:公共设施:公共厕所",
        "type": 0,
        "location": {
            "lat": 22.764825,
            "lng": 101.001727
        },
        "ad_info": {
            "adcode": 530802,
            "province": "云南省",
            "city": "普洱市",
            "district": "思茅区"
        }
    },
    {
        "id": "12302251664602104754",
        "title": "公共厕所",
        "address": "云南省普洱市思茅区太平街与边城路交叉口正东方向85米左右",
        "tel": "",
        "category": "基础设施:公共设施:公共厕所",
        "type": 0,
        "location": {
            "lat": 22.785697,
            "lng": 100.974616
        },
        "ad_info": {
            "adcode": 530802,
            "province": "云南省",
            "city": "普洱市",
            "district": "思茅区"
        }
    },
    {
        "id": "13260362464519614427",
        "title": "公共厕所",
        "address": "云南省普洱市景谷傣族彝族自治县益智路与金田路交叉口正北方向71米左右",
        "tel": "",
        "category": "基础设施:公共设施:公共厕所",
        "type": 0,
        "location": {
            "lat": 23.503564,
            "lng": 100.703962
        },
        "ad_info": {
            "adcode": 530824,
            "province": "云南省",
            "city": "普洱市",
            "district": "景谷傣族彝族自治县"
        }
    },
    {
        "id": "12029837804076026918",
        "title": "公共厕所",
        "address": "云南省普洱市江城哈尼族彝族自治县G219与瑶家山铜矿公路交叉口正东方向453米左右",
        "tel": "",
        "category": "基础设施:公共设施:公共厕所",
        "type": 0,
        "location": {
            "lat": 22.553306,
            "lng": 101.679442
        },
        "ad_info": {
            "adcode": 530826,
            "province": "云南省",
            "city": "普洱市",
            "district": "江城哈尼族彝族自治县"
        }
    },
    {
        "id": "3337474469875644643",
        "title": "公共厕所",
        "address": "云南省普洱市西盟佤族自治县娜妥段与新厂路交叉口正南方向1269米左右",
        "tel": "",
        "category": "基础设施:公共设施:公共厕所",
        "type": 0,
        "location": {
            "lat": 22.784439,
            "lng": 99.430459
        },
        "ad_info": {
            "adcode": 530829,
            "province": "云南省",
            "city": "普洱市",
            "district": "西盟佤族自治县"
        }
    },
    {
        "id": "1612512754157517164",
        "title": "杜鹃坝公厕",
        "address": "云南省普洱市景东彝族自治县观景台北行150米左右",
        "tel": "",
        "category": "基础设施:公共设施:公共厕所",
        "type": 0,
        "location": {
            "lat": 24.53507,
            "lng": 101.00997
        },
        "ad_info": {
            "adcode": 530823,
            "province": "云南省",
            "city": "普洱市",
            "district": "景东彝族自治县"
        }
    },
    {
        "id": "3869374929843574671",
        "title": "旅游厕所",
        "address": "云南省普洱市澜沧拉祜族自治县G227与江勐高速交叉口西北方向561米左右",
        "tel": "",
        "category": "基础设施:公共设施:公共厕所",
        "type": 0,
        "location": {
            "lat": 22.587987,
            "lng": 100.255548
        },
        "ad_info": {
            "adcode": 530828,
            "province": "云南省",
            "city": "普洱市",
            "district": "澜沧拉祜族自治县"
        }
    },
    {
        "id": "12336501131365406452",
        "title": "公共厕所",
        "address": "云南省普洱市思茅区振兴大道154号",
        "tel": "",
        "category": "基础设施:公共设施:公共厕所",
        "type": 0,
        "location": {
            "lat": 22.75648,
            "lng": 100.957404
        },
        "ad_info": {
            "adcode": 530802,
            "province": "云南省",
            "city": "普洱市",
            "district": "思茅区"
        }
    },
    {
        "id": "10852835262255146908",
        "title": "公共厕所",
        "address": "云南省普洱市思茅区菩提路与鱼水路交叉口正西方向75米左右",
        "tel": "",
        "category": "基础设施:公共设施:公共厕所",
        "type": 0,
        "location": {
            "lat": 22.763132,
            "lng": 100.991958
        },
        "ad_info": {
            "adcode": 530802,
            "province": "云南省",
            "city": "普洱市",
            "district": "思茅区"
        }
    },
    {
        "id": "1728114092609965543",
        "title": "公共厕所",
        "address": "云南省普洱市江城哈尼族彝族自治县中波路与联谊路交叉口正西方向29米左右",
        "tel": "",
        "category": "基础设施:公共设施:公共厕所",
        "type": 0,
        "location": {
            "lat": 22.587938,
            "lng": 101.857511
        },
        "ad_info": {
            "adcode": 530826,
            "province": "云南省",
            "city": "普洱市",
            "district": "江城哈尼族彝族自治县"
        }
    },
    {
        "id": "12888909145485317558",
        "title": "公共卫生间",
        "address": "云南省普洱市景谷傣族彝族自治县临江巷与正兴路交叉口正北方向91米左右",
        "tel": "",
        "category": "基础设施:公共设施:公共厕所",
        "type": 0,
        "location": {
            "lat": 23.494804,
            "lng": 100.710216
        },
        "ad_info": {
            "adcode": 530824,
            "province": "云南省",
            "city": "普洱市",
            "district": "景谷傣族彝族自治县"
        }
    },
    {
        "id": "9531982518371621275",
        "title": "公共厕所",
        "address": "云南省普洱市景谷傣族彝族自治县响水路与永安路交叉口正东方向80米左右",
        "tel": "",
        "category": "基础设施:公共设施:公共厕所",
        "type": 0,
        "location": {
            "lat": 23.494515,
            "lng": 100.704357
        },
        "ad_info": {
            "adcode": 530824,
            "province": "云南省",
            "city": "普洱市",
            "district": "景谷傣族彝族自治县"
        }
    },
    {
        "id": "14780864750874693951",
        "title": "公共厕所",
        "address": "云南省普洱市西盟佤族自治县勐卡路与勐梭路交叉口正北方向99米左右",
        "tel": "",
        "category": "基础设施:公共设施:公共厕所",
        "type": 0,
        "location": {
            "lat": 22.646693,
            "lng": 99.602732
        },
        "ad_info": {
            "adcode": 530829,
            "province": "云南省",
            "city": "普洱市",
            "district": "西盟佤族自治县"
        }
    },
    {
        "id": "13344525737519126503",
        "title": "公共厕所",
        "address": "云南省普洱市思茅区人力资源和社会保障局",
        "tel": "",
        "category": "基础设施:公共设施:公共厕所",
        "type": 0,
        "location": {
            "lat": 22.776204,
            "lng": 100.969658
        },
        "ad_info": {
            "adcode": 530802,
            "province": "云南省",
            "city": "普洱市",
            "district": "思茅区"
        }
    },
    {
        "id": "16891108377566248541",
        "title": "公共厕所",
        "address": "云南省普洱市景谷傣族彝族自治县S335与响水路交叉口西北方向347米左右",
        "tel": "",
        "category": "基础设施:公共设施:公共厕所",
        "type": 0,
        "location": {
            "lat": 23.505978,
            "lng": 100.685948
        },
        "ad_info": {
            "adcode": 530824,
            "province": "云南省",
            "city": "普洱市",
            "district": "景谷傣族彝族自治县"
        }
    },
    {
        "id": "9516604244053680856",
        "title": "公共厕所",
        "address": "云南省普洱市思茅区德化路与无量路交叉口西南方向129米左右",
        "tel": "",
        "category": "基础设施:公共设施:公共厕所",
        "type": 0,
        "location": {
            "lat": 22.812381,
            "lng": 100.969536
        },
        "ad_info": {
            "adcode": 530802,
            "province": "云南省",
            "city": "普洱市",
            "district": "思茅区"
        }
    },
    {
        "id": "3472785517610058649",
        "title": "公共厕所",
        "address": "云南省普洱市思茅区振兴南路与普洱大道交叉口西北方向80米左右",
        "tel": "",
        "category": "基础设施:公共设施:公共厕所",
        "type": 0,
        "location": {
            "lat": 22.755021,
            "lng": 100.955321
        },
        "ad_info": {
            "adcode": 530802,
            "province": "云南省",
            "city": "普洱市",
            "district": "思茅区"
        }
    },
    {
        "id": "3763785099915960983",
        "title": "公共厕所",
        "address": "云南省普洱市孟连傣族拉祜族佤族自治县城东路与芒卡线交叉口西南方向317米左右",
        "tel": "",
        "category": "基础设施:公共设施:公共厕所",
        "type": 0,
        "location": {
            "lat": 22.335951,
            "lng": 99.612976
        },
        "ad_info": {
            "adcode": 530827,
            "province": "云南省",
            "city": "普洱市",
            "district": "孟连傣族拉祜族佤族自治县"
        }
    },
    {
        "id": "863655025463394499",
        "title": "公共厕所",
        "address": "云南省普洱市澜沧拉祜族自治县G214与G219交叉口正南方向288米左右",
        "tel": "",
        "category": "基础设施:公共设施:公共厕所",
        "type": 0,
        "location": {
            "lat": 22.54592,
            "lng": 99.923922
        },
        "ad_info": {
            "adcode": 530828,
            "province": "云南省",
            "city": "普洱市",
            "district": "澜沧拉祜族自治县"
        }
    },
    {
        "id": "2764753992477941712",
        "title": "公共厕所",
        "address": "云南省普洱市思茅区振兴大道与西门街交叉口正北方向68米左右",
        "tel": "",
        "category": "基础设施:公共设施:公共厕所",
        "type": 0,
        "location": {
            "lat": 22.787961,
            "lng": 100.971408
        },
        "ad_info": {
            "adcode": 530802,
            "province": "云南省",
            "city": "普洱市",
            "district": "思茅区"
        }
    },
    {
        "id": "9681319131336544235",
        "title": "公共厕所",
        "address": "云南省普洱市思茅区江城路与菩提路交叉口南200米",
        "tel": "",
        "category": "基础设施:公共设施:公共厕所",
        "type": 0,
        "location": {
            "lat": 22.764825,
            "lng": 101.001727
        },
        "ad_info": {
            "adcode": 530802,
            "province": "云南省",
            "city": "普洱市",
            "district": "思茅区"
        }
    },
    {
        "id": "12302251664602104754",
        "title": "公共厕所",
        "address": "云南省普洱市思茅区太平街与边城路交叉口正东方向85米左右",
        "tel": "",
        "category": "基础设施:公共设施:公共厕所",
        "type": 0,
        "location": {
            "lat": 22.785697,
            "lng": 100.974616
        },
        "ad_info": {
            "adcode": 530802,
            "province": "云南省",
            "city": "普洱市",
            "district": "思茅区"
        }
    },
    {
        "id": "13260362464519614427",
        "title": "公共厕所",
        "address": "云南省普洱市景谷傣族彝族自治县益智路与金田路交叉口正北方向71米左右",
        "tel": "",
        "category": "基础设施:公共设施:公共厕所",
        "type": 0,
        "location": {
            "lat": 23.503564,
            "lng": 100.703962
        },
        "ad_info": {
            "adcode": 530824,
            "province": "云南省",
            "city": "普洱市",
            "district": "景谷傣族彝族自治县"
        }
    },
    {
        "id": "12029837804076026918",
        "title": "公共厕所",
        "address": "云南省普洱市江城哈尼族彝族自治县G219与瑶家山铜矿公路交叉口正东方向453米左右",
        "tel": "",
        "category": "基础设施:公共设施:公共厕所",
        "type": 0,
        "location": {
            "lat": 22.553306,
            "lng": 101.679442
        },
        "ad_info": {
            "adcode": 530826,
            "province": "云南省",
            "city": "普洱市",
            "district": "江城哈尼族彝族自治县"
        }
    },
    {
        "id": "3337474469875644643",
        "title": "公共厕所",
        "address": "云南省普洱市西盟佤族自治县娜妥段与新厂路交叉口正南方向1269米左右",
        "tel": "",
        "category": "基础设施:公共设施:公共厕所",
        "type": 0,
        "location": {
            "lat": 22.784439,
            "lng": 99.430459
        },
        "ad_info": {
            "adcode": 530829,
            "province": "云南省",
            "city": "普洱市",
            "district": "西盟佤族自治县"
        }
    },
    {
        "id": "1612512754157517164",
        "title": "杜鹃坝公厕",
        "address": "云南省普洱市景东彝族自治县观景台北行150米左右",
        "tel": "",
        "category": "基础设施:公共设施:公共厕所",
        "type": 0,
        "location": {
            "lat": 24.53507,
            "lng": 101.00997
        },
        "ad_info": {
            "adcode": 530823,
            "province": "云南省",
            "city": "普洱市",
            "district": "景东彝族自治县"
        }
    },
    {
        "id": "3869374929843574671",
        "title": "旅游厕所",
        "address": "云南省普洱市澜沧拉祜族自治县G227与江勐高速交叉口西北方向561米左右",
        "tel": "",
        "category": "基础设施:公共设施:公共厕所",
        "type": 0,
        "location": {
            "lat": 22.587987,
            "lng": 100.255548
        },
        "ad_info": {
            "adcode": 530828,
            "province": "云南省",
            "city": "普洱市",
            "district": "澜沧拉祜族自治县"
        }
    },
    {
        "id": "12336501131365406452",
        "title": "公共厕所",
        "address": "云南省普洱市思茅区振兴大道154号",
        "tel": "",
        "category": "基础设施:公共设施:公共厕所",
        "type": 0,
        "location": {
            "lat": 22.75648,
            "lng": 100.957404
        },
        "ad_info": {
            "adcode": 530802,
            "province": "云南省",
            "city": "普洱市",
            "district": "思茅区"
        }
    },
    {
        "id": "10852835262255146908",
        "title": "公共厕所",
        "address": "云南省普洱市思茅区菩提路与鱼水路交叉口正西方向75米左右",
        "tel": "",
        "category": "基础设施:公共设施:公共厕所",
        "type": 0,
        "location": {
            "lat": 22.763132,
            "lng": 100.991958
        },
        "ad_info": {
            "adcode": 530802,
            "province": "云南省",
            "city": "普洱市",
            "district": "思茅区"
        }
    },
    {
        "id": "1728114092609965543",
        "title": "公共厕所",
        "address": "云南省普洱市江城哈尼族彝族自治县中波路与联谊路交叉口正西方向29米左右",
        "tel": "",
        "category": "基础设施:公共设施:公共厕所",
        "type": 0,
        "location": {
            "lat": 22.587938,
            "lng": 101.857511
        },
        "ad_info": {
            "adcode": 530826,
            "province": "云南省",
            "city": "普洱市",
            "district": "江城哈尼族彝族自治县"
        }
    },
    {
        "id": "12888909145485317558",
        "title": "公共卫生间",
        "address": "云南省普洱市景谷傣族彝族自治县临江巷与正兴路交叉口正北方向91米左右",
        "tel": "",
        "category": "基础设施:公共设施:公共厕所",
        "type": 0,
        "location": {
            "lat": 23.494804,
            "lng": 100.710216
        },
        "ad_info": {
            "adcode": 530824,
            "province": "云南省",
            "city": "普洱市",
            "district": "景谷傣族彝族自治县"
        }
    },
    {
        "id": "9531982518371621275",
        "title": "公共厕所",
        "address": "云南省普洱市景谷傣族彝族自治县响水路与永安路交叉口正东方向80米左右",
        "tel": "",
        "category": "基础设施:公共设施:公共厕所",
        "type": 0,
        "location": {
            "lat": 23.494515,
            "lng": 100.704357
        },
        "ad_info": {
            "adcode": 530824,
            "province": "云南省",
            "city": "普洱市",
            "district": "景谷傣族彝族自治县"
        }
    },
    {
        "id": "14780864750874693951",
        "title": "公共厕所",
        "address": "云南省普洱市西盟佤族自治县勐卡路与勐梭路交叉口正北方向99米左右",
        "tel": "",
        "category": "基础设施:公共设施:公共厕所",
        "type": 0,
        "location": {
            "lat": 22.646693,
            "lng": 99.602732
        },
        "ad_info": {
            "adcode": 530829,
            "province": "云南省",
            "city": "普洱市",
            "district": "西盟佤族自治县"
        }
    },
    {
        "id": "13344525737519126503",
        "title": "公共厕所",
        "address": "云南省普洱市思茅区人力资源和社会保障局",
        "tel": "",
        "category": "基础设施:公共设施:公共厕所",
        "type": 0,
        "location": {
            "lat": 22.776204,
            "lng": 100.969658
        },
        "ad_info": {
            "adcode": 530802,
            "province": "云南省",
            "city": "普洱市",
            "district": "思茅区"
        }
    },
    {
        "id": "16891108377566248541",
        "title": "公共厕所",
        "address": "云南省普洱市景谷傣族彝族自治县S335与响水路交叉口西北方向347米左右",
        "tel": "",
        "category": "基础设施:公共设施:公共厕所",
        "type": 0,
        "location": {
            "lat": 23.505978,
            "lng": 100.685948
        },
        "ad_info": {
            "adcode": 530824,
            "province": "云南省",
            "city": "普洱市",
            "district": "景谷傣族彝族自治县"
        }
    },
    {
        "id": "9516604244053680856",
        "title": "公共厕所",
        "address": "云南省普洱市思茅区德化路与无量路交叉口西南方向129米左右",
        "tel": "",
        "category": "基础设施:公共设施:公共厕所",
        "type": 0,
        "location": {
            "lat": 22.812381,
            "lng": 100.969536
        },
        "ad_info": {
            "adcode": 530802,
            "province": "云南省",
            "city": "普洱市",
            "district": "思茅区"
        }
    },
    {
        "id": "3472785517610058649",
        "title": "公共厕所",
        "address": "云南省普洱市思茅区振兴南路与普洱大道交叉口西北方向80米左右",
        "tel": "",
        "category": "基础设施:公共设施:公共厕所",
        "type": 0,
        "location": {
            "lat": 22.755021,
            "lng": 100.955321
        },
        "ad_info": {
            "adcode": 530802,
            "province": "云南省",
            "city": "普洱市",
            "district": "思茅区"
        }
    },
    {
        "id": "3763785099915960983",
        "title": "公共厕所",
        "address": "云南省普洱市孟连傣族拉祜族佤族自治县城东路与芒卡线交叉口西南方向317米左右",
        "tel": "",
        "category": "基础设施:公共设施:公共厕所",
        "type": 0,
        "location": {
            "lat": 22.335951,
            "lng": 99.612976
        },
        "ad_info": {
            "adcode": 530827,
            "province": "云南省",
            "city": "普洱市",
            "district": "孟连傣族拉祜族佤族自治县"
        }
    },
    {
        "id": "863655025463394499",
        "title": "公共厕所",
        "address": "云南省普洱市澜沧拉祜族自治县G214与G219交叉口正南方向288米左右",
        "tel": "",
        "category": "基础设施:公共设施:公共厕所",
        "type": 0,
        "location": {
            "lat": 22.54592,
            "lng": 99.923922
        },
        "ad_info": {
            "adcode": 530828,
            "province": "云南省",
            "city": "普洱市",
            "district": "澜沧拉祜族自治县"
        }
    },
    {
        "id": "2764753992477941712",
        "title": "公共厕所",
        "address": "云南省普洱市思茅区振兴大道与西门街交叉口正北方向68米左右",
        "tel": "",
        "category": "基础设施:公共设施:公共厕所",
        "type": 0,
        "location": {
            "lat": 22.787961,
            "lng": 100.971408
        },
        "ad_info": {
            "adcode": 530802,
            "province": "云南省",
            "city": "普洱市",
            "district": "思茅区"
        }
    },
    {
        "id": "9681319131336544235",
        "title": "公共厕所",
        "address": "云南省普洱市思茅区江城路与菩提路交叉口南200米",
        "tel": "",
        "category": "基础设施:公共设施:公共厕所",
        "type": 0,
        "location": {
            "lat": 22.764825,
            "lng": 101.001727
        },
        "ad_info": {
            "adcode": 530802,
            "province": "云南省",
            "city": "普洱市",
            "district": "思茅区"
        }
    },
    {
        "id": "12302251664602104754",
        "title": "公共厕所",
        "address": "云南省普洱市思茅区太平街与边城路交叉口正东方向85米左右",
        "tel": "",
        "category": "基础设施:公共设施:公共厕所",
        "type": 0,
        "location": {
            "lat": 22.785697,
            "lng": 100.974616
        },
        "ad_info": {
            "adcode": 530802,
            "province": "云南省",
            "city": "普洱市",
            "district": "思茅区"
        }
    },
    {
        "id": "13260362464519614427",
        "title": "公共厕所",
        "address": "云南省普洱市景谷傣族彝族自治县益智路与金田路交叉口正北方向71米左右",
        "tel": "",
        "category": "基础设施:公共设施:公共厕所",
        "type": 0,
        "location": {
            "lat": 23.503564,
            "lng": 100.703962
        },
        "ad_info": {
            "adcode": 530824,
            "province": "云南省",
            "city": "普洱市",
            "district": "景谷傣族彝族自治县"
        }
    },
    {
        "id": "12029837804076026918",
        "title": "公共厕所",
        "address": "云南省普洱市江城哈尼族彝族自治县G219与瑶家山铜矿公路交叉口正东方向453米左右",
        "tel": "",
        "category": "基础设施:公共设施:公共厕所",
        "type": 0,
        "location": {
            "lat": 22.553306,
            "lng": 101.679442
        },
        "ad_info": {
            "adcode": 530826,
            "province": "云南省",
            "city": "普洱市",
            "district": "江城哈尼族彝族自治县"
        }
    },
    {
        "id": "3337474469875644643",
        "title": "公共厕所",
        "address": "云南省普洱市西盟佤族自治县娜妥段与新厂路交叉口正南方向1269米左右",
        "tel": "",
        "category": "基础设施:公共设施:公共厕所",
        "type": 0,
        "location": {
            "lat": 22.784439,
            "lng": 99.430459
        },
        "ad_info": {
            "adcode": 530829,
            "province": "云南省",
            "city": "普洱市",
            "district": "西盟佤族自治县"
        }
    },
    {
        "id": "1612512754157517164",
        "title": "杜鹃坝公厕",
        "address": "云南省普洱市景东彝族自治县观景台北行150米左右",
        "tel": "",
        "category": "基础设施:公共设施:公共厕所",
        "type": 0,
        "location": {
            "lat": 24.53507,
            "lng": 101.00997
        },
        "ad_info": {
            "adcode": 530823,
            "province": "云南省",
            "city": "普洱市",
            "district": "景东彝族自治县"
        }
    },
    {
        "id": "3869374929843574671",
        "title": "旅游厕所",
        "address": "云南省普洱市澜沧拉祜族自治县G227与江勐高速交叉口西北方向561米左右",
        "tel": "",
        "category": "基础设施:公共设施:公共厕所",
        "type": 0,
        "location": {
            "lat": 22.587987,
            "lng": 100.255548
        },
        "ad_info": {
            "adcode": 530828,
            "province": "云南省",
            "city": "普洱市",
            "district": "澜沧拉祜族自治县"
        }
    },
    {
        "id": "12336501131365406452",
        "title": "公共厕所",
        "address": "云南省普洱市思茅区振兴大道154号",
        "tel": "",
        "category": "基础设施:公共设施:公共厕所",
        "type": 0,
        "location": {
            "lat": 22.75648,
            "lng": 100.957404
        },
        "ad_info": {
            "adcode": 530802,
            "province": "云南省",
            "city": "普洱市",
            "district": "思茅区"
        }
    },
    {
        "id": "10852835262255146908",
        "title": "公共厕所",
        "address": "云南省普洱市思茅区菩提路与鱼水路交叉口正西方向75米左右",
        "tel": "",
        "category": "基础设施:公共设施:公共厕所",
        "type": 0,
        "location": {
            "lat": 22.763132,
            "lng": 100.991958
        },
        "ad_info": {
            "adcode": 530802,
            "province": "云南省",
            "city": "普洱市",
            "district": "思茅区"
        }
    },
    {
        "id": "1728114092609965543",
        "title": "公共厕所",
        "address": "云南省普洱市江城哈尼族彝族自治县中波路与联谊路交叉口正西方向29米左右",
        "tel": "",
        "category": "基础设施:公共设施:公共厕所",
        "type": 0,
        "location": {
            "lat": 22.587938,
            "lng": 101.857511
        },
        "ad_info": {
            "adcode": 530826,
            "province": "云南省",
            "city": "普洱市",
            "district": "江城哈尼族彝族自治县"
        }
    },
    {
        "id": "12888909145485317558",
        "title": "公共卫生间",
        "address": "云南省普洱市景谷傣族彝族自治县临江巷与正兴路交叉口正北方向91米左右",
        "tel": "",
        "category": "基础设施:公共设施:公共厕所",
        "type": 0,
        "location": {
            "lat": 23.494804,
            "lng": 100.710216
        },
        "ad_info": {
            "adcode": 530824,
            "province": "云南省",
            "city": "普洱市",
            "district": "景谷傣族彝族自治县"
        }
    },
    {
        "id": "9531982518371621275",
        "title": "公共厕所",
        "address": "云南省普洱市景谷傣族彝族自治县响水路与永安路交叉口正东方向80米左右",
        "tel": "",
        "category": "基础设施:公共设施:公共厕所",
        "type": 0,
        "location": {
            "lat": 23.494515,
            "lng": 100.704357
        },
        "ad_info": {
            "adcode": 530824,
            "province": "云南省",
            "city": "普洱市",
            "district": "景谷傣族彝族自治县"
        }
    },
    {
        "id": "14780864750874693951",
        "title": "公共厕所",
        "address": "云南省普洱市西盟佤族自治县勐卡路与勐梭路交叉口正北方向99米左右",
        "tel": "",
        "category": "基础设施:公共设施:公共厕所",
        "type": 0,
        "location": {
            "lat": 22.646693,
            "lng": 99.602732
        },
        "ad_info": {
            "adcode": 530829,
            "province": "云南省",
            "city": "普洱市",
            "district": "西盟佤族自治县"
        }
    },
    {
        "id": "13344525737519126503",
        "title": "公共厕所",
        "address": "云南省普洱市思茅区人力资源和社会保障局",
        "tel": "",
        "category": "基础设施:公共设施:公共厕所",
        "type": 0,
        "location": {
            "lat": 22.776204,
            "lng": 100.969658
        },
        "ad_info": {
            "adcode": 530802,
            "province": "云南省",
            "city": "普洱市",
            "district": "思茅区"
        }
    },
    {
        "id": "16891108377566248541",
        "title": "公共厕所",
        "address": "云南省普洱市景谷傣族彝族自治县S335与响水路交叉口西北方向347米左右",
        "tel": "",
        "category": "基础设施:公共设施:公共厕所",
        "type": 0,
        "location": {
            "lat": 23.505978,
            "lng": 100.685948
        },
        "ad_info": {
            "adcode": 530824,
            "province": "云南省",
            "city": "普洱市",
            "district": "景谷傣族彝族自治县"
        }
    },
    {
        "id": "9516604244053680856",
        "title": "公共厕所",
        "address": "云南省普洱市思茅区德化路与无量路交叉口西南方向129米左右",
        "tel": "",
        "category": "基础设施:公共设施:公共厕所",
        "type": 0,
        "location": {
            "lat": 22.812381,
            "lng": 100.969536
        },
        "ad_info": {
            "adcode": 530802,
            "province": "云南省",
            "city": "普洱市",
            "district": "思茅区"
        }
    },
    {
        "id": "3472785517610058649",
        "title": "公共厕所",
        "address": "云南省普洱市思茅区振兴南路与普洱大道交叉口西北方向80米左右",
        "tel": "",
        "category": "基础设施:公共设施:公共厕所",
        "type": 0,
        "location": {
            "lat": 22.755021,
            "lng": 100.955321
        },
        "ad_info": {
            "adcode": 530802,
            "province": "云南省",
            "city": "普洱市",
            "district": "思茅区"
        }
    },
    {
        "id": "3763785099915960983",
        "title": "公共厕所",
        "address": "云南省普洱市孟连傣族拉祜族佤族自治县城东路与芒卡线交叉口西南方向317米左右",
        "tel": "",
        "category": "基础设施:公共设施:公共厕所",
        "type": 0,
        "location": {
            "lat": 22.335951,
            "lng": 99.612976
        },
        "ad_info": {
            "adcode": 530827,
            "province": "云南省",
            "city": "普洱市",
            "district": "孟连傣族拉祜族佤族自治县"
        }
    },
    {
        "id": "863655025463394499",
        "title": "公共厕所",
        "address": "云南省普洱市澜沧拉祜族自治县G214与G219交叉口正南方向288米左右",
        "tel": "",
        "category": "基础设施:公共设施:公共厕所",
        "type": 0,
        "location": {
            "lat": 22.54592,
            "lng": 99.923922
        },
        "ad_info": {
            "adcode": 530828,
            "province": "云南省",
            "city": "普洱市",
            "district": "澜沧拉祜族自治县"
        }
    },
    {
        "id": "2764753992477941712",
        "title": "公共厕所",
        "address": "云南省普洱市思茅区振兴大道与西门街交叉口正北方向68米左右",
        "tel": "",
        "category": "基础设施:公共设施:公共厕所",
        "type": 0,
        "location": {
            "lat": 22.787961,
            "lng": 100.971408
        },
        "ad_info": {
            "adcode": 530802,
            "province": "云南省",
            "city": "普洱市",
            "district": "思茅区"
        }
    },
    {
        "id": "9681319131336544235",
        "title": "公共厕所",
        "address": "云南省普洱市思茅区江城路与菩提路交叉口南200米",
        "tel": "",
        "category": "基础设施:公共设施:公共厕所",
        "type": 0,
        "location": {
            "lat": 22.764825,
            "lng": 101.001727
        },
        "ad_info": {
            "adcode": 530802,
            "province": "云南省",
            "city": "普洱市",
            "district": "思茅区"
        }
    },
    {
        "id": "12302251664602104754",
        "title": "公共厕所",
        "address": "云南省普洱市思茅区太平街与边城路交叉口正东方向85米左右",
        "tel": "",
        "category": "基础设施:公共设施:公共厕所",
        "type": 0,
        "location": {
            "lat": 22.785697,
            "lng": 100.974616
        },
        "ad_info": {
            "adcode": 530802,
            "province": "云南省",
            "city": "普洱市",
            "district": "思茅区"
        }
    },
    {
        "id": "13260362464519614427",
        "title": "公共厕所",
        "address": "云南省普洱市景谷傣族彝族自治县益智路与金田路交叉口正北方向71米左右",
        "tel": "",
        "category": "基础设施:公共设施:公共厕所",
        "type": 0,
        "location": {
            "lat": 23.503564,
            "lng": 100.703962
        },
        "ad_info": {
            "adcode": 530824,
            "province": "云南省",
            "city": "普洱市",
            "district": "景谷傣族彝族自治县"
        }
    },
    {
        "id": "12029837804076026918",
        "title": "公共厕所",
        "address": "云南省普洱市江城哈尼族彝族自治县G219与瑶家山铜矿公路交叉口正东方向453米左右",
        "tel": "",
        "category": "基础设施:公共设施:公共厕所",
        "type": 0,
        "location": {
            "lat": 22.553306,
            "lng": 101.679442
        },
        "ad_info": {
            "adcode": 530826,
            "province": "云南省",
            "city": "普洱市",
            "district": "江城哈尼族彝族自治县"
        }
    },
    {
        "id": "3337474469875644643",
        "title": "公共厕所",
        "address": "云南省普洱市西盟佤族自治县娜妥段与新厂路交叉口正南方向1269米左右",
        "tel": "",
        "category": "基础设施:公共设施:公共厕所",
        "type": 0,
        "location": {
            "lat": 22.784439,
            "lng": 99.430459
        },
        "ad_info": {
            "adcode": 530829,
            "province": "云南省",
            "city": "普洱市",
            "district": "西盟佤族自治县"
        }
    },
    {
        "id": "1612512754157517164",
        "title": "杜鹃坝公厕",
        "address": "云南省普洱市景东彝族自治县观景台北行150米左右",
        "tel": "",
        "category": "基础设施:公共设施:公共厕所",
        "type": 0,
        "location": {
            "lat": 24.53507,
            "lng": 101.00997
        },
        "ad_info": {
            "adcode": 530823,
            "province": "云南省",
            "city": "普洱市",
            "district": "景东彝族自治县"
        }
    },
    {
        "id": "3869374929843574671",
        "title": "旅游厕所",
        "address": "云南省普洱市澜沧拉祜族自治县G227与江勐高速交叉口西北方向561米左右",
        "tel": "",
        "category": "基础设施:公共设施:公共厕所",
        "type": 0,
        "location": {
            "lat": 22.587987,
            "lng": 100.255548
        },
        "ad_info": {
            "adcode": 530828,
            "province": "云南省",
            "city": "普洱市",
            "district": "澜沧拉祜族自治县"
        }
    },
    {
        "id": "12336501131365406452",
        "title": "公共厕所",
        "address": "云南省普洱市思茅区振兴大道154号",
        "tel": "",
        "category": "基础设施:公共设施:公共厕所",
        "type": 0,
        "location": {
            "lat": 22.75648,
            "lng": 100.957404
        },
        "ad_info": {
            "adcode": 530802,
            "province": "云南省",
            "city": "普洱市",
            "district": "思茅区"
        }
    },
    {
        "id": "10852835262255146908",
        "title": "公共厕所",
        "address": "云南省普洱市思茅区菩提路与鱼水路交叉口正西方向75米左右",
        "tel": "",
        "category": "基础设施:公共设施:公共厕所",
        "type": 0,
        "location": {
            "lat": 22.763132,
            "lng": 100.991958
        },
        "ad_info": {
            "adcode": 530802,
            "province": "云南省",
            "city": "普洱市",
            "district": "思茅区"
        }
    },
    {
        "id": "1728114092609965543",
        "title": "公共厕所",
        "address": "云南省普洱市江城哈尼族彝族自治县中波路与联谊路交叉口正西方向29米左右",
        "tel": "",
        "category": "基础设施:公共设施:公共厕所",
        "type": 0,
        "location": {
            "lat": 22.587938,
            "lng": 101.857511
        },
        "ad_info": {
            "adcode": 530826,
            "province": "云南省",
            "city": "普洱市",
            "district": "江城哈尼族彝族自治县"
        }
    },
    {
        "id": "12888909145485317558",
        "title": "公共卫生间",
        "address": "云南省普洱市景谷傣族彝族自治县临江巷与正兴路交叉口正北方向91米左右",
        "tel": "",
        "category": "基础设施:公共设施:公共厕所",
        "type": 0,
        "location": {
            "lat": 23.494804,
            "lng": 100.710216
        },
        "ad_info": {
            "adcode": 530824,
            "province": "云南省",
            "city": "普洱市",
            "district": "景谷傣族彝族自治县"
        }
    },
    {
        "id": "9531982518371621275",
        "title": "公共厕所",
        "address": "云南省普洱市景谷傣族彝族自治县响水路与永安路交叉口正东方向80米左右",
        "tel": "",
        "category": "基础设施:公共设施:公共厕所",
        "type": 0,
        "location": {
            "lat": 23.494515,
            "lng": 100.704357
        },
        "ad_info": {
            "adcode": 530824,
            "province": "云南省",
            "city": "普洱市",
            "district": "景谷傣族彝族自治县"
        }
    },
    {
        "id": "14780864750874693951",
        "title": "公共厕所",
        "address": "云南省普洱市西盟佤族自治县勐卡路与勐梭路交叉口正北方向99米左右",
        "tel": "",
        "category": "基础设施:公共设施:公共厕所",
        "type": 0,
        "location": {
            "lat": 22.646693,
            "lng": 99.602732
        },
        "ad_info": {
            "adcode": 530829,
            "province": "云南省",
            "city": "普洱市",
            "district": "西盟佤族自治县"
        }
    },
    {
        "id": "13344525737519126503",
        "title": "公共厕所",
        "address": "云南省普洱市思茅区人力资源和社会保障局",
        "tel": "",
        "category": "基础设施:公共设施:公共厕所",
        "type": 0,
        "location": {
            "lat": 22.776204,
            "lng": 100.969658
        },
        "ad_info": {
            "adcode": 530802,
            "province": "云南省",
            "city": "普洱市",
            "district": "思茅区"
        }
    },
    {
        "id": "16891108377566248541",
        "title": "公共厕所",
        "address": "云南省普洱市景谷傣族彝族自治县S335与响水路交叉口西北方向347米左右",
        "tel": "",
        "category": "基础设施:公共设施:公共厕所",
        "type": 0,
        "location": {
            "lat": 23.505978,
            "lng": 100.685948
        },
        "ad_info": {
            "adcode": 530824,
            "province": "云南省",
            "city": "普洱市",
            "district": "景谷傣族彝族自治县"
        }
    },
    {
        "id": "9516604244053680856",
        "title": "公共厕所",
        "address": "云南省普洱市思茅区德化路与无量路交叉口西南方向129米左右",
        "tel": "",
        "category": "基础设施:公共设施:公共厕所",
        "type": 0,
        "location": {
            "lat": 22.812381,
            "lng": 100.969536
        },
        "ad_info": {
            "adcode": 530802,
            "province": "云南省",
            "city": "普洱市",
            "district": "思茅区"
        }
    },
    {
        "id": "3472785517610058649",
        "title": "公共厕所",
        "address": "云南省普洱市思茅区振兴南路与普洱大道交叉口西北方向80米左右",
        "tel": "",
        "category": "基础设施:公共设施:公共厕所",
        "type": 0,
        "location": {
            "lat": 22.755021,
            "lng": 100.955321
        },
        "ad_info": {
            "adcode": 530802,
            "province": "云南省",
            "city": "普洱市",
            "district": "思茅区"
        }
    },
    {
        "id": "3763785099915960983",
        "title": "公共厕所",
        "address": "云南省普洱市孟连傣族拉祜族佤族自治县城东路与芒卡线交叉口西南方向317米左右",
        "tel": "",
        "category": "基础设施:公共设施:公共厕所",
        "type": 0,
        "location": {
            "lat": 22.335951,
            "lng": 99.612976
        },
        "ad_info": {
            "adcode": 530827,
            "province": "云南省",
            "city": "普洱市",
            "district": "孟连傣族拉祜族佤族自治县"
        }
    },
    {
        "id": "863655025463394499",
        "title": "公共厕所",
        "address": "云南省普洱市澜沧拉祜族自治县G214与G219交叉口正南方向288米左右",
        "tel": "",
        "category": "基础设施:公共设施:公共厕所",
        "type": 0,
        "location": {
            "lat": 22.54592,
            "lng": 99.923922
        },
        "ad_info": {
            "adcode": 530828,
            "province": "云南省",
            "city": "普洱市",
            "district": "澜沧拉祜族自治县"
        }
    },
    {
        "id": "2764753992477941712",
        "title": "公共厕所",
        "address": "云南省普洱市思茅区振兴大道与西门街交叉口正北方向68米左右",
        "tel": "",
        "category": "基础设施:公共设施:公共厕所",
        "type": 0,
        "location": {
            "lat": 22.787961,
            "lng": 100.971408
        },
        "ad_info": {
            "adcode": 530802,
            "province": "云南省",
            "city": "普洱市",
            "district": "思茅区"
        }
    },
    {
        "id": "9681319131336544235",
        "title": "公共厕所",
        "address": "云南省普洱市思茅区江城路与菩提路交叉口南200米",
        "tel": "",
        "category": "基础设施:公共设施:公共厕所",
        "type": 0,
        "location": {
            "lat": 22.764825,
            "lng": 101.001727
        },
        "ad_info": {
            "adcode": 530802,
            "province": "云南省",
            "city": "普洱市",
            "district": "思茅区"
        }
    },
    {
        "id": "12302251664602104754",
        "title": "公共厕所",
        "address": "云南省普洱市思茅区太平街与边城路交叉口正东方向85米左右",
        "tel": "",
        "category": "基础设施:公共设施:公共厕所",
        "type": 0,
        "location": {
            "lat": 22.785697,
            "lng": 100.974616
        },
        "ad_info": {
            "adcode": 530802,
            "province": "云南省",
            "city": "普洱市",
            "district": "思茅区"
        }
    },
    {
        "id": "13260362464519614427",
        "title": "公共厕所",
        "address": "云南省普洱市景谷傣族彝族自治县益智路与金田路交叉口正北方向71米左右",
        "tel": "",
        "category": "基础设施:公共设施:公共厕所",
        "type": 0,
        "location": {
            "lat": 23.503564,
            "lng": 100.703962
        },
        "ad_info": {
            "adcode": 530824,
            "province": "云南省",
            "city": "普洱市",
            "district": "景谷傣族彝族自治县"
        }
    },
    {
        "id": "12029837804076026918",
        "title": "公共厕所",
        "address": "云南省普洱市江城哈尼族彝族自治县G219与瑶家山铜矿公路交叉口正东方向453米左右",
        "tel": "",
        "category": "基础设施:公共设施:公共厕所",
        "type": 0,
        "location": {
            "lat": 22.553306,
            "lng": 101.679442
        },
        "ad_info": {
            "adcode": 530826,
            "province": "云南省",
            "city": "普洱市",
            "district": "江城哈尼族彝族自治县"
        }
    },
    {
        "id": "3337474469875644643",
        "title": "公共厕所",
        "address": "云南省普洱市西盟佤族自治县娜妥段与新厂路交叉口正南方向1269米左右",
        "tel": "",
        "category": "基础设施:公共设施:公共厕所",
        "type": 0,
        "location": {
            "lat": 22.784439,
            "lng": 99.430459
        },
        "ad_info": {
            "adcode": 530829,
            "province": "云南省",
            "city": "普洱市",
            "district": "西盟佤族自治县"
        }
    },
    {
        "id": "1612512754157517164",
        "title": "杜鹃坝公厕",
        "address": "云南省普洱市景东彝族自治县观景台北行150米左右",
        "tel": "",
        "category": "基础设施:公共设施:公共厕所",
        "type": 0,
        "location": {
            "lat": 24.53507,
            "lng": 101.00997
        },
        "ad_info": {
            "adcode": 530823,
            "province": "云南省",
            "city": "普洱市",
            "district": "景东彝族自治县"
        }
    },
    {
        "id": "3869374929843574671",
        "title": "旅游厕所",
        "address": "云南省普洱市澜沧拉祜族自治县G227与江勐高速交叉口西北方向561米左右",
        "tel": "",
        "category": "基础设施:公共设施:公共厕所",
        "type": 0,
        "location": {
            "lat": 22.587987,
            "lng": 100.255548
        },
        "ad_info": {
            "adcode": 530828,
            "province": "云南省",
            "city": "普洱市",
            "district": "澜沧拉祜族自治县"
        }
    },
    {
        "id": "12336501131365406452",
        "title": "公共厕所",
        "address": "云南省普洱市思茅区振兴大道154号",
        "tel": "",
        "category": "基础设施:公共设施:公共厕所",
        "type": 0,
        "location": {
            "lat": 22.75648,
            "lng": 100.957404
        },
        "ad_info": {
            "adcode": 530802,
            "province": "云南省",
            "city": "普洱市",
            "district": "思茅区"
        }
    },
    {
        "id": "10852835262255146908",
        "title": "公共厕所",
        "address": "云南省普洱市思茅区菩提路与鱼水路交叉口正西方向75米左右",
        "tel": "",
        "category": "基础设施:公共设施:公共厕所",
        "type": 0,
        "location": {
            "lat": 22.763132,
            "lng": 100.991958
        },
        "ad_info": {
            "adcode": 530802,
            "province": "云南省",
            "city": "普洱市",
            "district": "思茅区"
        }
    },
    {
        "id": "1728114092609965543",
        "title": "公共厕所",
        "address": "云南省普洱市江城哈尼族彝族自治县中波路与联谊路交叉口正西方向29米左右",
        "tel": "",
        "category": "基础设施:公共设施:公共厕所",
        "type": 0,
        "location": {
            "lat": 22.587938,
            "lng": 101.857511
        },
        "ad_info": {
            "adcode": 530826,
            "province": "云南省",
            "city": "普洱市",
            "district": "江城哈尼族彝族自治县"
        }
    },
    {
        "id": "12888909145485317558",
        "title": "公共卫生间",
        "address": "云南省普洱市景谷傣族彝族自治县临江巷与正兴路交叉口正北方向91米左右",
        "tel": "",
        "category": "基础设施:公共设施:公共厕所",
        "type": 0,
        "location": {
            "lat": 23.494804,
            "lng": 100.710216
        },
        "ad_info": {
            "adcode": 530824,
            "province": "云南省",
            "city": "普洱市",
            "district": "景谷傣族彝族自治县"
        }
    },
    {
        "id": "9531982518371621275",
        "title": "公共厕所",
        "address": "云南省普洱市景谷傣族彝族自治县响水路与永安路交叉口正东方向80米左右",
        "tel": "",
        "category": "基础设施:公共设施:公共厕所",
        "type": 0,
        "location": {
            "lat": 23.494515,
            "lng": 100.704357
        },
        "ad_info": {
            "adcode": 530824,
            "province": "云南省",
            "city": "普洱市",
            "district": "景谷傣族彝族自治县"
        }
    },
    {
        "id": "14780864750874693951",
        "title": "公共厕所",
        "address": "云南省普洱市西盟佤族自治县勐卡路与勐梭路交叉口正北方向99米左右",
        "tel": "",
        "category": "基础设施:公共设施:公共厕所",
        "type": 0,
        "location": {
            "lat": 22.646693,
            "lng": 99.602732
        },
        "ad_info": {
            "adcode": 530829,
            "province": "云南省",
            "city": "普洱市",
            "district": "西盟佤族自治县"
        }
    },
    {
        "id": "13344525737519126503",
        "title": "公共厕所",
        "address": "云南省普洱市思茅区人力资源和社会保障局",
        "tel": "",
        "category": "基础设施:公共设施:公共厕所",
        "type": 0,
        "location": {
            "lat": 22.776204,
            "lng": 100.969658
        },
        "ad_info": {
            "adcode": 530802,
            "province": "云南省",
            "city": "普洱市",
            "district": "思茅区"
        }
    },
    {
        "id": "16891108377566248541",
        "title": "公共厕所",
        "address": "云南省普洱市景谷傣族彝族自治县S335与响水路交叉口西北方向347米左右",
        "tel": "",
        "category": "基础设施:公共设施:公共厕所",
        "type": 0,
        "location": {
            "lat": 23.505978,
            "lng": 100.685948
        },
        "ad_info": {
            "adcode": 530824,
            "province": "云南省",
            "city": "普洱市",
            "district": "景谷傣族彝族自治县"
        }
    },
    {
        "id": "9516604244053680856",
        "title": "公共厕所",
        "address": "云南省普洱市思茅区德化路与无量路交叉口西南方向129米左右",
        "tel": "",
        "category": "基础设施:公共设施:公共厕所",
        "type": 0,
        "location": {
            "lat": 22.812381,
            "lng": 100.969536
        },
        "ad_info": {
            "adcode": 530802,
            "province": "云南省",
            "city": "普洱市",
            "district": "思茅区"
        }
    },
    {
        "id": "3472785517610058649",
        "title": "公共厕所",
        "address": "云南省普洱市思茅区振兴南路与普洱大道交叉口西北方向80米左右",
        "tel": "",
        "category": "基础设施:公共设施:公共厕所",
        "type": 0,
        "location": {
            "lat": 22.755021,
            "lng": 100.955321
        },
        "ad_info": {
            "adcode": 530802,
            "province": "云南省",
            "city": "普洱市",
            "district": "思茅区"
        }
    },
    {
        "id": "3763785099915960983",
        "title": "公共厕所",
        "address": "云南省普洱市孟连傣族拉祜族佤族自治县城东路与芒卡线交叉口西南方向317米左右",
        "tel": "",
        "category": "基础设施:公共设施:公共厕所",
        "type": 0,
        "location": {
            "lat": 22.335951,
            "lng": 99.612976
        },
        "ad_info": {
            "adcode": 530827,
            "province": "云南省",
            "city": "普洱市",
            "district": "孟连傣族拉祜族佤族自治县"
        }
    },
    {
        "id": "863655025463394499",
        "title": "公共厕所",
        "address": "云南省普洱市澜沧拉祜族自治县G214与G219交叉口正南方向288米左右",
        "tel": "",
        "category": "基础设施:公共设施:公共厕所",
        "type": 0,
        "location": {
            "lat": 22.54592,
            "lng": 99.923922
        },
        "ad_info": {
            "adcode": 530828,
            "province": "云南省",
            "city": "普洱市",
            "district": "澜沧拉祜族自治县"
        }
    },
    {
        "id": "2764753992477941712",
        "title": "公共厕所",
        "address": "云南省普洱市思茅区振兴大道与西门街交叉口正北方向68米左右",
        "tel": "",
        "category": "基础设施:公共设施:公共厕所",
        "type": 0,
        "location": {
            "lat": 22.787961,
            "lng": 100.971408
        },
        "ad_info": {
            "adcode": 530802,
            "province": "云南省",
            "city": "普洱市",
            "district": "思茅区"
        }
    },
    {
        "id": "9681319131336544235",
        "title": "公共厕所",
        "address": "云南省普洱市思茅区江城路与菩提路交叉口南200米",
        "tel": "",
        "category": "基础设施:公共设施:公共厕所",
        "type": 0,
        "location": {
            "lat": 22.764825,
            "lng": 101.001727
        },
        "ad_info": {
            "adcode": 530802,
            "province": "云南省",
            "city": "普洱市",
            "district": "思茅区"
        }
    },
    {
        "id": "12302251664602104754",
        "title": "公共厕所",
        "address": "云南省普洱市思茅区太平街与边城路交叉口正东方向85米左右",
        "tel": "",
        "category": "基础设施:公共设施:公共厕所",
        "type": 0,
        "location": {
            "lat": 22.785697,
            "lng": 100.974616
        },
        "ad_info": {
            "adcode": 530802,
            "province": "云南省",
            "city": "普洱市",
            "district": "思茅区"
        }
    },
    {
        "id": "13260362464519614427",
        "title": "公共厕所",
        "address": "云南省普洱市景谷傣族彝族自治县益智路与金田路交叉口正北方向71米左右",
        "tel": "",
        "category": "基础设施:公共设施:公共厕所",
        "type": 0,
        "location": {
            "lat": 23.503564,
            "lng": 100.703962
        },
        "ad_info": {
            "adcode": 530824,
            "province": "云南省",
            "city": "普洱市",
            "district": "景谷傣族彝族自治县"
        }
    },
    {
        "id": "12029837804076026918",
        "title": "公共厕所",
        "address": "云南省普洱市江城哈尼族彝族自治县G219与瑶家山铜矿公路交叉口正东方向453米左右",
        "tel": "",
        "category": "基础设施:公共设施:公共厕所",
        "type": 0,
        "location": {
            "lat": 22.553306,
            "lng": 101.679442
        },
        "ad_info": {
            "adcode": 530826,
            "province": "云南省",
            "city": "普洱市",
            "district": "江城哈尼族彝族自治县"
        }
    },
    {
        "id": "3337474469875644643",
        "title": "公共厕所",
        "address": "云南省普洱市西盟佤族自治县娜妥段与新厂路交叉口正南方向1269米左右",
        "tel": "",
        "category": "基础设施:公共设施:公共厕所",
        "type": 0,
        "location": {
            "lat": 22.784439,
            "lng": 99.430459
        },
        "ad_info": {
            "adcode": 530829,
            "province": "云南省",
            "city": "普洱市",
            "district": "西盟佤族自治县"
        }
    },
    {
        "id": "1612512754157517164",
        "title": "杜鹃坝公厕",
        "address": "云南省普洱市景东彝族自治县观景台北行150米左右",
        "tel": "",
        "category": "基础设施:公共设施:公共厕所",
        "type": 0,
        "location": {
            "lat": 24.53507,
            "lng": 101.00997
        },
        "ad_info": {
            "adcode": 530823,
            "province": "云南省",
            "city": "普洱市",
            "district": "景东彝族自治县"
        }
    },
    {
        "id": "3869374929843574671",
        "title": "旅游厕所",
        "address": "云南省普洱市澜沧拉祜族自治县G227与江勐高速交叉口西北方向561米左右",
        "tel": "",
        "category": "基础设施:公共设施:公共厕所",
        "type": 0,
        "location": {
            "lat": 22.587987,
            "lng": 100.255548
        },
        "ad_info": {
            "adcode": 530828,
            "province": "云南省",
            "city": "普洱市",
            "district": "澜沧拉祜族自治县"
        }
    },
    {
        "id": "12336501131365406452",
        "title": "公共厕所",
        "address": "云南省普洱市思茅区振兴大道154号",
        "tel": "",
        "category": "基础设施:公共设施:公共厕所",
        "type": 0,
        "location": {
            "lat": 22.75648,
            "lng": 100.957404
        },
        "ad_info": {
            "adcode": 530802,
            "province": "云南省",
            "city": "普洱市",
            "district": "思茅区"
        }
    },
    {
        "id": "10852835262255146908",
        "title": "公共厕所",
        "address": "云南省普洱市思茅区菩提路与鱼水路交叉口正西方向75米左右",
        "tel": "",
        "category": "基础设施:公共设施:公共厕所",
        "type": 0,
        "location": {
            "lat": 22.763132,
            "lng": 100.991958
        },
        "ad_info": {
            "adcode": 530802,
            "province": "云南省",
            "city": "普洱市",
            "district": "思茅区"
        }
    },
    {
        "id": "1728114092609965543",
        "title": "公共厕所",
        "address": "云南省普洱市江城哈尼族彝族自治县中波路与联谊路交叉口正西方向29米左右",
        "tel": "",
        "category": "基础设施:公共设施:公共厕所",
        "type": 0,
        "location": {
            "lat": 22.587938,
            "lng": 101.857511
        },
        "ad_info": {
            "adcode": 530826,
            "province": "云南省",
            "city": "普洱市",
            "district": "江城哈尼族彝族自治县"
        }
    },
    {
        "id": "12888909145485317558",
        "title": "公共卫生间",
        "address": "云南省普洱市景谷傣族彝族自治县临江巷与正兴路交叉口正北方向91米左右",
        "tel": "",
        "category": "基础设施:公共设施:公共厕所",
        "type": 0,
        "location": {
            "lat": 23.494804,
            "lng": 100.710216
        },
        "ad_info": {
            "adcode": 530824,
            "province": "云南省",
            "city": "普洱市",
            "district": "景谷傣族彝族自治县"
        }
    },
    {
        "id": "9531982518371621275",
        "title": "公共厕所",
        "address": "云南省普洱市景谷傣族彝族自治县响水路与永安路交叉口正东方向80米左右",
        "tel": "",
        "category": "基础设施:公共设施:公共厕所",
        "type": 0,
        "location": {
            "lat": 23.494515,
            "lng": 100.704357
        },
        "ad_info": {
            "adcode": 530824,
            "province": "云南省",
            "city": "普洱市",
            "district": "景谷傣族彝族自治县"
        }
    },
    {
        "id": "14780864750874693951",
        "title": "公共厕所",
        "address": "云南省普洱市西盟佤族自治县勐卡路与勐梭路交叉口正北方向99米左右",
        "tel": "",
        "category": "基础设施:公共设施:公共厕所",
        "type": 0,
        "location": {
            "lat": 22.646693,
            "lng": 99.602732
        },
        "ad_info": {
            "adcode": 530829,
            "province": "云南省",
            "city": "普洱市",
            "district": "西盟佤族自治县"
        }
    },
    {
        "id": "13344525737519126503",
        "title": "公共厕所",
        "address": "云南省普洱市思茅区人力资源和社会保障局",
        "tel": "",
        "category": "基础设施:公共设施:公共厕所",
        "type": 0,
        "location": {
            "lat": 22.776204,
            "lng": 100.969658
        },
        "ad_info": {
            "adcode": 530802,
            "province": "云南省",
            "city": "普洱市",
            "district": "思茅区"
        }
    },
    {
        "id": "16891108377566248541",
        "title": "公共厕所",
        "address": "云南省普洱市景谷傣族彝族自治县S335与响水路交叉口西北方向347米左右",
        "tel": "",
        "category": "基础设施:公共设施:公共厕所",
        "type": 0,
        "location": {
            "lat": 23.505978,
            "lng": 100.685948
        },
        "ad_info": {
            "adcode": 530824,
            "province": "云南省",
            "city": "普洱市",
            "district": "景谷傣族彝族自治县"
        }
    },
    {
        "id": "9516604244053680856",
        "title": "公共厕所",
        "address": "云南省普洱市思茅区德化路与无量路交叉口西南方向129米左右",
        "tel": "",
        "category": "基础设施:公共设施:公共厕所",
        "type": 0,
        "location": {
            "lat": 22.812381,
            "lng": 100.969536
        },
        "ad_info": {
            "adcode": 530802,
            "province": "云南省",
            "city": "普洱市",
            "district": "思茅区"
        }
    },
    {
        "id": "3472785517610058649",
        "title": "公共厕所",
        "address": "云南省普洱市思茅区振兴南路与普洱大道交叉口西北方向80米左右",
        "tel": "",
        "category": "基础设施:公共设施:公共厕所",
        "type": 0,
        "location": {
            "lat": 22.755021,
            "lng": 100.955321
        },
        "ad_info": {
            "adcode": 530802,
            "province": "云南省",
            "city": "普洱市",
            "district": "思茅区"
        }
    },
    {
        "id": "3763785099915960983",
        "title": "公共厕所",
        "address": "云南省普洱市孟连傣族拉祜族佤族自治县城东路与芒卡线交叉口西南方向317米左右",
        "tel": "",
        "category": "基础设施:公共设施:公共厕所",
        "type": 0,
        "location": {
            "lat": 22.335951,
            "lng": 99.612976
        },
        "ad_info": {
            "adcode": 530827,
            "province": "云南省",
            "city": "普洱市",
            "district": "孟连傣族拉祜族佤族自治县"
        }
    },
    {
        "id": "863655025463394499",
        "title": "公共厕所",
        "address": "云南省普洱市澜沧拉祜族自治县G214与G219交叉口正南方向288米左右",
        "tel": "",
        "category": "基础设施:公共设施:公共厕所",
        "type": 0,
        "location": {
            "lat": 22.54592,
            "lng": 99.923922
        },
        "ad_info": {
            "adcode": 530828,
            "province": "云南省",
            "city": "普洱市",
            "district": "澜沧拉祜族自治县"
        }
    },
    {
        "id": "2764753992477941712",
        "title": "公共厕所",
        "address": "云南省普洱市思茅区振兴大道与西门街交叉口正北方向68米左右",
        "tel": "",
        "category": "基础设施:公共设施:公共厕所",
        "type": 0,
        "location": {
            "lat": 22.787961,
            "lng": 100.971408
        },
        "ad_info": {
            "adcode": 530802,
            "province": "云南省",
            "city": "普洱市",
            "district": "思茅区"
        }
    },
    {
        "id": "9681319131336544235",
        "title": "公共厕所",
        "address": "云南省普洱市思茅区江城路与菩提路交叉口南200米",
        "tel": "",
        "category": "基础设施:公共设施:公共厕所",
        "type": 0,
        "location": {
            "lat": 22.764825,
            "lng": 101.001727
        },
        "ad_info": {
            "adcode": 530802,
            "province": "云南省",
            "city": "普洱市",
            "district": "思茅区"
        }
    },
    {
        "id": "12302251664602104754",
        "title": "公共厕所",
        "address": "云南省普洱市思茅区太平街与边城路交叉口正东方向85米左右",
        "tel": "",
        "category": "基础设施:公共设施:公共厕所",
        "type": 0,
        "location": {
            "lat": 22.785697,
            "lng": 100.974616
        },
        "ad_info": {
            "adcode": 530802,
            "province": "云南省",
            "city": "普洱市",
            "district": "思茅区"
        }
    },
    {
        "id": "13260362464519614427",
        "title": "公共厕所",
        "address": "云南省普洱市景谷傣族彝族自治县益智路与金田路交叉口正北方向71米左右",
        "tel": "",
        "category": "基础设施:公共设施:公共厕所",
        "type": 0,
        "location": {
            "lat": 23.503564,
            "lng": 100.703962
        },
        "ad_info": {
            "adcode": 530824,
            "province": "云南省",
            "city": "普洱市",
            "district": "景谷傣族彝族自治县"
        }
    },
    {
        "id": "12029837804076026918",
        "title": "公共厕所",
        "address": "云南省普洱市江城哈尼族彝族自治县G219与瑶家山铜矿公路交叉口正东方向453米左右",
        "tel": "",
        "category": "基础设施:公共设施:公共厕所",
        "type": 0,
        "location": {
            "lat": 22.553306,
            "lng": 101.679442
        },
        "ad_info": {
            "adcode": 530826,
            "province": "云南省",
            "city": "普洱市",
            "district": "江城哈尼族彝族自治县"
        }
    },
    {
        "id": "3337474469875644643",
        "title": "公共厕所",
        "address": "云南省普洱市西盟佤族自治县娜妥段与新厂路交叉口正南方向1269米左右",
        "tel": "",
        "category": "基础设施:公共设施:公共厕所",
        "type": 0,
        "location": {
            "lat": 22.784439,
            "lng": 99.430459
        },
        "ad_info": {
            "adcode": 530829,
            "province": "云南省",
            "city": "普洱市",
            "district": "西盟佤族自治县"
        }
    },
    {
        "id": "1612512754157517164",
        "title": "杜鹃坝公厕",
        "address": "云南省普洱市景东彝族自治县观景台北行150米左右",
        "tel": "",
        "category": "基础设施:公共设施:公共厕所",
        "type": 0,
        "location": {
            "lat": 24.53507,
            "lng": 101.00997
        },
        "ad_info": {
            "adcode": 530823,
            "province": "云南省",
            "city": "普洱市",
            "district": "景东彝族自治县"
        }
    },
    {
        "id": "3869374929843574671",
        "title": "旅游厕所",
        "address": "云南省普洱市澜沧拉祜族自治县G227与江勐高速交叉口西北方向561米左右",
        "tel": "",
        "category": "基础设施:公共设施:公共厕所",
        "type": 0,
        "location": {
            "lat": 22.587987,
            "lng": 100.255548
        },
        "ad_info": {
            "adcode": 530828,
            "province": "云南省",
            "city": "普洱市",
            "district": "澜沧拉祜族自治县"
        }
    },
    {
        "id": "12336501131365406452",
        "title": "公共厕所",
        "address": "云南省普洱市思茅区振兴大道154号",
        "tel": "",
        "category": "基础设施:公共设施:公共厕所",
        "type": 0,
        "location": {
            "lat": 22.75648,
            "lng": 100.957404
        },
        "ad_info": {
            "adcode": 530802,
            "province": "云南省",
            "city": "普洱市",
            "district": "思茅区"
        }
    },
    {
        "id": "10852835262255146908",
        "title": "公共厕所",
        "address": "云南省普洱市思茅区菩提路与鱼水路交叉口正西方向75米左右",
        "tel": "",
        "category": "基础设施:公共设施:公共厕所",
        "type": 0,
        "location": {
            "lat": 22.763132,
            "lng": 100.991958
        },
        "ad_info": {
            "adcode": 530802,
            "province": "云南省",
            "city": "普洱市",
            "district": "思茅区"
        }
    },
    {
        "id": "1728114092609965543",
        "title": "公共厕所",
        "address": "云南省普洱市江城哈尼族彝族自治县中波路与联谊路交叉口正西方向29米左右",
        "tel": "",
        "category": "基础设施:公共设施:公共厕所",
        "type": 0,
        "location": {
            "lat": 22.587938,
            "lng": 101.857511
        },
        "ad_info": {
            "adcode": 530826,
            "province": "云南省",
            "city": "普洱市",
            "district": "江城哈尼族彝族自治县"
        }
    },
    {
        "id": "12888909145485317558",
        "title": "公共卫生间",
        "address": "云南省普洱市景谷傣族彝族自治县临江巷与正兴路交叉口正北方向91米左右",
        "tel": "",
        "category": "基础设施:公共设施:公共厕所",
        "type": 0,
        "location": {
            "lat": 23.494804,
            "lng": 100.710216
        },
        "ad_info": {
            "adcode": 530824,
            "province": "云南省",
            "city": "普洱市",
            "district": "景谷傣族彝族自治县"
        }
    },
    {
        "id": "9531982518371621275",
        "title": "公共厕所",
        "address": "云南省普洱市景谷傣族彝族自治县响水路与永安路交叉口正东方向80米左右",
        "tel": "",
        "category": "基础设施:公共设施:公共厕所",
        "type": 0,
        "location": {
            "lat": 23.494515,
            "lng": 100.704357
        },
        "ad_info": {
            "adcode": 530824,
            "province": "云南省",
            "city": "普洱市",
            "district": "景谷傣族彝族自治县"
        }
    },
    {
        "id": "14780864750874693951",
        "title": "公共厕所",
        "address": "云南省普洱市西盟佤族自治县勐卡路与勐梭路交叉口正北方向99米左右",
        "tel": "",
        "category": "基础设施:公共设施:公共厕所",
        "type": 0,
        "location": {
            "lat": 22.646693,
            "lng": 99.602732
        },
        "ad_info": {
            "adcode": 530829,
            "province": "云南省",
            "city": "普洱市",
            "district": "西盟佤族自治县"
        }
    },
    {
        "id": "13344525737519126503",
        "title": "公共厕所",
        "address": "云南省普洱市思茅区人力资源和社会保障局",
        "tel": "",
        "category": "基础设施:公共设施:公共厕所",
        "type": 0,
        "location": {
            "lat": 22.776204,
            "lng": 100.969658
        },
        "ad_info": {
            "adcode": 530802,
            "province": "云南省",
            "city": "普洱市",
            "district": "思茅区"
        }
    },
    {
        "id": "16891108377566248541",
        "title": "公共厕所",
        "address": "云南省普洱市景谷傣族彝族自治县S335与响水路交叉口西北方向347米左右",
        "tel": "",
        "category": "基础设施:公共设施:公共厕所",
        "type": 0,
        "location": {
            "lat": 23.505978,
            "lng": 100.685948
        },
        "ad_info": {
            "adcode": 530824,
            "province": "云南省",
            "city": "普洱市",
            "district": "景谷傣族彝族自治县"
        }
    },
    {
        "id": "9516604244053680856",
        "title": "公共厕所",
        "address": "云南省普洱市思茅区德化路与无量路交叉口西南方向129米左右",
        "tel": "",
        "category": "基础设施:公共设施:公共厕所",
        "type": 0,
        "location": {
            "lat": 22.812381,
            "lng": 100.969536
        },
        "ad_info": {
            "adcode": 530802,
            "province": "云南省",
            "city": "普洱市",
            "district": "思茅区"
        }
    },
    {
        "id": "3472785517610058649",
        "title": "公共厕所",
        "address": "云南省普洱市思茅区振兴南路与普洱大道交叉口西北方向80米左右",
        "tel": "",
        "category": "基础设施:公共设施:公共厕所",
        "type": 0,
        "location": {
            "lat": 22.755021,
            "lng": 100.955321
        },
        "ad_info": {
            "adcode": 530802,
            "province": "云南省",
            "city": "普洱市",
            "district": "思茅区"
        }
    },
    {
        "id": "3763785099915960983",
        "title": "公共厕所",
        "address": "云南省普洱市孟连傣族拉祜族佤族自治县城东路与芒卡线交叉口西南方向317米左右",
        "tel": "",
        "category": "基础设施:公共设施:公共厕所",
        "type": 0,
        "location": {
            "lat": 22.335951,
            "lng": 99.612976
        },
        "ad_info": {
            "adcode": 530827,
            "province": "云南省",
            "city": "普洱市",
            "district": "孟连傣族拉祜族佤族自治县"
        }
    },
    {
        "id": "863655025463394499",
        "title": "公共厕所",
        "address": "云南省普洱市澜沧拉祜族自治县G214与G219交叉口正南方向288米左右",
        "tel": "",
        "category": "基础设施:公共设施:公共厕所",
        "type": 0,
        "location": {
            "lat": 22.54592,
            "lng": 99.923922
        },
        "ad_info": {
            "adcode": 530828,
            "province": "云南省",
            "city": "普洱市",
            "district": "澜沧拉祜族自治县"
        }
    },
    {
        "id": "2764753992477941712",
        "title": "公共厕所",
        "address": "云南省普洱市思茅区振兴大道与西门街交叉口正北方向68米左右",
        "tel": "",
        "category": "基础设施:公共设施:公共厕所",
        "type": 0,
        "location": {
            "lat": 22.787961,
            "lng": 100.971408
        },
        "ad_info": {
            "adcode": 530802,
            "province": "云南省",
            "city": "普洱市",
            "district": "思茅区"
        }
    },
    {
        "id": "9681319131336544235",
        "title": "公共厕所",
        "address": "云南省普洱市思茅区江城路与菩提路交叉口南200米",
        "tel": "",
        "category": "基础设施:公共设施:公共厕所",
        "type": 0,
        "location": {
            "lat": 22.764825,
            "lng": 101.001727
        },
        "ad_info": {
            "adcode": 530802,
            "province": "云南省",
            "city": "普洱市",
            "district": "思茅区"
        }
    },
    {
        "id": "12302251664602104754",
        "title": "公共厕所",
        "address": "云南省普洱市思茅区太平街与边城路交叉口正东方向85米左右",
        "tel": "",
        "category": "基础设施:公共设施:公共厕所",
        "type": 0,
        "location": {
            "lat": 22.785697,
            "lng": 100.974616
        },
        "ad_info": {
            "adcode": 530802,
            "province": "云南省",
            "city": "普洱市",
            "district": "思茅区"
        }
    },
    {
        "id": "13260362464519614427",
        "title": "公共厕所",
        "address": "云南省普洱市景谷傣族彝族自治县益智路与金田路交叉口正北方向71米左右",
        "tel": "",
        "category": "基础设施:公共设施:公共厕所",
        "type": 0,
        "location": {
            "lat": 23.503564,
            "lng": 100.703962
        },
        "ad_info": {
            "adcode": 530824,
            "province": "云南省",
            "city": "普洱市",
            "district": "景谷傣族彝族自治县"
        }
    },
    {
        "id": "12029837804076026918",
        "title": "公共厕所",
        "address": "云南省普洱市江城哈尼族彝族自治县G219与瑶家山铜矿公路交叉口正东方向453米左右",
        "tel": "",
        "category": "基础设施:公共设施:公共厕所",
        "type": 0,
        "location": {
            "lat": 22.553306,
            "lng": 101.679442
        },
        "ad_info": {
            "adcode": 530826,
            "province": "云南省",
            "city": "普洱市",
            "district": "江城哈尼族彝族自治县"
        }
    },
    {
        "id": "3337474469875644643",
        "title": "公共厕所",
        "address": "云南省普洱市西盟佤族自治县娜妥段与新厂路交叉口正南方向1269米左右",
        "tel": "",
        "category": "基础设施:公共设施:公共厕所",
        "type": 0,
        "location": {
            "lat": 22.784439,
            "lng": 99.430459
        },
        "ad_info": {
            "adcode": 530829,
            "province": "云南省",
            "city": "普洱市",
            "district": "西盟佤族自治县"
        }
    },
    {
        "id": "1612512754157517164",
        "title": "杜鹃坝公厕",
        "address": "云南省普洱市景东彝族自治县观景台北行150米左右",
        "tel": "",
        "category": "基础设施:公共设施:公共厕所",
        "type": 0,
        "location": {
            "lat": 24.53507,
            "lng": 101.00997
        },
        "ad_info": {
            "adcode": 530823,
            "province": "云南省",
            "city": "普洱市",
            "district": "景东彝族自治县"
        }
    },
    {
        "id": "3869374929843574671",
        "title": "旅游厕所",
        "address": "云南省普洱市澜沧拉祜族自治县G227与江勐高速交叉口西北方向561米左右",
        "tel": "",
        "category": "基础设施:公共设施:公共厕所",
        "type": 0,
        "location": {
            "lat": 22.587987,
            "lng": 100.255548
        },
        "ad_info": {
            "adcode": 530828,
            "province": "云南省",
            "city": "普洱市",
            "district": "澜沧拉祜族自治县"
        }
    },
    {
        "id": "12336501131365406452",
        "title": "公共厕所",
        "address": "云南省普洱市思茅区振兴大道154号",
        "tel": "",
        "category": "基础设施:公共设施:公共厕所",
        "type": 0,
        "location": {
            "lat": 22.75648,
            "lng": 100.957404
        },
        "ad_info": {
            "adcode": 530802,
            "province": "云南省",
            "city": "普洱市",
            "district": "思茅区"
        }
    },
    {
        "id": "10852835262255146908",
        "title": "公共厕所",
        "address": "云南省普洱市思茅区菩提路与鱼水路交叉口正西方向75米左右",
        "tel": "",
        "category": "基础设施:公共设施:公共厕所",
        "type": 0,
        "location": {
            "lat": 22.763132,
            "lng": 100.991958
        },
        "ad_info": {
            "adcode": 530802,
            "province": "云南省",
            "city": "普洱市",
            "district": "思茅区"
        }
    },
    {
        "id": "1728114092609965543",
        "title": "公共厕所",
        "address": "云南省普洱市江城哈尼族彝族自治县中波路与联谊路交叉口正西方向29米左右",
        "tel": "",
        "category": "基础设施:公共设施:公共厕所",
        "type": 0,
        "location": {
            "lat": 22.587938,
            "lng": 101.857511
        },
        "ad_info": {
            "adcode": 530826,
            "province": "云南省",
            "city": "普洱市",
            "district": "江城哈尼族彝族自治县"
        }
    },
    {
        "id": "12888909145485317558",
        "title": "公共卫生间",
        "address": "云南省普洱市景谷傣族彝族自治县临江巷与正兴路交叉口正北方向91米左右",
        "tel": "",
        "category": "基础设施:公共设施:公共厕所",
        "type": 0,
        "location": {
            "lat": 23.494804,
            "lng": 100.710216
        },
        "ad_info": {
            "adcode": 530824,
            "province": "云南省",
            "city": "普洱市",
            "district": "景谷傣族彝族自治县"
        }
    },
    {
        "id": "9531982518371621275",
        "title": "公共厕所",
        "address": "云南省普洱市景谷傣族彝族自治县响水路与永安路交叉口正东方向80米左右",
        "tel": "",
        "category": "基础设施:公共设施:公共厕所",
        "type": 0,
        "location": {
            "lat": 23.494515,
            "lng": 100.704357
        },
        "ad_info": {
            "adcode": 530824,
            "province": "云南省",
            "city": "普洱市",
            "district": "景谷傣族彝族自治县"
        }
    }
]