[
    {
        "id": "16008757325137998440",
        "title": "公共厕所",
        "address": "江西省景德镇市珠山区珠山大道与陶溪川路交叉口西南方向202米左右",
        "tel": "",
        "category": "基础设施:公共设施:公共厕所",
        "type": 0,
        "location": {
            "lat": 29.296432,
            "lng": 117.236914
        },
        "ad_info": {
            "adcode": 360203,
            "province": "江西省",
            "city": "景德镇市",
            "district": "珠山区"
        }
    },
    {
        "id": "2987486561177473999",
        "title": "公共厕所",
        "address": "江西省景德镇市珠山区文苑东路与文苑南路交叉口东南方向1460米左右",
        "tel": "",
        "category": "基础设施:公共设施:公共厕所",
        "type": 0,
        "location": {
            "lat": 29.268051,
            "lng": 117.260921
        },
        "ad_info": {
            "adcode": 360203,
            "province": "江西省",
            "city": "景德镇市",
            "district": "珠山区"
        }
    },
    {
        "id": "17749095281816980326",
        "title": "公共厕所",
        "address": "江西省景德镇市珠山区中华北路与胜利路交叉口正东方向112米左右",
        "tel": "",
        "category": "基础设施:公共设施:公共厕所",
        "type": 0,
        "location": {
            "lat": 29.295279,
            "lng": 117.208593
        },
        "ad_info": {
            "adcode": 360203,
            "province": "江西省",
            "city": "景德镇市",
            "district": "珠山区"
        }
    },
    {
        "id": "14170512474099108503",
        "title": "公共厕所",
        "address": "江西省景德镇市珠山区昌江大道春天花园",
        "tel": "",
        "category": "基础设施:公共设施:公共厕所",
        "type": 0,
        "location": {
            "lat": 29.31118,
            "lng": 117.211323
        },
        "ad_info": {
            "adcode": 360203,
            "province": "江西省",
            "city": "景德镇市",
            "district": "珠山区"
        }
    },
    {
        "id": "18056382943759487824",
        "title": "公共厕所",
        "address": "江西省景德镇市珠山区新厂东路818号",
        "tel": "",
        "category": "基础设施:公共设施:公共厕所",
        "type": 0,
        "location": {
            "lat": 29.299843,
            "lng": 117.255229
        },
        "ad_info": {
            "adcode": 360203,
            "province": "江西省",
            "city": "景德镇市",
            "district": "珠山区"
        }
    },
    {
        "id": "6591110789130009103",
        "title": "公共厕所",
        "address": "江西省景德镇市珠山区昌飞北路与珠山大道交叉口西南方向238米左右",
        "tel": "",
        "category": "基础设施:公共设施:公共厕所",
        "type": 0,
        "location": {
            "lat": 29.302788,
            "lng": 117.254974
        },
        "ad_info": {
            "adcode": 360203,
            "province": "江西省",
            "city": "景德镇市",
            "district": "珠山区"
        }
    },
    {
        "id": "13803615511989987791",
        "title": "公共厕所",
        "address": "江西省景德镇市珠山区中华南路与解放路交叉口西北方向72米左右",
        "tel": "",
        "category": "基础设施:公共设施:公共厕所",
        "type": 0,
        "location": {
            "lat": 29.291958,
            "lng": 117.209304
        },
        "ad_info": {
            "adcode": 360203,
            "province": "江西省",
            "city": "景德镇市",
            "district": "珠山区"
        }
    },
    {
        "id": "1176965438443676721",
        "title": "公共厕所",
        "address": "江西省景德镇市珠山区珠山大道与陶阳中路交叉口正北方向239米左右",
        "tel": "",
        "category": "基础设施:公共设施:公共厕所",
        "type": 0,
        "location": {
            "lat": 29.303209,
            "lng": 117.246074
        },
        "ad_info": {
            "adcode": 360203,
            "province": "江西省",
            "city": "景德镇市",
            "district": "珠山区"
        }
    },
    {
        "id": "11127889254667053387",
        "title": "公共厕所",
        "address": "江西省景德镇市珠山区浙江路与通站路交叉口东北方向146米左右",
        "tel": "",
        "category": "基础设施:公共设施:公共厕所",
        "type": 0,
        "location": {
            "lat": 29.286504,
            "lng": 117.221849
        },
        "ad_info": {
            "adcode": 360203,
            "province": "江西省",
            "city": "景德镇市",
            "district": "珠山区"
        }
    },
    {
        "id": "2996832293268858172",
        "title": "公共厕所",
        "address": "江西省景德镇市珠山区新村西路与西二路交叉口西南方向92米左右",
        "tel": "",
        "category": "基础设施:公共设施:公共厕所",
        "type": 0,
        "location": {
            "lat": 29.301544,
            "lng": 117.211692
        },
        "ad_info": {
            "adcode": 360203,
            "province": "江西省",
            "city": "景德镇市",
            "district": "珠山区"
        }
    },
    {
        "id": "14875180234854244048",
        "title": "公共厕所",
        "address": "江西省景德镇市珠山区昌江大道中国石化加油站",
        "tel": "",
        "category": "基础设施:公共设施:公共厕所",
        "type": 0,
        "location": {
            "lat": 29.310107,
            "lng": 117.212389
        },
        "ad_info": {
            "adcode": 360203,
            "province": "江西省",
            "city": "景德镇市",
            "district": "珠山区"
        }
    },
    {
        "id": "14589862442850402315",
        "title": "公共厕所",
        "address": "江西省景德镇市珠山区站前一路景德镇北站站前广场",
        "tel": "",
        "category": "基础设施:公共设施:公共厕所",
        "type": 0,
        "location": {
            "lat": 29.338381,
            "lng": 117.242029
        },
        "ad_info": {
            "adcode": 360203,
            "province": "江西省",
            "city": "景德镇市",
            "district": "珠山区"
        }
    },
    {
        "id": "8548796597128360142",
        "title": "公共厕所",
        "address": "江西省景德镇市珠山区新枫路与莲花塘路交叉口正南方向101米左右",
        "tel": "",
        "category": "基础设施:公共设施:公共厕所",
        "type": 0,
        "location": {
            "lat": 29.301873,
            "lng": 117.209613
        },
        "ad_info": {
            "adcode": 360203,
            "province": "江西省",
            "city": "景德镇市",
            "district": "珠山区"
        }
    },
    {
        "id": "18251386203790259612",
        "title": "公共厕所",
        "address": "江西省景德镇市珠山区斗富弄与沿江东路交叉口东南方向55米左右",
        "tel": "",
        "category": "基础设施:公共设施:公共厕所",
        "type": 0,
        "location": {
            "lat": 29.295817,
            "lng": 117.202866
        },
        "ad_info": {
            "adcode": 360203,
            "province": "江西省",
            "city": "景德镇市",
            "district": "珠山区"
        }
    },
    {
        "id": "740194765772856700",
        "title": "公共厕所",
        "address": "江西省景德镇市珠山区昌河东路与珠山大道交叉口西北方向43米左右",
        "tel": "",
        "category": "基础设施:公共设施:公共厕所",
        "type": 0,
        "location": {
            "lat": 29.306943,
            "lng": 117.261145
        },
        "ad_info": {
            "adcode": 360203,
            "province": "江西省",
            "city": "景德镇市",
            "district": "珠山区"
        }
    },
    {
        "id": "15649799205433180572",
        "title": "公共厕所",
        "address": "江西省景德镇市珠山区中华北路与太平巷交叉口正南方向179米左右",
        "tel": "",
        "category": "基础设施:公共设施:公共厕所",
        "type": 0,
        "location": {
            "lat": 29.300411,
            "lng": 117.203886
        },
        "ad_info": {
            "adcode": 360203,
            "province": "江西省",
            "city": "景德镇市",
            "district": "珠山区"
        }
    },
    {
        "id": "15628482414589441254",
        "title": "公共厕所",
        "address": "江西省景德镇市珠山区向阳岭路与新村东路交叉口西北方向201米左右",
        "tel": "",
        "category": "基础设施:公共设施:公共厕所",
        "type": 0,
        "location": {
            "lat": 29.297026,
            "lng": 117.213928
        },
        "ad_info": {
            "adcode": 360203,
            "province": "江西省",
            "city": "景德镇市",
            "district": "珠山区"
        }
    },
    {
        "id": "5138128026984682288",
        "title": "公共厕所",
        "address": "江西省景德镇市珠山区中华北路与胜利路交叉口正西方向163米左右",
        "tel": "",
        "category": "基础设施:公共设施:公共厕所",
        "type": 0,
        "location": {
            "lat": 29.294756,
            "lng": 117.205822
        },
        "ad_info": {
            "adcode": 360203,
            "province": "江西省",
            "city": "景德镇市",
            "district": "珠山区"
        }
    },
    {
        "id": "1399424376046092082",
        "title": "公共厕所",
        "address": "江西省景德镇市珠山区复兴大道与高铁大道交叉口正北方向234米左右",
        "tel": "",
        "category": "基础设施:公共设施:公共厕所",
        "type": 0,
        "location": {
            "lat": 29.338631,
            "lng": 117.24343
        },
        "ad_info": {
            "adcode": 360203,
            "province": "江西省",
            "city": "景德镇市",
            "district": "珠山区"
        }
    },
    {
        "id": "7419793297739608048",
        "title": "公共厕所",
        "address": "江西省景德镇市珠山区通站支路与通站路交叉口正西方向164米左右",
        "tel": "",
        "category": "基础设施:公共设施:公共厕所",
        "type": 0,
        "location": {
            "lat": 29.294733,
            "lng": 117.220615
        },
        "ad_info": {
            "adcode": 360203,
            "province": "江西省",
            "city": "景德镇市",
            "district": "珠山区"
        }
    },
    {
        "id": "15208291558895519838",
        "title": "公共厕所",
        "address": "江西省景德镇市珠山区中华南路与红星弄交叉口正东方向165米左右",
        "tel": "",
        "category": "基础设施:公共设施:公共厕所",
        "type": 0,
        "location": {
            "lat": 29.2833,
            "lng": 117.212995
        },
        "ad_info": {
            "adcode": 360203,
            "province": "江西省",
            "city": "景德镇市",
            "district": "珠山区"
        }
    },
    {
        "id": "5898257052400909061",
        "title": "公共厕所",
        "address": "江西省景德镇市珠山区中山北路561号",
        "tel": "",
        "category": "基础设施:公共设施:公共厕所",
        "type": 0,
        "location": {
            "lat": 29.306588,
            "lng": 117.200908
        },
        "ad_info": {
            "adcode": 360203,
            "province": "江西省",
            "city": "景德镇市",
            "district": "珠山区"
        }
    },
    {
        "id": "10576671762070609193",
        "title": "公共厕所",
        "address": "江西省景德镇市珠山区中渡口与沿江东路交叉口正北方向55米左右",
        "tel": "",
        "category": "基础设施:公共设施:公共厕所",
        "type": 0,
        "location": {
            "lat": 29.299207,
            "lng": 117.202527
        },
        "ad_info": {
            "adcode": 360203,
            "province": "江西省",
            "city": "景德镇市",
            "district": "珠山区"
        }
    },
    {
        "id": "4344046769199619335",
        "title": "公共厕所",
        "address": "江西省景德镇市珠山区珠山大道与群英街交叉口西北方向55米左右",
        "tel": "",
        "category": "基础设施:公共设施:公共厕所",
        "type": 0,
        "location": {
            "lat": 29.293891,
            "lng": 117.211215
        },
        "ad_info": {
            "adcode": 360203,
            "province": "江西省",
            "city": "景德镇市",
            "district": "珠山区"
        }
    },
    {
        "id": "3084836199007205174",
        "title": "公共厕所",
        "address": "江西省景德镇市珠山区民窑遗址博物馆南侧",
        "tel": "",
        "category": "基础设施:公共设施:公共厕所",
        "type": 0,
        "location": {
            "lat": 29.284068,
            "lng": 117.206767
        },
        "ad_info": {
            "adcode": 360203,
            "province": "江西省",
            "city": "景德镇市",
            "district": "珠山区"
        }
    },
    {
        "id": "10901247071793601019",
        "title": "公共厕所",
        "address": "江西省景德镇市珠山区中山南路与曙光路交叉口西南方向185米左右",
        "tel": "",
        "category": "基础设施:公共设施:公共厕所",
        "type": 0,
        "location": {
            "lat": 29.279009,
            "lng": 117.20823
        },
        "ad_info": {
            "adcode": 360203,
            "province": "江西省",
            "city": "景德镇市",
            "district": "珠山区"
        }
    },
    {
        "id": "11190155773739616984",
        "title": "公共厕所",
        "address": "江西省景德镇市珠山区竟成路与老鸦滩路交叉口东北方向48米左右",
        "tel": "",
        "category": "基础设施:公共设施:公共厕所",
        "type": 0,
        "location": {
            "lat": 29.288334,
            "lng": 117.227436
        },
        "ad_info": {
            "adcode": 360203,
            "province": "江西省",
            "city": "景德镇市",
            "district": "珠山区"
        }
    },
    {
        "id": "4168369592715564690",
        "title": "公共厕所",
        "address": "江西省景德镇市昌江区奥园路与枫林北一路交叉口正北方向104米左右",
        "tel": "",
        "category": "基础设施:公共设施:公共厕所",
        "type": 0,
        "location": {
            "lat": 29.289933,
            "lng": 117.189692
        },
        "ad_info": {
            "adcode": 360202,
            "province": "江西省",
            "city": "景德镇市",
            "district": "昌江区"
        }
    },
    {
        "id": "11068024711934741507",
        "title": "公共厕所",
        "address": "江西省景德镇市珠山区新村西路与西一路交叉口正东方向136米左右",
        "tel": "",
        "category": "基础设施:公共设施:公共厕所",
        "type": 0,
        "location": {
            "lat": 29.299384,
            "lng": 117.214917
        },
        "ad_info": {
            "adcode": 360203,
            "province": "江西省",
            "city": "景德镇市",
            "district": "珠山区"
        }
    },
    {
        "id": "17360535692525930280",
        "title": "公共厕所",
        "address": "江西省景德镇市珠山区昌江大道与梦陶街交叉口东北方向238米左右",
        "tel": "",
        "category": "基础设施:公共设施:公共厕所",
        "type": 0,
        "location": {
            "lat": 29.320779,
            "lng": 117.262297
        },
        "ad_info": {
            "adcode": 360203,
            "province": "江西省",
            "city": "景德镇市",
            "district": "珠山区"
        }
    },
    {
        "id": "892404038149791193",
        "title": "公共厕所",
        "address": "江西省景德镇市珠山区南路与童街路南交叉口东北方向92米左右",
        "tel": "",
        "category": "基础设施:公共设施:公共厕所",
        "type": 0,
        "location": {
            "lat": 29.292855,
            "lng": 117.235676
        },
        "ad_info": {
            "adcode": 360203,
            "province": "江西省",
            "city": "景德镇市",
            "district": "珠山区"
        }
    },
    {
        "id": "2666840933873397567",
        "title": "公共厕所",
        "address": "江西省景德镇市珠山区古玩路与曙光路交叉口西南方向221米左右",
        "tel": "",
        "category": "基础设施:公共设施:公共厕所",
        "type": 0,
        "location": {
            "lat": 29.277184,
            "lng": 117.223213
        },
        "ad_info": {
            "adcode": 360203,
            "province": "江西省",
            "city": "景德镇市",
            "district": "珠山区"
        }
    },
    {
        "id": "6227078612956869639",
        "title": "公共厕所",
        "address": "江西省景德镇市珠山区广场南路与曙光路交叉口西北方向52米左右",
        "tel": "",
        "category": "基础设施:公共设施:公共厕所",
        "type": 0,
        "location": {
            "lat": 29.281739,
            "lng": 117.215501
        },
        "ad_info": {
            "adcode": 360203,
            "province": "江西省",
            "city": "景德镇市",
            "district": "珠山区"
        }
    },
    {
        "id": "4309870483793705766",
        "title": "人民广场公共厕所",
        "address": "江西省景德镇市珠山区G351与莲社南路交叉口东北方向40米左右",
        "tel": "",
        "category": "基础设施:公共设施:公共厕所",
        "type": 0,
        "location": {
            "lat": 29.293428,
            "lng": 117.214183
        },
        "ad_info": {
            "adcode": 360203,
            "province": "江西省",
            "city": "景德镇市",
            "district": "珠山区"
        }
    },
    {
        "id": "831585280787059419",
        "title": "公共厕所",
        "address": "江西省景德镇市昌江区梧桐大道58号",
        "tel": "",
        "category": "基础设施:公共设施:公共厕所",
        "type": 0,
        "location": {
            "lat": 29.262419,
            "lng": 117.124092
        },
        "ad_info": {
            "adcode": 360202,
            "province": "江西省",
            "city": "景德镇市",
            "district": "昌江区"
        }
    },
    {
        "id": "11949327096494161253",
        "title": "公共厕所",
        "address": "江西省景德镇市昌江区梅苑路与珠山大道交叉口正北方向379米左右",
        "tel": "",
        "category": "基础设施:公共设施:公共厕所",
        "type": 0,
        "location": {
            "lat": 29.294717,
            "lng": 117.191188
        },
        "ad_info": {
            "adcode": 360202,
            "province": "江西省",
            "city": "景德镇市",
            "district": "昌江区"
        }
    },
    {
        "id": "8634891613995177403",
        "title": "公共厕所",
        "address": "江西省景德镇市昌江区枫林佳苑西北侧130米",
        "tel": "",
        "category": "基础设施:公共设施:公共厕所",
        "type": 0,
        "location": {
            "lat": 29.276443,
            "lng": 117.181496
        },
        "ad_info": {
            "adcode": 360202,
            "province": "江西省",
            "city": "景德镇市",
            "district": "昌江区"
        }
    },
    {
        "id": "5622200406275302594",
        "title": "公共厕所",
        "address": "江西省景德镇市昌江区昌龙路与瓷都大道交叉口东南方向213米左右",
        "tel": "",
        "category": "基础设施:公共设施:公共厕所",
        "type": 0,
        "location": {
            "lat": 29.282798,
            "lng": 117.193997
        },
        "ad_info": {
            "adcode": 360202,
            "province": "江西省",
            "city": "景德镇市",
            "district": "昌江区"
        }
    },
    {
        "id": "10850974315504893120",
        "title": "公共厕所",
        "address": "江西省景德镇市浮梁县祥和弄与青山路交叉口正东方向60米左右",
        "tel": "",
        "category": "基础设施:公共设施:公共厕所",
        "type": 0,
        "location": {
            "lat": 29.358052,
            "lng": 117.217873
        },
        "ad_info": {
            "adcode": 360222,
            "province": "江西省",
            "city": "景德镇市",
            "district": "浮梁县"
        }
    },
    {
        "id": "13628038121385048028",
        "title": "公共厕所",
        "address": "江西省景德镇市昌江区G206与丽阳大道交叉口正南方向65米左右",
        "tel": "",
        "category": "基础设施:公共设施:公共厕所",
        "type": 0,
        "location": {
            "lat": 29.222258,
            "lng": 117.079869
        },
        "ad_info": {
            "adcode": 360202,
            "province": "江西省",
            "city": "景德镇市",
            "district": "昌江区"
        }
    },
    {
        "id": "6845172011027686096",
        "title": "公共厕所",
        "address": "江西省景德镇市浮梁县三贤街与滨江东路交叉口东北方向50米左右",
        "tel": "",
        "category": "基础设施:公共设施:公共厕所",
        "type": 0,
        "location": {
            "lat": 29.346477,
            "lng": 117.222838
        },
        "ad_info": {
            "adcode": 360222,
            "province": "江西省",
            "city": "景德镇市",
            "district": "浮梁县"
        }
    },
    {
        "id": "8263866798500735905",
        "title": "公共厕所",
        "address": "江西省景德镇市昌江区昌江大道辅路与瓷都大道辅路交叉口东南方向271米左右",
        "tel": "",
        "category": "基础设施:公共设施:公共厕所",
        "type": 0,
        "location": {
            "lat": 29.302972,
            "lng": 117.198164
        },
        "ad_info": {
            "adcode": 360202,
            "province": "江西省",
            "city": "景德镇市",
            "district": "昌江区"
        }
    },
    {
        "id": "1939721500167821833",
        "title": "公共厕所",
        "address": "江西省景德镇市昌江区珠山大道与瓷都大道交叉口正西方向115米左右",
        "tel": "",
        "category": "基础设施:公共设施:公共厕所",
        "type": 0,
        "location": {
            "lat": 29.291544,
            "lng": 117.193778
        },
        "ad_info": {
            "adcode": 360202,
            "province": "江西省",
            "city": "景德镇市",
            "district": "昌江区"
        }
    },
    {
        "id": "6129379385119428340",
        "title": "公共厕所",
        "address": "江西省景德镇市珠山区中山南路与浙江路交叉口东北方向137米左右",
        "tel": "",
        "category": "基础设施:公共设施:公共厕所",
        "type": 0,
        "location": {
            "lat": 29.285408,
            "lng": 117.209995
        },
        "ad_info": {
            "adcode": 360203,
            "province": "江西省",
            "city": "景德镇市",
            "district": "珠山区"
        }
    },
    {
        "id": "1751212695896135424",
        "title": "公共厕所",
        "address": "江西省景德镇市浮梁县南阳街与新昌南路交叉口正东方向38米左右",
        "tel": "",
        "category": "基础设施:公共设施:公共厕所",
        "type": 0,
        "location": {
            "lat": 29.343817,
            "lng": 117.217876
        },
        "ad_info": {
            "adcode": 360222,
            "province": "江西省",
            "city": "景德镇市",
            "district": "浮梁县"
        }
    },
    {
        "id": "7336105750633101477",
        "title": "景德镇天天渔港国际大酒店-洗手间",
        "address": "江西省景德镇市珠山区浙江路浙江商城红绿灯路口",
        "tel": "",
        "category": "基础设施:公共设施:公共厕所",
        "type": 0,
        "location": {
            "lat": 29.285658,
            "lng": 117.215498
        },
        "ad_info": {
            "adcode": 360203,
            "province": "江西省",
            "city": "景德镇市",
            "district": "珠山区"
        }
    },
    {
        "id": "5102164541631229732",
        "title": "公共厕所",
        "address": "江西省景德镇市昌江区昌西路与黎明路交叉口正西方向256米左右",
        "tel": "",
        "category": "基础设施:公共设施:公共厕所",
        "type": 0,
        "location": {
            "lat": 29.277967,
            "lng": 117.199793
        },
        "ad_info": {
            "adcode": 360202,
            "province": "江西省",
            "city": "景德镇市",
            "district": "昌江区"
        }
    },
    {
        "id": "2352029425851067019",
        "title": "公共厕所",
        "address": "江西省景德镇市昌江区景德大道与景泰路交叉口东北方向154米左右",
        "tel": "",
        "category": "基础设施:公共设施:公共厕所",
        "type": 0,
        "location": {
            "lat": 29.270981,
            "lng": 117.190239
        },
        "ad_info": {
            "adcode": 360202,
            "province": "江西省",
            "city": "景德镇市",
            "district": "昌江区"
        }
    },
    {
        "id": "5964043344251377935",
        "title": "公共厕所",
        "address": "江西省景德镇市昌江区南京西路与香港路交叉口正西方向54米左右",
        "tel": "",
        "category": "基础设施:公共设施:公共厕所",
        "type": 0,
        "location": {
            "lat": 29.307202,
            "lng": 117.188434
        },
        "ad_info": {
            "adcode": 360202,
            "province": "江西省",
            "city": "景德镇市",
            "district": "昌江区"
        }
    },
    {
        "id": "7269312778430874037",
        "title": "公共厕所",
        "address": "江西省景德镇市昌江区新都大道与银湖路交叉口东北方向164米左右",
        "tel": "",
        "category": "基础设施:公共设施:公共厕所",
        "type": 0,
        "location": {
            "lat": 29.267944,
            "lng": 117.167824
        },
        "ad_info": {
            "adcode": 360202,
            "province": "江西省",
            "city": "景德镇市",
            "district": "昌江区"
        }
    },
    {
        "id": "9676603010598110243",
        "title": "公共厕所",
        "address": "江西省景德镇市浮梁县千岛湖街与玉岭南路交叉口东北方向51米左右",
        "tel": "",
        "category": "基础设施:公共设施:公共厕所",
        "type": 0,
        "location": {
            "lat": 29.35007,
            "lng": 117.214815
        },
        "ad_info": {
            "adcode": 360222,
            "province": "江西省",
            "city": "景德镇市",
            "district": "浮梁县"
        }
    },
    {
        "id": "8089946711552480030",
        "title": "公共厕所",
        "address": "江西省景德镇市珠山区中山北路与太平巷交叉口正北方向56米左右",
        "tel": "",
        "category": "基础设施:公共设施:公共厕所",
        "type": 0,
        "location": {
            "lat": 29.30215,
            "lng": 117.201982
        },
        "ad_info": {
            "adcode": 360203,
            "province": "江西省",
            "city": "景德镇市",
            "district": "珠山区"
        }
    },
    {
        "id": "11743925003885557681",
        "title": "公共厕所",
        "address": "江西省景德镇市浮梁县丰华弄与丰园巷交叉口正北方向46米左右",
        "tel": "",
        "category": "基础设施:公共设施:公共厕所",
        "type": 0,
        "location": {
            "lat": 29.351793,
            "lng": 117.220667
        },
        "ad_info": {
            "adcode": 360222,
            "province": "江西省",
            "city": "景德镇市",
            "district": "浮梁县"
        }
    },
    {
        "id": "9946897491281622112",
        "title": "公共厕所",
        "address": "江西省景德镇市昌江区366乡道西50米",
        "tel": "",
        "category": "基础设施:公共设施:公共厕所",
        "type": 0,
        "location": {
            "lat": 29.196415,
            "lng": 117.189129
        },
        "ad_info": {
            "adcode": 360202,
            "province": "江西省",
            "city": "景德镇市",
            "district": "昌江区"
        }
    },
    {
        "id": "8263674197976055880",
        "title": "公共厕所",
        "address": "江西省景德镇市昌江区新风路与瓷都大道交叉口东南方向90米左右",
        "tel": "",
        "category": "基础设施:公共设施:公共厕所",
        "type": 0,
        "location": {
            "lat": 29.279215,
            "lng": 117.191161
        },
        "ad_info": {
            "adcode": 360202,
            "province": "江西省",
            "city": "景德镇市",
            "district": "昌江区"
        }
    },
    {
        "id": "1045037643972018210",
        "title": "公共厕所",
        "address": "江西省景德镇市浮梁县新厂路与昌江大道交叉口东北方向517米左右",
        "tel": "",
        "category": "基础设施:公共设施:公共厕所",
        "type": 0,
        "location": {
            "lat": 29.31367,
            "lng": 117.28833
        },
        "ad_info": {
            "adcode": 360222,
            "province": "江西省",
            "city": "景德镇市",
            "district": "浮梁县"
        }
    },
    {
        "id": "894187605313556872",
        "title": "公共厕所",
        "address": "江西省景德镇市浮梁县红旗峰生态旅游景区",
        "tel": "",
        "category": "基础设施:公共设施:公共厕所",
        "type": 0,
        "location": {
            "lat": 29.724797,
            "lng": 117.235644
        },
        "ad_info": {
            "adcode": 360222,
            "province": "江西省",
            "city": "景德镇市",
            "district": "浮梁县"
        }
    },
    {
        "id": "15634178599117550232",
        "title": "公共厕所",
        "address": "江西省景德镇市昌江区瓷都大道1463号人民公园(东侧)",
        "tel": "",
        "category": "基础设施:公共设施:公共厕所",
        "type": 0,
        "location": {
            "lat": 29.301725,
            "lng": 117.199125
        },
        "ad_info": {
            "adcode": 360202,
            "province": "江西省",
            "city": "景德镇市",
            "district": "昌江区"
        }
    },
    {
        "id": "6654532224471848683",
        "title": "公共厕所",
        "address": "江西省景德镇市昌江区揽枫郡横路与揽枫郡纵路交叉口东北方向174米左右",
        "tel": "",
        "category": "基础设施:公共设施:公共厕所",
        "type": 0,
        "location": {
            "lat": 29.282231,
            "lng": 117.201363
        },
        "ad_info": {
            "adcode": 360202,
            "province": "江西省",
            "city": "景德镇市",
            "district": "昌江区"
        }
    },
    {
        "id": "3305922288108244571",
        "title": "公共厕所",
        "address": "江西省景德镇市昌江区景德大道与黎明路交叉口西南方向39米左右",
        "tel": "",
        "category": "基础设施:公共设施:公共厕所",
        "type": 0,
        "location": {
            "lat": 29.270009,
            "lng": 117.191455
        },
        "ad_info": {
            "adcode": 360202,
            "province": "江西省",
            "city": "景德镇市",
            "district": "昌江区"
        }
    },
    {
        "id": "10270545102768373043",
        "title": "公共厕所",
        "address": "江西省景德镇市昌江区斗富弄与沿江东路交叉口正西方向242米左右",
        "tel": "",
        "category": "基础设施:公共设施:公共厕所",
        "type": 0,
        "location": {
            "lat": 29.295665,
            "lng": 117.200248
        },
        "ad_info": {
            "adcode": 360202,
            "province": "江西省",
            "city": "景德镇市",
            "district": "昌江区"
        }
    },
    {
        "id": "17569180038078595151",
        "title": "公共厕所",
        "address": "江西省景德镇市昌江区新风支路与沿江西路交叉口正西方向132米左右",
        "tel": "",
        "category": "基础设施:公共设施:公共厕所",
        "type": 0,
        "location": {
            "lat": 29.28061,
            "lng": 117.201791
        },
        "ad_info": {
            "adcode": 360202,
            "province": "江西省",
            "city": "景德镇市",
            "district": "昌江区"
        }
    },
    {
        "id": "8067828235627200975",
        "title": "公共厕所",
        "address": "江西省景德镇市浮梁县052乡道与055乡道交叉口东南200米",
        "tel": "",
        "category": "基础设施:公共设施:公共厕所",
        "type": 0,
        "location": {
            "lat": 29.78907,
            "lng": 117.324671
        },
        "ad_info": {
            "adcode": 360222,
            "province": "江西省",
            "city": "景德镇市",
            "district": "浮梁县"
        }
    },
    {
        "id": "94256655709670985",
        "title": "公共厕所",
        "address": "江西省景德镇市昌江区揽枫郡纵路与水文路交叉口东北方向276米左右",
        "tel": "",
        "category": "基础设施:公共设施:公共厕所",
        "type": 0,
        "location": {
            "lat": 29.284253,
            "lng": 117.201371
        },
        "ad_info": {
            "adcode": 360202,
            "province": "江西省",
            "city": "景德镇市",
            "district": "昌江区"
        }
    },
    {
        "id": "14050756951691357983",
        "title": "公共厕所",
        "address": "江西省景德镇市昌江区梧桐大道与瓷都大道交叉口东南方向238米左右",
        "tel": "",
        "category": "基础设施:公共设施:公共厕所",
        "type": 0,
        "location": {
            "lat": 29.255065,
            "lng": 117.166365
        },
        "ad_info": {
            "adcode": 360202,
            "province": "江西省",
            "city": "景德镇市",
            "district": "昌江区"
        }
    },
    {
        "id": "12070651480637295548",
        "title": "公共厕所",
        "address": "江西省景德镇市浮梁县唐英大道与安华北路交叉口东南方向672米左右",
        "tel": "",
        "category": "基础设施:公共设施:公共厕所",
        "type": 0,
        "location": {
            "lat": 29.343341,
            "lng": 117.178062
        },
        "ad_info": {
            "adcode": 360222,
            "province": "江西省",
            "city": "景德镇市",
            "district": "浮梁县"
        }
    },
    {
        "id": "447775452469201753",
        "title": "公共厕所",
        "address": "江西省景德镇市浮梁县G206与Y043交叉口正北方向173米左右",
        "tel": "",
        "category": "基础设施:公共设施:公共厕所",
        "type": 0,
        "location": {
            "lat": 29.675101,
            "lng": 117.24053
        },
        "ad_info": {
            "adcode": 360222,
            "province": "江西省",
            "city": "景德镇市",
            "district": "浮梁县"
        }
    },
    {
        "id": "16131889959220811756",
        "title": "景德镇大酒店-洗手间",
        "address": "江西省景德镇市珠山区沿江东路与珠山大道交叉口东南方向21米左右",
        "tel": "",
        "category": "基础设施:公共设施:公共厕所",
        "type": 0,
        "location": {
            "lat": 29.292304,
            "lng": 117.20324
        },
        "ad_info": {
            "adcode": 360203,
            "province": "江西省",
            "city": "景德镇市",
            "district": "珠山区"
        }
    },
    {
        "id": "10520860213499737677",
        "title": "公共厕所",
        "address": "江西省景德镇市浮梁县景西大道与蛟潭新街交叉口东北方向657米左右",
        "tel": "",
        "category": "基础设施:公共设施:公共厕所",
        "type": 0,
        "location": {
            "lat": 29.543867,
            "lng": 117.214996
        },
        "ad_info": {
            "adcode": 360222,
            "province": "江西省",
            "city": "景德镇市",
            "district": "浮梁县"
        }
    },
    {
        "id": "17412341897763765996",
        "title": "公共厕所",
        "address": "江西省景德镇市浮梁县S302与流口路交叉口西南方向1444米左右",
        "tel": "",
        "category": "基础设施:公共设施:公共厕所",
        "type": 0,
        "location": {
            "lat": 29.630681,
            "lng": 117.324129
        },
        "ad_info": {
            "adcode": 360222,
            "province": "江西省",
            "city": "景德镇市",
            "district": "浮梁县"
        }
    },
    {
        "id": "8420639238801576722",
        "title": "御窑景巷景区-公共厕所",
        "address": "江西省景德镇市珠山区御窑景巷景区河堤中部",
        "tel": "",
        "category": "基础设施:公共设施:公共厕所",
        "type": 0,
        "location": {
            "lat": 29.303234,
            "lng": 117.20103
        },
        "ad_info": {
            "adcode": 360203,
            "province": "江西省",
            "city": "景德镇市",
            "district": "珠山区"
        }
    },
    {
        "id": "750743594656226276",
        "title": "公共厕所",
        "address": "江西省景德镇市浮梁县景西大道与蛟潭新街交叉口正东方向285米左右",
        "tel": "",
        "category": "基础设施:公共设施:公共厕所",
        "type": 0,
        "location": {
            "lat": 29.539996,
            "lng": 117.213615
        },
        "ad_info": {
            "adcode": 360222,
            "province": "江西省",
            "city": "景德镇市",
            "district": "浮梁县"
        }
    },
    {
        "id": "16635072979836403639",
        "title": "公共厕所",
        "address": "江西省景德镇市浮梁县086县道东50米",
        "tel": "",
        "category": "基础设施:公共设施:公共厕所",
        "type": 0,
        "location": {
            "lat": 29.55111,
            "lng": 117.457009
        },
        "ad_info": {
            "adcode": 360222,
            "province": "江西省",
            "city": "景德镇市",
            "district": "浮梁县"
        }
    },
    {
        "id": "184265847613478497",
        "title": "公共厕所(Jx-JD-0324)",
        "address": "江西省景德镇市浮梁县X096与南村桥交叉口正西方向1601米左右",
        "tel": "",
        "category": "基础设施:公共设施:公共厕所",
        "type": 0,
        "location": {
            "lat": 29.580133,
            "lng": 117.176028
        },
        "ad_info": {
            "adcode": 360222,
            "province": "江西省",
            "city": "景德镇市",
            "district": "浮梁县"
        }
    },
    {
        "id": "13702746131149753625",
        "title": "公共厕所",
        "address": "江西省景德镇市浮梁县G206与Y056交叉口东南方向953米左右",
        "tel": "",
        "category": "基础设施:公共设施:公共厕所",
        "type": 0,
        "location": {
            "lat": 29.500588,
            "lng": 117.196031
        },
        "ad_info": {
            "adcode": 360222,
            "province": "江西省",
            "city": "景德镇市",
            "district": "浮梁县"
        }
    },
    {
        "id": "15337162289268983456",
        "title": "豪德仓储公共厕所",
        "address": "江西省景德镇市昌江区东二街与中心街交叉口东南方向257米左右",
        "tel": "",
        "category": "基础设施:公共设施:公共厕所",
        "type": 0,
        "location": {
            "lat": 29.26657,
            "lng": 117.184812
        },
        "ad_info": {
            "adcode": 360202,
            "province": "江西省",
            "city": "景德镇市",
            "district": "昌江区"
        }
    },
    {
        "id": "13484453392558534333",
        "title": "景德镇滨江假日酒店-洗手间",
        "address": "江西省景德镇市昌江区沿江西路与金鱼山路交叉口西南方向17米左右",
        "tel": "",
        "category": "基础设施:公共设施:公共厕所",
        "type": 0,
        "location": {
            "lat": 29.289246,
            "lng": 117.201277
        },
        "ad_info": {
            "adcode": 360202,
            "province": "江西省",
            "city": "景德镇市",
            "district": "昌江区"
        }
    },
    {
        "id": "1212847571675442989",
        "title": "景德镇服务区公共厕所",
        "address": "江西省景德镇市浮梁县G351与双凤桥交叉口东南方向1524米左右",
        "tel": "",
        "category": "基础设施:公共设施:公共厕所",
        "type": 0,
        "location": {
            "lat": 29.30686,
            "lng": 117.354696
        },
        "ad_info": {
            "adcode": 360222,
            "province": "江西省",
            "city": "景德镇市",
            "district": "浮梁县"
        }
    },
    {
        "id": "9556303892161582735",
        "title": "公共厕所",
        "address": "江西省景德镇市乐平市G206与S205交叉口正西方向337米左右",
        "tel": "",
        "category": "基础设施:公共设施:公共厕所",
        "type": 0,
        "location": {
            "lat": 28.957384,
            "lng": 117.15974
        },
        "ad_info": {
            "adcode": 360281,
            "province": "江西省",
            "city": "景德镇市",
            "district": "乐平市"
        }
    },
    {
        "id": "17165979421984172116",
        "title": "景德镇服务区公共厕所",
        "address": "江西省景德镇市昌江区G35济广高速西150米",
        "tel": "",
        "category": "基础设施:公共设施:公共厕所",
        "type": 0,
        "location": {
            "lat": 29.259349,
            "lng": 117.067412
        },
        "ad_info": {
            "adcode": 360202,
            "province": "江西省",
            "city": "景德镇市",
            "district": "昌江区"
        }
    },
    {
        "id": "6034918735099768895",
        "title": "月亮湖服务区-公共厕所",
        "address": "江西省景德镇市昌江区济广高速附近",
        "tel": "",
        "category": "基础设施:公共设施:公共厕所",
        "type": 0,
        "location": {
            "lat": 29.259383,
            "lng": 117.06739
        },
        "ad_info": {
            "adcode": 360202,
            "province": "江西省",
            "city": "景德镇市",
            "district": "昌江区"
        }
    },
    {
        "id": "7169511699806735576",
        "title": "公共厕所",
        "address": "江西省景德镇市乐平市东山路与洪岩南路交叉口正东方向153米左右",
        "tel": "",
        "category": "基础设施:公共设施:公共厕所",
        "type": 0,
        "location": {
            "lat": 28.962755,
            "lng": 117.153883
        },
        "ad_info": {
            "adcode": 360281,
            "province": "江西省",
            "city": "景德镇市",
            "district": "乐平市"
        }
    },
    {
        "id": "7832582773451247116",
        "title": "景德镇服务区第二公共厕所",
        "address": "江西省景德镇市昌江区月亮湖服务区加油站附近",
        "tel": "",
        "category": "基础设施:公共设施:公共厕所",
        "type": 0,
        "location": {
            "lat": 29.266833,
            "lng": 117.066584
        },
        "ad_info": {
            "adcode": 360202,
            "province": "江西省",
            "city": "景德镇市",
            "district": "昌江区"
        }
    },
    {
        "id": "14378482887033282370",
        "title": "景德镇服务区第一公共厕所",
        "address": "江西省景德镇市昌江区月亮湖服务区",
        "tel": "",
        "category": "基础设施:公共设施:公共厕所",
        "type": 0,
        "location": {
            "lat": 29.263981,
            "lng": 117.068302
        },
        "ad_info": {
            "adcode": 360202,
            "province": "江西省",
            "city": "景德镇市",
            "district": "昌江区"
        }
    },
    {
        "id": "12047295862255365645",
        "title": "公共厕所",
        "address": "江西省景德镇市乐平市大连路与洪皓路交叉口东北方向254米左右",
        "tel": "",
        "category": "基础设施:公共设施:公共厕所",
        "type": 0,
        "location": {
            "lat": 28.984641,
            "lng": 117.154843
        },
        "ad_info": {
            "adcode": 360281,
            "province": "江西省",
            "city": "景德镇市",
            "district": "乐平市"
        }
    },
    {
        "id": "6730709687776710594",
        "title": "罗家滩停车区公共厕所",
        "address": "江西省景德镇市浮梁县西互通与杭瑞高速交叉口正西方向651米左右",
        "tel": "",
        "category": "基础设施:公共设施:公共厕所",
        "type": 0,
        "location": {
            "lat": 29.338938,
            "lng": 117.103998
        },
        "ad_info": {
            "adcode": 360222,
            "province": "江西省",
            "city": "景德镇市",
            "district": "浮梁县"
        }
    },
    {
        "id": "15469539495699816571",
        "title": "公共厕所",
        "address": "江西省景德镇市乐平市Y506与安工路交叉口正北方向356米左右",
        "tel": "",
        "category": "基础设施:公共设施:公共厕所",
        "type": 0,
        "location": {
            "lat": 28.98479,
            "lng": 117.115742
        },
        "ad_info": {
            "adcode": 360281,
            "province": "江西省",
            "city": "景德镇市",
            "district": "乐平市"
        }
    },
    {
        "id": "4318198382448671267",
        "title": "公共厕所",
        "address": "江西省景德镇市乐平市马廷鸾路与马端临路交叉口正西方向48米左右",
        "tel": "",
        "category": "基础设施:公共设施:公共厕所",
        "type": 0,
        "location": {
            "lat": 28.977422,
            "lng": 117.15461
        },
        "ad_info": {
            "adcode": 360281,
            "province": "江西省",
            "city": "景德镇市",
            "district": "乐平市"
        }
    },
    {
        "id": "11800140659505283275",
        "title": "景德镇服务区第二公共厕所",
        "address": "江西省景德镇市昌江区济广高速公路",
        "tel": "",
        "category": "基础设施:公共设施:公共厕所",
        "type": 0,
        "location": {
            "lat": 29.25834,
            "lng": 117.068568
        },
        "ad_info": {
            "adcode": 360202,
            "province": "江西省",
            "city": "景德镇市",
            "district": "昌江区"
        }
    },
    {
        "id": "12137952679932116804",
        "title": "公共厕所",
        "address": "江西省景德镇市乐平市洎阳中路与闽籍巷交叉口正东方向21米左右",
        "tel": "",
        "category": "基础设施:公共设施:公共厕所",
        "type": 0,
        "location": {
            "lat": 28.97037,
            "lng": 117.131325
        },
        "ad_info": {
            "adcode": 360281,
            "province": "江西省",
            "city": "景德镇市",
            "district": "乐平市"
        }
    },
    {
        "id": "5691091765855890155",
        "title": "公共厕所",
        "address": "江西省景德镇市乐平市珠海西路与迎宾西路交叉口西南方向282米左右",
        "tel": "",
        "category": "基础设施:公共设施:公共厕所",
        "type": 0,
        "location": {
            "lat": 28.966299,
            "lng": 117.114851
        },
        "ad_info": {
            "adcode": 360281,
            "province": "江西省",
            "city": "景德镇市",
            "district": "乐平市"
        }
    },
    {
        "id": "13840463761124764611",
        "title": "公共厕所",
        "address": "江西省景德镇市乐平市富民路西50米",
        "tel": "",
        "category": "基础设施:公共设施:公共厕所",
        "type": 0,
        "location": {
            "lat": 29.060538,
            "lng": 117.166376
        },
        "ad_info": {
            "adcode": 360281,
            "province": "江西省",
            "city": "景德镇市",
            "district": "乐平市"
        }
    },
    {
        "id": "2011692276929200272",
        "title": "公共厕所",
        "address": "江西省景德镇市乐平市Y510与Y554交叉口东北方向222米左右",
        "tel": "",
        "category": "基础设施:公共设施:公共厕所",
        "type": 0,
        "location": {
            "lat": 29.111012,
            "lng": 117.456442
        },
        "ad_info": {
            "adcode": 360281,
            "province": "江西省",
            "city": "景德镇市",
            "district": "乐平市"
        }
    },
    {
        "id": "17534128934004115702",
        "title": "公共厕所",
        "address": "江西省景德镇市乐平市新平中路与长寿路交叉口西北方向68米左右",
        "tel": "",
        "category": "基础设施:公共设施:公共厕所",
        "type": 0,
        "location": {
            "lat": 28.966118,
            "lng": 117.124521
        },
        "ad_info": {
            "adcode": 360281,
            "province": "江西省",
            "city": "景德镇市",
            "district": "乐平市"
        }
    },
    {
        "id": "1403003769607198571",
        "title": "公共厕所",
        "address": "江西省景德镇市乐平市东山路与洪岩南路交叉口西北方向152米左右",
        "tel": "",
        "category": "基础设施:公共设施:公共厕所",
        "type": 0,
        "location": {
            "lat": 28.96344,
            "lng": 117.150931
        },
        "ad_info": {
            "adcode": 360281,
            "province": "江西省",
            "city": "景德镇市",
            "district": "乐平市"
        }
    },
    {
        "id": "4256344274329566592",
        "title": "公共厕所",
        "address": "江西省景德镇市乐平市中田石化加油站东侧70米",
        "tel": "",
        "category": "基础设施:公共设施:公共厕所",
        "type": 0,
        "location": {
            "lat": 28.994988,
            "lng": 117.139768
        },
        "ad_info": {
            "adcode": 360281,
            "province": "江西省",
            "city": "景德镇市",
            "district": "乐平市"
        }
    },
    {
        "id": "10964440418129164077",
        "title": "浮梁服务区第一公共厕所",
        "address": "江西省景德镇市浮梁县G351与双凤桥交叉口东南方向1756米左右",
        "tel": "",
        "category": "基础设施:公共设施:公共厕所",
        "type": 0,
        "location": {
            "lat": 29.306118,
            "lng": 117.357356
        },
        "ad_info": {
            "adcode": 360222,
            "province": "江西省",
            "city": "景德镇市",
            "district": "浮梁县"
        }
    },
    {
        "id": "2827619928550634879",
        "title": "公共厕所",
        "address": "江西省景德镇市乐平市迎宾路12号",
        "tel": "",
        "category": "基础设施:公共设施:公共厕所",
        "type": 0,
        "location": {
            "lat": 28.965065,
            "lng": 117.122082
        },
        "ad_info": {
            "adcode": 360281,
            "province": "江西省",
            "city": "景德镇市",
            "district": "乐平市"
        }
    },
    {
        "id": "15517725832947798866",
        "title": "公共厕所",
        "address": "江西省景德镇市乐平市G206与雁塔街交叉口东南方向425米左右",
        "tel": "",
        "category": "基础设施:公共设施:公共厕所",
        "type": 0,
        "location": {
            "lat": 29.059595,
            "lng": 117.110109
        },
        "ad_info": {
            "adcode": 360281,
            "province": "江西省",
            "city": "景德镇市",
            "district": "乐平市"
        }
    },
    {
        "id": "18401594649351606896",
        "title": "公共厕所",
        "address": "江西省景德镇市乐平市松树岭茶厂健走步道",
        "tel": "",
        "category": "基础设施:公共设施:公共厕所",
        "type": 0,
        "location": {
            "lat": 28.819668,
            "lng": 117.295213
        },
        "ad_info": {
            "adcode": 360281,
            "province": "江西省",
            "city": "景德镇市",
            "district": "乐平市"
        }
    },
    {
        "id": "18294537451876324691",
        "title": "浮梁服务区第二公共厕所",
        "address": "江西省景德镇市浮梁县中国石化浮梁服务区浮梁景婺黄南加油站东侧",
        "tel": "",
        "category": "基础设施:公共设施:公共厕所",
        "type": 0,
        "location": {
            "lat": 29.307883,
            "lng": 117.356843
        },
        "ad_info": {
            "adcode": 360222,
            "province": "江西省",
            "city": "景德镇市",
            "district": "浮梁县"
        }
    },
    {
        "id": "311671472443800418",
        "title": "公共厕所",
        "address": "江西省景德镇市乐平市桥头丘中小学西南侧140米",
        "tel": "",
        "category": "基础设施:公共设施:公共厕所",
        "type": 0,
        "location": {
            "lat": 28.867023,
            "lng": 117.12251
        },
        "ad_info": {
            "adcode": 360281,
            "province": "江西省",
            "city": "景德镇市",
            "district": "乐平市"
        }
    },
    {
        "id": "8546930839526363734",
        "title": "公共厕所",
        "address": "江西省景德镇市乐平市G206与大连路交叉口正北方向134米左右",
        "tel": "",
        "category": "基础设施:公共设施:公共厕所",
        "type": 0,
        "location": {
            "lat": 28.995432,
            "lng": 117.13956
        },
        "ad_info": {
            "adcode": 360281,
            "province": "江西省",
            "city": "景德镇市",
            "district": "乐平市"
        }
    },
    {
        "id": "12761418693660673574",
        "title": "公共厕所",
        "address": "江西省景德镇市乐平市人民中路与梧桐巷交叉口西南方向47米左右",
        "tel": "",
        "category": "基础设施:公共设施:公共厕所",
        "type": 0,
        "location": {
            "lat": 28.972942,
            "lng": 117.133966
        },
        "ad_info": {
            "adcode": 360281,
            "province": "江西省",
            "city": "景德镇市",
            "district": "乐平市"
        }
    },
    {
        "id": "3400013004796507746",
        "title": "公共厕所",
        "address": "江西省景德镇市乐平市504乡道东50米",
        "tel": "",
        "category": "基础设施:公共设施:公共厕所",
        "type": 0,
        "location": {
            "lat": 28.950517,
            "lng": 117.226974
        },
        "ad_info": {
            "adcode": 360281,
            "province": "江西省",
            "city": "景德镇市",
            "district": "乐平市"
        }
    },
    {
        "id": "13411549631942198501",
        "title": "公共厕所",
        "address": "江西省景德镇市乐平市怪石林西侧50米",
        "tel": "",
        "category": "基础设施:公共设施:公共厕所",
        "type": 0,
        "location": {
            "lat": 28.733004,
            "lng": 117.262371
        },
        "ad_info": {
            "adcode": 360281,
            "province": "江西省",
            "city": "景德镇市",
            "district": "乐平市"
        }
    },
    {
        "id": "8732128338631282442",
        "title": "公共厕所",
        "address": "江西省景德镇市乐平市G206与龙溪河大桥交叉口正北方向257米左右",
        "tel": "",
        "category": "基础设施:公共设施:公共厕所",
        "type": 0,
        "location": {
            "lat": 29.014697,
            "lng": 117.13765
        },
        "ad_info": {
            "adcode": 360281,
            "province": "江西省",
            "city": "景德镇市",
            "district": "乐平市"
        }
    },
    {
        "id": "5061592003330799394",
        "title": "公共厕所",
        "address": "江西省景德镇市乐平市无家山附近",
        "tel": "",
        "category": "基础设施:公共设施:公共厕所",
        "type": 0,
        "location": {
            "lat": 29.179042,
            "lng": 117.355851
        },
        "ad_info": {
            "adcode": 360281,
            "province": "江西省",
            "city": "景德镇市",
            "district": "乐平市"
        }
    },
    {
        "id": "7294909333465020561",
        "title": "公共厕所",
        "address": "江西省景德镇市乐平市工业九路与洎阳南路交叉口西北方向382米左右",
        "tel": "",
        "category": "基础设施:公共设施:公共厕所",
        "type": 0,
        "location": {
            "lat": 28.919917,
            "lng": 117.121741
        },
        "ad_info": {
            "adcode": 360281,
            "province": "江西省",
            "city": "景德镇市",
            "district": "乐平市"
        }
    },
    {
        "id": "16049964024652790955",
        "title": "公共厕所",
        "address": "江西省景德镇市乐平市洎阳中路与珠海东路交叉口西南方向79米左右",
        "tel": "",
        "category": "基础设施:公共设施:公共厕所",
        "type": 0,
        "location": {
            "lat": 28.968715,
            "lng": 117.130306
        },
        "ad_info": {
            "adcode": 360281,
            "province": "江西省",
            "city": "景德镇市",
            "district": "乐平市"
        }
    },
    {
        "id": "6974504750109717590",
        "title": "天湖公园公共厕所",
        "address": "江西省景德镇市乐平市凤凰大道与洎阳北路交叉口东南方向210米左右",
        "tel": "",
        "category": "基础设施:公共设施:公共厕所",
        "type": 0,
        "location": {
            "lat": 28.987159,
            "lng": 117.1394
        },
        "ad_info": {
            "adcode": 360281,
            "province": "江西省",
            "city": "景德镇市",
            "district": "乐平市"
        }
    },
    {
        "id": "11779881055219901361",
        "title": "东湖公园公共厕所",
        "address": "江西省景德镇市乐平市东风南路与湖滨路交叉口西南方向83米左右",
        "tel": "",
        "category": "基础设施:公共设施:公共厕所",
        "type": 0,
        "location": {
            "lat": 28.960042,
            "lng": 117.14478
        },
        "ad_info": {
            "adcode": 360281,
            "province": "江西省",
            "city": "景德镇市",
            "district": "乐平市"
        }
    },
    {
        "id": "12736311790975839203",
        "title": "公共厕所",
        "address": "江西省景德镇市乐平市杨柳巷与珠海东路交叉口西南方向34米左右",
        "tel": "",
        "category": "基础设施:公共设施:公共厕所",
        "type": 0,
        "location": {
            "lat": 28.969128,
            "lng": 117.133483
        },
        "ad_info": {
            "adcode": 360281,
            "province": "江西省",
            "city": "景德镇市",
            "district": "乐平市"
        }
    },
    {
        "id": "8218654365449207434",
        "title": "无障碍公共厕所",
        "address": "江西省景德镇市乐平市联盟路与闽籍巷交叉口西南方向14米左右",
        "tel": "",
        "category": "基础设施:公共设施:公共厕所",
        "type": 0,
        "location": {
            "lat": 28.970526,
            "lng": 117.129572
        },
        "ad_info": {
            "adcode": 360281,
            "province": "江西省",
            "city": "景德镇市",
            "district": "乐平市"
        }
    },
    {
        "id": "7988227319958755409",
        "title": "公共厕所",
        "address": "江西省景德镇市乐平市人民西路与联盟路交叉口正东方向111米左右",
        "tel": "",
        "category": "基础设施:公共设施:公共厕所",
        "type": 0,
        "location": {
            "lat": 28.974041,
            "lng": 117.130981
        },
        "ad_info": {
            "adcode": 360281,
            "province": "江西省",
            "city": "景德镇市",
            "district": "乐平市"
        }
    },
    {
        "id": "16611073994649669100",
        "title": "洗手间",
        "address": "江西省景德镇市珠山区广场南路160号金鼎商业广场F3",
        "tel": "",
        "category": "基础设施:公共设施:女洗手间",
        "type": 0,
        "location": {
            "lat": 29.290551,
            "lng": 117.216714
        },
        "ad_info": {
            "adcode": 360203,
            "province": "江西省",
            "city": "景德镇市",
            "district": "珠山区"
        }
    },
    {
        "id": "6671212829430850317",
        "title": "女洗手间(华达百货)",
        "address": "江西省景德镇市珠山区广场南路160号金鼎商业广场F2",
        "tel": "",
        "category": "基础设施:公共设施:女洗手间",
        "type": 0,
        "location": {
            "lat": 29.289299,
            "lng": 117.21701
        },
        "ad_info": {
            "adcode": 360203,
            "province": "江西省",
            "city": "景德镇市",
            "district": "珠山区"
        }
    },
    {
        "id": "7248030188287492006",
        "title": "男洗手间",
        "address": "江西省景德镇市珠山区广场南路160号金鼎商业广场F2",
        "tel": "",
        "category": "基础设施:公共设施:男洗手间",
        "type": 0,
        "location": {
            "lat": 29.289338,
            "lng": 117.21701
        },
        "ad_info": {
            "adcode": 360203,
            "province": "江西省",
            "city": "景德镇市",
            "district": "珠山区"
        }
    },
    {
        "id": "5755298711061993929",
        "title": "女洗手间",
        "address": "江西省景德镇市珠山区广场南路160号金鼎商业广场F4",
        "tel": "",
        "category": "基础设施:公共设施:女洗手间",
        "type": 0,
        "location": {
            "lat": 29.290552,
            "lng": 117.216714
        },
        "ad_info": {
            "adcode": 360203,
            "province": "江西省",
            "city": "景德镇市",
            "district": "珠山区"
        }
    },
    {
        "id": "12204081569980622830",
        "title": "公共厕所",
        "address": "江西省景德镇市昌江区南京东路与昌江大道交叉口西南方向101米左右",
        "tel": "",
        "category": "基础设施:公共设施:公共厕所",
        "type": 0,
        "location": {
            "lat": 29.30515,
            "lng": 117.194749
        },
        "ad_info": {
            "adcode": 360202,
            "province": "江西省",
            "city": "景德镇市",
            "district": "昌江区"
        }
    },
    {
        "id": "8906461169778912909",
        "title": "公共厕所",
        "address": "江西省景德镇市乐平市戴村健走步道",
        "tel": "",
        "category": "基础设施:公共设施:公共厕所",
        "type": 0,
        "location": {
            "lat": 28.923093,
            "lng": 117.481766
        },
        "ad_info": {
            "adcode": 360281,
            "province": "江西省",
            "city": "景德镇市",
            "district": "乐平市"
        }
    },
    {
        "id": "8843395578018002313",
        "title": "罗家滩停车区公共厕所",
        "address": "江西省景德镇市浮梁县G351与S410交叉口正西方向517米左右",
        "tel": "",
        "category": "基础设施:公共设施:公共厕所",
        "type": 0,
        "location": {
            "lat": 29.340256,
            "lng": 117.105092
        },
        "ad_info": {
            "adcode": 360222,
            "province": "江西省",
            "city": "景德镇市",
            "district": "浮梁县"
        }
    },
    {
        "id": "17318451702487679960",
        "title": "公共厕所",
        "address": "江西省景德镇市乐平市高岩钙业有限公司东南侧120米",
        "tel": "",
        "category": "基础设施:公共设施:公共厕所",
        "type": 0,
        "location": {
            "lat": 28.990266,
            "lng": 117.342184
        },
        "ad_info": {
            "adcode": 360281,
            "province": "江西省",
            "city": "景德镇市",
            "district": "乐平市"
        }
    },
    {
        "id": "17605293504276704462",
        "title": "公共厕所",
        "address": "江西省景德镇市珠山区昌河中路与昌盛路交叉口西北方向62米左右",
        "tel": "",
        "category": "基础设施:公共设施:公共厕所",
        "type": 0,
        "location": {
            "lat": 29.308074,
            "lng": 117.258354
        },
        "ad_info": {
            "adcode": 360203,
            "province": "江西省",
            "city": "景德镇市",
            "district": "珠山区"
        }
    },
    {
        "id": "16917066562842595710",
        "title": "公共厕所",
        "address": "江西省景德镇市珠山区金马昌虹公寓东南侧250米",
        "tel": "",
        "category": "基础设施:公共设施:公共厕所",
        "type": 0,
        "location": {
            "lat": 29.296417,
            "lng": 117.221471
        },
        "ad_info": {
            "adcode": 360203,
            "province": "江西省",
            "city": "景德镇市",
            "district": "珠山区"
        }
    },
    {
        "id": "10932807982188180886",
        "title": "公共厕所",
        "address": "江西省景德镇市珠山区中山南路与戴家上弄交叉口东北方向164米左右",
        "tel": "",
        "category": "基础设施:公共设施:公共厕所",
        "type": 0,
        "location": {
            "lat": 29.287593,
            "lng": 117.209575
        },
        "ad_info": {
            "adcode": 360203,
            "province": "江西省",
            "city": "景德镇市",
            "district": "珠山区"
        }
    },
    {
        "id": "11890988657917734072",
        "title": "公共厕所",
        "address": "江西省景德镇市珠山区太白园路与银曙路交叉口正北方向108米左右",
        "tel": "",
        "category": "基础设施:公共设施:公共厕所",
        "type": 0,
        "location": {
            "lat": 29.278363,
            "lng": 117.213893
        },
        "ad_info": {
            "adcode": 360203,
            "province": "江西省",
            "city": "景德镇市",
            "district": "珠山区"
        }
    },
    {
        "id": "11786418762394858765",
        "title": "公共厕所",
        "address": "江西省景德镇市珠山区广场南路160号金鼎商业广场B1",
        "tel": "",
        "category": "基础设施:公共设施:公共厕所",
        "type": 0,
        "location": {
            "lat": 29.290016,
            "lng": 117.217323
        },
        "ad_info": {
            "adcode": 360203,
            "province": "江西省",
            "city": "景德镇市",
            "district": "珠山区"
        }
    },
    {
        "id": "13399113915608959448",
        "title": "钟家山公共厕所",
        "address": "江西省景德镇市乐平市504乡道东100米",
        "tel": "",
        "category": "基础设施:公共设施:公共厕所",
        "type": 0,
        "location": {
            "lat": 28.945323,
            "lng": 117.229282
        },
        "ad_info": {
            "adcode": 360281,
            "province": "江西省",
            "city": "景德镇市",
            "district": "乐平市"
        }
    },
    {
        "id": "3230075128434045752",
        "title": "公共厕所",
        "address": "江西省景德镇市乐平市春华路59号",
        "tel": "",
        "category": "基础设施:公共设施:公共厕所",
        "type": 0,
        "location": {
            "lat": 28.983948,
            "lng": 117.128508
        },
        "ad_info": {
            "adcode": 360281,
            "province": "江西省",
            "city": "景德镇市",
            "district": "乐平市"
        }
    },
    {
        "id": "10191681808401691695",
        "title": "公共厕所",
        "address": "江西省景德镇市珠山区南路与童街路南交叉口正北方向217米左右",
        "tel": "",
        "category": "基础设施:公共设施:公共厕所",
        "type": 0,
        "location": {
            "lat": 29.294478,
            "lng": 117.234586
        },
        "ad_info": {
            "adcode": 360203,
            "province": "江西省",
            "city": "景德镇市",
            "district": "珠山区"
        }
    },
    {
        "id": "8840907070822091666",
        "title": "男洗手间",
        "address": "江西省景德镇市珠山区广场南路160号金鼎商业广场F3",
        "tel": "",
        "category": "基础设施:公共设施:男洗手间",
        "type": 0,
        "location": {
            "lat": 29.290591,
            "lng": 117.216713
        },
        "ad_info": {
            "adcode": 360203,
            "province": "江西省",
            "city": "景德镇市",
            "district": "珠山区"
        }
    },
    {
        "id": "10812625540293977390",
        "title": "公共厕所",
        "address": "江西省景德镇市珠山区景德镇市牙病防治所(前街)东侧100米",
        "tel": "",
        "category": "基础设施:公共设施:公共厕所",
        "type": 0,
        "location": {
            "lat": 29.292823,
            "lng": 117.207216
        },
        "ad_info": {
            "adcode": 360203,
            "province": "江西省",
            "city": "景德镇市",
            "district": "珠山区"
        }
    },
    {
        "id": "3709688720649543436",
        "title": "公共厕所",
        "address": "江西省景德镇市珠山区方家山路与童宾路交叉口西北方向173米左右",
        "tel": "",
        "category": "基础设施:公共设施:公共厕所",
        "type": 0,
        "location": {
            "lat": 29.290242,
            "lng": 117.23239
        },
        "ad_info": {
            "adcode": 360203,
            "province": "江西省",
            "city": "景德镇市",
            "district": "珠山区"
        }
    },
    {
        "id": "5191601461006831952",
        "title": "公共厕所",
        "address": "江西省景德镇市珠山区广场南路160号金鼎商业广场B1",
        "tel": "",
        "category": "基础设施:公共设施:公共厕所",
        "type": 0,
        "location": {
            "lat": 29.289966,
            "lng": 117.217323
        },
        "ad_info": {
            "adcode": 360203,
            "province": "江西省",
            "city": "景德镇市",
            "district": "珠山区"
        }
    },
    {
        "id": "18248886830246178557",
        "title": "公共厕所",
        "address": "江西省景德镇市昌江区新都大道与经三路交叉口正北方向125米左右",
        "tel": "",
        "category": "基础设施:公共设施:公共厕所",
        "type": 0,
        "location": {
            "lat": 29.271395,
            "lng": 117.169949
        },
        "ad_info": {
            "adcode": 360202,
            "province": "江西省",
            "city": "景德镇市",
            "district": "昌江区"
        }
    },
    {
        "id": "17350495009555231250",
        "title": "公共厕所",
        "address": "江西省景德镇市昌江区斗姆宫西侧180米",
        "tel": "",
        "category": "基础设施:公共设施:公共厕所",
        "type": 0,
        "location": {
            "lat": 29.300391,
            "lng": 117.189385
        },
        "ad_info": {
            "adcode": 360202,
            "province": "江西省",
            "city": "景德镇市",
            "district": "昌江区"
        }
    },
    {
        "id": "524821173871102731",
        "title": "公共厕所",
        "address": "江西省景德镇市昌江区珠山大道与瓷都大道交叉口西北方向125米左右",
        "tel": "",
        "category": "基础设施:公共设施:公共厕所",
        "type": 0,
        "location": {
            "lat": 29.291974,
            "lng": 117.193941
        },
        "ad_info": {
            "adcode": 360202,
            "province": "江西省",
            "city": "景德镇市",
            "district": "昌江区"
        }
    },
    {
        "id": "16271561186017451328",
        "title": "男洗手间",
        "address": "江西省景德镇市珠山区广场南路160号金鼎商业广场F4",
        "tel": "",
        "category": "基础设施:公共设施:男洗手间",
        "type": 0,
        "location": {
            "lat": 29.290592,
            "lng": 117.216713
        },
        "ad_info": {
            "adcode": 360203,
            "province": "江西省",
            "city": "景德镇市",
            "district": "珠山区"
        }
    },
    {
        "id": "11447824726717981592",
        "title": "公共厕所",
        "address": "江西省景德镇市乐平市友谊北路与友谊南路交叉口正南方向15米左右",
        "tel": "",
        "category": "基础设施:公共设施:公共厕所",
        "type": 0,
        "location": {
            "lat": 28.978084,
            "lng": 117.131415
        },
        "ad_info": {
            "adcode": 360281,
            "province": "江西省",
            "city": "景德镇市",
            "district": "乐平市"
        }
    },
    {
        "id": "7028789458118937885",
        "title": "公共厕所",
        "address": "江西省景德镇市浮梁县朝阳东大道与茶韵巷交叉口西北方向25米左右",
        "tel": "",
        "category": "基础设施:公共设施:公共厕所",
        "type": 0,
        "location": {
            "lat": 29.351945,
            "lng": 117.217376
        },
        "ad_info": {
            "adcode": 360222,
            "province": "江西省",
            "city": "景德镇市",
            "district": "浮梁县"
        }
    },
    {
        "id": "1568149589425978041",
        "title": "公共厕所",
        "address": "江西省景德镇市乐平市乐平大道与杨树路交叉口正南方向286米左右",
        "tel": "",
        "category": "基础设施:公共设施:公共厕所",
        "type": 0,
        "location": {
            "lat": 28.95535,
            "lng": 117.145059
        },
        "ad_info": {
            "adcode": 360281,
            "province": "江西省",
            "city": "景德镇市",
            "district": "乐平市"
        }
    },
    {
        "id": "10268130559903672232",
        "title": "公共厕所",
        "address": "江西省景德镇市浮梁县S505与兴田街交叉口西北方向708米左右",
        "tel": "",
        "category": "基础设施:公共设施:公共厕所",
        "type": 0,
        "location": {
            "lat": 29.655091,
            "lng": 117.451537
        },
        "ad_info": {
            "adcode": 360222,
            "province": "江西省",
            "city": "景德镇市",
            "district": "浮梁县"
        }
    },
    {
        "id": "8359047521716554648",
        "title": "公共厕所",
        "address": "江西省景德镇市乐平市乐平互通立交与杭长高速交叉口正北方向1291米左右",
        "tel": "",
        "category": "基础设施:公共设施:公共厕所",
        "type": 0,
        "location": {
            "lat": 28.881401,
            "lng": 117.257226
        },
        "ad_info": {
            "adcode": 360281,
            "province": "江西省",
            "city": "景德镇市",
            "district": "乐平市"
        }
    },
    {
        "id": "14392928600562812963",
        "title": "公共厕所",
        "address": "江西省景德镇市乐平市莲花路与长寿路交叉口正西方向116米左右",
        "tel": "",
        "category": "基础设施:公共设施:公共厕所",
        "type": 0,
        "location": {
            "lat": 28.967926,
            "lng": 117.125417
        },
        "ad_info": {
            "adcode": 360281,
            "province": "江西省",
            "city": "景德镇市",
            "district": "乐平市"
        }
    },
    {
        "id": "5639181752357337268",
        "title": "公共厕所",
        "address": "江西省景德镇市乐平市民电路瑞启花园",
        "tel": "",
        "category": "基础设施:公共设施:公共厕所",
        "type": 0,
        "location": {
            "lat": 28.978871,
            "lng": 117.139386
        },
        "ad_info": {
            "adcode": 360281,
            "province": "江西省",
            "city": "景德镇市",
            "district": "乐平市"
        }
    },
    {
        "id": "16847413553938122033",
        "title": "公共厕所",
        "address": "江西省景德镇市乐平市富民路与建设路交叉口西北方向76米左右",
        "tel": "",
        "category": "基础设施:公共设施:公共厕所",
        "type": 0,
        "location": {
            "lat": 28.841753,
            "lng": 117.302215
        },
        "ad_info": {
            "adcode": 360281,
            "province": "江西省",
            "city": "景德镇市",
            "district": "乐平市"
        }
    },
    {
        "id": "13162541652482472337",
        "title": "公共厕所",
        "address": "江西省景德镇市浮梁县红旗峰生态旅游景区",
        "tel": "",
        "category": "基础设施:公共设施:公共厕所",
        "type": 0,
        "location": {
            "lat": 29.722535,
            "lng": 117.235655
        },
        "ad_info": {
            "adcode": 360222,
            "province": "江西省",
            "city": "景德镇市",
            "district": "浮梁县"
        }
    },
    {
        "id": "5786274919369022875",
        "title": "公共厕所",
        "address": "江西省景德镇市珠山区中山北路与新安路交叉口正南方向186米左右",
        "tel": "",
        "category": "基础设施:公共设施:公共厕所",
        "type": 0,
        "location": {
            "lat": 29.313038,
            "lng": 117.200824
        },
        "ad_info": {
            "adcode": 360203,
            "province": "江西省",
            "city": "景德镇市",
            "district": "珠山区"
        }
    },
    {
        "id": "13260830623380489619",
        "title": "公共厕所",
        "address": "江西省景德镇市珠山区洋湖小学东南侧140米",
        "tel": "",
        "category": "基础设施:公共设施:公共厕所",
        "type": 0,
        "location": {
            "lat": 29.340796,
            "lng": 117.229054
        },
        "ad_info": {
            "adcode": 360203,
            "province": "江西省",
            "city": "景德镇市",
            "district": "珠山区"
        }
    },
    {
        "id": "12504715539529255277",
        "title": "公共厕所",
        "address": "江西省景德镇市乐平市人民西路与联盟路交叉口正东方向100米左右",
        "tel": "",
        "category": "基础设施:公共设施:公共厕所",
        "type": 0,
        "location": {
            "lat": 28.973623,
            "lng": 117.130953
        },
        "ad_info": {
            "adcode": 360281,
            "province": "江西省",
            "city": "景德镇市",
            "district": "乐平市"
        }
    },
    {
        "id": "8712403338009896235",
        "title": "金鼎商业广场-男洗手间",
        "address": "江西省景德镇市珠山区广场南路106号金鼎商业广场F3",
        "tel": "",
        "category": "基础设施:公共设施:公共厕所",
        "type": 0,
        "location": {
            "lat": 29.289509,
            "lng": 117.216684
        },
        "ad_info": {
            "adcode": 360203,
            "province": "江西省",
            "city": "景德镇市",
            "district": "珠山区"
        }
    },
    {
        "id": "6573758251520835410",
        "title": "浮梁服务区公共厕所",
        "address": "江西省景德镇市浮梁县G351与双凤桥交叉口东南方向1523米左右",
        "tel": "",
        "category": "基础设施:公共设施:公共厕所",
        "type": 0,
        "location": {
            "lat": 29.30689,
            "lng": 117.354723
        },
        "ad_info": {
            "adcode": 360222,
            "province": "江西省",
            "city": "景德镇市",
            "district": "浮梁县"
        }
    },
    {
        "id": "10414324514550534915",
        "title": "公共厕所",
        "address": "江西省景德镇市昌江区昌南大道156号",
        "tel": "",
        "category": "基础设施:公共设施:公共厕所",
        "type": 0,
        "location": {
            "lat": 29.290786,
            "lng": 117.181811
        },
        "ad_info": {
            "adcode": 360202,
            "province": "江西省",
            "city": "景德镇市",
            "district": "昌江区"
        }
    },
    {
        "id": "6219429614124612752",
        "title": "公共厕所",
        "address": "江西省景德镇市珠山区平安街与滨江东路交叉口东南方向419米左右",
        "tel": "",
        "category": "基础设施:公共设施:公共厕所",
        "type": 0,
        "location": {
            "lat": 29.345865,
            "lng": 117.227286
        },
        "ad_info": {
            "adcode": 360203,
            "province": "江西省",
            "city": "景德镇市",
            "district": "珠山区"
        }
    },
    {
        "id": "9599146910672942199",
        "title": "公共厕所",
        "address": "江西省景德镇市乐平市东风南路与观音泉路交叉口正南方向104米左右",
        "tel": "",
        "category": "基础设施:公共设施:公共厕所",
        "type": 0,
        "location": {
            "lat": 28.96475,
            "lng": 117.145361
        },
        "ad_info": {
            "adcode": 360281,
            "province": "江西省",
            "city": "景德镇市",
            "district": "乐平市"
        }
    },
    {
        "id": "16886833214044771682",
        "title": "史子园旅游公共厕所",
        "address": "江西省景德镇市浮梁县庄湾街与庄线交叉口东南方向1768米左右",
        "tel": "",
        "category": "基础设施:公共设施:公共厕所",
        "type": 0,
        "location": {
            "lat": 29.46095,
            "lng": 117.418624
        },
        "ad_info": {
            "adcode": 360222,
            "province": "江西省",
            "city": "景德镇市",
            "district": "浮梁县"
        }
    },
    {
        "id": "16293550009365370171",
        "title": "公共厕所",
        "address": "江西省景德镇市昌江区东街与南街交叉口正西方向188米左右",
        "tel": "",
        "category": "基础设施:公共设施:公共厕所",
        "type": 0,
        "location": {
            "lat": 29.267529,
            "lng": 117.180064
        },
        "ad_info": {
            "adcode": 360202,
            "province": "江西省",
            "city": "景德镇市",
            "district": "昌江区"
        }
    },
    {
        "id": "6840706117938848362",
        "title": "无障碍公共厕所",
        "address": "江西省景德镇市乐平市春华路与泰山路交叉口西北方向521米左右",
        "tel": "",
        "category": "基础设施:公共设施:公共厕所",
        "type": 0,
        "location": {
            "lat": 28.98711,
            "lng": 117.131738
        },
        "ad_info": {
            "adcode": 360281,
            "province": "江西省",
            "city": "景德镇市",
            "district": "乐平市"
        }
    },
    {
        "id": "9701276446053642590",
        "title": "公共厕所",
        "address": "江西省景德镇市昌江区红星瓷厂宿舍北侧50米",
        "tel": "",
        "category": "基础设施:公共设施:公共厕所",
        "type": 0,
        "location": {
            "lat": 29.273131,
            "lng": 117.198939
        },
        "ad_info": {
            "adcode": 360202,
            "province": "江西省",
            "city": "景德镇市",
            "district": "昌江区"
        }
    },
    {
        "id": "11702739176667451833",
        "title": "公共厕所",
        "address": "江西省景德镇市珠山区斗富弄与沿江东路交叉口正南方向143米左右",
        "tel": "",
        "category": "基础设施:公共设施:公共厕所",
        "type": 0,
        "location": {
            "lat": 29.294985,
            "lng": 117.202517
        },
        "ad_info": {
            "adcode": 360203,
            "province": "江西省",
            "city": "景德镇市",
            "district": "珠山区"
        }
    },
    {
        "id": "17107211552294458466",
        "title": "公共厕所",
        "address": "江西省景德镇市珠山区中山南路与戴家上弄交叉口正北方向140米左右",
        "tel": "",
        "category": "基础设施:公共设施:公共厕所",
        "type": 0,
        "location": {
            "lat": 29.288115,
            "lng": 117.208193
        },
        "ad_info": {
            "adcode": 360203,
            "province": "江西省",
            "city": "景德镇市",
            "district": "珠山区"
        }
    },
    {
        "id": "11848661256209391912",
        "title": "公共厕所",
        "address": "江西省景德镇市乐平市珠海中路与联盟路交叉口西北方向62米左右",
        "tel": "",
        "category": "基础设施:公共设施:公共厕所",
        "type": 0,
        "location": {
            "lat": 28.969638,
            "lng": 117.128963
        },
        "ad_info": {
            "adcode": 360281,
            "province": "江西省",
            "city": "景德镇市",
            "district": "乐平市"
        }
    },
    {
        "id": "15488947995438041424",
        "title": "景德镇天鹅湖大酒店洗手间",
        "address": "江西省景德镇市昌江区瓷都大道219号",
        "tel": "",
        "category": "基础设施:公共设施:公共厕所",
        "type": 0,
        "location": {
            "lat": 29.263264,
            "lng": 117.17349
        },
        "ad_info": {
            "adcode": 360202,
            "province": "江西省",
            "city": "景德镇市",
            "district": "昌江区"
        }
    },
    {
        "id": "15904743983735074161",
        "title": "公共厕所",
        "address": "江西省景德镇市乐平市519乡道附近",
        "tel": "",
        "category": "基础设施:公共设施:公共厕所",
        "type": 0,
        "location": {
            "lat": 28.995353,
            "lng": 117.227525
        },
        "ad_info": {
            "adcode": 360281,
            "province": "江西省",
            "city": "景德镇市",
            "district": "乐平市"
        }
    },
    {
        "id": "296436589793386802",
        "title": "公共厕所",
        "address": "江西省景德镇市浮梁县Y028与景福东大道交叉口正北方向1616米左右",
        "tel": "",
        "category": "基础设施:公共设施:公共厕所",
        "type": 0,
        "location": {
            "lat": 29.417964,
            "lng": 117.238601
        },
        "ad_info": {
            "adcode": 360222,
            "province": "江西省",
            "city": "景德镇市",
            "district": "浮梁县"
        }
    },
    {
        "id": "9316763236995795402",
        "title": "公共厕所",
        "address": "江西省景德镇市浮梁县金竹路与鹅湖大道交叉口正西方向671米左右",
        "tel": "",
        "category": "基础设施:公共设施:公共厕所",
        "type": 0,
        "location": {
            "lat": 29.475922,
            "lng": 117.447484
        },
        "ad_info": {
            "adcode": 360222,
            "province": "江西省",
            "city": "景德镇市",
            "district": "浮梁县"
        }
    },
    {
        "id": "13909566698704757039",
        "title": "公共厕所",
        "address": "江西省景德镇市乐平市G206与大连路交叉口正北方向97米左右",
        "tel": "",
        "category": "基础设施:公共设施:公共厕所",
        "type": 0,
        "location": {
            "lat": 28.995111,
            "lng": 117.1389
        },
        "ad_info": {
            "adcode": 360281,
            "province": "江西省",
            "city": "景德镇市",
            "district": "乐平市"
        }
    },
    {
        "id": "16145760810531348891",
        "title": "公共厕所",
        "address": "江西省景德镇市昌江区戴家下弄与沿江东路交叉口正西方向249米左右",
        "tel": "",
        "category": "基础设施:公共设施:公共厕所",
        "type": 0,
        "location": {
            "lat": 29.285414,
            "lng": 117.202906
        },
        "ad_info": {
            "adcode": 360202,
            "province": "江西省",
            "city": "景德镇市",
            "district": "昌江区"
        }
    },
    {
        "id": "13530332629324887155",
        "title": "公共厕所",
        "address": "江西省景德镇市乐平市205省道与109县道交叉口西南500米",
        "tel": "",
        "category": "基础设施:公共设施:公共厕所",
        "type": 0,
        "location": {
            "lat": 29.077495,
            "lng": 117.180847
        },
        "ad_info": {
            "adcode": 360281,
            "province": "江西省",
            "city": "景德镇市",
            "district": "乐平市"
        }
    },
    {
        "id": "17068562159094910592",
        "title": "移动无障碍公共厕所",
        "address": "江西省景德镇市珠山区沿江东路与珠山大道交叉口正南方向102米左右",
        "tel": "",
        "category": "基础设施:公共设施:公共厕所",
        "type": 0,
        "location": {
            "lat": 29.291476,
            "lng": 117.202968
        },
        "ad_info": {
            "adcode": 360203,
            "province": "江西省",
            "city": "景德镇市",
            "district": "珠山区"
        }
    },
    {
        "id": "14079249268149331379",
        "title": "公共厕所",
        "address": "江西省景德镇市乐平市S306与X110交叉口西北方向62米左右",
        "tel": "",
        "category": "基础设施:公共设施:公共厕所",
        "type": 0,
        "location": {
            "lat": 28.992462,
            "lng": 117.44745
        },
        "ad_info": {
            "adcode": 360281,
            "province": "江西省",
            "city": "景德镇市",
            "district": "乐平市"
        }
    },
    {
        "id": "18158696809985630683",
        "title": "公共厕所",
        "address": "江西省景德镇市昌江区梧桐大道与瓷都大道交叉口正南方向226米左右",
        "tel": "",
        "category": "基础设施:公共设施:公共厕所",
        "type": 0,
        "location": {
            "lat": 29.255105,
            "lng": 117.164621
        },
        "ad_info": {
            "adcode": 360202,
            "province": "江西省",
            "city": "景德镇市",
            "district": "昌江区"
        }
    },
    {
        "id": "2461377285605487707",
        "title": "公共厕所",
        "address": "江西省景德镇市昌江区瓷都大道1097号",
        "tel": "",
        "category": "基础设施:公共设施:公共厕所",
        "type": 0,
        "location": {
            "lat": 29.282536,
            "lng": 117.19206
        },
        "ad_info": {
            "adcode": 360202,
            "province": "江西省",
            "city": "景德镇市",
            "district": "昌江区"
        }
    },
    {
        "id": "10774869302461581124",
        "title": "公共厕所",
        "address": "江西省景德镇市珠山区广场北路与群星路交叉口正西方向55米左右",
        "tel": "",
        "category": "基础设施:公共设施:公共厕所",
        "type": 0,
        "location": {
            "lat": 29.299489,
            "lng": 117.217835
        },
        "ad_info": {
            "adcode": 360203,
            "province": "江西省",
            "city": "景德镇市",
            "district": "珠山区"
        }
    },
    {
        "id": "10446887985186146340",
        "title": "公共厕所",
        "address": "江西省景德镇市珠山区中山南路与浙江路交叉口东北方向150米左右",
        "tel": "",
        "category": "基础设施:公共设施:公共厕所",
        "type": 0,
        "location": {
            "lat": 29.286001,
            "lng": 117.209398
        },
        "ad_info": {
            "adcode": 360203,
            "province": "江西省",
            "city": "景德镇市",
            "district": "珠山区"
        }
    },
    {
        "id": "3415910821499565757",
        "title": "公共厕所",
        "address": "江西省景德镇市珠山区珠山大道与群英街交叉口东南方向71米左右",
        "tel": "",
        "category": "基础设施:公共设施:公共厕所",
        "type": 0,
        "location": {
            "lat": 29.293321,
            "lng": 117.212348
        },
        "ad_info": {
            "adcode": 360203,
            "province": "江西省",
            "city": "景德镇市",
            "district": "珠山区"
        }
    },
    {
        "id": "3204959787243200496",
        "title": "公共厕所",
        "address": "江西省景德镇市浮梁县G206与Y015交叉口东南方向217米左右",
        "tel": "",
        "category": "基础设施:公共设施:公共厕所",
        "type": 0,
        "location": {
            "lat": 29.344845,
            "lng": 117.157024
        },
        "ad_info": {
            "adcode": 360222,
            "province": "江西省",
            "city": "景德镇市",
            "district": "浮梁县"
        }
    },
    {
        "id": "8426544971495756371",
        "title": "公共厕所",
        "address": "江西省景德镇市浮梁县唐英大道与规划路交叉口正南方向1234米左右",
        "tel": "",
        "category": "基础设施:公共设施:公共厕所",
        "type": 0,
        "location": {
            "lat": 29.333121,
            "lng": 117.170698
        },
        "ad_info": {
            "adcode": 360222,
            "province": "江西省",
            "city": "景德镇市",
            "district": "浮梁县"
        }
    },
    {
        "id": "4626399188305493431",
        "title": "公共厕所",
        "address": "江西省景德镇市珠山区中山北路与太平巷交叉口正北方向231米左右",
        "tel": "",
        "category": "基础设施:公共设施:公共厕所",
        "type": 0,
        "location": {
            "lat": 29.303687,
            "lng": 117.201366
        },
        "ad_info": {
            "adcode": 360203,
            "province": "江西省",
            "city": "景德镇市",
            "district": "珠山区"
        }
    },
    {
        "id": "6024851639575368433",
        "title": "公共厕所",
        "address": "江西省景德镇市浮梁县唐英大道与安华北路交叉口西南方向105米左右",
        "tel": "",
        "category": "基础设施:公共设施:公共厕所",
        "type": 0,
        "location": {
            "lat": 29.345593,
            "lng": 117.170833
        },
        "ad_info": {
            "adcode": 360222,
            "province": "江西省",
            "city": "景德镇市",
            "district": "浮梁县"
        }
    },
    {
        "id": "5044802006035108582",
        "title": "公共厕所",
        "address": "江西省景德镇市昌江区昌西路与景德大道交叉口东南方向132米左右",
        "tel": "",
        "category": "基础设施:公共设施:公共厕所",
        "type": 0,
        "location": {
            "lat": 29.269005,
            "lng": 117.202281
        },
        "ad_info": {
            "adcode": 360202,
            "province": "江西省",
            "city": "景德镇市",
            "district": "昌江区"
        }
    },
    {
        "id": "11797812717117585870",
        "title": "公共厕所",
        "address": "江西省景德镇市乐平市乐平大道与长寿路交叉口东北方向126米左右",
        "tel": "",
        "category": "基础设施:公共设施:公共厕所",
        "type": 0,
        "location": {
            "lat": 28.960097,
            "lng": 117.141604
        },
        "ad_info": {
            "adcode": 360281,
            "province": "江西省",
            "city": "景德镇市",
            "district": "乐平市"
        }
    },
    {
        "id": "16096959791107083809",
        "title": "公共厕所",
        "address": "江西省景德镇市乐平市X118与Y515交叉口正北方向1155米左右",
        "tel": "",
        "category": "基础设施:公共设施:公共厕所",
        "type": 0,
        "location": {
            "lat": 28.872823,
            "lng": 117.167213
        },
        "ad_info": {
            "adcode": 360281,
            "province": "江西省",
            "city": "景德镇市",
            "district": "乐平市"
        }
    },
    {
        "id": "7943289186322536552",
        "title": "公共厕所",
        "address": "江西省景德镇市昌江区紫薇横一路与紫薇路交叉口正北方向26米左右",
        "tel": "",
        "category": "基础设施:公共设施:公共厕所",
        "type": 0,
        "location": {
            "lat": 29.290113,
            "lng": 117.199431
        },
        "ad_info": {
            "adcode": 360202,
            "province": "江西省",
            "city": "景德镇市",
            "district": "昌江区"
        }
    },
    {
        "id": "5495560048009396150",
        "title": "公共厕所",
        "address": "江西省景德镇市浮梁县206国道东50米",
        "tel": "",
        "category": "基础设施:公共设施:公共厕所",
        "type": 0,
        "location": {
            "lat": 29.468149,
            "lng": 117.19473
        },
        "ad_info": {
            "adcode": 360222,
            "province": "江西省",
            "city": "景德镇市",
            "district": "浮梁县"
        }
    },
    {
        "id": "3615474068230302920",
        "title": "公共厕所",
        "address": "江西省景德镇市浮梁县205省道东50米",
        "tel": "",
        "category": "基础设施:公共设施:公共厕所",
        "type": 0,
        "location": {
            "lat": 29.197004,
            "lng": 117.360749
        },
        "ad_info": {
            "adcode": 360222,
            "province": "江西省",
            "city": "景德镇市",
            "district": "浮梁县"
        }
    },
    {
        "id": "14106893024629289224",
        "title": "公共厕所",
        "address": "江西省景德镇市珠山区景北大道与望津路交叉口正西方向952米左右",
        "tel": "",
        "category": "基础设施:公共设施:公共厕所",
        "type": 0,
        "location": {
            "lat": 29.324077,
            "lng": 117.204383
        },
        "ad_info": {
            "adcode": 360203,
            "province": "江西省",
            "city": "景德镇市",
            "district": "珠山区"
        }
    },
    {
        "id": "12045266698686935844",
        "title": "公共厕所",
        "address": "江西省景德镇市昌江区沿江西路与紫薇路交叉口正北方向33米左右",
        "tel": "",
        "category": "基础设施:公共设施:公共厕所",
        "type": 0,
        "location": {
            "lat": 29.291159,
            "lng": 117.200729
        },
        "ad_info": {
            "adcode": 360202,
            "province": "江西省",
            "city": "景德镇市",
            "district": "昌江区"
        }
    },
    {
        "id": "7492972518830505133",
        "title": "公共厕所",
        "address": "江西省景德镇市珠山区太白园路与浙江路交叉口正北方向20米左右",
        "tel": "",
        "category": "基础设施:公共设施:公共厕所",
        "type": 0,
        "location": {
            "lat": 29.285545,
            "lng": 117.218301
        },
        "ad_info": {
            "adcode": 360203,
            "province": "江西省",
            "city": "景德镇市",
            "district": "珠山区"
        }
    },
    {
        "id": "15343254194897518839",
        "title": "东方国际酒店-洗手间",
        "address": "江西省景德镇市乐平市乐平大道与杨树路交叉口正北方向88米左右",
        "tel": "",
        "category": "基础设施:公共设施:公共厕所",
        "type": 0,
        "location": {
            "lat": 28.9587,
            "lng": 117.145565
        },
        "ad_info": {
            "adcode": 360281,
            "province": "江西省",
            "city": "景德镇市",
            "district": "乐平市"
        }
    },
    {
        "id": "6413862598232658121",
        "title": "公共厕所",
        "address": "江西省景德镇市浮梁县Y028与景福东大道交叉口西北方向619米左右",
        "tel": "",
        "category": "基础设施:公共设施:公共厕所",
        "type": 0,
        "location": {
            "lat": 29.408369,
            "lng": 117.239384
        },
        "ad_info": {
            "adcode": 360222,
            "province": "江西省",
            "city": "景德镇市",
            "district": "浮梁县"
        }
    },
    {
        "id": "11020818833466792796",
        "title": "公共厕所",
        "address": "江西省景德镇市昌江区石洪路1号",
        "tel": "",
        "category": "基础设施:公共设施:公共厕所",
        "type": 0,
        "location": {
            "lat": 29.306746,
            "lng": 117.168326
        },
        "ad_info": {
            "adcode": 360202,
            "province": "江西省",
            "city": "景德镇市",
            "district": "昌江区"
        }
    },
    {
        "id": "10066308651890085246",
        "title": "公共厕所",
        "address": "江西省景德镇市浮梁县G351与X090交叉口西北方向805米左右",
        "tel": "",
        "category": "基础设施:公共设施:公共厕所",
        "type": 0,
        "location": {
            "lat": 29.290239,
            "lng": 117.37459
        },
        "ad_info": {
            "adcode": 360222,
            "province": "江西省",
            "city": "景德镇市",
            "district": "浮梁县"
        }
    },
    {
        "id": "6517049786300221432",
        "title": "公共厕所",
        "address": "江西省景德镇市珠山区中华北路与胜利路交叉口东南方向107米左右",
        "tel": "",
        "category": "基础设施:公共设施:公共厕所",
        "type": 0,
        "location": {
            "lat": 29.294307,
            "lng": 117.208047
        },
        "ad_info": {
            "adcode": 360203,
            "province": "江西省",
            "city": "景德镇市",
            "district": "珠山区"
        }
    },
    {
        "id": "8798004908953641074",
        "title": "公共厕所",
        "address": "江西省景德镇市珠山区中华南路与红星弄交叉口正西方向17米左右",
        "tel": "",
        "category": "基础设施:公共设施:公共厕所",
        "type": 0,
        "location": {
            "lat": 29.28347,
            "lng": 117.211124
        },
        "ad_info": {
            "adcode": 360203,
            "province": "江西省",
            "city": "景德镇市",
            "district": "珠山区"
        }
    },
    {
        "id": "10252659045337854959",
        "title": "公共厕所",
        "address": "江西省景德镇市珠山区南路与童街路南交叉口正北方向247米左右",
        "tel": "",
        "category": "基础设施:公共设施:公共厕所",
        "type": 0,
        "location": {
            "lat": 29.294667,
            "lng": 117.235543
        },
        "ad_info": {
            "adcode": 360203,
            "province": "江西省",
            "city": "景德镇市",
            "district": "珠山区"
        }
    },
    {
        "id": "11396345548150516426",
        "title": "公共厕所",
        "address": "江西省景德镇市乐平市G206与Y515交叉口东北方向255米左右",
        "tel": "",
        "category": "基础设施:公共设施:公共厕所",
        "type": 0,
        "location": {
            "lat": 28.905602,
            "lng": 117.139931
        },
        "ad_info": {
            "adcode": 360281,
            "province": "江西省",
            "city": "景德镇市",
            "district": "乐平市"
        }
    },
    {
        "id": "1301412557218692777",
        "title": "公共厕所",
        "address": "江西省景德镇市珠山区太白园路与银曙路交叉口东南方向354米左右",
        "tel": "",
        "category": "基础设施:公共设施:公共厕所",
        "type": 0,
        "location": {
            "lat": 29.274601,
            "lng": 117.215732
        },
        "ad_info": {
            "adcode": 360203,
            "province": "江西省",
            "city": "景德镇市",
            "district": "珠山区"
        }
    },
    {
        "id": "10729406462073243441",
        "title": "公共厕所",
        "address": "江西省景德镇市浮梁县庄湾街与庄线交叉口正东方向311米左右",
        "tel": "",
        "category": "基础设施:公共设施:公共厕所",
        "type": 0,
        "location": {
            "lat": 29.469019,
            "lng": 117.4053
        },
        "ad_info": {
            "adcode": 360222,
            "province": "江西省",
            "city": "景德镇市",
            "district": "浮梁县"
        }
    },
    {
        "id": "6024851639575368433",
        "title": "公共厕所",
        "address": "江西省景德镇市浮梁县唐英大道与安华北路交叉口西南方向105米左右",
        "tel": "",
        "category": "基础设施:公共设施:公共厕所",
        "type": 0,
        "location": {
            "lat": 29.345593,
            "lng": 117.170833
        },
        "ad_info": {
            "adcode": 360222,
            "province": "江西省",
            "city": "景德镇市",
            "district": "浮梁县"
        }
    },
    {
        "id": "5044802006035108582",
        "title": "公共厕所",
        "address": "江西省景德镇市昌江区昌西路与景德大道交叉口东南方向132米左右",
        "tel": "",
        "category": "基础设施:公共设施:公共厕所",
        "type": 0,
        "location": {
            "lat": 29.269005,
            "lng": 117.202281
        },
        "ad_info": {
            "adcode": 360202,
            "province": "江西省",
            "city": "景德镇市",
            "district": "昌江区"
        }
    },
    {
        "id": "11797812717117585870",
        "title": "公共厕所",
        "address": "江西省景德镇市乐平市乐平大道与长寿路交叉口东北方向126米左右",
        "tel": "",
        "category": "基础设施:公共设施:公共厕所",
        "type": 0,
        "location": {
            "lat": 28.960097,
            "lng": 117.141604
        },
        "ad_info": {
            "adcode": 360281,
            "province": "江西省",
            "city": "景德镇市",
            "district": "乐平市"
        }
    },
    {
        "id": "16096959791107083809",
        "title": "公共厕所",
        "address": "江西省景德镇市乐平市X118与Y515交叉口正北方向1155米左右",
        "tel": "",
        "category": "基础设施:公共设施:公共厕所",
        "type": 0,
        "location": {
            "lat": 28.872823,
            "lng": 117.167213
        },
        "ad_info": {
            "adcode": 360281,
            "province": "江西省",
            "city": "景德镇市",
            "district": "乐平市"
        }
    },
    {
        "id": "7943289186322536552",
        "title": "公共厕所",
        "address": "江西省景德镇市昌江区紫薇横一路与紫薇路交叉口正北方向26米左右",
        "tel": "",
        "category": "基础设施:公共设施:公共厕所",
        "type": 0,
        "location": {
            "lat": 29.290113,
            "lng": 117.199431
        },
        "ad_info": {
            "adcode": 360202,
            "province": "江西省",
            "city": "景德镇市",
            "district": "昌江区"
        }
    },
    {
        "id": "5495560048009396150",
        "title": "公共厕所",
        "address": "江西省景德镇市浮梁县206国道东50米",
        "tel": "",
        "category": "基础设施:公共设施:公共厕所",
        "type": 0,
        "location": {
            "lat": 29.468149,
            "lng": 117.19473
        },
        "ad_info": {
            "adcode": 360222,
            "province": "江西省",
            "city": "景德镇市",
            "district": "浮梁县"
        }
    },
    {
        "id": "3615474068230302920",
        "title": "公共厕所",
        "address": "江西省景德镇市浮梁县205省道东50米",
        "tel": "",
        "category": "基础设施:公共设施:公共厕所",
        "type": 0,
        "location": {
            "lat": 29.197004,
            "lng": 117.360749
        },
        "ad_info": {
            "adcode": 360222,
            "province": "江西省",
            "city": "景德镇市",
            "district": "浮梁县"
        }
    },
    {
        "id": "14106893024629289224",
        "title": "公共厕所",
        "address": "江西省景德镇市珠山区景北大道与望津路交叉口正西方向952米左右",
        "tel": "",
        "category": "基础设施:公共设施:公共厕所",
        "type": 0,
        "location": {
            "lat": 29.324077,
            "lng": 117.204383
        },
        "ad_info": {
            "adcode": 360203,
            "province": "江西省",
            "city": "景德镇市",
            "district": "珠山区"
        }
    },
    {
        "id": "12045266698686935844",
        "title": "公共厕所",
        "address": "江西省景德镇市昌江区沿江西路与紫薇路交叉口正北方向33米左右",
        "tel": "",
        "category": "基础设施:公共设施:公共厕所",
        "type": 0,
        "location": {
            "lat": 29.291159,
            "lng": 117.200729
        },
        "ad_info": {
            "adcode": 360202,
            "province": "江西省",
            "city": "景德镇市",
            "district": "昌江区"
        }
    },
    {
        "id": "7492972518830505133",
        "title": "公共厕所",
        "address": "江西省景德镇市珠山区太白园路与浙江路交叉口正北方向20米左右",
        "tel": "",
        "category": "基础设施:公共设施:公共厕所",
        "type": 0,
        "location": {
            "lat": 29.285545,
            "lng": 117.218301
        },
        "ad_info": {
            "adcode": 360203,
            "province": "江西省",
            "city": "景德镇市",
            "district": "珠山区"
        }
    },
    {
        "id": "15343254194897518839",
        "title": "东方国际酒店-洗手间",
        "address": "江西省景德镇市乐平市乐平大道与杨树路交叉口正北方向88米左右",
        "tel": "",
        "category": "基础设施:公共设施:公共厕所",
        "type": 0,
        "location": {
            "lat": 28.9587,
            "lng": 117.145565
        },
        "ad_info": {
            "adcode": 360281,
            "province": "江西省",
            "city": "景德镇市",
            "district": "乐平市"
        }
    },
    {
        "id": "6413862598232658121",
        "title": "公共厕所",
        "address": "江西省景德镇市浮梁县Y028与景福东大道交叉口西北方向619米左右",
        "tel": "",
        "category": "基础设施:公共设施:公共厕所",
        "type": 0,
        "location": {
            "lat": 29.408369,
            "lng": 117.239384
        },
        "ad_info": {
            "adcode": 360222,
            "province": "江西省",
            "city": "景德镇市",
            "district": "浮梁县"
        }
    },
    {
        "id": "11020818833466792796",
        "title": "公共厕所",
        "address": "江西省景德镇市昌江区石洪路1号",
        "tel": "",
        "category": "基础设施:公共设施:公共厕所",
        "type": 0,
        "location": {
            "lat": 29.306746,
            "lng": 117.168326
        },
        "ad_info": {
            "adcode": 360202,
            "province": "江西省",
            "city": "景德镇市",
            "district": "昌江区"
        }
    },
    {
        "id": "10066308651890085246",
        "title": "公共厕所",
        "address": "江西省景德镇市浮梁县G351与X090交叉口西北方向805米左右",
        "tel": "",
        "category": "基础设施:公共设施:公共厕所",
        "type": 0,
        "location": {
            "lat": 29.290239,
            "lng": 117.37459
        },
        "ad_info": {
            "adcode": 360222,
            "province": "江西省",
            "city": "景德镇市",
            "district": "浮梁县"
        }
    },
    {
        "id": "6517049786300221432",
        "title": "公共厕所",
        "address": "江西省景德镇市珠山区中华北路与胜利路交叉口东南方向107米左右",
        "tel": "",
        "category": "基础设施:公共设施:公共厕所",
        "type": 0,
        "location": {
            "lat": 29.294307,
            "lng": 117.208047
        },
        "ad_info": {
            "adcode": 360203,
            "province": "江西省",
            "city": "景德镇市",
            "district": "珠山区"
        }
    },
    {
        "id": "8798004908953641074",
        "title": "公共厕所",
        "address": "江西省景德镇市珠山区中华南路与红星弄交叉口正西方向17米左右",
        "tel": "",
        "category": "基础设施:公共设施:公共厕所",
        "type": 0,
        "location": {
            "lat": 29.28347,
            "lng": 117.211124
        },
        "ad_info": {
            "adcode": 360203,
            "province": "江西省",
            "city": "景德镇市",
            "district": "珠山区"
        }
    },
    {
        "id": "10252659045337854959",
        "title": "公共厕所",
        "address": "江西省景德镇市珠山区南路与童街路南交叉口正北方向247米左右",
        "tel": "",
        "category": "基础设施:公共设施:公共厕所",
        "type": 0,
        "location": {
            "lat": 29.294667,
            "lng": 117.235543
        },
        "ad_info": {
            "adcode": 360203,
            "province": "江西省",
            "city": "景德镇市",
            "district": "珠山区"
        }
    },
    {
        "id": "11396345548150516426",
        "title": "公共厕所",
        "address": "江西省景德镇市乐平市G206与Y515交叉口东北方向255米左右",
        "tel": "",
        "category": "基础设施:公共设施:公共厕所",
        "type": 0,
        "location": {
            "lat": 28.905602,
            "lng": 117.139931
        },
        "ad_info": {
            "adcode": 360281,
            "province": "江西省",
            "city": "景德镇市",
            "district": "乐平市"
        }
    },
    {
        "id": "1301412557218692777",
        "title": "公共厕所",
        "address": "江西省景德镇市珠山区太白园路与银曙路交叉口东南方向354米左右",
        "tel": "",
        "category": "基础设施:公共设施:公共厕所",
        "type": 0,
        "location": {
            "lat": 29.274601,
            "lng": 117.215732
        },
        "ad_info": {
            "adcode": 360203,
            "province": "江西省",
            "city": "景德镇市",
            "district": "珠山区"
        }
    },
    {
        "id": "10729406462073243441",
        "title": "公共厕所",
        "address": "江西省景德镇市浮梁县庄湾街与庄线交叉口正东方向311米左右",
        "tel": "",
        "category": "基础设施:公共设施:公共厕所",
        "type": 0,
        "location": {
            "lat": 29.469019,
            "lng": 117.4053
        },
        "ad_info": {
            "adcode": 360222,
            "province": "江西省",
            "city": "景德镇市",
            "district": "浮梁县"
        }
    }
]