[
    {
        "id": "7491416661937265187",
        "title": "公共厕所",
        "address": "山西省朔州市山阴县青年西路与府南路交叉口西南40米",
        "tel": "",
        "category": "基础设施:公共设施:公共厕所",
        "type": 0,
        "location": {
            "lat": 39.522833,
            "lng": 112.81674
        },
        "ad_info": {
            "adcode": 140621,
            "province": "山西省",
            "city": "朔州市",
            "district": "山阴县"
        }
    },
    {
        "id": "17030363273754824122",
        "title": "公共厕所",
        "address": "山西省朔州市右玉县玉林西街与紫玉南路交叉口正东方向506米左右",
        "tel": "",
        "category": "基础设施:公共设施:公共厕所",
        "type": 0,
        "location": {
            "lat": 39.984042,
            "lng": 112.446447
        },
        "ad_info": {
            "adcode": 140623,
            "province": "山西省",
            "city": "朔州市",
            "district": "右玉县"
        }
    },
    {
        "id": "15428940623900016668",
        "title": "公共厕所",
        "address": "山西省朔州市山阴县二广高速与朔广线交叉口东南方向780米左右",
        "tel": "",
        "category": "基础设施:公共设施:公共厕所",
        "type": 0,
        "location": {
            "lat": 39.208345,
            "lng": 112.792345
        },
        "ad_info": {
            "adcode": 140621,
            "province": "山西省",
            "city": "朔州市",
            "district": "山阴县"
        }
    },
    {
        "id": "10756641707891394967",
        "title": "公共厕所",
        "address": "山西省朔州市山阴县北周庄小学东侧180米",
        "tel": "",
        "category": "基础设施:公共设施:公共厕所",
        "type": 0,
        "location": {
            "lat": 39.597699,
            "lng": 112.828165
        },
        "ad_info": {
            "adcode": 140621,
            "province": "山西省",
            "city": "朔州市",
            "district": "山阴县"
        }
    },
    {
        "id": "10349183354056569106",
        "title": "公共厕所",
        "address": "山西省朔州市朔城区文远路160号",
        "tel": "",
        "category": "基础设施:公共设施:公共厕所",
        "type": 0,
        "location": {
            "lat": 39.355114,
            "lng": 112.458826
        },
        "ad_info": {
            "adcode": 140602,
            "province": "山西省",
            "city": "朔州市",
            "district": "朔城区"
        }
    },
    {
        "id": "17345204650912743788",
        "title": "公共厕所",
        "address": "山西省朔州市平鲁区兴林路与滨河西街交叉口东北方向225米左右",
        "tel": "",
        "category": "基础设施:公共设施:公共厕所",
        "type": 0,
        "location": {
            "lat": 39.521168,
            "lng": 112.284958
        },
        "ad_info": {
            "adcode": 140603,
            "province": "山西省",
            "city": "朔州市",
            "district": "平鲁区"
        }
    },
    {
        "id": "13904743915983115799",
        "title": "公共厕所",
        "address": "山西省朔州市山阴县241省道东50米",
        "tel": "",
        "category": "基础设施:公共设施:公共厕所",
        "type": 0,
        "location": {
            "lat": 39.699776,
            "lng": 112.554074
        },
        "ad_info": {
            "adcode": 140621,
            "province": "山西省",
            "city": "朔州市",
            "district": "山阴县"
        }
    },
    {
        "id": "2885313023208857744",
        "title": "公共厕所",
        "address": "山西省朔州市山阴县府南路与洪涛西街交叉口正东方向149米左右",
        "tel": "",
        "category": "基础设施:公共设施:公共厕所",
        "type": 0,
        "location": {
            "lat": 39.526413,
            "lng": 112.818213
        },
        "ad_info": {
            "adcode": 140621,
            "province": "山西省",
            "city": "朔州市",
            "district": "山阴县"
        }
    },
    {
        "id": "8474194474635739061",
        "title": "公共厕所",
        "address": "山西省朔州市山阴县府南路与洪涛西街交叉口正西方向100米左右",
        "tel": "",
        "category": "基础设施:公共设施:公共厕所",
        "type": 0,
        "location": {
            "lat": 39.526271,
            "lng": 112.815461
        },
        "ad_info": {
            "adcode": 140621,
            "province": "山西省",
            "city": "朔州市",
            "district": "山阴县"
        }
    },
    {
        "id": "7624411094133371369",
        "title": "公共厕所",
        "address": "山西省朔州市山阴县府南路与青年街交叉口正北方向98米左右",
        "tel": "",
        "category": "基础设施:公共设施:公共厕所",
        "type": 0,
        "location": {
            "lat": 39.523901,
            "lng": 112.817088
        },
        "ad_info": {
            "adcode": 140621,
            "province": "山西省",
            "city": "朔州市",
            "district": "山阴县"
        }
    },
    {
        "id": "17594305760770243277",
        "title": "公共厕所",
        "address": "山西省朔州市山阴县府南路与青年街交叉口西南方向71米左右",
        "tel": "",
        "category": "基础设施:公共设施:公共厕所",
        "type": 0,
        "location": {
            "lat": 39.522456,
            "lng": 112.816623
        },
        "ad_info": {
            "adcode": 140621,
            "province": "山西省",
            "city": "朔州市",
            "district": "山阴县"
        }
    },
    {
        "id": "15690170166747408056",
        "title": "公共厕所",
        "address": "山西省朔州市山阴县虎山线中国石化加油站旁(卫国小区附近)",
        "tel": "",
        "category": "基础设施:公共设施:公共厕所",
        "type": 0,
        "location": {
            "lat": 39.537669,
            "lng": 112.82441
        },
        "ad_info": {
            "adcode": 140621,
            "province": "山西省",
            "city": "朔州市",
            "district": "山阴县"
        }
    },
    {
        "id": "6586325348741483315",
        "title": "公共厕所",
        "address": "山西省朔州市平鲁区平阳西街与西酸茨居委会一巷交叉口正北方向47米左右",
        "tel": "",
        "category": "基础设施:公共设施:公共厕所",
        "type": 0,
        "location": {
            "lat": 39.509625,
            "lng": 112.27913
        },
        "ad_info": {
            "adcode": 140603,
            "province": "山西省",
            "city": "朔州市",
            "district": "平鲁区"
        }
    },
    {
        "id": "17888601547278247348",
        "title": "公共厕所",
        "address": "山西省朔州市朔城区南垣街与马邑南路交叉口正东方向83米左右",
        "tel": "",
        "category": "基础设施:公共设施:公共厕所",
        "type": 0,
        "location": {
            "lat": 39.308482,
            "lng": 112.423493
        },
        "ad_info": {
            "adcode": 140602,
            "province": "山西省",
            "city": "朔州市",
            "district": "朔城区"
        }
    },
    {
        "id": "12761274592685192602",
        "title": "公共厕所",
        "address": "山西省朔州市右玉县迎宾北路右玉汽车站",
        "tel": "",
        "category": "基础设施:公共设施:公共厕所",
        "type": 0,
        "location": {
            "lat": 39.998164,
            "lng": 112.462841
        },
        "ad_info": {
            "adcode": 140623,
            "province": "山西省",
            "city": "朔州市",
            "district": "右玉县"
        }
    },
    {
        "id": "3708178612011748984",
        "title": "公共厕所",
        "address": "山西省朔州市朔城区东街与县左街交叉口正西方向102米左右",
        "tel": "",
        "category": "基础设施:公共设施:公共厕所",
        "type": 0,
        "location": {
            "lat": 39.314019,
            "lng": 112.430472
        },
        "ad_info": {
            "adcode": 140602,
            "province": "山西省",
            "city": "朔州市",
            "district": "朔城区"
        }
    },
    {
        "id": "17671260513211460864",
        "title": "公共厕所",
        "address": "山西省朔州市山阴县二淅线与二长线交叉口正东方向345米左右",
        "tel": "",
        "category": "基础设施:公共设施:公共厕所",
        "type": 0,
        "location": {
            "lat": 39.395895,
            "lng": 112.798494
        },
        "ad_info": {
            "adcode": 140621,
            "province": "山西省",
            "city": "朔州市",
            "district": "山阴县"
        }
    },
    {
        "id": "6371874473846730781",
        "title": "公共厕所",
        "address": "山西省朔州市朔城区南垣街与开发南路交叉口正南方向98米左右",
        "tel": "",
        "category": "基础设施:公共设施:公共厕所",
        "type": 0,
        "location": {
            "lat": 39.30862,
            "lng": 112.435989
        },
        "ad_info": {
            "adcode": 140602,
            "province": "山西省",
            "city": "朔州市",
            "district": "朔城区"
        }
    },
    {
        "id": "17708486764886471142",
        "title": "公共厕所",
        "address": "山西省朔州市山阴县二淅线与S5512元朔高速入口交叉口北260米",
        "tel": "",
        "category": "基础设施:公共设施:公共厕所",
        "type": 0,
        "location": {
            "lat": 39.321593,
            "lng": 112.787657
        },
        "ad_info": {
            "adcode": 140621,
            "province": "山西省",
            "city": "朔州市",
            "district": "山阴县"
        }
    },
    {
        "id": "15045222625727455552",
        "title": "公共厕所",
        "address": "山西省朔州市右玉县迎宾北路与银河西街交叉口正南方向128米左右",
        "tel": "",
        "category": "基础设施:公共设施:公共厕所",
        "type": 0,
        "location": {
            "lat": 39.991335,
            "lng": 112.4649
        },
        "ad_info": {
            "adcode": 140623,
            "province": "山西省",
            "city": "朔州市",
            "district": "右玉县"
        }
    },
    {
        "id": "12725014633760050088",
        "title": "公共厕所",
        "address": "山西省朔州市山阴县211省道南50米",
        "tel": "",
        "category": "基础设施:公共设施:公共厕所",
        "type": 0,
        "location": {
            "lat": 39.562464,
            "lng": 112.762008
        },
        "ad_info": {
            "adcode": 140621,
            "province": "山西省",
            "city": "朔州市",
            "district": "山阴县"
        }
    },
    {
        "id": "347111115575777556",
        "title": "公共厕所",
        "address": "山西省朔州市山阴县中国石油昆仑能源加气站西南侧70米",
        "tel": "",
        "category": "基础设施:公共设施:公共厕所",
        "type": 0,
        "location": {
            "lat": 39.451719,
            "lng": 112.771919
        },
        "ad_info": {
            "adcode": 140621,
            "province": "山西省",
            "city": "朔州市",
            "district": "山阴县"
        }
    },
    {
        "id": "17411243921426653606",
        "title": "公共厕所",
        "address": "山西省朔州市平鲁区平安西街与敬德路交叉口正西方向67米左右",
        "tel": "",
        "category": "基础设施:公共设施:公共厕所",
        "type": 0,
        "location": {
            "lat": 39.516969,
            "lng": 112.274014
        },
        "ad_info": {
            "adcode": 140603,
            "province": "山西省",
            "city": "朔州市",
            "district": "平鲁区"
        }
    },
    {
        "id": "2877019069771329667",
        "title": "公共厕所",
        "address": "山西省朔州市山阴县古马线与洗朔线交叉口西南方向193米左右",
        "tel": "",
        "category": "基础设施:公共设施:公共厕所",
        "type": 0,
        "location": {
            "lat": 39.442676,
            "lng": 112.933769
        },
        "ad_info": {
            "adcode": 140621,
            "province": "山西省",
            "city": "朔州市",
            "district": "山阴县"
        }
    },
    {
        "id": "6590151343948962398",
        "title": "公共卫生间",
        "address": "山西省朔州市朔城区开发南路与鄯阳东街交叉口西南方向59米左右",
        "tel": "",
        "category": "基础设施:公共设施:公共厕所",
        "type": 0,
        "location": {
            "lat": 39.317549,
            "lng": 112.435081
        },
        "ad_info": {
            "adcode": 140602,
            "province": "山西省",
            "city": "朔州市",
            "district": "朔城区"
        }
    },
    {
        "id": "3715308679596180272",
        "title": "公共厕所",
        "address": "山西省朔州市山阴县Y009与二淅线交叉口东北方向76米左右",
        "tel": "",
        "category": "基础设施:公共设施:公共厕所",
        "type": 0,
        "location": {
            "lat": 39.332924,
            "lng": 112.788272
        },
        "ad_info": {
            "adcode": 140621,
            "province": "山西省",
            "city": "朔州市",
            "district": "山阴县"
        }
    },
    {
        "id": "10243633701046803433",
        "title": "公共厕所",
        "address": "山西省朔州市山阴县二淅线与洗朔线交叉口西北方向68米左右",
        "tel": "",
        "category": "基础设施:公共设施:公共厕所",
        "type": 0,
        "location": {
            "lat": 39.404402,
            "lng": 112.796988
        },
        "ad_info": {
            "adcode": 140621,
            "province": "山西省",
            "city": "朔州市",
            "district": "山阴县"
        }
    },
    {
        "id": "13076353634316454728",
        "title": "公共厕所",
        "address": "山西省朔州市平鲁区兴林路与滨河西街交叉口东北方向202米左右",
        "tel": "",
        "category": "基础设施:公共设施:公共厕所",
        "type": 0,
        "location": {
            "lat": 39.521143,
            "lng": 112.284625
        },
        "ad_info": {
            "adcode": 140603,
            "province": "山西省",
            "city": "朔州市",
            "district": "平鲁区"
        }
    },
    {
        "id": "8178847959770726935",
        "title": "公共厕所",
        "address": "山西省朔州市应县新建东街与新建西街交叉口西南方向83米左右",
        "tel": "",
        "category": "基础设施:公共设施:公共厕所",
        "type": 0,
        "location": {
            "lat": 39.560715,
            "lng": 113.185528
        },
        "ad_info": {
            "adcode": 140622,
            "province": "山西省",
            "city": "朔州市",
            "district": "应县"
        }
    },
    {
        "id": "6404639585993248150",
        "title": "公共厕所",
        "address": "山西省朔州市平鲁区平安西街平鲁三中分校区",
        "tel": "",
        "category": "基础设施:公共设施:公共厕所",
        "type": 0,
        "location": {
            "lat": 39.517532,
            "lng": 112.275822
        },
        "ad_info": {
            "adcode": 140603,
            "province": "山西省",
            "city": "朔州市",
            "district": "平鲁区"
        }
    },
    {
        "id": "10554253218824774489",
        "title": "公共厕所",
        "address": "山西省朔州市平鲁区建设北路与思学街交叉口西北方向242米左右",
        "tel": "",
        "category": "基础设施:公共设施:公共厕所",
        "type": 0,
        "location": {
            "lat": 39.55277,
            "lng": 112.28756
        },
        "ad_info": {
            "adcode": 140603,
            "province": "山西省",
            "city": "朔州市",
            "district": "平鲁区"
        }
    },
    {
        "id": "2037424244357755120",
        "title": "公共厕所",
        "address": "山西省朔州市应县G336与洗朔线交叉口西南方向1760米左右",
        "tel": "",
        "category": "基础设施:公共设施:公共厕所",
        "type": 0,
        "location": {
            "lat": 39.551723,
            "lng": 113.265234
        },
        "ad_info": {
            "adcode": 140622,
            "province": "山西省",
            "city": "朔州市",
            "district": "应县"
        }
    },
    {
        "id": "18301530148857085217",
        "title": "公共厕所",
        "address": "山西省朔州市平鲁区平阳街与紫河路交叉口正西方向99米左右",
        "tel": "",
        "category": "基础设施:公共设施:公共厕所",
        "type": 0,
        "location": {
            "lat": 39.513672,
            "lng": 112.299785
        },
        "ad_info": {
            "adcode": 140603,
            "province": "山西省",
            "city": "朔州市",
            "district": "平鲁区"
        }
    },
    {
        "id": "5498150318095087503",
        "title": "公共厕所",
        "address": "山西省朔州市平鲁区东应寺路与平阳西街交叉口正西方向82米左右",
        "tel": "",
        "category": "基础设施:公共设施:公共厕所",
        "type": 0,
        "location": {
            "lat": 39.50971,
            "lng": 112.279734
        },
        "ad_info": {
            "adcode": 140603,
            "province": "山西省",
            "city": "朔州市",
            "district": "平鲁区"
        }
    },
    {
        "id": "14661644713006713034",
        "title": "公共厕所",
        "address": "山西省朔州市右玉县宝宁东街与文源北路交叉口正南方向73米左右",
        "tel": "",
        "category": "基础设施:公共设施:公共厕所",
        "type": 0,
        "location": {
            "lat": 39.991102,
            "lng": 112.474065
        },
        "ad_info": {
            "adcode": 140623,
            "province": "山西省",
            "city": "朔州市",
            "district": "右玉县"
        }
    },
    {
        "id": "13566036589443081760",
        "title": "公共厕所",
        "address": "山西省朔州市朔城区鄯阳西街与金沙路交叉口正南方向55米左右",
        "tel": "",
        "category": "基础设施:公共设施:公共厕所",
        "type": 0,
        "location": {
            "lat": 39.319231,
            "lng": 112.391087
        },
        "ad_info": {
            "adcode": 140602,
            "province": "山西省",
            "city": "朔州市",
            "district": "朔城区"
        }
    },
    {
        "id": "7220182691199747937",
        "title": "公共厕所",
        "address": "山西省朔州市朔城区鄯阳街168号",
        "tel": "",
        "category": "基础设施:公共设施:公共厕所",
        "type": 0,
        "location": {
            "lat": 39.318069,
            "lng": 112.42752
        },
        "ad_info": {
            "adcode": 140602,
            "province": "山西省",
            "city": "朔州市",
            "district": "朔城区"
        }
    },
    {
        "id": "12474748168783748444",
        "title": "公共厕所",
        "address": "山西省朔州市平鲁区回平线与建设北路交叉口正西方向143米左右",
        "tel": "",
        "category": "基础设施:公共设施:公共厕所",
        "type": 0,
        "location": {
            "lat": 39.561115,
            "lng": 112.285808
        },
        "ad_info": {
            "adcode": 140603,
            "province": "山西省",
            "city": "朔州市",
            "district": "平鲁区"
        }
    },
    {
        "id": "16733125305007453114",
        "title": "公共厕所",
        "address": "山西省朔州市朔城区鄯阳街与鄯阳西街交叉口西南方向81米左右",
        "tel": "",
        "category": "基础设施:公共设施:公共厕所",
        "type": 0,
        "location": {
            "lat": 39.318527,
            "lng": 112.414604
        },
        "ad_info": {
            "adcode": 140602,
            "province": "山西省",
            "city": "朔州市",
            "district": "朔城区"
        }
    },
    {
        "id": "3184534901238062837",
        "title": "公共厕所",
        "address": "山西省朔州市右玉县宝宁东街与柳影北路交叉口正西方向46米左右",
        "tel": "",
        "category": "基础设施:公共设施:公共厕所",
        "type": 0,
        "location": {
            "lat": 39.990873,
            "lng": 112.468714
        },
        "ad_info": {
            "adcode": 140623,
            "province": "山西省",
            "city": "朔州市",
            "district": "右玉县"
        }
    },
    {
        "id": "8226546597827132741",
        "title": "公共厕所",
        "address": "山西省朔州市平鲁区胜利南路平鲁实验中学",
        "tel": "",
        "category": "基础设施:公共设施:公共厕所",
        "type": 0,
        "location": {
            "lat": 39.514241,
            "lng": 112.291526
        },
        "ad_info": {
            "adcode": 140603,
            "province": "山西省",
            "city": "朔州市",
            "district": "平鲁区"
        }
    },
    {
        "id": "1411938010071420139",
        "title": "公共厕所",
        "address": "山西省朔州市右玉县迎宾南路与长虹东街交叉口正南方向137米左右",
        "tel": "",
        "category": "基础设施:公共设施:公共厕所",
        "type": 0,
        "location": {
            "lat": 39.985239,
            "lng": 112.467729
        },
        "ad_info": {
            "adcode": 140623,
            "province": "山西省",
            "city": "朔州市",
            "district": "右玉县"
        }
    },
    {
        "id": "5832396742017518691",
        "title": "公共卫生间",
        "address": "山西省朔州市平鲁区平阳街与胜利南路交叉口正北方向106米左右",
        "tel": "",
        "category": "基础设施:公共设施:公共厕所",
        "type": 0,
        "location": {
            "lat": 39.512545,
            "lng": 112.290892
        },
        "ad_info": {
            "adcode": 140603,
            "province": "山西省",
            "city": "朔州市",
            "district": "平鲁区"
        }
    },
    {
        "id": "3799193617477258323",
        "title": "公共厕所",
        "address": "山西省朔州市平鲁区G336与Y066交叉口正西方向1682米左右",
        "tel": "",
        "category": "基础设施:公共设施:公共厕所",
        "type": 0,
        "location": {
            "lat": 39.473193,
            "lng": 112.309846
        },
        "ad_info": {
            "adcode": 140603,
            "province": "山西省",
            "city": "朔州市",
            "district": "平鲁区"
        }
    },
    {
        "id": "5337950736811084757",
        "title": "公共厕所",
        "address": "山西省朔州市朔城区市府街与市府西街交叉口正东方向177米左右",
        "tel": "",
        "category": "基础设施:公共设施:公共厕所",
        "type": 0,
        "location": {
            "lat": 39.33087,
            "lng": 112.417068
        },
        "ad_info": {
            "adcode": 140602,
            "province": "山西省",
            "city": "朔州市",
            "district": "朔城区"
        }
    },
    {
        "id": "4150880534494891575",
        "title": "公共厕所",
        "address": "山西省朔州市朔城区东关街与站北路交叉口东北方向48米左右",
        "tel": "",
        "category": "基础设施:公共设施:公共厕所",
        "type": 0,
        "location": {
            "lat": 39.315588,
            "lng": 112.446901
        },
        "ad_info": {
            "adcode": 140602,
            "province": "山西省",
            "city": "朔州市",
            "district": "朔城区"
        }
    },
    {
        "id": "14233553314811016346",
        "title": "公共厕所",
        "address": "山西省朔州市朔城区市府东街与市府街交叉口东南方向160米左右",
        "tel": "",
        "category": "基础设施:公共设施:公共厕所",
        "type": 0,
        "location": {
            "lat": 39.329374,
            "lng": 112.437794
        },
        "ad_info": {
            "adcode": 140602,
            "province": "山西省",
            "city": "朔州市",
            "district": "朔城区"
        }
    },
    {
        "id": "13738539435260347055",
        "title": "公共厕所",
        "address": "山西省朔州市怀仁市大都线与怀安东街交叉口正东方向300米左右",
        "tel": "",
        "category": "基础设施:公共设施:公共厕所",
        "type": 0,
        "location": {
            "lat": 39.818191,
            "lng": 113.180424
        },
        "ad_info": {
            "adcode": 140681,
            "province": "山西省",
            "city": "朔州市",
            "district": "怀仁市"
        }
    },
    {
        "id": "2629121639211931837",
        "title": "公共厕所",
        "address": "山西省朔州市应县塔南路与广和西街交叉口正北方向150米左右",
        "tel": "",
        "category": "基础设施:公共设施:公共厕所",
        "type": 0,
        "location": {
            "lat": 39.559366,
            "lng": 113.189446
        },
        "ad_info": {
            "adcode": 140622,
            "province": "山西省",
            "city": "朔州市",
            "district": "应县"
        }
    },
    {
        "id": "4216957392571925770",
        "title": "公共厕所",
        "address": "山西省朔州市朔城区南环路与开发南路交叉口正东方向1500米左右",
        "tel": "",
        "category": "基础设施:公共设施:公共厕所",
        "type": 0,
        "location": {
            "lat": 39.282886,
            "lng": 112.453484
        },
        "ad_info": {
            "adcode": 140602,
            "province": "山西省",
            "city": "朔州市",
            "district": "朔城区"
        }
    },
    {
        "id": "16746742636091993396",
        "title": "公共厕所",
        "address": "山西省朔州市怀仁市云中镇怀仁第一中学(云东校区)",
        "tel": "",
        "category": "基础设施:公共设施:公共厕所",
        "type": 0,
        "location": {
            "lat": 39.806176,
            "lng": 113.114788
        },
        "ad_info": {
            "adcode": 140681,
            "province": "山西省",
            "city": "朔州市",
            "district": "怀仁市"
        }
    },
    {
        "id": "14319727832793287376",
        "title": "公共厕所",
        "address": "山西省朔州市朔城区开发北路72号",
        "tel": "",
        "category": "基础设施:公共设施:公共厕所",
        "type": 0,
        "location": {
            "lat": 39.364624,
            "lng": 112.435531
        },
        "ad_info": {
            "adcode": 140602,
            "province": "山西省",
            "city": "朔州市",
            "district": "朔城区"
        }
    },
    {
        "id": "13819517136685246905",
        "title": "公共厕所",
        "address": "山西省朔州市右玉县柳影南路与长虹东街交叉口正西方向27米左右",
        "tel": "",
        "category": "基础设施:公共设施:公共厕所",
        "type": 0,
        "location": {
            "lat": 39.987101,
            "lng": 112.470201
        },
        "ad_info": {
            "adcode": 140623,
            "province": "山西省",
            "city": "朔州市",
            "district": "右玉县"
        }
    },
    {
        "id": "2274451285739733537",
        "title": "公共厕所",
        "address": "山西省朔州市平鲁区明珠街与胜利北路交叉口正南方向71米左右",
        "tel": "",
        "category": "基础设施:公共设施:公共厕所",
        "type": 0,
        "location": {
            "lat": 39.529348,
            "lng": 112.285913
        },
        "ad_info": {
            "adcode": 140603,
            "province": "山西省",
            "city": "朔州市",
            "district": "平鲁区"
        }
    },
    {
        "id": "7835055074398364626",
        "title": "公共厕所",
        "address": "山西省朔州市应县东街与学苑路交叉口东北方向638米左右",
        "tel": "",
        "category": "基础设施:公共设施:公共厕所",
        "type": 0,
        "location": {
            "lat": 39.566898,
            "lng": 113.210579
        },
        "ad_info": {
            "adcode": 140622,
            "province": "山西省",
            "city": "朔州市",
            "district": "应县"
        }
    },
    {
        "id": "3664232657303250667",
        "title": "公共厕所",
        "address": "山西省朔州市平鲁区紫河路与花园街交叉口正东方向400米左右",
        "tel": "",
        "category": "基础设施:公共设施:公共厕所",
        "type": 0,
        "location": {
            "lat": 39.509983,
            "lng": 112.30576
        },
        "ad_info": {
            "adcode": 140603,
            "province": "山西省",
            "city": "朔州市",
            "district": "平鲁区"
        }
    },
    {
        "id": "9233813441327381171",
        "title": "公共厕所",
        "address": "山西省朔州市朔城区中宇小区西北侧80米",
        "tel": "",
        "category": "基础设施:公共设施:公共厕所",
        "type": 0,
        "location": {
            "lat": 39.335195,
            "lng": 112.415587
        },
        "ad_info": {
            "adcode": 140602,
            "province": "山西省",
            "city": "朔州市",
            "district": "朔城区"
        }
    },
    {
        "id": "4323926856426314810",
        "title": "公共厕所",
        "address": "山西省朔州市右玉县中国石化北环加油站东南侧200米",
        "tel": "",
        "category": "基础设施:公共设施:公共厕所",
        "type": 0,
        "location": {
            "lat": 40.000516,
            "lng": 112.464517
        },
        "ad_info": {
            "adcode": 140623,
            "province": "山西省",
            "city": "朔州市",
            "district": "右玉县"
        }
    },
    {
        "id": "4246650099988562561",
        "title": "公共厕所",
        "address": "山西省朔州市平鲁区明珠街与胜利北路交叉口正南方向299米左右",
        "tel": "",
        "category": "基础设施:公共设施:公共厕所",
        "type": 0,
        "location": {
            "lat": 39.527307,
            "lng": 112.286732
        },
        "ad_info": {
            "adcode": 140603,
            "province": "山西省",
            "city": "朔州市",
            "district": "平鲁区"
        }
    },
    {
        "id": "17347881236135746816",
        "title": "公共厕所",
        "address": "山西省朔州市应县大石线与洗朔线交叉口正东方向225米左右",
        "tel": "",
        "category": "基础设施:公共设施:公共厕所",
        "type": 0,
        "location": {
            "lat": 39.56251,
            "lng": 113.248381
        },
        "ad_info": {
            "adcode": 140622,
            "province": "山西省",
            "city": "朔州市",
            "district": "应县"
        }
    },
    {
        "id": "15015297630927939904",
        "title": "公共卫生间",
        "address": "山西省朔州市怀仁市大同路43号",
        "tel": "",
        "category": "基础设施:公共设施:公共厕所",
        "type": 0,
        "location": {
            "lat": 39.829948,
            "lng": 113.097635
        },
        "ad_info": {
            "adcode": 140681,
            "province": "山西省",
            "city": "朔州市",
            "district": "怀仁市"
        }
    },
    {
        "id": "2015996315217188876",
        "title": "公共卫生间",
        "address": "山西省朔州市怀仁市花园东巷人民公园(东南角)",
        "tel": "",
        "category": "基础设施:公共设施:公共厕所",
        "type": 0,
        "location": {
            "lat": 39.817358,
            "lng": 113.110383
        },
        "ad_info": {
            "adcode": 140681,
            "province": "山西省",
            "city": "朔州市",
            "district": "怀仁市"
        }
    },
    {
        "id": "2151818900977356409",
        "title": "公共厕所",
        "address": "山西省朔州市朔城区紫荆山旅游路",
        "tel": "",
        "category": "基础设施:公共设施:公共厕所",
        "type": 0,
        "location": {
            "lat": 39.212375,
            "lng": 112.600999
        },
        "ad_info": {
            "adcode": 140602,
            "province": "山西省",
            "city": "朔州市",
            "district": "朔城区"
        }
    },
    {
        "id": "17179894164749445272",
        "title": "公共厕所",
        "address": "山西省朔州市怀仁市仁人北路与怀信西街交叉口正南方向121米左右",
        "tel": "",
        "category": "基础设施:公共设施:公共厕所",
        "type": 0,
        "location": {
            "lat": 39.822738,
            "lng": 113.104288
        },
        "ad_info": {
            "adcode": 140681,
            "province": "山西省",
            "city": "朔州市",
            "district": "怀仁市"
        }
    },
    {
        "id": "6836296895060065984",
        "title": "公共厕所",
        "address": "山西省朔州市应县Y033与洗朔线交叉口西南方向254米左右",
        "tel": "",
        "category": "基础设施:公共设施:公共厕所",
        "type": 0,
        "location": {
            "lat": 39.510951,
            "lng": 113.03628
        },
        "ad_info": {
            "adcode": 140622,
            "province": "山西省",
            "city": "朔州市",
            "district": "应县"
        }
    },
    {
        "id": "3267612241966766381",
        "title": "公共厕所",
        "address": "山西省朔州市朔城区古北街与古北西街交叉口正北方向191米左右",
        "tel": "",
        "category": "基础设施:公共设施:公共厕所",
        "type": 0,
        "location": {
            "lat": 39.327849,
            "lng": 112.414714
        },
        "ad_info": {
            "adcode": 140602,
            "province": "山西省",
            "city": "朔州市",
            "district": "朔城区"
        }
    },
    {
        "id": "14804725344688374988",
        "title": "公共厕所",
        "address": "山西省朔州市应县大石线与洗朔线交叉口西北方向58米左右",
        "tel": "",
        "category": "基础设施:公共设施:公共厕所",
        "type": 0,
        "location": {
            "lat": 39.562856,
            "lng": 113.245149
        },
        "ad_info": {
            "adcode": 140622,
            "province": "山西省",
            "city": "朔州市",
            "district": "应县"
        }
    },
    {
        "id": "16323139281371910554",
        "title": "公共厕所",
        "address": "山西省朔州市朔城区鄯阳街18号",
        "tel": "",
        "category": "基础设施:公共设施:公共厕所",
        "type": 0,
        "location": {
            "lat": 39.31931,
            "lng": 112.418692
        },
        "ad_info": {
            "adcode": 140602,
            "province": "山西省",
            "city": "朔州市",
            "district": "朔城区"
        }
    },
    {
        "id": "11297426465101668405",
        "title": "公共厕所",
        "address": "山西省朔州市朔城区振兴东街与振兴西街交叉口正东方向315米左右",
        "tel": "",
        "category": "基础设施:公共设施:公共厕所",
        "type": 0,
        "location": {
            "lat": 39.372692,
            "lng": 112.557288
        },
        "ad_info": {
            "adcode": 140602,
            "province": "山西省",
            "city": "朔州市",
            "district": "朔城区"
        }
    },
    {
        "id": "12157358103993993584",
        "title": "公共厕所",
        "address": "山西省朔州市朔城区开发北路46号",
        "tel": "",
        "category": "基础设施:公共设施:公共厕所",
        "type": 0,
        "location": {
            "lat": 39.354637,
            "lng": 112.435194
        },
        "ad_info": {
            "adcode": 140602,
            "province": "山西省",
            "city": "朔州市",
            "district": "朔城区"
        }
    },
    {
        "id": "181153200851833423",
        "title": "公共厕所",
        "address": "山西省朔州市朔城区北环路与大忻线交叉口正南方向128米左右",
        "tel": "",
        "category": "基础设施:公共设施:公共厕所",
        "type": 0,
        "location": {
            "lat": 39.380983,
            "lng": 112.531307
        },
        "ad_info": {
            "adcode": 140602,
            "province": "山西省",
            "city": "朔州市",
            "district": "朔城区"
        }
    },
    {
        "id": "1928885264411626934",
        "title": "公共厕所",
        "address": "山西省朔州市朔城区民福街与滨河北街交叉口东南40米",
        "tel": "",
        "category": "基础设施:公共设施:公共厕所",
        "type": 0,
        "location": {
            "lat": 39.342048,
            "lng": 112.428675
        },
        "ad_info": {
            "adcode": 140602,
            "province": "山西省",
            "city": "朔州市",
            "district": "朔城区"
        }
    },
    {
        "id": "1279494047091016594",
        "title": "公共厕所",
        "address": "山西省朔州市应县砂石线与长城1号交叉口东南140米",
        "tel": "",
        "category": "基础设施:公共设施:公共厕所",
        "type": 0,
        "location": {
            "lat": 39.513952,
            "lng": 113.323383
        },
        "ad_info": {
            "adcode": 140622,
            "province": "山西省",
            "city": "朔州市",
            "district": "应县"
        }
    },
    {
        "id": "2976559755166352031",
        "title": "公共厕所",
        "address": "山西省朔州市应县大石线与长征北路交叉口东南方向453米左右",
        "tel": "",
        "category": "基础设施:公共设施:公共厕所",
        "type": 0,
        "location": {
            "lat": 39.583001,
            "lng": 113.171773
        },
        "ad_info": {
            "adcode": 140622,
            "province": "山西省",
            "city": "朔州市",
            "district": "应县"
        }
    },
    {
        "id": "14092587748096835186",
        "title": "公共厕所",
        "address": "山西省朔州市应县205省道西50米",
        "tel": "",
        "category": "基础设施:公共设施:公共厕所",
        "type": 0,
        "location": {
            "lat": 39.489096,
            "lng": 113.336935
        },
        "ad_info": {
            "adcode": 140622,
            "province": "山西省",
            "city": "朔州市",
            "district": "应县"
        }
    },
    {
        "id": "3824526305237997983",
        "title": "公共厕所",
        "address": "山西省朔州市怀仁市北街与大石线交叉口正北方向225米左右",
        "tel": "",
        "category": "基础设施:公共设施:公共厕所",
        "type": 0,
        "location": {
            "lat": 39.882022,
            "lng": 113.046775
        },
        "ad_info": {
            "adcode": 140681,
            "province": "山西省",
            "city": "朔州市",
            "district": "怀仁市"
        }
    },
    {
        "id": "11866813383957245873",
        "title": "公共厕所",
        "address": "山西省朔州市朔城区北环路与大忻线交叉口正西方向1325米左右",
        "tel": "",
        "category": "基础设施:公共设施:公共厕所",
        "type": 0,
        "location": {
            "lat": 39.381332,
            "lng": 112.516314
        },
        "ad_info": {
            "adcode": 140602,
            "province": "山西省",
            "city": "朔州市",
            "district": "朔城区"
        }
    },
    {
        "id": "8452366008962028317",
        "title": "公共厕所",
        "address": "山西省朔州市朔城区大忻线与洗朔线交叉口正南方向102米左右",
        "tel": "",
        "category": "基础设施:公共设施:公共厕所",
        "type": 0,
        "location": {
            "lat": 39.403614,
            "lng": 112.720379
        },
        "ad_info": {
            "adcode": 140602,
            "province": "山西省",
            "city": "朔州市",
            "district": "朔城区"
        }
    },
    {
        "id": "16209972267990304331",
        "title": "公共厕所",
        "address": "山西省朔州市怀仁市S206与磨道河2号桥交叉口正北方向197米左右",
        "tel": "",
        "category": "基础设施:公共设施:公共厕所",
        "type": 0,
        "location": {
            "lat": 39.800252,
            "lng": 113.037127
        },
        "ad_info": {
            "adcode": 140681,
            "province": "山西省",
            "city": "朔州市",
            "district": "怀仁市"
        }
    },
    {
        "id": "10807015981006068229",
        "title": "公共厕所",
        "address": "山西省朔州市怀仁市S206与宋庄1号桥交叉口西南方向30米左右",
        "tel": "",
        "category": "基础设施:公共设施:公共厕所",
        "type": 0,
        "location": {
            "lat": 39.785493,
            "lng": 113.025842
        },
        "ad_info": {
            "adcode": 140681,
            "province": "山西省",
            "city": "朔州市",
            "district": "怀仁市"
        }
    },
    {
        "id": "11818865302054208754",
        "title": "公共厕所",
        "address": "山西省朔州市怀仁市明孝街近邻便民超市东南侧60米",
        "tel": "",
        "category": "基础设施:公共设施:公共厕所",
        "type": 0,
        "location": {
            "lat": 39.837657,
            "lng": 113.112744
        },
        "ad_info": {
            "adcode": 140681,
            "province": "山西省",
            "city": "朔州市",
            "district": "怀仁市"
        }
    },
    {
        "id": "16136928897442361632",
        "title": "公共厕所",
        "address": "山西省朔州市怀仁市清凉寺南侧190米",
        "tel": "",
        "category": "基础设施:公共设施:公共厕所",
        "type": 0,
        "location": {
            "lat": 39.855612,
            "lng": 112.996288
        },
        "ad_info": {
            "adcode": 140681,
            "province": "山西省",
            "city": "朔州市",
            "district": "怀仁市"
        }
    },
    {
        "id": "17323368551728902443",
        "title": "公共厕所",
        "address": "山西省朔州市怀仁市大石线与智慧街交叉口正北方向1034米左右",
        "tel": "",
        "category": "基础设施:公共设施:公共厕所",
        "type": 0,
        "location": {
            "lat": 39.848519,
            "lng": 113.073143
        },
        "ad_info": {
            "adcode": 140681,
            "province": "山西省",
            "city": "朔州市",
            "district": "怀仁市"
        }
    },
    {
        "id": "8240135192886494152",
        "title": "公共厕所",
        "address": "山西省朔州市怀仁市S210与宁应线交叉口正南方向1201米左右",
        "tel": "",
        "category": "基础设施:公共设施:公共厕所",
        "type": 0,
        "location": {
            "lat": 39.797703,
            "lng": 112.860842
        },
        "ad_info": {
            "adcode": 140681,
            "province": "山西省",
            "city": "朔州市",
            "district": "怀仁市"
        }
    },
    {
        "id": "13909662798856903462",
        "title": "无障碍公共厕所",
        "address": "山西省朔州市平鲁区体育路与平阳西街交叉口东北方向49米左右",
        "tel": "",
        "category": "基础设施:公共设施:公共厕所",
        "type": 0,
        "location": {
            "lat": 39.507773,
            "lng": 112.270232
        },
        "ad_info": {
            "adcode": 140603,
            "province": "山西省",
            "city": "朔州市",
            "district": "平鲁区"
        }
    },
    {
        "id": "1991324728478358510",
        "title": "山阴停车区公共厕所",
        "address": "山西省朔州市山阴县山阴停车区西50米",
        "tel": "",
        "category": "基础设施:公共设施:公共厕所",
        "type": 0,
        "location": {
            "lat": 39.563243,
            "lng": 112.893616
        },
        "ad_info": {
            "adcode": 140621,
            "province": "山西省",
            "city": "朔州市",
            "district": "山阴县"
        }
    },
    {
        "id": "6297772174687979513",
        "title": "无障碍公共厕所",
        "address": "山西省朔州市平鲁区建设北路与武昌街交叉口正东方向84米左右",
        "tel": "",
        "category": "基础设施:公共设施:公共厕所",
        "type": 0,
        "location": {
            "lat": 39.526616,
            "lng": 112.296234
        },
        "ad_info": {
            "adcode": 140603,
            "province": "山西省",
            "city": "朔州市",
            "district": "平鲁区"
        }
    },
    {
        "id": "11160909344900757047",
        "title": "山阴服务区公共厕所",
        "address": "山西省朔州市山阴县荣乌高速山阴服务区",
        "tel": "",
        "category": "基础设施:公共设施:公共厕所",
        "type": 0,
        "location": {
            "lat": 39.552744,
            "lng": 112.610059
        },
        "ad_info": {
            "adcode": 140621,
            "province": "山西省",
            "city": "朔州市",
            "district": "山阴县"
        }
    },
    {
        "id": "9776269455595415541",
        "title": "无障碍公共厕所",
        "address": "山西省朔州市朔城区市府街与马邑路交叉口正东方向224米左右",
        "tel": "",
        "category": "基础设施:公共设施:公共厕所",
        "type": 0,
        "location": {
            "lat": 39.329951,
            "lng": 112.424859
        },
        "ad_info": {
            "adcode": 140602,
            "province": "山西省",
            "city": "朔州市",
            "district": "朔城区"
        }
    },
    {
        "id": "10413127803914853300",
        "title": "公共厕所",
        "address": "山西省朔州市朔城区振华东街与文远路交叉口东北方向114米左右",
        "tel": "",
        "category": "基础设施:公共设施:公共厕所",
        "type": 0,
        "location": {
            "lat": 39.349111,
            "lng": 112.459723
        },
        "ad_info": {
            "adcode": 140602,
            "province": "山西省",
            "city": "朔州市",
            "district": "朔城区"
        }
    },
    {
        "id": "6927883424926481045",
        "title": "公共厕所",
        "address": "山西省朔州市怀仁市仁人南路与怀英街交叉口正西方向134米左右",
        "tel": "",
        "category": "基础设施:公共设施:公共厕所",
        "type": 0,
        "location": {
            "lat": 39.80946,
            "lng": 113.100944
        },
        "ad_info": {
            "adcode": 140681,
            "province": "山西省",
            "city": "朔州市",
            "district": "怀仁市"
        }
    },
    {
        "id": "13436045729095383622",
        "title": "公共厕所",
        "address": "山西省朔州市朔城区古北街与古北西街交叉口东南方向71米左右",
        "tel": "",
        "category": "基础设施:公共设施:公共厕所",
        "type": 0,
        "location": {
            "lat": 39.325622,
            "lng": 112.415718
        },
        "ad_info": {
            "adcode": 140602,
            "province": "山西省",
            "city": "朔州市",
            "district": "朔城区"
        }
    },
    {
        "id": "12711244624310796653",
        "title": "公共厕所",
        "address": "山西省朔州市怀仁市仁人北路与怀贤西街交叉口西北方向193米左右",
        "tel": "",
        "category": "基础设施:公共设施:公共厕所",
        "type": 0,
        "location": {
            "lat": 39.828729,
            "lng": 113.102906
        },
        "ad_info": {
            "adcode": 140681,
            "province": "山西省",
            "city": "朔州市",
            "district": "怀仁市"
        }
    },
    {
        "id": "16214972549113172392",
        "title": "公共厕所",
        "address": "山西省朔州市朔城区振华东街与朝阳路交叉口东北方向297米左右",
        "tel": "",
        "category": "基础设施:公共设施:公共厕所",
        "type": 0,
        "location": {
            "lat": 39.35141,
            "lng": 112.44994
        },
        "ad_info": {
            "adcode": 140602,
            "province": "山西省",
            "city": "朔州市",
            "district": "朔城区"
        }
    },
    {
        "id": "4986705705566596342",
        "title": "公共厕所",
        "address": "山西省朔州市朔城区迎宾路东段朔州站站前广场",
        "tel": "",
        "category": "基础设施:公共设施:公共厕所",
        "type": 0,
        "location": {
            "lat": 39.317021,
            "lng": 112.448174
        },
        "ad_info": {
            "adcode": 140602,
            "province": "山西省",
            "city": "朔州市",
            "district": "朔城区"
        }
    },
    {
        "id": "1996236657545086151",
        "title": "公共厕所",
        "address": "山西省朔州市朔城区北新东街与北新街交叉口正东方向179米左右",
        "tel": "",
        "category": "基础设施:公共设施:公共厕所",
        "type": 0,
        "location": {
            "lat": 39.323102,
            "lng": 112.43748
        },
        "ad_info": {
            "adcode": 140602,
            "province": "山西省",
            "city": "朔州市",
            "district": "朔城区"
        }
    },
    {
        "id": "10878794585848441669",
        "title": "向阳堡停车区公共厕所",
        "address": "山西省朔州市平鲁区向阳堡停车区(荣乌高速公路南)",
        "tel": "",
        "category": "基础设施:公共设施:公共厕所",
        "type": 0,
        "location": {
            "lat": 39.614495,
            "lng": 112.388125
        },
        "ad_info": {
            "adcode": 140603,
            "province": "山西省",
            "city": "朔州市",
            "district": "平鲁区"
        }
    },
    {
        "id": "10485937332521572853",
        "title": "二道梁停车区公共厕所",
        "address": "山西省朔州市平鲁区G18荣乌高速与二道梁停车区交叉口东南160米",
        "tel": "",
        "category": "基础设施:公共设施:公共厕所",
        "type": 0,
        "location": {
            "lat": 39.798344,
            "lng": 112.012053
        },
        "ad_info": {
            "adcode": 140603,
            "province": "山西省",
            "city": "朔州市",
            "district": "平鲁区"
        }
    },
    {
        "id": "17514931252659213331",
        "title": "西易商务会馆-洗手间",
        "address": "山西省朔州市朔城区开发南路与古北东街交叉口北220米",
        "tel": "",
        "category": "基础设施:公共设施:公共厕所",
        "type": 0,
        "location": {
            "lat": 39.328071,
            "lng": 112.435157
        },
        "ad_info": {
            "adcode": 140602,
            "province": "山西省",
            "city": "朔州市",
            "district": "朔城区"
        }
    },
    {
        "id": "8196133343482428563",
        "title": "二道梁停车区公共厕所",
        "address": "山西省朔州市平鲁区二道梁停车区北50米",
        "tel": "",
        "category": "基础设施:公共设施:公共厕所",
        "type": 0,
        "location": {
            "lat": 39.798966,
            "lng": 112.013211
        },
        "ad_info": {
            "adcode": 140603,
            "province": "山西省",
            "city": "朔州市",
            "district": "平鲁区"
        }
    },
    {
        "id": "3274775553843786531",
        "title": "康庄服务区第二公共厕所",
        "address": "山西省朔州市山阴县延长壳牌二广高速康庄服务区东区加油站东北侧",
        "tel": "",
        "category": "基础设施:公共设施:公共厕所",
        "type": 0,
        "location": {
            "lat": 39.538168,
            "lng": 112.94298
        },
        "ad_info": {
            "adcode": 140621,
            "province": "山西省",
            "city": "朔州市",
            "district": "山阴县"
        }
    },
    {
        "id": "8269513176401736503",
        "title": "公共厕所",
        "address": "山西省朔州市朔城区平朔路与民福东街交叉口正北方向247米左右",
        "tel": "",
        "category": "基础设施:公共设施:公共厕所",
        "type": 0,
        "location": {
            "lat": 39.343812,
            "lng": 112.442299
        },
        "ad_info": {
            "adcode": 140602,
            "province": "山西省",
            "city": "朔州市",
            "district": "朔城区"
        }
    },
    {
        "id": "12964525568732484114",
        "title": "花卉广场-公共厕所",
        "address": "山西省朔州市朔城区开发南路与市府东街交叉口东北方向100米",
        "tel": "",
        "category": "基础设施:公共设施:公共厕所",
        "type": 0,
        "location": {
            "lat": 39.33088,
            "lng": 112.436819
        },
        "ad_info": {
            "adcode": 140602,
            "province": "山西省",
            "city": "朔州市",
            "district": "朔城区"
        }
    },
    {
        "id": "1413429327954073278",
        "title": "公共厕所",
        "address": "山西省朔州市怀仁市西黄线与G55二广高速出口交叉口西北80米",
        "tel": "",
        "category": "基础设施:公共设施:公共厕所",
        "type": 0,
        "location": {
            "lat": 39.915167,
            "lng": 113.261873
        },
        "ad_info": {
            "adcode": 140681,
            "province": "山西省",
            "city": "朔州市",
            "district": "怀仁市"
        }
    },
    {
        "id": "10801621766511258215",
        "title": "公共厕所",
        "address": "山西省朔州市朔城区振华西街3号",
        "tel": "",
        "category": "基础设施:公共设施:公共厕所",
        "type": 0,
        "location": {
            "lat": 39.348631,
            "lng": 112.431678
        },
        "ad_info": {
            "adcode": 140602,
            "province": "山西省",
            "city": "朔州市",
            "district": "朔城区"
        }
    },
    {
        "id": "859844912342138900",
        "title": "怀仁服务区公共厕所",
        "address": "山西省朔州市怀仁市仁和南路与怀义东街交叉口正南方向963米左右",
        "tel": "",
        "category": "基础设施:公共设施:公共厕所",
        "type": 0,
        "location": {
            "lat": 39.795813,
            "lng": 113.170037
        },
        "ad_info": {
            "adcode": 140681,
            "province": "山西省",
            "city": "朔州市",
            "district": "怀仁市"
        }
    },
    {
        "id": "8153959740793404041",
        "title": "公共厕所",
        "address": "山西省朔州市怀仁市大同路与明文街交叉口西南方向79米左右",
        "tel": "",
        "category": "基础设施:公共设施:公共厕所",
        "type": 0,
        "location": {
            "lat": 39.833066,
            "lng": 113.100601
        },
        "ad_info": {
            "adcode": 140681,
            "province": "山西省",
            "city": "朔州市",
            "district": "怀仁市"
        }
    },
    {
        "id": "15206123352934904499",
        "title": "公共厕所",
        "address": "山西省朔州市朔城区安泰东街与安泰街交叉口西南方向338米左右",
        "tel": "",
        "category": "基础设施:公共设施:公共厕所",
        "type": 0,
        "location": {
            "lat": 39.352601,
            "lng": 112.43483
        },
        "ad_info": {
            "adcode": 140602,
            "province": "山西省",
            "city": "朔州市",
            "district": "朔城区"
        }
    },
    {
        "id": "8017340820181541441",
        "title": "右玉服务区公共厕所",
        "address": "山西省朔州市右玉县呼北高速与孙右高速交叉口西北方向1661米左右",
        "tel": "",
        "category": "基础设施:公共设施:公共厕所",
        "type": 0,
        "location": {
            "lat": 40.091082,
            "lng": 112.386959
        },
        "ad_info": {
            "adcode": 140623,
            "province": "山西省",
            "city": "朔州市",
            "district": "右玉县"
        }
    },
    {
        "id": "12319478821513013318",
        "title": "平鲁服务区公共厕所",
        "address": "山西省朔州市平鲁区S212与平朔线交叉口西北方向1356米左右",
        "tel": "",
        "category": "基础设施:公共设施:公共厕所",
        "type": 0,
        "location": {
            "lat": 39.722355,
            "lng": 112.148548
        },
        "ad_info": {
            "adcode": 140603,
            "province": "山西省",
            "city": "朔州市",
            "district": "平鲁区"
        }
    },
    {
        "id": "5706889003967038169",
        "title": "新官坡服务区公共卫生间",
        "address": "山西省朔州市朔城区新官坡服务区与G59呼北高速交叉口东南360米",
        "tel": "",
        "category": "基础设施:公共设施:公共厕所",
        "type": 0,
        "location": {
            "lat": 39.196923,
            "lng": 112.294068
        },
        "ad_info": {
            "adcode": 140602,
            "province": "山西省",
            "city": "朔州市",
            "district": "朔城区"
        }
    },
    {
        "id": "17264504165005671553",
        "title": "公共厕所",
        "address": "山西省朔州市朔城区安泰街7号正西方向180米",
        "tel": "",
        "category": "基础设施:公共设施:公共厕所",
        "type": 0,
        "location": {
            "lat": 39.354951,
            "lng": 112.430432
        },
        "ad_info": {
            "adcode": 140602,
            "province": "山西省",
            "city": "朔州市",
            "district": "朔城区"
        }
    },
    {
        "id": "13108515239879754239",
        "title": "平鲁服务区第二公共厕所",
        "address": "山西省朔州市平鲁区S212与平朔线交叉口西北方向1503米左右",
        "tel": "",
        "category": "基础设施:公共设施:公共厕所",
        "type": 0,
        "location": {
            "lat": 39.723546,
            "lng": 112.147488
        },
        "ad_info": {
            "adcode": 140603,
            "province": "山西省",
            "city": "朔州市",
            "district": "平鲁区"
        }
    },
    {
        "id": "10256070214492729659",
        "title": "应县服务区公共厕所",
        "address": "山西省朔州市应县应县服务区",
        "tel": "",
        "category": "基础设施:公共设施:公共厕所",
        "type": 0,
        "location": {
            "lat": 39.581457,
            "lng": 113.126308
        },
        "ad_info": {
            "adcode": 140622,
            "province": "山西省",
            "city": "朔州市",
            "district": "应县"
        }
    },
    {
        "id": "9159280983440384692",
        "title": "康庄服务区公共厕所",
        "address": "山西省朔州市山阴县康庄服务区餐厅(二广高速公路东)",
        "tel": "",
        "category": "基础设施:公共设施:公共厕所",
        "type": 0,
        "location": {
            "lat": 39.53782,
            "lng": 112.942366
        },
        "ad_info": {
            "adcode": 140621,
            "province": "山西省",
            "city": "朔州市",
            "district": "山阴县"
        }
    },
    {
        "id": "6644275385428248294",
        "title": "应县服务区公共厕所",
        "address": "山西省朔州市应县荣乌高速应县服务区",
        "tel": "",
        "category": "基础设施:公共设施:公共厕所",
        "type": 0,
        "location": {
            "lat": 39.584386,
            "lng": 113.128434
        },
        "ad_info": {
            "adcode": 140622,
            "province": "山西省",
            "city": "朔州市",
            "district": "应县"
        }
    },
    {
        "id": "12016635297426747858",
        "title": "康庄服务区公共厕所",
        "address": "山西省朔州市山阴县康庄服务区",
        "tel": "",
        "category": "基础设施:公共设施:公共厕所",
        "type": 0,
        "location": {
            "lat": 39.540593,
            "lng": 112.939497
        },
        "ad_info": {
            "adcode": 140621,
            "province": "山西省",
            "city": "朔州市",
            "district": "山阴县"
        }
    },
    {
        "id": "12076658993300653548",
        "title": "朔州服务区公共厕所",
        "address": "山西省朔州市朔城区呼北高速",
        "tel": "",
        "category": "基础设施:公共设施:公共厕所",
        "type": 0,
        "location": {
            "lat": 39.3305,
            "lng": 112.320293
        },
        "ad_info": {
            "adcode": 140602,
            "province": "山西省",
            "city": "朔州市",
            "district": "朔城区"
        }
    },
    {
        "id": "13412501571384041394",
        "title": "怀仁服务区公共厕所",
        "address": "山西省朔州市怀仁市怀礼东街与怀礼街交叉口东北方向1273米左右",
        "tel": "",
        "category": "基础设施:公共设施:公共厕所",
        "type": 0,
        "location": {
            "lat": 39.792717,
            "lng": 113.171563
        },
        "ad_info": {
            "adcode": 140681,
            "province": "山西省",
            "city": "朔州市",
            "district": "怀仁市"
        }
    },
    {
        "id": "7605875575717149532",
        "title": "公共卫生间",
        "address": "山西省朔州市平鲁区滨河西街与胜利北路交叉口正东方向102米左右",
        "tel": "",
        "category": "基础设施:公共设施:公共厕所",
        "type": 0,
        "location": {
            "lat": 39.522099,
            "lng": 112.289459
        },
        "ad_info": {
            "adcode": 140603,
            "province": "山西省",
            "city": "朔州市",
            "district": "平鲁区"
        }
    },
    {
        "id": "1186975319738740255",
        "title": "朔州服务区公共厕所",
        "address": "山西省朔州市朔城区张蔡庄乡朔州绕城高速公路朔州服务区",
        "tel": "",
        "category": "基础设施:公共设施:公共厕所",
        "type": 0,
        "location": {
            "lat": 39.330717,
            "lng": 112.320491
        },
        "ad_info": {
            "adcode": 140602,
            "province": "山西省",
            "city": "朔州市",
            "district": "朔城区"
        }
    },
    {
        "id": "4048935529250016685",
        "title": "公共卫生间",
        "address": "山西省朔州市朔城区平朔路与民福东街交叉口西北方向309米左右",
        "tel": "",
        "category": "基础设施:公共设施:公共厕所",
        "type": 0,
        "location": {
            "lat": 39.34348,
            "lng": 112.43907
        },
        "ad_info": {
            "adcode": 140602,
            "province": "山西省",
            "city": "朔州市",
            "district": "朔城区"
        }
    },
    {
        "id": "832777432995509912",
        "title": "公共厕所",
        "address": "山西省朔州市怀仁市仁里南路与怀礼西街交叉口东南方向169米左右",
        "tel": "",
        "category": "基础设施:公共设施:公共厕所",
        "type": 0,
        "location": {
            "lat": 39.789083,
            "lng": 113.095375
        },
        "ad_info": {
            "adcode": 140681,
            "province": "山西省",
            "city": "朔州市",
            "district": "怀仁市"
        }
    },
    {
        "id": "9972253719435775478",
        "title": "公共厕所",
        "address": "山西省朔州市山阴县山阴站",
        "tel": "",
        "category": "基础设施:公共设施:公共厕所",
        "type": 0,
        "location": {
            "lat": 39.467019,
            "lng": 112.940873
        },
        "ad_info": {
            "adcode": 140621,
            "province": "山西省",
            "city": "朔州市",
            "district": "山阴县"
        }
    },
    {
        "id": "11651980848079935138",
        "title": "公共厕所",
        "address": "山西省朔州市朔城区平朔路与振华东街交叉口东南方向167米左右",
        "tel": "",
        "category": "基础设施:公共设施:公共厕所",
        "type": 0,
        "location": {
            "lat": 39.349262,
            "lng": 112.445689
        },
        "ad_info": {
            "adcode": 140602,
            "province": "山西省",
            "city": "朔州市",
            "district": "朔城区"
        }
    },
    {
        "id": "7574206802230011693",
        "title": "公共厕所",
        "address": "山西省朔州市怀仁市仁泰北路与怀英街交叉口东北方向30米左右",
        "tel": "",
        "category": "基础设施:公共设施:公共厕所",
        "type": 0,
        "location": {
            "lat": 39.820614,
            "lng": 113.083141
        },
        "ad_info": {
            "adcode": 140681,
            "province": "山西省",
            "city": "朔州市",
            "district": "怀仁市"
        }
    },
    {
        "id": "8220828785223660584",
        "title": "公共厕所",
        "address": "山西省朔州市朔城区市府东街与朔神路交叉口正西方向389米左右",
        "tel": "",
        "category": "基础设施:公共设施:公共厕所",
        "type": 0,
        "location": {
            "lat": 39.331025,
            "lng": 112.444698
        },
        "ad_info": {
            "adcode": 140602,
            "province": "山西省",
            "city": "朔州市",
            "district": "朔城区"
        }
    },
    {
        "id": "8429845126147294629",
        "title": "向阳堡停车区公共厕所",
        "address": "山西省朔州市平鲁区向阳堡停车区西50米",
        "tel": "",
        "category": "基础设施:公共设施:公共厕所",
        "type": 0,
        "location": {
            "lat": 39.615224,
            "lng": 112.38753
        },
        "ad_info": {
            "adcode": 140603,
            "province": "山西省",
            "city": "朔州市",
            "district": "平鲁区"
        }
    },
    {
        "id": "14217622944299881342",
        "title": "公共厕所",
        "address": "山西省朔州市应县大石线",
        "tel": "",
        "category": "基础设施:公共设施:公共厕所",
        "type": 0,
        "location": {
            "lat": 39.363293,
            "lng": 113.443764
        },
        "ad_info": {
            "adcode": 140622,
            "province": "山西省",
            "city": "朔州市",
            "district": "应县"
        }
    },
    {
        "id": "12271281852659622989",
        "title": "右玉南服务区公共厕所",
        "address": "山西省朔州市右玉县右重线与胡吴线交叉口东南方向879米左右",
        "tel": "",
        "category": "基础设施:公共设施:公共厕所",
        "type": 0,
        "location": {
            "lat": 39.822441,
            "lng": 112.413639
        },
        "ad_info": {
            "adcode": 140623,
            "province": "山西省",
            "city": "朔州市",
            "district": "右玉县"
        }
    },
    {
        "id": "6011759085240366723",
        "title": "公共厕所",
        "address": "山西省朔州市朔城区G336与平朔线交叉口西北方向271米左右",
        "tel": "",
        "category": "基础设施:公共设施:公共厕所",
        "type": 0,
        "location": {
            "lat": 39.405144,
            "lng": 112.409257
        },
        "ad_info": {
            "adcode": 140602,
            "province": "山西省",
            "city": "朔州市",
            "district": "朔城区"
        }
    },
    {
        "id": "17428996003531019021",
        "title": "公共厕所",
        "address": "山西省朔州市朔城区市府东街与朔神路交叉口正西方向363米左右",
        "tel": "",
        "category": "基础设施:公共设施:公共厕所",
        "type": 0,
        "location": {
            "lat": 39.330646,
            "lng": 112.444961
        },
        "ad_info": {
            "adcode": 140602,
            "province": "山西省",
            "city": "朔州市",
            "district": "朔城区"
        }
    },
    {
        "id": "8988348631736646723",
        "title": "公共厕所",
        "address": "山西省朔州市怀仁市仁里北路与怀信西街交叉口正东方向157米左右",
        "tel": "",
        "category": "基础设施:公共设施:公共厕所",
        "type": 0,
        "location": {
            "lat": 39.823872,
            "lng": 113.099721
        },
        "ad_info": {
            "adcode": 140681,
            "province": "山西省",
            "city": "朔州市",
            "district": "怀仁市"
        }
    },
    {
        "id": "17242890070299460987",
        "title": "公共厕所",
        "address": "山西省朔州市平鲁区胜利北路与西泉南路交叉口正西方向273米左右",
        "tel": "",
        "category": "基础设施:公共设施:公共厕所",
        "type": 0,
        "location": {
            "lat": 39.523911,
            "lng": 112.284478
        },
        "ad_info": {
            "adcode": 140603,
            "province": "山西省",
            "city": "朔州市",
            "district": "平鲁区"
        }
    },
    {
        "id": "2623480259089834339",
        "title": "公共厕所",
        "address": "山西省朔州市朔城区安泰东街与梁郡路交叉口正西方向452米左右",
        "tel": "",
        "category": "基础设施:公共设施:公共厕所",
        "type": 0,
        "location": {
            "lat": 39.355125,
            "lng": 112.446583
        },
        "ad_info": {
            "adcode": 140602,
            "province": "山西省",
            "city": "朔州市",
            "district": "朔城区"
        }
    },
    {
        "id": "15263130883845915266",
        "title": "公共厕所",
        "address": "山西省朔州市朔城区G336与神头大桥交叉口正北方向543米左右",
        "tel": "",
        "category": "基础设施:公共设施:公共厕所",
        "type": 0,
        "location": {
            "lat": 39.393979,
            "lng": 112.568749
        },
        "ad_info": {
            "adcode": 140602,
            "province": "山西省",
            "city": "朔州市",
            "district": "朔城区"
        }
    },
    {
        "id": "17311932718077239642",
        "title": "公共厕所",
        "address": "山西省朔州市山阴县山水西街与广场路交叉口西北方向105米左右",
        "tel": "",
        "category": "基础设施:公共设施:公共厕所",
        "type": 0,
        "location": {
            "lat": 39.51804,
            "lng": 112.82609
        },
        "ad_info": {
            "adcode": 140621,
            "province": "山西省",
            "city": "朔州市",
            "district": "山阴县"
        }
    },
    {
        "id": "1620745942973084497",
        "title": "新官坡服务区公共厕所",
        "address": "山西省朔州市朔城区新官坡服务区与G59呼北高速交叉口南240米",
        "tel": "",
        "category": "基础设施:公共设施:公共厕所",
        "type": 0,
        "location": {
            "lat": 39.197742,
            "lng": 112.291534
        },
        "ad_info": {
            "adcode": 140602,
            "province": "山西省",
            "city": "朔州市",
            "district": "朔城区"
        }
    },
    {
        "id": "2863199219172653750",
        "title": "右玉南服务区公共厕所",
        "address": "山西省朔州市右玉县右重线与胡吴线交叉口东南方向1107米左右",
        "tel": "",
        "category": "基础设施:公共设施:公共厕所",
        "type": 0,
        "location": {
            "lat": 39.822919,
            "lng": 112.417563
        },
        "ad_info": {
            "adcode": 140623,
            "province": "山西省",
            "city": "朔州市",
            "district": "右玉县"
        }
    },
    {
        "id": "17695365462930491137",
        "title": "公共厕所",
        "address": "山西省朔州市朔城区友谊东街与友谊街交叉口正南方向171米左右",
        "tel": "",
        "category": "基础设施:公共设施:公共厕所",
        "type": 0,
        "location": {
            "lat": 39.357731,
            "lng": 112.435508
        },
        "ad_info": {
            "adcode": 140602,
            "province": "山西省",
            "city": "朔州市",
            "district": "朔城区"
        }
    },
    {
        "id": "1517192215976784995",
        "title": "公共厕所",
        "address": "山西省朔州市怀仁市同仁北路与怀贤东街交叉口西南方向249米左右",
        "tel": "",
        "category": "基础设施:公共设施:公共厕所",
        "type": 0,
        "location": {
            "lat": 39.826126,
            "lng": 113.142164
        },
        "ad_info": {
            "adcode": 140681,
            "province": "山西省",
            "city": "朔州市",
            "district": "怀仁市"
        }
    },
    {
        "id": "4995574887995891901",
        "title": "公共厕所",
        "address": "山西省朔州市朔城区平朔路与民福东街交叉口东南方向62米左右",
        "tel": "",
        "category": "基础设施:公共设施:公共厕所",
        "type": 0,
        "location": {
            "lat": 39.341194,
            "lng": 112.442204
        },
        "ad_info": {
            "adcode": 140602,
            "province": "山西省",
            "city": "朔州市",
            "district": "朔城区"
        }
    },
    {
        "id": "4223843524225101393",
        "title": "公共厕所",
        "address": "山西省朔州市朔城区沣汇公园西门",
        "tel": "",
        "category": "基础设施:公共设施:公共厕所",
        "type": 0,
        "location": {
            "lat": 39.35266,
            "lng": 112.403167
        },
        "ad_info": {
            "adcode": 140602,
            "province": "山西省",
            "city": "朔州市",
            "district": "朔城区"
        }
    },
    {
        "id": "7043735285738255299",
        "title": "公共厕所",
        "address": "山西省朔州市怀仁市亲金线与宁应线交叉口东南方向1759米左右",
        "tel": "",
        "category": "基础设施:公共设施:公共厕所",
        "type": 0,
        "location": {
            "lat": 39.655154,
            "lng": 112.981807
        },
        "ad_info": {
            "adcode": 140681,
            "province": "山西省",
            "city": "朔州市",
            "district": "怀仁市"
        }
    },
    {
        "id": "724337893577118468",
        "title": "公共厕所",
        "address": "山西省朔州市怀仁市吴家窑镇中学校北侧170米",
        "tel": "",
        "category": "基础设施:公共设施:公共厕所",
        "type": 0,
        "location": {
            "lat": 39.781804,
            "lng": 112.863633
        },
        "ad_info": {
            "adcode": 140681,
            "province": "山西省",
            "city": "朔州市",
            "district": "怀仁市"
        }
    },
    {
        "id": "10197792447591867987",
        "title": "公共厕所",
        "address": "山西省朔州市朔城区北关路与古北街交叉口正北方向246米左右",
        "tel": "",
        "category": "基础设施:公共设施:公共厕所",
        "type": 0,
        "location": {
            "lat": 39.328199,
            "lng": 112.427741
        },
        "ad_info": {
            "adcode": 140602,
            "province": "山西省",
            "city": "朔州市",
            "district": "朔城区"
        }
    },
    {
        "id": "10884216821012723803",
        "title": "公共厕所",
        "address": "山西省朔州市平鲁区东环北路与东环南路交叉口正西方向48米左右",
        "tel": "",
        "category": "基础设施:公共设施:公共厕所",
        "type": 0,
        "location": {
            "lat": 39.523273,
            "lng": 112.305558
        },
        "ad_info": {
            "adcode": 140603,
            "province": "山西省",
            "city": "朔州市",
            "district": "平鲁区"
        }
    },
    {
        "id": "17519783539168252019",
        "title": "公共厕所",
        "address": "山西省朔州市应县205省道西50米",
        "tel": "",
        "category": "基础设施:公共设施:公共厕所",
        "type": 0,
        "location": {
            "lat": 39.484776,
            "lng": 113.338799
        },
        "ad_info": {
            "adcode": 140622,
            "province": "山西省",
            "city": "朔州市",
            "district": "应县"
        }
    },
    {
        "id": "1600417999380674816",
        "title": "公共厕所",
        "address": "山西省朔州市朔城区鄯阳街与马邑南路交叉口东南方向140米左右",
        "tel": "",
        "category": "基础设施:公共设施:公共厕所",
        "type": 0,
        "location": {
            "lat": 39.318397,
            "lng": 112.424519
        },
        "ad_info": {
            "adcode": 140602,
            "province": "山西省",
            "city": "朔州市",
            "district": "朔城区"
        }
    },
    {
        "id": "10822511085309590860",
        "title": "公共厕所",
        "address": "山西省朔州市平鲁区新城西街与新城西街北五巷交叉口正东方向65米左右",
        "tel": "",
        "category": "基础设施:公共设施:公共厕所",
        "type": 0,
        "location": {
            "lat": 39.514866,
            "lng": 112.287131
        },
        "ad_info": {
            "adcode": 140603,
            "province": "山西省",
            "city": "朔州市",
            "district": "平鲁区"
        }
    },
    {
        "id": "8388311550686349304",
        "title": "公共厕所",
        "address": "山西省朔州市怀仁市仁人北路与明信街交叉口正南方向80米左右",
        "tel": "",
        "category": "基础设施:公共设施:公共厕所",
        "type": 0,
        "location": {
            "lat": 39.83542,
            "lng": 113.105542
        },
        "ad_info": {
            "adcode": 140681,
            "province": "山西省",
            "city": "朔州市",
            "district": "怀仁市"
        }
    },
    {
        "id": "4708917262255694866",
        "title": "公共厕所",
        "address": "山西省朔州市怀仁市仁里南路怀仁五中",
        "tel": "",
        "category": "基础设施:公共设施:公共厕所",
        "type": 0,
        "location": {
            "lat": 39.80555,
            "lng": 113.096267
        },
        "ad_info": {
            "adcode": 140681,
            "province": "山西省",
            "city": "朔州市",
            "district": "怀仁市"
        }
    },
    {
        "id": "13543943792585222251",
        "title": "公共厕所",
        "address": "山西省朔州市应县大石线与洗朔线交叉口西南方向112米左右",
        "tel": "",
        "category": "基础设施:公共设施:公共厕所",
        "type": 0,
        "location": {
            "lat": 39.561903,
            "lng": 113.244859
        },
        "ad_info": {
            "adcode": 140622,
            "province": "山西省",
            "city": "朔州市",
            "district": "应县"
        }
    },
    {
        "id": "5873592146157049649",
        "title": "公共厕所",
        "address": "山西省朔州市怀仁市老杨机电修配中心东南侧110米",
        "tel": "",
        "category": "基础设施:公共设施:公共厕所",
        "type": 0,
        "location": {
            "lat": 39.675464,
            "lng": 112.927924
        },
        "ad_info": {
            "adcode": 140681,
            "province": "山西省",
            "city": "朔州市",
            "district": "怀仁市"
        }
    },
    {
        "id": "8248059327586959464",
        "title": "公共卫生间",
        "address": "山西省朔州市平鲁区平安西街与煤源路交叉口正南方向96米左右",
        "tel": "",
        "category": "基础设施:公共设施:公共厕所",
        "type": 0,
        "location": {
            "lat": 39.517635,
            "lng": 112.282076
        },
        "ad_info": {
            "adcode": 140603,
            "province": "山西省",
            "city": "朔州市",
            "district": "平鲁区"
        }
    },
    {
        "id": "2593843116430671292",
        "title": "公共厕所",
        "address": "山西省朔州市朔城区北新街与马邑路交叉口西南方向80米左右",
        "tel": "",
        "category": "基础设施:公共设施:公共厕所",
        "type": 0,
        "location": {
            "lat": 39.322535,
            "lng": 112.422527
        },
        "ad_info": {
            "adcode": 140602,
            "province": "山西省",
            "city": "朔州市",
            "district": "朔城区"
        }
    },
    {
        "id": "9451796043905759858",
        "title": "公共厕所",
        "address": "山西省朔州市朔城区七里河一桥与开发北路交叉口西北方向51米左右",
        "tel": "",
        "category": "基础设施:公共设施:公共厕所",
        "type": 0,
        "location": {
            "lat": 39.337537,
            "lng": 112.435242
        },
        "ad_info": {
            "adcode": 140602,
            "province": "山西省",
            "city": "朔州市",
            "district": "朔城区"
        }
    },
    {
        "id": "16205572807179416786",
        "title": "山阴服务区公共厕所",
        "address": "山西省朔州市山阴县G18荣乌高速附近",
        "tel": "",
        "category": "基础设施:公共设施:公共厕所",
        "type": 0,
        "location": {
            "lat": 39.554131,
            "lng": 112.611044
        },
        "ad_info": {
            "adcode": 140621,
            "province": "山西省",
            "city": "朔州市",
            "district": "山阴县"
        }
    },
    {
        "id": "9305038717425471955",
        "title": "公共厕所",
        "address": "山西省朔州市平鲁区天源街与胜利南路交叉口东南方向108米左右",
        "tel": "",
        "category": "基础设施:公共设施:公共厕所",
        "type": 0,
        "location": {
            "lat": 39.512792,
            "lng": 112.291051
        },
        "ad_info": {
            "adcode": 140603,
            "province": "山西省",
            "city": "朔州市",
            "district": "平鲁区"
        }
    },
    {
        "id": "11491392237436609469",
        "title": "公共厕所",
        "address": "山西省朔州市山阴县山水西街与广场路交叉口西北方向89米左右",
        "tel": "",
        "category": "基础设施:公共设施:公共厕所",
        "type": 0,
        "location": {
            "lat": 39.518215,
            "lng": 112.82664
        },
        "ad_info": {
            "adcode": 140621,
            "province": "山西省",
            "city": "朔州市",
            "district": "山阴县"
        }
    },
    {
        "id": "2515910530269562618",
        "title": "公共厕所",
        "address": "山西省朔州市右玉县右卫镇杀虎口旅游景区停车场",
        "tel": "",
        "category": "基础设施:公共设施:公共厕所",
        "type": 0,
        "location": {
            "lat": 40.247406,
            "lng": 112.31245
        },
        "ad_info": {
            "adcode": 140623,
            "province": "山西省",
            "city": "朔州市",
            "district": "右玉县"
        }
    },
    {
        "id": "453556753135962398",
        "title": "公共厕所",
        "address": "山西省朔州市朔城区平朔路与民福东街交叉口西北方向279米左右",
        "tel": "",
        "category": "基础设施:公共设施:公共厕所",
        "type": 0,
        "location": {
            "lat": 39.343402,
            "lng": 112.439452
        },
        "ad_info": {
            "adcode": 140602,
            "province": "山西省",
            "city": "朔州市",
            "district": "朔城区"
        }
    },
    {
        "id": "15098198915230916819",
        "title": "公共厕所",
        "address": "山西省朔州市朔城区鄯阳街与马邑南路交叉口正北方向100米左右",
        "tel": "",
        "category": "基础设施:公共设施:公共厕所",
        "type": 0,
        "location": {
            "lat": 39.319835,
            "lng": 112.422789
        },
        "ad_info": {
            "adcode": 140602,
            "province": "山西省",
            "city": "朔州市",
            "district": "朔城区"
        }
    },
    {
        "id": "8182452482675506167",
        "title": "公共厕所",
        "address": "山西省朔州市朔城区西关街与西街交叉口正南方向67米左右",
        "tel": "",
        "category": "基础设施:公共设施:公共厕所",
        "type": 0,
        "location": {
            "lat": 39.313768,
            "lng": 112.422973
        },
        "ad_info": {
            "adcode": 140602,
            "province": "山西省",
            "city": "朔州市",
            "district": "朔城区"
        }
    },
    {
        "id": "1934952901251523835",
        "title": "公共厕所",
        "address": "山西省朔州市应县新建东街与辽代街交叉口西北方向31米左右",
        "tel": "",
        "category": "基础设施:公共设施:公共厕所",
        "type": 0,
        "location": {
            "lat": 39.561674,
            "lng": 113.188771
        },
        "ad_info": {
            "adcode": 140622,
            "province": "山西省",
            "city": "朔州市",
            "district": "应县"
        }
    },
    {
        "id": "10039494720753701427",
        "title": "公共厕所",
        "address": "山西省朔州市朔城区开发南路46号",
        "tel": "",
        "category": "基础设施:公共设施:公共厕所",
        "type": 0,
        "location": {
            "lat": 39.327617,
            "lng": 112.435008
        },
        "ad_info": {
            "adcode": 140602,
            "province": "山西省",
            "city": "朔州市",
            "district": "朔城区"
        }
    },
    {
        "id": "9831984843742985048",
        "title": "公共厕所",
        "address": "山西省朔州市平鲁区兴平路与平阳街交叉口正北方向140米左右",
        "tel": "",
        "category": "基础设施:公共设施:公共厕所",
        "type": 0,
        "location": {
            "lat": 39.513772,
            "lng": 112.295668
        },
        "ad_info": {
            "adcode": 140603,
            "province": "山西省",
            "city": "朔州市",
            "district": "平鲁区"
        }
    },
    {
        "id": "10925181324997366658",
        "title": "公共厕所",
        "address": "山西省朔州市朔城区G241与G336交叉口正西方向1261米",
        "tel": "",
        "category": "基础设施:公共设施:公共厕所",
        "type": 0,
        "location": {
            "lat": 39.372175,
            "lng": 112.392438
        },
        "ad_info": {
            "adcode": 140602,
            "province": "山西省",
            "city": "朔州市",
            "district": "朔城区"
        }
    },
    {
        "id": "17247677064601018180",
        "title": "公共厕所",
        "address": "山西省朔州市朔城区北环路与大忻线交叉口正西方向749米左右",
        "tel": "",
        "category": "基础设施:公共设施:公共厕所",
        "type": 0,
        "location": {
            "lat": 39.381294,
            "lng": 112.523034
        },
        "ad_info": {
            "adcode": 140602,
            "province": "山西省",
            "city": "朔州市",
            "district": "朔城区"
        }
    },
    {
        "id": "5544310797988652102",
        "title": "无障碍公共厕所",
        "address": "山西省朔州市平鲁区兴平路与新城街交叉口西南方向134米左右",
        "tel": "",
        "category": "基础设施:公共设施:公共厕所",
        "type": 0,
        "location": {
            "lat": 39.515899,
            "lng": 112.292743
        },
        "ad_info": {
            "adcode": 140603,
            "province": "山西省",
            "city": "朔州市",
            "district": "平鲁区"
        }
    },
    {
        "id": "17508873009143558027",
        "title": "公共厕所",
        "address": "山西省朔州市怀仁市仁里北路与怀信西街交叉口正东方向117米左右",
        "tel": "",
        "category": "基础设施:公共设施:公共厕所",
        "type": 0,
        "location": {
            "lat": 39.823946,
            "lng": 113.099267
        },
        "ad_info": {
            "adcode": 140681,
            "province": "山西省",
            "city": "朔州市",
            "district": "怀仁市"
        }
    },
    {
        "id": "13697161593148081060",
        "title": "无障碍公共厕所",
        "address": "山西省朔州市怀仁市怀贤西街与柴市巷交叉口正北方向153米左右",
        "tel": "",
        "category": "基础设施:公共设施:公共厕所",
        "type": 0,
        "location": {
            "lat": 39.829187,
            "lng": 113.10741
        },
        "ad_info": {
            "adcode": 140681,
            "province": "山西省",
            "city": "朔州市",
            "district": "怀仁市"
        }
    },
    {
        "id": "16236363400555901262",
        "title": "公共厕所",
        "address": "山西省朔州市应县新建西街与洗朔线交叉口正东方向569米左右",
        "tel": "",
        "category": "基础设施:公共设施:公共厕所",
        "type": 0,
        "location": {
            "lat": 39.56147,
            "lng": 113.169972
        },
        "ad_info": {
            "adcode": 140622,
            "province": "山西省",
            "city": "朔州市",
            "district": "应县"
        }
    },
    {
        "id": "11860674459812628458",
        "title": "公共厕所",
        "address": "山西省朔州市山阴县001乡道与241省道交叉口东北150米千井村委会附近",
        "tel": "",
        "category": "基础设施:公共设施:公共厕所",
        "type": 0,
        "location": {
            "lat": 39.661058,
            "lng": 112.538702
        },
        "ad_info": {
            "adcode": 140621,
            "province": "山西省",
            "city": "朔州市",
            "district": "山阴县"
        }
    },
    {
        "id": "12128563591566854356",
        "title": "公共厕所",
        "address": "山西省朔州市朔城区北新街与府西路交叉口正东方向31米左右",
        "tel": "",
        "category": "基础设施:公共设施:公共厕所",
        "type": 0,
        "location": {
            "lat": 39.32302,
            "lng": 112.43103
        },
        "ad_info": {
            "adcode": 140602,
            "province": "山西省",
            "city": "朔州市",
            "district": "朔城区"
        }
    },
    {
        "id": "6442029240840380873",
        "title": "公共厕所",
        "address": "山西省朔州市平鲁区煤源路142正东方向190米",
        "tel": "",
        "category": "基础设施:公共设施:公共厕所",
        "type": 0,
        "location": {
            "lat": 39.512632,
            "lng": 112.285408
        },
        "ad_info": {
            "adcode": 140603,
            "province": "山西省",
            "city": "朔州市",
            "district": "平鲁区"
        }
    },
    {
        "id": "11429747969565192836",
        "title": "公共厕所",
        "address": "山西省朔州市朔城区民福街与民福西街辅路交叉口正东方向215米左右",
        "tel": "",
        "category": "基础设施:公共设施:公共厕所",
        "type": 0,
        "location": {
            "lat": 39.341711,
            "lng": 112.433494
        },
        "ad_info": {
            "adcode": 140602,
            "province": "山西省",
            "city": "朔州市",
            "district": "朔城区"
        }
    },
    {
        "id": "12490751806184492084",
        "title": "万通源大酒店-洗手间",
        "address": "山西省朔州市朔城区开发北路辅路与民福街辅路交叉口正北方向585米左右",
        "tel": "",
        "category": "基础设施:公共设施:公共厕所",
        "type": 0,
        "location": {
            "lat": 39.347074,
            "lng": 112.435965
        },
        "ad_info": {
            "adcode": 140602,
            "province": "山西省",
            "city": "朔州市",
            "district": "朔城区"
        }
    },
    {
        "id": "11362563903861322013",
        "title": "公共厕所",
        "address": "山西省朔州市怀仁市鹅左线",
        "tel": "",
        "category": "基础设施:公共设施:公共厕所",
        "type": 0,
        "location": {
            "lat": 39.876685,
            "lng": 112.975543
        },
        "ad_info": {
            "adcode": 140681,
            "province": "山西省",
            "city": "朔州市",
            "district": "怀仁市"
        }
    },
    {
        "id": "6857199287311066314",
        "title": "公共厕所",
        "address": "山西省朔州市平鲁区善学街文苑小区",
        "tel": "",
        "category": "基础设施:公共设施:公共厕所",
        "type": 0,
        "location": {
            "lat": 39.538693,
            "lng": 112.289417
        },
        "ad_info": {
            "adcode": 140603,
            "province": "山西省",
            "city": "朔州市",
            "district": "平鲁区"
        }
    },
    {
        "id": "9343934507326651062",
        "title": "公共厕所",
        "address": "山西省朔州市怀仁市仁爱南路与怀善西街交叉口正北方向100米左右",
        "tel": "",
        "category": "基础设施:公共设施:公共厕所",
        "type": 0,
        "location": {
            "lat": 39.811805,
            "lng": 113.116263
        },
        "ad_info": {
            "adcode": 140681,
            "province": "山西省",
            "city": "朔州市",
            "district": "怀仁市"
        }
    },
    {
        "id": "16671850397306524041",
        "title": "平鲁服务区公共厕所",
        "address": "山西省朔州市平鲁区S212与平朔线交叉口西北方向1619米左右",
        "tel": "",
        "category": "基础设施:公共设施:公共厕所",
        "type": 0,
        "location": {
            "lat": 39.722922,
            "lng": 112.145452
        },
        "ad_info": {
            "adcode": 140603,
            "province": "山西省",
            "city": "朔州市",
            "district": "平鲁区"
        }
    },
    {
        "id": "3367704226843338513",
        "title": "公共厕所",
        "address": "山西省朔州市怀仁市仁人北路与怀安西街辅路交叉口正北方向366米左右",
        "tel": "",
        "category": "基础设施:公共设施:公共厕所",
        "type": 0,
        "location": {
            "lat": 39.820369,
            "lng": 113.103861
        },
        "ad_info": {
            "adcode": 140681,
            "province": "山西省",
            "city": "朔州市",
            "district": "怀仁市"
        }
    },
    {
        "id": "1024369736559680806",
        "title": "公共厕所",
        "address": "山西省朔州市怀仁市官林中医东北侧260米",
        "tel": "",
        "category": "基础设施:公共设施:公共厕所",
        "type": 0,
        "location": {
            "lat": 39.834632,
            "lng": 113.112452
        },
        "ad_info": {
            "adcode": 140681,
            "province": "山西省",
            "city": "朔州市",
            "district": "怀仁市"
        }
    },
    {
        "id": "3413324935232945602",
        "title": "怀仁服务区公共厕所",
        "address": "山西省朔州市怀仁市怀礼东街与怀礼街交叉口东北方向1217米左右",
        "tel": "",
        "category": "基础设施:公共设施:公共厕所",
        "type": 0,
        "location": {
            "lat": 39.792646,
            "lng": 113.170861
        },
        "ad_info": {
            "adcode": 140681,
            "province": "山西省",
            "city": "朔州市",
            "district": "怀仁市"
        }
    }
]