[
    {
        "id": "273140408636512770",
        "title": "公共厕所",
        "address": "辽宁省朝阳市双塔区龙山街4段-38号",
        "tel": "",
        "category": "基础设施:公共设施:公共厕所",
        "type": 0,
        "location": {
            "lat": 41.561497,
            "lng": 120.444634
        },
        "ad_info": {
            "adcode": 211302,
            "province": "辽宁省",
            "city": "朝阳市",
            "district": "双塔区"
        }
    },
    {
        "id": "2581213578028344753",
        "title": "公共厕所",
        "address": "辽宁省朝阳市建平县兴工路与文化街交叉口正东方向58米左右",
        "tel": "",
        "category": "基础设施:公共设施:公共厕所",
        "type": 0,
        "location": {
            "lat": 41.404191,
            "lng": 119.640563
        },
        "ad_info": {
            "adcode": 211322,
            "province": "辽宁省",
            "city": "朝阳市",
            "district": "建平县"
        }
    },
    {
        "id": "11859371677526977918",
        "title": "公共厕所",
        "address": "辽宁省朝阳市建平县光明街怡馨家园(万寿路)",
        "tel": "",
        "category": "基础设施:公共设施:公共厕所",
        "type": 0,
        "location": {
            "lat": 41.400163,
            "lng": 119.646349
        },
        "ad_info": {
            "adcode": 211322,
            "province": "辽宁省",
            "city": "朝阳市",
            "district": "建平县"
        }
    },
    {
        "id": "5658727224406444307",
        "title": "公共厕所",
        "address": "辽宁省朝阳市喀喇沁左翼蒙古族自治县湖北路与龙凤大街交叉口正北方向212米左右",
        "tel": "",
        "category": "基础设施:公共设施:公共厕所",
        "type": 0,
        "location": {
            "lat": 41.11207,
            "lng": 119.759696
        },
        "ad_info": {
            "adcode": 211324,
            "province": "辽宁省",
            "city": "朝阳市",
            "district": "喀喇沁左翼蒙古族自治县"
        }
    },
    {
        "id": "784928534328876401",
        "title": "公共厕所",
        "address": "辽宁省朝阳市双塔区柏山街与红星路交叉口东南方向117米左右",
        "tel": "",
        "category": "基础设施:公共设施:公共厕所",
        "type": 0,
        "location": {
            "lat": 41.574523,
            "lng": 120.448463
        },
        "ad_info": {
            "adcode": 211302,
            "province": "辽宁省",
            "city": "朝阳市",
            "district": "双塔区"
        }
    },
    {
        "id": "2992999363445815412",
        "title": "公共厕所",
        "address": "辽宁省朝阳市双塔区北大街与北街胡同交叉口东北方向171米左右",
        "tel": "",
        "category": "基础设施:公共设施:公共厕所",
        "type": 0,
        "location": {
            "lat": 41.595498,
            "lng": 120.473464
        },
        "ad_info": {
            "adcode": 211302,
            "province": "辽宁省",
            "city": "朝阳市",
            "district": "双塔区"
        }
    },
    {
        "id": "971235110461429051",
        "title": "公共厕所",
        "address": "辽宁省朝阳市建平县建安路建安家园",
        "tel": "",
        "category": "基础设施:公共设施:公共厕所",
        "type": 0,
        "location": {
            "lat": 41.412395,
            "lng": 119.650109
        },
        "ad_info": {
            "adcode": 211322,
            "province": "辽宁省",
            "city": "朝阳市",
            "district": "建平县"
        }
    },
    {
        "id": "7348664149997322344",
        "title": "公共厕所",
        "address": "辽宁省朝阳市双塔区友谊大街与柳城路交叉口东南方向181米左右",
        "tel": "",
        "category": "基础设施:公共设施:公共厕所",
        "type": 0,
        "location": {
            "lat": 41.572583,
            "lng": 120.44248
        },
        "ad_info": {
            "adcode": 211302,
            "province": "辽宁省",
            "city": "朝阳市",
            "district": "双塔区"
        }
    },
    {
        "id": "9036979333880616678",
        "title": "公共厕所",
        "address": "辽宁省朝阳市双塔区许淑秋中医诊所西南侧70米",
        "tel": "",
        "category": "基础设施:公共设施:公共厕所",
        "type": 0,
        "location": {
            "lat": 41.585908,
            "lng": 120.436736
        },
        "ad_info": {
            "adcode": 211302,
            "province": "辽宁省",
            "city": "朝阳市",
            "district": "双塔区"
        }
    },
    {
        "id": "1578554073349092075",
        "title": "公共厕所",
        "address": "辽宁省朝阳市双塔区和平街与长江路交叉口东北方向169米左右",
        "tel": "",
        "category": "基础设施:公共设施:公共厕所",
        "type": 0,
        "location": {
            "lat": 41.593057,
            "lng": 120.442416
        },
        "ad_info": {
            "adcode": 211302,
            "province": "辽宁省",
            "city": "朝阳市",
            "district": "双塔区"
        }
    },
    {
        "id": "17217743306275488245",
        "title": "公共厕所",
        "address": "辽宁省朝阳市喀喇沁左翼蒙古族自治县团结路68号",
        "tel": "",
        "category": "基础设施:公共设施:公共厕所",
        "type": 0,
        "location": {
            "lat": 41.126139,
            "lng": 119.741237
        },
        "ad_info": {
            "adcode": 211324,
            "province": "辽宁省",
            "city": "朝阳市",
            "district": "喀喇沁左翼蒙古族自治县"
        }
    },
    {
        "id": "4736169444150672823",
        "title": "公共厕所",
        "address": "辽宁省朝阳市双塔区黄河路62号",
        "tel": "",
        "category": "基础设施:公共设施:公共厕所",
        "type": 0,
        "location": {
            "lat": 41.584924,
            "lng": 120.472603
        },
        "ad_info": {
            "adcode": 211302,
            "province": "辽宁省",
            "city": "朝阳市",
            "district": "双塔区"
        }
    },
    {
        "id": "12083583627130930124",
        "title": "公共厕所",
        "address": "辽宁省朝阳市建平县铁中路与铁南路交叉口东北方向386米左右",
        "tel": "",
        "category": "基础设施:公共设施:公共厕所",
        "type": 0,
        "location": {
            "lat": 41.390596,
            "lng": 119.647399
        },
        "ad_info": {
            "adcode": 211322,
            "province": "辽宁省",
            "city": "朝阳市",
            "district": "建平县"
        }
    },
    {
        "id": "4376135104965584537",
        "title": "公共厕所",
        "address": "辽宁省朝阳市双塔区梧桐路与百凤街交叉口正西方向50米左右",
        "tel": "",
        "category": "基础设施:公共设施:公共厕所",
        "type": 0,
        "location": {
            "lat": 41.569207,
            "lng": 120.479014
        },
        "ad_info": {
            "adcode": 211302,
            "province": "辽宁省",
            "city": "朝阳市",
            "district": "双塔区"
        }
    },
    {
        "id": "3014189056758651402",
        "title": "公共厕所",
        "address": "辽宁省朝阳市双塔区友谊大街与黄河路交叉口西北方向133米左右",
        "tel": "",
        "category": "基础设施:公共设施:公共厕所",
        "type": 0,
        "location": {
            "lat": 41.59728,
            "lng": 120.455536
        },
        "ad_info": {
            "adcode": 211302,
            "province": "辽宁省",
            "city": "朝阳市",
            "district": "双塔区"
        }
    },
    {
        "id": "10015145561677523363",
        "title": "公共厕所",
        "address": "辽宁省朝阳市建平县站前路与红旗街交叉口正东方向209米左右",
        "tel": "",
        "category": "基础设施:公共设施:公共厕所",
        "type": 0,
        "location": {
            "lat": 41.393124,
            "lng": 119.645369
        },
        "ad_info": {
            "adcode": 211322,
            "province": "辽宁省",
            "city": "朝阳市",
            "district": "建平县"
        }
    },
    {
        "id": "18342297498099362917",
        "title": "公共厕所",
        "address": "辽宁省朝阳市双塔区北京公园",
        "tel": "",
        "category": "基础设施:公共设施:公共厕所",
        "type": 0,
        "location": {
            "lat": 41.563361,
            "lng": 120.416659
        },
        "ad_info": {
            "adcode": 211302,
            "province": "辽宁省",
            "city": "朝阳市",
            "district": "双塔区"
        }
    },
    {
        "id": "10043400674024567681",
        "title": "公共厕所",
        "address": "辽宁省朝阳市北票市北票市中心医院康复医学中心西侧110米",
        "tel": "",
        "category": "基础设施:公共设施:公共厕所",
        "type": 0,
        "location": {
            "lat": 41.796756,
            "lng": 120.774265
        },
        "ad_info": {
            "adcode": 211381,
            "province": "辽宁省",
            "city": "朝阳市",
            "district": "北票市"
        }
    },
    {
        "id": "11294644310006558804",
        "title": "公共厕所",
        "address": "辽宁省朝阳市喀喇沁左翼蒙古族自治县胜利路与青年街交叉口正南方向83米左右",
        "tel": "",
        "category": "基础设施:公共设施:公共厕所",
        "type": 0,
        "location": {
            "lat": 41.123459,
            "lng": 119.741208
        },
        "ad_info": {
            "adcode": 211324,
            "province": "辽宁省",
            "city": "朝阳市",
            "district": "喀喇沁左翼蒙古族自治县"
        }
    },
    {
        "id": "4833966333956609641",
        "title": "公共厕所",
        "address": "辽宁省朝阳市北票市长深高速与凉三线交叉路口往东南约160米",
        "tel": "",
        "category": "基础设施:公共设施:公共厕所",
        "type": 0,
        "location": {
            "lat": 41.756481,
            "lng": 120.798435
        },
        "ad_info": {
            "adcode": 211381,
            "province": "辽宁省",
            "city": "朝阳市",
            "district": "北票市"
        }
    },
    {
        "id": "4374445749330822540",
        "title": "公共厕所",
        "address": "辽宁省朝阳市双塔区文化路与河畔街交叉口正东方向633米左右",
        "tel": "",
        "category": "基础设施:公共设施:公共厕所",
        "type": 0,
        "location": {
            "lat": 41.563453,
            "lng": 120.464208
        },
        "ad_info": {
            "adcode": 211302,
            "province": "辽宁省",
            "city": "朝阳市",
            "district": "双塔区"
        }
    },
    {
        "id": "1492908404399900289",
        "title": "公共厕所",
        "address": "辽宁省朝阳市北票市大龙饭店(郭天恩卫生室西)西南侧",
        "tel": "",
        "category": "基础设施:公共设施:公共厕所",
        "type": 0,
        "location": {
            "lat": 41.785683,
            "lng": 120.666921
        },
        "ad_info": {
            "adcode": 211381,
            "province": "辽宁省",
            "city": "朝阳市",
            "district": "北票市"
        }
    },
    {
        "id": "2051730051829790108",
        "title": "公共厕所",
        "address": "辽宁省朝阳市双塔区千山街与柳城路交叉口东北方向37米左右",
        "tel": "",
        "category": "基础设施:公共设施:公共厕所",
        "type": 0,
        "location": {
            "lat": 41.574677,
            "lng": 120.431674
        },
        "ad_info": {
            "adcode": 211302,
            "province": "辽宁省",
            "city": "朝阳市",
            "district": "双塔区"
        }
    },
    {
        "id": "10877905820675138877",
        "title": "公共厕所",
        "address": "辽宁省朝阳市双塔区松江路与新兴街交叉口东南260米",
        "tel": "",
        "category": "基础设施:公共设施:公共厕所",
        "type": 0,
        "location": {
            "lat": 41.559814,
            "lng": 120.43764
        },
        "ad_info": {
            "adcode": 211302,
            "province": "辽宁省",
            "city": "朝阳市",
            "district": "双塔区"
        }
    },
    {
        "id": "17873415873334942851",
        "title": "公共厕所",
        "address": "辽宁省朝阳市喀喇沁左翼蒙古族自治县胜利路颐和家园",
        "tel": "",
        "category": "基础设施:公共设施:公共厕所",
        "type": 0,
        "location": {
            "lat": 41.131425,
            "lng": 119.728688
        },
        "ad_info": {
            "adcode": 211324,
            "province": "辽宁省",
            "city": "朝阳市",
            "district": "喀喇沁左翼蒙古族自治县"
        }
    },
    {
        "id": "8023151480900146966",
        "title": "公共厕所",
        "address": "辽宁省朝阳市双塔区中山大街一段39号",
        "tel": "",
        "category": "基础设施:公共设施:公共厕所",
        "type": 0,
        "location": {
            "lat": 41.603796,
            "lng": 120.453742
        },
        "ad_info": {
            "adcode": 211302,
            "province": "辽宁省",
            "city": "朝阳市",
            "district": "双塔区"
        }
    },
    {
        "id": "10839265935404881633",
        "title": "公共卫生间",
        "address": "辽宁省朝阳市双塔区和平街与海河路交叉口东南方向18米左右",
        "tel": "",
        "category": "基础设施:公共设施:公共厕所",
        "type": 0,
        "location": {
            "lat": 41.576967,
            "lng": 120.435333
        },
        "ad_info": {
            "adcode": 211302,
            "province": "辽宁省",
            "city": "朝阳市",
            "district": "双塔区"
        }
    },
    {
        "id": "9250274433069876816",
        "title": "公共厕所",
        "address": "辽宁省朝阳市双塔区中山营路与凌河街交叉口西北方向59米左右",
        "tel": "",
        "category": "基础设施:公共设施:公共厕所",
        "type": 0,
        "location": {
            "lat": 41.544994,
            "lng": 120.453931
        },
        "ad_info": {
            "adcode": 211302,
            "province": "辽宁省",
            "city": "朝阳市",
            "district": "双塔区"
        }
    },
    {
        "id": "2324566259155252736",
        "title": "公共厕所",
        "address": "辽宁省朝阳市朝阳县兴智路与龙山北路交叉口东北方向198米左右",
        "tel": "",
        "category": "基础设施:公共设施:公共厕所",
        "type": 0,
        "location": {
            "lat": 41.542819,
            "lng": 120.424002
        },
        "ad_info": {
            "adcode": 211321,
            "province": "辽宁省",
            "city": "朝阳市",
            "district": "朝阳县"
        }
    },
    {
        "id": "12559036900626133435",
        "title": "公共厕所",
        "address": "辽宁省朝阳市喀喇沁左翼蒙古族自治县职业中专机动车驾驶员培训学校培训基地西侧130米",
        "tel": "",
        "category": "基础设施:公共设施:公共厕所",
        "type": 0,
        "location": {
            "lat": 41.134588,
            "lng": 119.764897
        },
        "ad_info": {
            "adcode": 211324,
            "province": "辽宁省",
            "city": "朝阳市",
            "district": "喀喇沁左翼蒙古族自治县"
        }
    },
    {
        "id": "13341519411299223463",
        "title": "公共厕所",
        "address": "辽宁省朝阳市建平县华府二期后院东北侧210米",
        "tel": "",
        "category": "基础设施:公共设施:公共厕所",
        "type": 0,
        "location": {
            "lat": 41.414828,
            "lng": 119.657764
        },
        "ad_info": {
            "adcode": 211322,
            "province": "辽宁省",
            "city": "朝阳市",
            "district": "建平县"
        }
    },
    {
        "id": "8716685354909243600",
        "title": "公共厕所",
        "address": "辽宁省朝阳市双塔区八宝南路与凤栖街交叉口正北方向190米左右",
        "tel": "",
        "category": "基础设施:公共设施:公共厕所",
        "type": 0,
        "location": {
            "lat": 41.571756,
            "lng": 120.474381
        },
        "ad_info": {
            "adcode": 211302,
            "province": "辽宁省",
            "city": "朝阳市",
            "district": "双塔区"
        }
    },
    {
        "id": "17186040938937328371",
        "title": "公共厕所",
        "address": "辽宁省朝阳市双塔区梧桐路朝阳市体育场",
        "tel": "",
        "category": "基础设施:公共设施:公共厕所",
        "type": 0,
        "location": {
            "lat": 41.570738,
            "lng": 120.474213
        },
        "ad_info": {
            "adcode": 211302,
            "province": "辽宁省",
            "city": "朝阳市",
            "district": "双塔区"
        }
    },
    {
        "id": "4494052476737514301",
        "title": "公共厕所",
        "address": "辽宁省朝阳市凌源市公园西胡同与建设路交叉口正西方向122米左右",
        "tel": "",
        "category": "基础设施:公共设施:公共厕所",
        "type": 0,
        "location": {
            "lat": 41.23577,
            "lng": 119.405429
        },
        "ad_info": {
            "adcode": 211382,
            "province": "辽宁省",
            "city": "朝阳市",
            "district": "凌源市"
        }
    },
    {
        "id": "8684050196448748229",
        "title": "公共厕所",
        "address": "辽宁省朝阳市龙城区海龙街道文化路五段朝阳豪德贸易广场",
        "tel": "",
        "category": "基础设施:公共设施:公共厕所",
        "type": 0,
        "location": {
            "lat": 41.573336,
            "lng": 120.419364
        },
        "ad_info": {
            "adcode": 211303,
            "province": "辽宁省",
            "city": "朝阳市",
            "district": "龙城区"
        }
    },
    {
        "id": "9486547510448224966",
        "title": "公共厕所",
        "address": "辽宁省朝阳市双塔区中山大街与云峰路交叉口正南方向223米左右",
        "tel": "",
        "category": "基础设施:公共设施:公共厕所",
        "type": 0,
        "location": {
            "lat": 41.583498,
            "lng": 120.431722
        },
        "ad_info": {
            "adcode": 211302,
            "province": "辽宁省",
            "city": "朝阳市",
            "district": "双塔区"
        }
    },
    {
        "id": "11870641053396460303",
        "title": "公共厕所",
        "address": "辽宁省朝阳市双塔区五一街与新华路交叉口西北方向121米左右",
        "tel": "",
        "category": "基础设施:公共设施:公共厕所",
        "type": 0,
        "location": {
            "lat": 41.577232,
            "lng": 120.456234
        },
        "ad_info": {
            "adcode": 211302,
            "province": "辽宁省",
            "city": "朝阳市",
            "district": "双塔区"
        }
    },
    {
        "id": "3672380385542571792",
        "title": "公共厕所",
        "address": "辽宁省朝阳市建平县人民路与红旗街交叉口西南方向270米左右",
        "tel": "",
        "category": "基础设施:公共设施:公共厕所",
        "type": 0,
        "location": {
            "lat": 41.396335,
            "lng": 119.631598
        },
        "ad_info": {
            "adcode": 211322,
            "province": "辽宁省",
            "city": "朝阳市",
            "district": "建平县"
        }
    },
    {
        "id": "2624100158648202735",
        "title": "公共厕所",
        "address": "辽宁省朝阳市北票市中华路一段与中华路二段交叉口正东方向205米左右",
        "tel": "",
        "category": "基础设施:公共设施:公共厕所",
        "type": 0,
        "location": {
            "lat": 41.809658,
            "lng": 120.761904
        },
        "ad_info": {
            "adcode": 211381,
            "province": "辽宁省",
            "city": "朝阳市",
            "district": "北票市"
        }
    },
    {
        "id": "17154090645594862294",
        "title": "公共厕所",
        "address": "辽宁省朝阳市双塔区朝阳大街与长青路交叉口西北方向262米左右",
        "tel": "",
        "category": "基础设施:公共设施:公共厕所",
        "type": 0,
        "location": {
            "lat": 41.589606,
            "lng": 120.457808
        },
        "ad_info": {
            "adcode": 211302,
            "province": "辽宁省",
            "city": "朝阳市",
            "district": "双塔区"
        }
    },
    {
        "id": "10288416278169329175",
        "title": "公共厕所",
        "address": "辽宁省朝阳市建平县中兴街与向阳街交叉口正西方向264米左右",
        "tel": "",
        "category": "基础设施:公共设施:公共厕所",
        "type": 0,
        "location": {
            "lat": 41.410463,
            "lng": 119.641842
        },
        "ad_info": {
            "adcode": 211322,
            "province": "辽宁省",
            "city": "朝阳市",
            "district": "建平县"
        }
    },
    {
        "id": "11011935425626064434",
        "title": "公共厕所",
        "address": "辽宁省朝阳市双塔区光明街与文化路交叉口西南方向226米左右",
        "tel": "",
        "category": "基础设施:公共设施:公共厕所",
        "type": 0,
        "location": {
            "lat": 41.568997,
            "lng": 120.442093
        },
        "ad_info": {
            "adcode": 211302,
            "province": "辽宁省",
            "city": "朝阳市",
            "district": "双塔区"
        }
    },
    {
        "id": "9770232749094826345",
        "title": "公共厕所",
        "address": "辽宁省朝阳市建平县锦赤线与长江街交叉口东南方向148米左右",
        "tel": "",
        "category": "基础设施:公共设施:公共厕所",
        "type": 0,
        "location": {
            "lat": 41.909376,
            "lng": 119.713743
        },
        "ad_info": {
            "adcode": 211322,
            "province": "辽宁省",
            "city": "朝阳市",
            "district": "建平县"
        }
    },
    {
        "id": "15395656379675312501",
        "title": "公共厕所",
        "address": "辽宁省朝阳市双塔区友谊大街与柳城路交叉口正西方向71米左右",
        "tel": "",
        "category": "基础设施:公共设施:公共厕所",
        "type": 0,
        "location": {
            "lat": 41.574085,
            "lng": 120.440539
        },
        "ad_info": {
            "adcode": 211302,
            "province": "辽宁省",
            "city": "朝阳市",
            "district": "双塔区"
        }
    },
    {
        "id": "16771610570327344094",
        "title": "公共厕所",
        "address": "辽宁省朝阳市双塔区光明街与文化路交叉口西南方向41米左右",
        "tel": "",
        "category": "基础设施:公共设施:公共厕所",
        "type": 0,
        "location": {
            "lat": 41.569953,
            "lng": 120.443915
        },
        "ad_info": {
            "adcode": 211302,
            "province": "辽宁省",
            "city": "朝阳市",
            "district": "双塔区"
        }
    },
    {
        "id": "14915298142680173801",
        "title": "公共厕所",
        "address": "辽宁省朝阳市双塔区南大街221号",
        "tel": "",
        "category": "基础设施:公共设施:公共厕所",
        "type": 0,
        "location": {
            "lat": 41.565253,
            "lng": 120.455718
        },
        "ad_info": {
            "adcode": 211302,
            "province": "辽宁省",
            "city": "朝阳市",
            "district": "双塔区"
        }
    },
    {
        "id": "4573229985206537282",
        "title": "公共厕所",
        "address": "辽宁省朝阳市双塔区朝阳大街与红星路交叉口正西方向51米左右",
        "tel": "",
        "category": "基础设施:公共设施:公共厕所",
        "type": 0,
        "location": {
            "lat": 41.574515,
            "lng": 120.450826
        },
        "ad_info": {
            "adcode": 211302,
            "province": "辽宁省",
            "city": "朝阳市",
            "district": "双塔区"
        }
    },
    {
        "id": "1525740370949475375",
        "title": "公共厕所",
        "address": "辽宁省朝阳市凌源市凌滨路恒福家园-A区",
        "tel": "",
        "category": "基础设施:公共设施:公共厕所",
        "type": 0,
        "location": {
            "lat": 41.231734,
            "lng": 119.38869
        },
        "ad_info": {
            "adcode": 211382,
            "province": "辽宁省",
            "city": "朝阳市",
            "district": "凌源市"
        }
    },
    {
        "id": "14861024664293438065",
        "title": "公共厕所",
        "address": "辽宁省朝阳市喀喇沁左翼蒙古族自治县建三线与苏州街交叉口西北方向39米左右",
        "tel": "",
        "category": "基础设施:公共设施:公共厕所",
        "type": 0,
        "location": {
            "lat": 41.107798,
            "lng": 119.742531
        },
        "ad_info": {
            "adcode": 211324,
            "province": "辽宁省",
            "city": "朝阳市",
            "district": "喀喇沁左翼蒙古族自治县"
        }
    },
    {
        "id": "7641305465842925827",
        "title": "公共厕所",
        "address": "辽宁省朝阳市喀喇沁左翼蒙古族自治县健康路与青年街交叉口正北方向136米左右",
        "tel": "",
        "category": "基础设施:公共设施:公共厕所",
        "type": 0,
        "location": {
            "lat": 41.129699,
            "lng": 119.74378
        },
        "ad_info": {
            "adcode": 211324,
            "province": "辽宁省",
            "city": "朝阳市",
            "district": "喀喇沁左翼蒙古族自治县"
        }
    },
    {
        "id": "13835986647482642287",
        "title": "公共厕所",
        "address": "辽宁省朝阳市双塔区北大街与天心湖路交叉口正南方向131米左右",
        "tel": "",
        "category": "基础设施:公共设施:公共厕所",
        "type": 0,
        "location": {
            "lat": 41.585547,
            "lng": 120.466958
        },
        "ad_info": {
            "adcode": 211302,
            "province": "辽宁省",
            "city": "朝阳市",
            "district": "双塔区"
        }
    },
    {
        "id": "11790760791102009442",
        "title": "公共厕所",
        "address": "辽宁省朝阳市北票市中华路一段与珠江街交叉口正北方向123米左右",
        "tel": "",
        "category": "基础设施:公共设施:公共厕所",
        "type": 0,
        "location": {
            "lat": 41.813542,
            "lng": 120.758215
        },
        "ad_info": {
            "adcode": 211381,
            "province": "辽宁省",
            "city": "朝阳市",
            "district": "北票市"
        }
    },
    {
        "id": "13064077370819290816",
        "title": "公共厕所",
        "address": "辽宁省朝阳市双塔区榆林路与龙山街交叉口正北方向42米左右",
        "tel": "",
        "category": "基础设施:公共设施:公共厕所",
        "type": 0,
        "location": {
            "lat": 41.550383,
            "lng": 120.432789
        },
        "ad_info": {
            "adcode": 211302,
            "province": "辽宁省",
            "city": "朝阳市",
            "district": "双塔区"
        }
    },
    {
        "id": "17391531124266636158",
        "title": "公共厕所",
        "address": "辽宁省朝阳市双塔区龙山街人民公园",
        "tel": "",
        "category": "基础设施:公共设施:公共厕所",
        "type": 0,
        "location": {
            "lat": 41.569558,
            "lng": 120.453708
        },
        "ad_info": {
            "adcode": 211302,
            "province": "辽宁省",
            "city": "朝阳市",
            "district": "双塔区"
        }
    },
    {
        "id": "15692208898631644577",
        "title": "公共厕所",
        "address": "辽宁省朝阳市喀喇沁左翼蒙古族自治县建设路127号",
        "tel": "",
        "category": "基础设施:公共设施:公共厕所",
        "type": 0,
        "location": {
            "lat": 41.12495,
            "lng": 119.743691
        },
        "ad_info": {
            "adcode": 211324,
            "province": "辽宁省",
            "city": "朝阳市",
            "district": "喀喇沁左翼蒙古族自治县"
        }
    },
    {
        "id": "15410628955058267226",
        "title": "公共厕所",
        "address": "辽宁省朝阳市双塔区友谊大街壹品园",
        "tel": "",
        "category": "基础设施:公共设施:公共厕所",
        "type": 0,
        "location": {
            "lat": 41.557212,
            "lng": 120.427141
        },
        "ad_info": {
            "adcode": 211302,
            "province": "辽宁省",
            "city": "朝阳市",
            "district": "双塔区"
        }
    },
    {
        "id": "15459578995826827037",
        "title": "公共厕所",
        "address": "辽宁省朝阳市喀喇沁左翼蒙古族自治县湖北路与青年街交叉口东140米",
        "tel": "",
        "category": "基础设施:公共设施:公共厕所",
        "type": 0,
        "location": {
            "lat": 41.121266,
            "lng": 119.741493
        },
        "ad_info": {
            "adcode": 211324,
            "province": "辽宁省",
            "city": "朝阳市",
            "district": "喀喇沁左翼蒙古族自治县"
        }
    },
    {
        "id": "14817282879127591168",
        "title": "公共厕所",
        "address": "辽宁省朝阳市凌源市南大街与希望路交叉口西南方向77米左右",
        "tel": "",
        "category": "基础设施:公共设施:公共厕所",
        "type": 0,
        "location": {
            "lat": 41.236679,
            "lng": 119.404231
        },
        "ad_info": {
            "adcode": 211382,
            "province": "辽宁省",
            "city": "朝阳市",
            "district": "凌源市"
        }
    },
    {
        "id": "14556181815572089801",
        "title": "公共厕所",
        "address": "辽宁省朝阳市北票市人民路9号",
        "tel": "",
        "category": "基础设施:公共设施:公共厕所",
        "type": 0,
        "location": {
            "lat": 41.808192,
            "lng": 120.769471
        },
        "ad_info": {
            "adcode": 211381,
            "province": "辽宁省",
            "city": "朝阳市",
            "district": "北票市"
        }
    },
    {
        "id": "5927460921192237932",
        "title": "公共厕所",
        "address": "辽宁省朝阳市建平县人民路与红旗街交叉口正西方向239米左右",
        "tel": "",
        "category": "基础设施:公共设施:公共厕所",
        "type": 0,
        "location": {
            "lat": 41.398657,
            "lng": 119.630478
        },
        "ad_info": {
            "adcode": 211322,
            "province": "辽宁省",
            "city": "朝阳市",
            "district": "建平县"
        }
    },
    {
        "id": "7065550050801244149",
        "title": "公共厕所",
        "address": "辽宁省朝阳市双塔区友谊大街与文化路交叉口正西方向155米左右",
        "tel": "",
        "category": "基础设施:公共设施:公共厕所",
        "type": 0,
        "location": {
            "lat": 41.571081,
            "lng": 120.438436
        },
        "ad_info": {
            "adcode": 211302,
            "province": "辽宁省",
            "city": "朝阳市",
            "district": "双塔区"
        }
    },
    {
        "id": "12330730586246114022",
        "title": "公共厕所",
        "address": "辽宁省朝阳市双塔区中山大街与文化路交叉口正东方向108米左右",
        "tel": "",
        "category": "基础设施:公共设施:公共厕所",
        "type": 0,
        "location": {
            "lat": 41.57393,
            "lng": 120.428976
        },
        "ad_info": {
            "adcode": 211302,
            "province": "辽宁省",
            "city": "朝阳市",
            "district": "双塔区"
        }
    },
    {
        "id": "8561501981838465419",
        "title": "公共厕所",
        "address": "辽宁省朝阳市双塔区燕北街道燕山路丽水花园旁",
        "tel": "",
        "category": "基础设施:公共设施:公共厕所",
        "type": 0,
        "location": {
            "lat": 41.588579,
            "lng": 120.478131
        },
        "ad_info": {
            "adcode": 211302,
            "province": "辽宁省",
            "city": "朝阳市",
            "district": "双塔区"
        }
    },
    {
        "id": "488983406493163225",
        "title": "公共厕所",
        "address": "辽宁省朝阳市北票市台吉大街与建设路三段交叉口东南方向120米左右",
        "tel": "",
        "category": "基础设施:公共设施:公共厕所",
        "type": 0,
        "location": {
            "lat": 41.800972,
            "lng": 120.754988
        },
        "ad_info": {
            "adcode": 211381,
            "province": "辽宁省",
            "city": "朝阳市",
            "district": "北票市"
        }
    },
    {
        "id": "8873063561566344553",
        "title": "公共厕所",
        "address": "辽宁省朝阳市喀喇沁左翼蒙古族自治县后小线西50米",
        "tel": "",
        "category": "基础设施:公共设施:公共厕所",
        "type": 0,
        "location": {
            "lat": 41.116906,
            "lng": 119.613658
        },
        "ad_info": {
            "adcode": 211324,
            "province": "辽宁省",
            "city": "朝阳市",
            "district": "喀喇沁左翼蒙古族自治县"
        }
    },
    {
        "id": "8269802094996818946",
        "title": "公共厕所",
        "address": "辽宁省朝阳市双塔区友谊大街与淮河路交叉口西南方向220米左右",
        "tel": "",
        "category": "基础设施:公共设施:公共厕所",
        "type": 0,
        "location": {
            "lat": 41.590882,
            "lng": 120.44976
        },
        "ad_info": {
            "adcode": 211302,
            "province": "辽宁省",
            "city": "朝阳市",
            "district": "双塔区"
        }
    },
    {
        "id": "5432840284008831878",
        "title": "公共厕所",
        "address": "辽宁省朝阳市北票市金河大街与黄河路交叉口正西方向299米左右",
        "tel": "",
        "category": "基础设施:公共设施:公共厕所",
        "type": 0,
        "location": {
            "lat": 41.799587,
            "lng": 120.750108
        },
        "ad_info": {
            "adcode": 211381,
            "province": "辽宁省",
            "city": "朝阳市",
            "district": "北票市"
        }
    },
    {
        "id": "17821116072817939215",
        "title": "公共厕所",
        "address": "辽宁省朝阳市北票市101国道北50米",
        "tel": "",
        "category": "基础设施:公共设施:公共厕所",
        "type": 0,
        "location": {
            "lat": 41.876092,
            "lng": 120.801157
        },
        "ad_info": {
            "adcode": 211381,
            "province": "辽宁省",
            "city": "朝阳市",
            "district": "北票市"
        }
    },
    {
        "id": "9418166077602434211",
        "title": "公共厕所",
        "address": "辽宁省朝阳市北票市庄林线与西沟路交叉口正北方向843米左右",
        "tel": "",
        "category": "基础设施:公共设施:公共厕所",
        "type": 0,
        "location": {
            "lat": 41.940275,
            "lng": 120.622673
        },
        "ad_info": {
            "adcode": 211381,
            "province": "辽宁省",
            "city": "朝阳市",
            "district": "北票市"
        }
    },
    {
        "id": "11096198204941425218",
        "title": "公共厕所",
        "address": "辽宁省朝阳市建平县环城路海翼花苑",
        "tel": "",
        "category": "基础设施:公共设施:公共厕所",
        "type": 0,
        "location": {
            "lat": 41.394313,
            "lng": 119.634714
        },
        "ad_info": {
            "adcode": 211322,
            "province": "辽宁省",
            "city": "朝阳市",
            "district": "建平县"
        }
    },
    {
        "id": "989221287026406672",
        "title": "公共厕所",
        "address": "辽宁省朝阳市北票市中华路一段与中华路二段交叉口正东方向130米左右",
        "tel": "",
        "category": "基础设施:公共设施:公共厕所",
        "type": 0,
        "location": {
            "lat": 41.809593,
            "lng": 120.761005
        },
        "ad_info": {
            "adcode": 211381,
            "province": "辽宁省",
            "city": "朝阳市",
            "district": "北票市"
        }
    },
    {
        "id": "10129520704452780709",
        "title": "公共厕所",
        "address": "辽宁省朝阳市喀喇沁左翼蒙古族自治县建设路与财富街交叉口正北方向143米左右",
        "tel": "",
        "category": "基础设施:公共设施:公共厕所",
        "type": 0,
        "location": {
            "lat": 41.12412,
            "lng": 119.747795
        },
        "ad_info": {
            "adcode": 211324,
            "province": "辽宁省",
            "city": "朝阳市",
            "district": "喀喇沁左翼蒙古族自治县"
        }
    },
    {
        "id": "13629833298206688991",
        "title": "公共厕所",
        "address": "辽宁省朝阳市北票市人民路三段与市府街一段交叉口西北方向24米左右",
        "tel": "",
        "category": "基础设施:公共设施:公共厕所",
        "type": 0,
        "location": {
            "lat": 41.803324,
            "lng": 120.773832
        },
        "ad_info": {
            "adcode": 211381,
            "province": "辽宁省",
            "city": "朝阳市",
            "district": "北票市"
        }
    },
    {
        "id": "6132081635013297534",
        "title": "公共厕所",
        "address": "辽宁省朝阳市喀喇沁左翼蒙古族自治县上海路与苏州街交叉口西北方向275米左右",
        "tel": "",
        "category": "基础设施:公共设施:公共厕所",
        "type": 0,
        "location": {
            "lat": 41.111213,
            "lng": 119.742295
        },
        "ad_info": {
            "adcode": 211324,
            "province": "辽宁省",
            "city": "朝阳市",
            "district": "喀喇沁左翼蒙古族自治县"
        }
    },
    {
        "id": "14392254324029429974",
        "title": "公共厕所",
        "address": "辽宁省朝阳市双塔区朝阳大街与柳城路交叉口西北方向59米左右",
        "tel": "",
        "category": "基础设施:公共设施:公共厕所",
        "type": 0,
        "location": {
            "lat": 41.572455,
            "lng": 120.450149
        },
        "ad_info": {
            "adcode": 211302,
            "province": "辽宁省",
            "city": "朝阳市",
            "district": "双塔区"
        }
    },
    {
        "id": "18180247115129752859",
        "title": "公共厕所",
        "address": "辽宁省朝阳市凌源市商业步行街与朝阳路交叉口西北方向65米左右",
        "tel": "",
        "category": "基础设施:公共设施:公共厕所",
        "type": 0,
        "location": {
            "lat": 41.243308,
            "lng": 119.400697
        },
        "ad_info": {
            "adcode": 211382,
            "province": "辽宁省",
            "city": "朝阳市",
            "district": "凌源市"
        }
    },
    {
        "id": "9720805474365326711",
        "title": "公共厕所",
        "address": "辽宁省朝阳市凌源市市场东路与育红胡同交叉口东南方向33米左右",
        "tel": "",
        "category": "基础设施:公共设施:公共厕所",
        "type": 0,
        "location": {
            "lat": 41.244125,
            "lng": 119.41195
        },
        "ad_info": {
            "adcode": 211382,
            "province": "辽宁省",
            "city": "朝阳市",
            "district": "凌源市"
        }
    },
    {
        "id": "16990616979455496311",
        "title": "公共厕所",
        "address": "辽宁省朝阳市喀喇沁左翼蒙古族自治县中兴街与建三线交叉口西北方向174米左右",
        "tel": "",
        "category": "基础设施:公共设施:公共厕所",
        "type": 0,
        "location": {
            "lat": 41.359622,
            "lng": 119.845239
        },
        "ad_info": {
            "adcode": 211324,
            "province": "辽宁省",
            "city": "朝阳市",
            "district": "喀喇沁左翼蒙古族自治县"
        }
    },
    {
        "id": "6314330089028224274",
        "title": "公共厕所",
        "address": "辽宁省朝阳市双塔区朝巴线与朝骆线交叉口西南方向61米左右",
        "tel": "",
        "category": "基础设施:公共设施:公共厕所",
        "type": 0,
        "location": {
            "lat": 41.603225,
            "lng": 120.620677
        },
        "ad_info": {
            "adcode": 211302,
            "province": "辽宁省",
            "city": "朝阳市",
            "district": "双塔区"
        }
    },
    {
        "id": "17329494104245374517",
        "title": "公共厕所",
        "address": "辽宁省朝阳市喀喇沁左翼蒙古族自治县健康路与古塔街交叉口正北方向513米左右",
        "tel": "",
        "category": "基础设施:公共设施:公共厕所",
        "type": 0,
        "location": {
            "lat": 41.132956,
            "lng": 119.752115
        },
        "ad_info": {
            "adcode": 211324,
            "province": "辽宁省",
            "city": "朝阳市",
            "district": "喀喇沁左翼蒙古族自治县"
        }
    },
    {
        "id": "14297563913199693866",
        "title": "公共厕所",
        "address": "辽宁省朝阳市喀喇沁左翼蒙古族自治县新华街喀左蒙高中",
        "tel": "",
        "category": "基础设施:公共设施:公共厕所",
        "type": 0,
        "location": {
            "lat": 41.127133,
            "lng": 119.755653
        },
        "ad_info": {
            "adcode": 211324,
            "province": "辽宁省",
            "city": "朝阳市",
            "district": "喀喇沁左翼蒙古族自治县"
        }
    },
    {
        "id": "10033779813478918806",
        "title": "公共厕所",
        "address": "辽宁省朝阳市龙城区双细路与长江路交叉口正西方向32米左右",
        "tel": "",
        "category": "基础设施:公共设施:公共厕所",
        "type": 0,
        "location": {
            "lat": 41.595808,
            "lng": 120.435155
        },
        "ad_info": {
            "adcode": 211303,
            "province": "辽宁省",
            "city": "朝阳市",
            "district": "龙城区"
        }
    },
    {
        "id": "13190931246346544594",
        "title": "公共厕所",
        "address": "辽宁省朝阳市喀喇沁左翼蒙古族自治县建设路与民族街交叉口正南方向68米左右",
        "tel": "",
        "category": "基础设施:公共设施:公共厕所",
        "type": 0,
        "location": {
            "lat": 41.123195,
            "lng": 119.745372
        },
        "ad_info": {
            "adcode": 211324,
            "province": "辽宁省",
            "city": "朝阳市",
            "district": "喀喇沁左翼蒙古族自治县"
        }
    },
    {
        "id": "11361451954146372266",
        "title": "公共厕所",
        "address": "辽宁省朝阳市喀喇沁左翼蒙古族自治县团结路与青年街交叉口正南方向55米左右",
        "tel": "",
        "category": "基础设施:公共设施:公共厕所",
        "type": 0,
        "location": {
            "lat": 41.12629,
            "lng": 119.74269
        },
        "ad_info": {
            "adcode": 211324,
            "province": "辽宁省",
            "city": "朝阳市",
            "district": "喀喇沁左翼蒙古族自治县"
        }
    },
    {
        "id": "8627940671507318427",
        "title": "公共厕所",
        "address": "辽宁省朝阳市凌源市飞虎原味烤肉东北侧",
        "tel": "",
        "category": "基础设施:公共设施:公共厕所",
        "type": 0,
        "location": {
            "lat": 41.268349,
            "lng": 119.395295
        },
        "ad_info": {
            "adcode": 211382,
            "province": "辽宁省",
            "city": "朝阳市",
            "district": "凌源市"
        }
    },
    {
        "id": "8249758838528571114",
        "title": "公共厕所",
        "address": "辽宁省朝阳市凌源市东环路与迎宾路东段交叉口西南方向59米左右",
        "tel": "",
        "category": "基础设施:公共设施:公共厕所",
        "type": 0,
        "location": {
            "lat": 41.247961,
            "lng": 119.41439
        },
        "ad_info": {
            "adcode": 211382,
            "province": "辽宁省",
            "city": "朝阳市",
            "district": "凌源市"
        }
    },
    {
        "id": "11937767810750891274",
        "title": "公共厕所",
        "address": "辽宁省朝阳市龙城区中山大街与云水路五段交叉口西北方向322米左右",
        "tel": "",
        "category": "基础设施:公共设施:公共厕所",
        "type": 0,
        "location": {
            "lat": 41.588625,
            "lng": 120.429455
        },
        "ad_info": {
            "adcode": 211303,
            "province": "辽宁省",
            "city": "朝阳市",
            "district": "龙城区"
        }
    },
    {
        "id": "11794394692569939607",
        "title": "公共卫生间",
        "address": "辽宁省朝阳市龙城区兴中路与龙翔大街交叉口西北方向167米左右",
        "tel": "",
        "category": "基础设施:公共设施:公共厕所",
        "type": 0,
        "location": {
            "lat": 41.571269,
            "lng": 120.411223
        },
        "ad_info": {
            "adcode": 211303,
            "province": "辽宁省",
            "city": "朝阳市",
            "district": "龙城区"
        }
    },
    {
        "id": "9824654165025160627",
        "title": "公共厕所",
        "address": "辽宁省朝阳市喀喇沁左翼蒙古族自治县318省道南50米",
        "tel": "",
        "category": "基础设施:公共设施:公共厕所",
        "type": 0,
        "location": {
            "lat": 41.207564,
            "lng": 119.559957
        },
        "ad_info": {
            "adcode": 211324,
            "province": "辽宁省",
            "city": "朝阳市",
            "district": "喀喇沁左翼蒙古族自治县"
        }
    },
    {
        "id": "7272969254418557395",
        "title": "公共厕所",
        "address": "辽宁省朝阳市喀喇沁左翼蒙古族自治县佳红综合商店西南侧130米",
        "tel": "",
        "category": "基础设施:公共设施:公共厕所",
        "type": 0,
        "location": {
            "lat": 41.13282,
            "lng": 119.74382
        },
        "ad_info": {
            "adcode": 211324,
            "province": "辽宁省",
            "city": "朝阳市",
            "district": "喀喇沁左翼蒙古族自治县"
        }
    },
    {
        "id": "6200067368129887049",
        "title": "公共厕所",
        "address": "辽宁省朝阳市龙城区G101与XD06交叉口东南方向42米左右",
        "tel": "",
        "category": "基础设施:公共设施:公共厕所",
        "type": 0,
        "location": {
            "lat": 41.539671,
            "lng": 120.308295
        },
        "ad_info": {
            "adcode": 211303,
            "province": "辽宁省",
            "city": "朝阳市",
            "district": "龙城区"
        }
    },
    {
        "id": "4866884218888972229",
        "title": "公共厕所",
        "address": "辽宁省朝阳市喀喇沁左翼蒙古族自治县健康路与民族街交叉口东北方向131米左右",
        "tel": "",
        "category": "基础设施:公共设施:公共厕所",
        "type": 0,
        "location": {
            "lat": 41.128518,
            "lng": 119.748723
        },
        "ad_info": {
            "adcode": 211324,
            "province": "辽宁省",
            "city": "朝阳市",
            "district": "喀喇沁左翼蒙古族自治县"
        }
    },
    {
        "id": "15641935304779877199",
        "title": "公共厕所",
        "address": "辽宁省朝阳市龙城区竹林路与龙安大街交叉口正东方向260米左右",
        "tel": "",
        "category": "基础设施:公共设施:公共厕所",
        "type": 0,
        "location": {
            "lat": 41.582031,
            "lng": 120.419804
        },
        "ad_info": {
            "adcode": 211303,
            "province": "辽宁省",
            "city": "朝阳市",
            "district": "龙城区"
        }
    },
    {
        "id": "5523389794950838902",
        "title": "公共厕所",
        "address": "辽宁省朝阳市喀喇沁左翼蒙古族自治县凌云街与湖南路交叉口正南方向405米左右",
        "tel": "",
        "category": "基础设施:公共设施:公共厕所",
        "type": 0,
        "location": {
            "lat": 41.119667,
            "lng": 119.726389
        },
        "ad_info": {
            "adcode": 211324,
            "province": "辽宁省",
            "city": "朝阳市",
            "district": "喀喇沁左翼蒙古族自治县"
        }
    },
    {
        "id": "8653004263350320719",
        "title": "无障碍公共厕所",
        "address": "辽宁省朝阳市双塔区龙城路与营州路三段交叉口东南方向50米",
        "tel": "",
        "category": "基础设施:公共设施:公共厕所",
        "type": 0,
        "location": {
            "lat": 41.58341,
            "lng": 120.451473
        },
        "ad_info": {
            "adcode": 211302,
            "province": "辽宁省",
            "city": "朝阳市",
            "district": "双塔区"
        }
    },
    {
        "id": "3603463873037550464",
        "title": "公共厕所",
        "address": "辽宁省朝阳市龙城区红西线与锦赤线交叉口东南方向1503米左右",
        "tel": "",
        "category": "基础设施:公共设施:公共厕所",
        "type": 0,
        "location": {
            "lat": 41.655854,
            "lng": 120.293266
        },
        "ad_info": {
            "adcode": 211303,
            "province": "辽宁省",
            "city": "朝阳市",
            "district": "龙城区"
        }
    },
    {
        "id": "11052588293556014367",
        "title": "卫生间",
        "address": "辽宁省朝阳市北票市北房线与北纺路交叉口西北方向57米左右",
        "tel": "",
        "category": "基础设施:公共设施:公共厕所",
        "type": 0,
        "location": {
            "lat": 41.818613,
            "lng": 120.769163
        },
        "ad_info": {
            "adcode": 211381,
            "province": "辽宁省",
            "city": "朝阳市",
            "district": "北票市"
        }
    },
    {
        "id": "15482271015068362912",
        "title": "卫生间",
        "address": "辽宁省朝阳市北票市人民路与珠江街交叉口东北方向47米左右",
        "tel": "",
        "category": "基础设施:公共设施:公共厕所",
        "type": 0,
        "location": {
            "lat": 41.814379,
            "lng": 120.767931
        },
        "ad_info": {
            "adcode": 211381,
            "province": "辽宁省",
            "city": "朝阳市",
            "district": "北票市"
        }
    },
    {
        "id": "3133630874380085342",
        "title": "南塔公共厕所",
        "address": "辽宁省朝阳市双塔区南塔胡同与新华路交叉口正南方向63米左右",
        "tel": "",
        "category": "基础设施:公共设施:公共厕所",
        "type": 0,
        "location": {
            "lat": 41.575271,
            "lng": 120.458328
        },
        "ad_info": {
            "adcode": 211302,
            "province": "辽宁省",
            "city": "朝阳市",
            "district": "双塔区"
        }
    },
    {
        "id": "15334863532183739717",
        "title": "公共公共厕所",
        "address": "辽宁省朝阳市喀喇沁左翼蒙古族自治县团结路与民族街交叉口正东方向96米左右",
        "tel": "",
        "category": "基础设施:公共设施:公共厕所",
        "type": 0,
        "location": {
            "lat": 41.126582,
            "lng": 119.748558
        },
        "ad_info": {
            "adcode": 211324,
            "province": "辽宁省",
            "city": "朝阳市",
            "district": "喀喇沁左翼蒙古族自治县"
        }
    },
    {
        "id": "9323090366284473093",
        "title": "公共厕所",
        "address": "辽宁省朝阳市双塔区公安局向阳分局(怡静花园南)",
        "tel": "",
        "category": "基础设施:公共设施:公共厕所",
        "type": 0,
        "location": {
            "lat": 41.568951,
            "lng": 120.432028
        },
        "ad_info": {
            "adcode": 211302,
            "province": "辽宁省",
            "city": "朝阳市",
            "district": "双塔区"
        }
    },
    {
        "id": "6135224287671241434",
        "title": "肯德基(朝阳大街餐厅)-洗手间",
        "address": "辽宁省朝阳市双塔区朝阳大街四段1号朝阳兴隆大家庭3号门旁",
        "tel": "",
        "category": "基础设施:公共设施:公共厕所",
        "type": 0,
        "location": {
            "lat": 41.56773,
            "lng": 120.447263
        },
        "ad_info": {
            "adcode": 211302,
            "province": "辽宁省",
            "city": "朝阳市",
            "district": "双塔区"
        }
    },
    {
        "id": "10667553736822983938",
        "title": "柳园公共厕所",
        "address": "辽宁省朝阳市喀喇沁左翼蒙古族自治县利州街与建设路交叉口东南方向231米左右",
        "tel": "",
        "category": "基础设施:公共设施:公共厕所",
        "type": 0,
        "location": {
            "lat": 41.119271,
            "lng": 119.760462
        },
        "ad_info": {
            "adcode": 211324,
            "province": "辽宁省",
            "city": "朝阳市",
            "district": "喀喇沁左翼蒙古族自治县"
        }
    },
    {
        "id": "4795548827465906798",
        "title": "公共厕所",
        "address": "辽宁省朝阳市喀喇沁左翼蒙古族自治县建设路与清曲胡同交叉口西南方向58米左右",
        "tel": "",
        "category": "基础设施:公共设施:公共厕所",
        "type": 0,
        "location": {
            "lat": 41.121773,
            "lng": 119.749298
        },
        "ad_info": {
            "adcode": 211324,
            "province": "辽宁省",
            "city": "朝阳市",
            "district": "喀喇沁左翼蒙古族自治县"
        }
    },
    {
        "id": "13930369365776007471",
        "title": "天元广场公共厕所",
        "address": "辽宁省朝阳市凌源市红山路天元广场(东南角)",
        "tel": "",
        "category": "基础设施:公共设施:公共厕所",
        "type": 0,
        "location": {
            "lat": 41.252981,
            "lng": 119.409915
        },
        "ad_info": {
            "adcode": 211382,
            "province": "辽宁省",
            "city": "朝阳市",
            "district": "凌源市"
        }
    },
    {
        "id": "11844696035217477992",
        "title": "老建平服务区公共厕所",
        "address": "辽宁省朝阳市建平县G16丹锡高速附近",
        "tel": "",
        "category": "基础设施:公共设施:公共厕所",
        "type": 0,
        "location": {
            "lat": 41.930415,
            "lng": 119.736135
        },
        "ad_info": {
            "adcode": 211322,
            "province": "辽宁省",
            "city": "朝阳市",
            "district": "建平县"
        }
    },
    {
        "id": "6597503624570486211",
        "title": "老建平服务区公共厕所",
        "address": "辽宁省朝阳市建平县G16丹锡高速南150米",
        "tel": "",
        "category": "基础设施:公共设施:公共厕所",
        "type": 0,
        "location": {
            "lat": 41.928602,
            "lng": 119.73479
        },
        "ad_info": {
            "adcode": 211322,
            "province": "辽宁省",
            "city": "朝阳市",
            "district": "建平县"
        }
    },
    {
        "id": "15038570206319618922",
        "title": "大庙服务区公共厕所",
        "address": "辽宁省朝阳市朝阳县G16丹锡高速东150米",
        "tel": "",
        "category": "基础设施:公共设施:公共厕所",
        "type": 0,
        "location": {
            "lat": 41.709023,
            "lng": 120.250207
        },
        "ad_info": {
            "adcode": 211321,
            "province": "辽宁省",
            "city": "朝阳市",
            "district": "朝阳县"
        }
    },
    {
        "id": "12848651045929908637",
        "title": "马友营服务区第二公共厕所",
        "address": "辽宁省朝阳市北票市G25长深高速与马友营服务区交叉口西南200米",
        "tel": "",
        "category": "基础设施:公共设施:公共厕所",
        "type": 0,
        "location": {
            "lat": 41.938436,
            "lng": 121.121619
        },
        "ad_info": {
            "adcode": 211381,
            "province": "辽宁省",
            "city": "朝阳市",
            "district": "北票市"
        }
    },
    {
        "id": "16391359512925812667",
        "title": "松岭门服务区公共厕所",
        "address": "辽宁省朝阳市朝阳县东大屯乡丹锡高速公路松岭门服务区",
        "tel": "",
        "category": "基础设施:公共设施:公共厕所",
        "type": 0,
        "location": {
            "lat": 41.281119,
            "lng": 120.656265
        },
        "ad_info": {
            "adcode": 211321,
            "province": "辽宁省",
            "city": "朝阳市",
            "district": "朝阳县"
        }
    },
    {
        "id": "1378697782010905655",
        "title": "朝阳服务区公共厕所",
        "address": "辽宁省朝阳市龙城区长深高速",
        "tel": "",
        "category": "基础设施:公共设施:公共厕所",
        "type": 0,
        "location": {
            "lat": 41.523997,
            "lng": 120.169272
        },
        "ad_info": {
            "adcode": 211303,
            "province": "辽宁省",
            "city": "朝阳市",
            "district": "龙城区"
        }
    },
    {
        "id": "14675503211516705149",
        "title": "桃花吐服务区第一公共厕所",
        "address": "辽宁省朝阳市双塔区G25长深高速附近",
        "tel": "",
        "category": "基础设施:公共设施:公共厕所",
        "type": 0,
        "location": {
            "lat": 41.739259,
            "lng": 120.608011
        },
        "ad_info": {
            "adcode": 211302,
            "province": "辽宁省",
            "city": "朝阳市",
            "district": "双塔区"
        }
    },
    {
        "id": "17973870802319463976",
        "title": "马友营服务区公共厕所",
        "address": "辽宁省朝阳市北票市长深高速公路马友营服务区",
        "tel": "",
        "category": "基础设施:公共设施:公共厕所",
        "type": 0,
        "location": {
            "lat": 41.936882,
            "lng": 121.120914
        },
        "ad_info": {
            "adcode": 211381,
            "province": "辽宁省",
            "city": "朝阳市",
            "district": "北票市"
        }
    },
    {
        "id": "18150642733760231974",
        "title": "桃花吐服务区公共厕所",
        "address": "辽宁省朝阳市双塔区桃花吐服务区(长深高速公路北)",
        "tel": "",
        "category": "基础设施:公共设施:公共厕所",
        "type": 0,
        "location": {
            "lat": 41.741121,
            "lng": 120.606031
        },
        "ad_info": {
            "adcode": 211302,
            "province": "辽宁省",
            "city": "朝阳市",
            "district": "双塔区"
        }
    },
    {
        "id": "14419374674735794593",
        "title": "三十家子服务区公共厕所",
        "address": "辽宁省朝阳市凌源市长深高速公路三十家子服务区附近",
        "tel": "",
        "category": "基础设施:公共设施:公共厕所",
        "type": 0,
        "location": {
            "lat": 40.99448,
            "lng": 119.033858
        },
        "ad_info": {
            "adcode": 211382,
            "province": "辽宁省",
            "city": "朝阳市",
            "district": "凌源市"
        }
    },
    {
        "id": "6716679139691661048",
        "title": "朝阳服务区公共厕所",
        "address": "辽宁省朝阳市龙城区G101与大炮线交叉口正西方向1819米左右",
        "tel": "",
        "category": "基础设施:公共设施:公共厕所",
        "type": 0,
        "location": {
            "lat": 41.522153,
            "lng": 120.171645
        },
        "ad_info": {
            "adcode": 211303,
            "province": "辽宁省",
            "city": "朝阳市",
            "district": "龙城区"
        }
    },
    {
        "id": "13426564171680334547",
        "title": "三十家子服务区公共厕所",
        "address": "辽宁省朝阳市凌源市G25长深高速与三十家子服务区交叉口西460米",
        "tel": "",
        "category": "基础设施:公共设施:公共厕所",
        "type": 0,
        "location": {
            "lat": 40.996295,
            "lng": 119.033764
        },
        "ad_info": {
            "adcode": 211382,
            "province": "辽宁省",
            "city": "朝阳市",
            "district": "凌源市"
        }
    },
    {
        "id": "17781179317555093530",
        "title": "牛河梁服务区公共厕所",
        "address": "辽宁省朝阳市建平县长深高速牛河梁服务区",
        "tel": "",
        "category": "基础设施:公共设施:公共厕所",
        "type": 0,
        "location": {
            "lat": 41.371929,
            "lng": 119.622613
        },
        "ad_info": {
            "adcode": 211322,
            "province": "辽宁省",
            "city": "朝阳市",
            "district": "建平县"
        }
    },
    {
        "id": "184843895961975271",
        "title": "松岭门服务区公共厕所",
        "address": "辽宁省朝阳市朝阳县丹锡高速",
        "tel": "",
        "category": "基础设施:公共设施:公共厕所",
        "type": 0,
        "location": {
            "lat": 41.282125,
            "lng": 120.658104
        },
        "ad_info": {
            "adcode": 211321,
            "province": "辽宁省",
            "city": "朝阳市",
            "district": "朝阳县"
        }
    },
    {
        "id": "17375044416572845394",
        "title": "公共厕所",
        "address": "辽宁省朝阳市凌源市市场路与红山路交叉口东南方向77米左右",
        "tel": "",
        "category": "基础设施:公共设施:公共厕所",
        "type": 0,
        "location": {
            "lat": 41.244394,
            "lng": 119.408636
        },
        "ad_info": {
            "adcode": 211382,
            "province": "辽宁省",
            "city": "朝阳市",
            "district": "凌源市"
        }
    },
    {
        "id": "14476170412314414825",
        "title": "公共厕所",
        "address": "辽宁省朝阳市龙城区文化路鑫丰园小区",
        "tel": "",
        "category": "基础设施:公共设施:公共厕所",
        "type": 0,
        "location": {
            "lat": 41.573307,
            "lng": 120.407675
        },
        "ad_info": {
            "adcode": 211303,
            "province": "辽宁省",
            "city": "朝阳市",
            "district": "龙城区"
        }
    },
    {
        "id": "13371051707127070224",
        "title": "公共厕所",
        "address": "辽宁省朝阳市建平县人民路与红旗街交叉口西南方向108米左右",
        "tel": "",
        "category": "基础设施:公共设施:公共厕所",
        "type": 0,
        "location": {
            "lat": 41.397553,
            "lng": 119.632664
        },
        "ad_info": {
            "adcode": 211322,
            "province": "辽宁省",
            "city": "朝阳市",
            "district": "建平县"
        }
    },
    {
        "id": "4563477176079810925",
        "title": "公共厕所",
        "address": "辽宁省朝阳市喀喇沁左翼蒙古族自治县健康路与常青街交叉口东北方向39米左右",
        "tel": "",
        "category": "基础设施:公共设施:公共厕所",
        "type": 0,
        "location": {
            "lat": 41.130165,
            "lng": 119.737357
        },
        "ad_info": {
            "adcode": 211324,
            "province": "辽宁省",
            "city": "朝阳市",
            "district": "喀喇沁左翼蒙古族自治县"
        }
    },
    {
        "id": "12339624406045011582",
        "title": "公共厕所",
        "address": "辽宁省朝阳市双塔区G101与白腰大桥交叉口东北方向174米左右",
        "tel": "",
        "category": "基础设施:公共设施:公共厕所",
        "type": 0,
        "location": {
            "lat": 41.668975,
            "lng": 120.55766
        },
        "ad_info": {
            "adcode": 211302,
            "province": "辽宁省",
            "city": "朝阳市",
            "district": "双塔区"
        }
    },
    {
        "id": "16046481419607422800",
        "title": "公共厕所",
        "address": "辽宁省朝阳市喀喇沁左翼蒙古族自治县湖北路北100米腾龙新城环卫公厕第27号",
        "tel": "",
        "category": "基础设施:公共设施:公共厕所",
        "type": 0,
        "location": {
            "lat": 41.125464,
            "lng": 119.732328
        },
        "ad_info": {
            "adcode": 211324,
            "province": "辽宁省",
            "city": "朝阳市",
            "district": "喀喇沁左翼蒙古族自治县"
        }
    },
    {
        "id": "6359187421387348474",
        "title": "公共厕所",
        "address": "辽宁省朝阳市喀喇沁左翼蒙古族自治县团结路与常青街交叉口西南方向222米左右",
        "tel": "",
        "category": "基础设施:公共设施:公共厕所",
        "type": 0,
        "location": {
            "lat": 41.127365,
            "lng": 119.733741
        },
        "ad_info": {
            "adcode": 211324,
            "province": "辽宁省",
            "city": "朝阳市",
            "district": "喀喇沁左翼蒙古族自治县"
        }
    },
    {
        "id": "18062245681944795408",
        "title": "公共厕所",
        "address": "辽宁省朝阳市凌源市南环路与恒泰街交叉口正西方向50米左右",
        "tel": "",
        "category": "基础设施:公共设施:公共厕所",
        "type": 0,
        "location": {
            "lat": 41.229341,
            "lng": 119.389416
        },
        "ad_info": {
            "adcode": 211382,
            "province": "辽宁省",
            "city": "朝阳市",
            "district": "凌源市"
        }
    },
    {
        "id": "805590328984017524",
        "title": "公共厕所",
        "address": "辽宁省朝阳市双塔区黄河小区西侧190米",
        "tel": "",
        "category": "基础设施:公共设施:公共厕所",
        "type": 0,
        "location": {
            "lat": 41.60035,
            "lng": 120.446762
        },
        "ad_info": {
            "adcode": 211302,
            "province": "辽宁省",
            "city": "朝阳市",
            "district": "双塔区"
        }
    },
    {
        "id": "5463877424279412813",
        "title": "公共厕所",
        "address": "辽宁省朝阳市双塔区友谊大街与文化路交叉口正西方向148米左右",
        "tel": "",
        "category": "基础设施:公共设施:公共厕所",
        "type": 0,
        "location": {
            "lat": 41.570699,
            "lng": 120.43856
        },
        "ad_info": {
            "adcode": 211302,
            "province": "辽宁省",
            "city": "朝阳市",
            "district": "双塔区"
        }
    },
    {
        "id": "11036309522862856062",
        "title": "公共厕所",
        "address": "辽宁省朝阳市喀喇沁左翼蒙古族自治县健康路与古塔街交叉口西北方向699米左右",
        "tel": "",
        "category": "基础设施:公共设施:公共厕所",
        "type": 0,
        "location": {
            "lat": 41.133864,
            "lng": 119.74913
        },
        "ad_info": {
            "adcode": 211324,
            "province": "辽宁省",
            "city": "朝阳市",
            "district": "喀喇沁左翼蒙古族自治县"
        }
    },
    {
        "id": "1826820232454301692",
        "title": "公共厕所",
        "address": "辽宁省朝阳市凌源市红山路凌源妇女儿童医院",
        "tel": "",
        "category": "基础设施:公共设施:公共厕所",
        "type": 0,
        "location": {
            "lat": 41.240646,
            "lng": 119.393675
        },
        "ad_info": {
            "adcode": 211382,
            "province": "辽宁省",
            "city": "朝阳市",
            "district": "凌源市"
        }
    },
    {
        "id": "16036447934254303088",
        "title": "公共卫生间",
        "address": "辽宁省朝阳市喀喇沁左翼蒙古族自治县古塔街与成都路交叉口东北方向149米左右",
        "tel": "",
        "category": "基础设施:公共设施:公共厕所",
        "type": 0,
        "location": {
            "lat": 41.120162,
            "lng": 119.751155
        },
        "ad_info": {
            "adcode": 211324,
            "province": "辽宁省",
            "city": "朝阳市",
            "district": "喀喇沁左翼蒙古族自治县"
        }
    },
    {
        "id": "3003923375400993789",
        "title": "公共厕所",
        "address": "辽宁省朝阳市凌源市G101与刘环线交叉口正东方向175米左右",
        "tel": "",
        "category": "基础设施:公共设施:公共厕所",
        "type": 0,
        "location": {
            "lat": 40.980157,
            "lng": 119.005309
        },
        "ad_info": {
            "adcode": 211382,
            "province": "辽宁省",
            "city": "朝阳市",
            "district": "凌源市"
        }
    },
    {
        "id": "14746432519393181074",
        "title": "公共厕所",
        "address": "辽宁省朝阳市凌源市南湖街与南环路交叉口正东方向75米左右",
        "tel": "",
        "category": "基础设施:公共设施:公共厕所",
        "type": 0,
        "location": {
            "lat": 41.229304,
            "lng": 119.399984
        },
        "ad_info": {
            "adcode": 211382,
            "province": "辽宁省",
            "city": "朝阳市",
            "district": "凌源市"
        }
    },
    {
        "id": "16599019109016287167",
        "title": "公共厕所",
        "address": "辽宁省朝阳市喀喇沁左翼蒙古族自治县叶大线与民族街交叉口正南方向355米左右",
        "tel": "",
        "category": "基础设施:公共设施:公共厕所",
        "type": 0,
        "location": {
            "lat": 41.141804,
            "lng": 119.753894
        },
        "ad_info": {
            "adcode": 211324,
            "province": "辽宁省",
            "city": "朝阳市",
            "district": "喀喇沁左翼蒙古族自治县"
        }
    },
    {
        "id": "853180465032403952",
        "title": "公共厕所",
        "address": "辽宁省朝阳市龙城区中山大街与黄河路交叉口正西方向325米左右",
        "tel": "",
        "category": "基础设施:公共设施:公共厕所",
        "type": 0,
        "location": {
            "lat": 41.601914,
            "lng": 120.445185
        },
        "ad_info": {
            "adcode": 211303,
            "province": "辽宁省",
            "city": "朝阳市",
            "district": "龙城区"
        }
    },
    {
        "id": "6392624376157747358",
        "title": "公共厕所",
        "address": "辽宁省朝阳市建平县叶柏寿海翼花苑一号楼",
        "tel": "",
        "category": "基础设施:公共设施:公共厕所",
        "type": 0,
        "location": {
            "lat": 41.394926,
            "lng": 119.636909
        },
        "ad_info": {
            "adcode": 211322,
            "province": "辽宁省",
            "city": "朝阳市",
            "district": "建平县"
        }
    },
    {
        "id": "9960020435813532579",
        "title": "公共厕所",
        "address": "辽宁省朝阳市双塔区凌河街与龙翔大街交叉口西南方向35米左右",
        "tel": "",
        "category": "基础设施:公共设施:公共厕所",
        "type": 0,
        "location": {
            "lat": 41.551695,
            "lng": 120.454285
        },
        "ad_info": {
            "adcode": 211302,
            "province": "辽宁省",
            "city": "朝阳市",
            "district": "双塔区"
        }
    },
    {
        "id": "2054016409874416255",
        "title": "公共厕所",
        "address": "辽宁省朝阳市凌源市东盛路与百合大街交叉口正东方向78米左右",
        "tel": "",
        "category": "基础设施:公共设施:公共厕所",
        "type": 0,
        "location": {
            "lat": 41.242285,
            "lng": 119.423269
        },
        "ad_info": {
            "adcode": 211382,
            "province": "辽宁省",
            "city": "朝阳市",
            "district": "凌源市"
        }
    },
    {
        "id": "5878664350322268813",
        "title": "公共厕所",
        "address": "辽宁省朝阳市北票市下三线与中宝大街交叉口正西方向25米左右",
        "tel": "",
        "category": "基础设施:公共设施:公共厕所",
        "type": 0,
        "location": {
            "lat": 41.866648,
            "lng": 120.846246
        },
        "ad_info": {
            "adcode": 211381,
            "province": "辽宁省",
            "city": "朝阳市",
            "district": "北票市"
        }
    },
    {
        "id": "14038580365119945518",
        "title": "公共卫生间",
        "address": "辽宁省朝阳市双塔区中山大街与海河路交叉口东南方向36米左右",
        "tel": "",
        "category": "基础设施:公共设施:公共厕所",
        "type": 0,
        "location": {
            "lat": 41.577995,
            "lng": 120.429824
        },
        "ad_info": {
            "adcode": 211302,
            "province": "辽宁省",
            "city": "朝阳市",
            "district": "双塔区"
        }
    },
    {
        "id": "15960342983647788019",
        "title": "公共厕所",
        "address": "辽宁省朝阳市建平县环城路与瑞兴大桥交叉口东北方向195米左右",
        "tel": "",
        "category": "基础设施:公共设施:公共厕所",
        "type": 0,
        "location": {
            "lat": 41.395194,
            "lng": 119.631944
        },
        "ad_info": {
            "adcode": 211322,
            "province": "辽宁省",
            "city": "朝阳市",
            "district": "建平县"
        }
    },
    {
        "id": "1946521775264631236",
        "title": "公共厕所",
        "address": "辽宁省朝阳市双塔区和平街与和平街二段交叉口正东方向143米左右",
        "tel": "",
        "category": "基础设施:公共设施:公共厕所",
        "type": 0,
        "location": {
            "lat": 41.581168,
            "lng": 120.437611
        },
        "ad_info": {
            "adcode": 211302,
            "province": "辽宁省",
            "city": "朝阳市",
            "district": "双塔区"
        }
    },
    {
        "id": "17789208112390173023",
        "title": "公共厕所",
        "address": "辽宁省朝阳市凌源市商业步行街鑫泰福临佳苑-一区",
        "tel": "",
        "category": "基础设施:公共设施:公共厕所",
        "type": 0,
        "location": {
            "lat": 41.241601,
            "lng": 119.401245
        },
        "ad_info": {
            "adcode": 211382,
            "province": "辽宁省",
            "city": "朝阳市",
            "district": "凌源市"
        }
    },
    {
        "id": "14921130555658793726",
        "title": "公共厕所",
        "address": "辽宁省朝阳市双塔区北大街与春华南巷交叉口正北方向96米左右",
        "tel": "",
        "category": "基础设施:公共设施:公共厕所",
        "type": 0,
        "location": {
            "lat": 41.590045,
            "lng": 120.469332
        },
        "ad_info": {
            "adcode": 211302,
            "province": "辽宁省",
            "city": "朝阳市",
            "district": "双塔区"
        }
    },
    {
        "id": "237269665546398126",
        "title": "公共卫生间",
        "address": "辽宁省朝阳市喀喇沁左翼蒙古族自治县健康路与古塔街交叉口正西方向95米左右",
        "tel": "",
        "category": "基础设施:公共设施:公共厕所",
        "type": 0,
        "location": {
            "lat": 41.128273,
            "lng": 119.752185
        },
        "ad_info": {
            "adcode": 211324,
            "province": "辽宁省",
            "city": "朝阳市",
            "district": "喀喇沁左翼蒙古族自治县"
        }
    },
    {
        "id": "2133926277525402704",
        "title": "公共厕所",
        "address": "辽宁省朝阳市龙城区王府花园",
        "tel": "",
        "category": "基础设施:公共设施:公共厕所",
        "type": 0,
        "location": {
            "lat": 41.580324,
            "lng": 120.416547
        },
        "ad_info": {
            "adcode": 211303,
            "province": "辽宁省",
            "city": "朝阳市",
            "district": "龙城区"
        }
    },
    {
        "id": "9807916029488260703",
        "title": "公共厕所",
        "address": "辽宁省朝阳市朝阳县朝阳小平实业职工公寓A座西北侧",
        "tel": "",
        "category": "基础设施:公共设施:公共厕所",
        "type": 0,
        "location": {
            "lat": 41.543122,
            "lng": 120.401377
        },
        "ad_info": {
            "adcode": 211321,
            "province": "辽宁省",
            "city": "朝阳市",
            "district": "朝阳县"
        }
    },
    {
        "id": "13356620951090584156",
        "title": "公共厕所",
        "address": "辽宁省朝阳市建平县中兴街与向阳街交叉口东北方向270米左右",
        "tel": "",
        "category": "基础设施:公共设施:公共厕所",
        "type": 0,
        "location": {
            "lat": 41.412678,
            "lng": 119.647485
        },
        "ad_info": {
            "adcode": 211322,
            "province": "辽宁省",
            "city": "朝阳市",
            "district": "建平县"
        }
    },
    {
        "id": "11361930398515578733",
        "title": "公共厕所",
        "address": "辽宁省朝阳市北票市南山街三段与黄河路交叉口正东方向232米左右",
        "tel": "",
        "category": "基础设施:公共设施:公共厕所",
        "type": 0,
        "location": {
            "lat": 41.797296,
            "lng": 120.755772
        },
        "ad_info": {
            "adcode": 211381,
            "province": "辽宁省",
            "city": "朝阳市",
            "district": "北票市"
        }
    },
    {
        "id": "6643814414113745858",
        "title": "公共厕所",
        "address": "辽宁省朝阳市凌源市红山路东段凌钢小区",
        "tel": "",
        "category": "基础设施:公共设施:公共厕所",
        "type": 0,
        "location": {
            "lat": 41.262106,
            "lng": 119.423302
        },
        "ad_info": {
            "adcode": 211382,
            "province": "辽宁省",
            "city": "朝阳市",
            "district": "凌源市"
        }
    },
    {
        "id": "9327370289475248929",
        "title": "公共厕所",
        "address": "辽宁省朝阳市北票市辉腾街与辉腾路交叉口东北方向234米左右",
        "tel": "",
        "category": "基础设施:公共设施:公共厕所",
        "type": 0,
        "location": {
            "lat": 41.927457,
            "lng": 120.625392
        },
        "ad_info": {
            "adcode": 211381,
            "province": "辽宁省",
            "city": "朝阳市",
            "district": "北票市"
        }
    },
    {
        "id": "15012963234587043347",
        "title": "公共厕所",
        "address": "辽宁省朝阳市喀喇沁左翼蒙古族自治县健康路与常青街交叉口东北方向155米左右",
        "tel": "",
        "category": "基础设施:公共设施:公共厕所",
        "type": 0,
        "location": {
            "lat": 41.131163,
            "lng": 119.737964
        },
        "ad_info": {
            "adcode": 211324,
            "province": "辽宁省",
            "city": "朝阳市",
            "district": "喀喇沁左翼蒙古族自治县"
        }
    },
    {
        "id": "9524081969043050475",
        "title": "公共厕所",
        "address": "辽宁省朝阳市喀喇沁左翼蒙古族自治县双桥大街利州国际",
        "tel": "",
        "category": "基础设施:公共设施:公共厕所",
        "type": 0,
        "location": {
            "lat": 41.123892,
            "lng": 119.762182
        },
        "ad_info": {
            "adcode": 211324,
            "province": "辽宁省",
            "city": "朝阳市",
            "district": "喀喇沁左翼蒙古族自治县"
        }
    },
    {
        "id": "2834245115171851517",
        "title": "公共厕所",
        "address": "辽宁省朝阳市北票市中华路与依山街交叉口西北方向35米左右",
        "tel": "",
        "category": "基础设施:公共设施:公共厕所",
        "type": 0,
        "location": {
            "lat": 41.796749,
            "lng": 120.773926
        },
        "ad_info": {
            "adcode": 211381,
            "province": "辽宁省",
            "city": "朝阳市",
            "district": "北票市"
        }
    },
    {
        "id": "17135458796847467532",
        "title": "公共厕所",
        "address": "辽宁省朝阳市双塔区凤凰大街与右堤路交叉口正西方向75米左右",
        "tel": "",
        "category": "基础设施:公共设施:公共厕所",
        "type": 0,
        "location": {
            "lat": 41.553107,
            "lng": 120.466807
        },
        "ad_info": {
            "adcode": 211302,
            "province": "辽宁省",
            "city": "朝阳市",
            "district": "双塔区"
        }
    },
    {
        "id": "18048969373485467876",
        "title": "公共厕所",
        "address": "辽宁省朝阳市龙城区中山大街与淮河路交叉口正西方向71米左右",
        "tel": "",
        "category": "基础设施:公共设施:公共厕所",
        "type": 0,
        "location": {
            "lat": 41.597869,
            "lng": 120.442298
        },
        "ad_info": {
            "adcode": 211303,
            "province": "辽宁省",
            "city": "朝阳市",
            "district": "龙城区"
        }
    },
    {
        "id": "11688933720987195419",
        "title": "公共卫生间",
        "address": "辽宁省朝阳市建平县人民路与红旗街交叉口西南方向231米左右",
        "tel": "",
        "category": "基础设施:公共设施:公共厕所",
        "type": 0,
        "location": {
            "lat": 41.396926,
            "lng": 119.631365
        },
        "ad_info": {
            "adcode": 211322,
            "province": "辽宁省",
            "city": "朝阳市",
            "district": "建平县"
        }
    },
    {
        "id": "13124150488603251420",
        "title": "公共厕所",
        "address": "辽宁省朝阳市双塔区朝阳大街与燕山路交叉口正北方向105米左右",
        "tel": "",
        "category": "基础设施:公共设施:公共厕所",
        "type": 0,
        "location": {
            "lat": 41.594828,
            "lng": 120.468305
        },
        "ad_info": {
            "adcode": 211302,
            "province": "辽宁省",
            "city": "朝阳市",
            "district": "双塔区"
        }
    },
    {
        "id": "7481481113621161454",
        "title": "公共厕所",
        "address": "辽宁省朝阳市双塔区北市胡同与慕容街交叉口西北方向106米左右",
        "tel": "",
        "category": "基础设施:公共设施:公共厕所",
        "type": 0,
        "location": {
            "lat": 41.581249,
            "lng": 120.460689
        },
        "ad_info": {
            "adcode": 211302,
            "province": "辽宁省",
            "city": "朝阳市",
            "district": "双塔区"
        }
    },
    {
        "id": "5660516614972803370",
        "title": "公共厕所",
        "address": "辽宁省朝阳市双塔区龙达街161正北方向90米",
        "tel": "",
        "category": "基础设施:公共设施:公共厕所",
        "type": 0,
        "location": {
            "lat": 41.56408,
            "lng": 120.415568
        },
        "ad_info": {
            "adcode": 211302,
            "province": "辽宁省",
            "city": "朝阳市",
            "district": "双塔区"
        }
    },
    {
        "id": "10360898976636337905",
        "title": "公共厕所",
        "address": "辽宁省朝阳市北票市中华路一段与长江街交叉口东北方向149米左右",
        "tel": "",
        "category": "基础设施:公共设施:公共厕所",
        "type": 0,
        "location": {
            "lat": 41.811863,
            "lng": 120.760257
        },
        "ad_info": {
            "adcode": 211381,
            "province": "辽宁省",
            "city": "朝阳市",
            "district": "北票市"
        }
    },
    {
        "id": "16298711619117217824",
        "title": "公共厕所",
        "address": "辽宁省朝阳市北票市振兴街与滨河路交叉口正北方向118米左右",
        "tel": "",
        "category": "基础设施:公共设施:公共厕所",
        "type": 0,
        "location": {
            "lat": 41.808579,
            "lng": 120.742931
        },
        "ad_info": {
            "adcode": 211381,
            "province": "辽宁省",
            "city": "朝阳市",
            "district": "北票市"
        }
    },
    {
        "id": "12607230389930781914",
        "title": "公共厕所",
        "address": "辽宁省朝阳市建平县人民路益安小区",
        "tel": "",
        "category": "基础设施:公共设施:公共厕所",
        "type": 0,
        "location": {
            "lat": 41.404931,
            "lng": 119.652052
        },
        "ad_info": {
            "adcode": 211322,
            "province": "辽宁省",
            "city": "朝阳市",
            "district": "建平县"
        }
    },
    {
        "id": "3625243626022809347",
        "title": "公共厕所",
        "address": "辽宁省朝阳市凌源市东环路与粮市路交叉口西北方向11米左右",
        "tel": "",
        "category": "基础设施:公共设施:公共厕所",
        "type": 0,
        "location": {
            "lat": 41.2455,
            "lng": 119.414931
        },
        "ad_info": {
            "adcode": 211382,
            "province": "辽宁省",
            "city": "朝阳市",
            "district": "凌源市"
        }
    },
    {
        "id": "9080825793034179803",
        "title": "公共厕所",
        "address": "辽宁省朝阳市喀喇沁左翼蒙古族自治县新华街新华广场(东南角)",
        "tel": "",
        "category": "基础设施:公共设施:公共厕所",
        "type": 0,
        "location": {
            "lat": 41.123186,
            "lng": 119.754575
        },
        "ad_info": {
            "adcode": 211324,
            "province": "辽宁省",
            "city": "朝阳市",
            "district": "喀喇沁左翼蒙古族自治县"
        }
    },
    {
        "id": "10366854591509755938",
        "title": "公共厕所",
        "address": "辽宁省朝阳市双塔区竹林路与营州路交叉口正南方向22米左右",
        "tel": "",
        "category": "基础设施:公共设施:公共厕所",
        "type": 0,
        "location": {
            "lat": 41.578599,
            "lng": 120.459108
        },
        "ad_info": {
            "adcode": 211302,
            "province": "辽宁省",
            "city": "朝阳市",
            "district": "双塔区"
        }
    },
    {
        "id": "8927071947907186250",
        "title": "公共厕所",
        "address": "辽宁省朝阳市建平县建三线与老宽线交叉口正南方向874米左右",
        "tel": "",
        "category": "基础设施:公共设施:公共厕所",
        "type": 0,
        "location": {
            "lat": 41.510976,
            "lng": 119.708354
        },
        "ad_info": {
            "adcode": 211322,
            "province": "辽宁省",
            "city": "朝阳市",
            "district": "建平县"
        }
    },
    {
        "id": "5757430333395967104",
        "title": "公共厕所",
        "address": "辽宁省朝阳市龙城区竹林路与龙凤大街交叉口正北方向245米左右",
        "tel": "",
        "category": "基础设施:公共设施:公共厕所",
        "type": 0,
        "location": {
            "lat": 41.584516,
            "lng": 120.421832
        },
        "ad_info": {
            "adcode": 211303,
            "province": "辽宁省",
            "city": "朝阳市",
            "district": "龙城区"
        }
    },
    {
        "id": "11401939818034342611",
        "title": "公共厕所",
        "address": "辽宁省朝阳市建平县京沈路与园丁巷交叉口东南50米",
        "tel": "",
        "category": "基础设施:公共设施:公共厕所",
        "type": 0,
        "location": {
            "lat": 41.404876,
            "lng": 119.633027
        },
        "ad_info": {
            "adcode": 211322,
            "province": "辽宁省",
            "city": "朝阳市",
            "district": "建平县"
        }
    },
    {
        "id": "2461452017274362276",
        "title": "公共厕所",
        "address": "辽宁省朝阳市喀喇沁左翼蒙古族自治县健康路与新华街交叉口西北方向300米左右",
        "tel": "",
        "category": "基础设施:公共设施:公共厕所",
        "type": 0,
        "location": {
            "lat": 41.1312,
            "lng": 119.753636
        },
        "ad_info": {
            "adcode": 211324,
            "province": "辽宁省",
            "city": "朝阳市",
            "district": "喀喇沁左翼蒙古族自治县"
        }
    },
    {
        "id": "13878683104363727798",
        "title": "公共厕所",
        "address": "辽宁省朝阳市双塔区凤凰大街与右堤路交叉口正北方向348米左右",
        "tel": "",
        "category": "基础设施:公共设施:公共厕所",
        "type": 0,
        "location": {
            "lat": 41.556147,
            "lng": 120.468663
        },
        "ad_info": {
            "adcode": 211302,
            "province": "辽宁省",
            "city": "朝阳市",
            "district": "双塔区"
        }
    },
    {
        "id": "12381707983819100693",
        "title": "公共厕所",
        "address": "辽宁省朝阳市北票市市府街一段与花园街交叉口正西方向133米左右",
        "tel": "",
        "category": "基础设施:公共设施:公共厕所",
        "type": 0,
        "location": {
            "lat": 41.80365,
            "lng": 120.77595
        },
        "ad_info": {
            "adcode": 211381,
            "province": "辽宁省",
            "city": "朝阳市",
            "district": "北票市"
        }
    },
    {
        "id": "1052773987203259165",
        "title": "公共厕所",
        "address": "辽宁省朝阳市北票市金马驹宴会厅东南侧130米",
        "tel": "",
        "category": "基础设施:公共设施:公共厕所",
        "type": 0,
        "location": {
            "lat": 41.834043,
            "lng": 120.71513
        },
        "ad_info": {
            "adcode": 211381,
            "province": "辽宁省",
            "city": "朝阳市",
            "district": "北票市"
        }
    },
    {
        "id": "15328854763371909421",
        "title": "公共厕所",
        "address": "辽宁省朝阳市喀喇沁左翼蒙古族自治县建三线与迎宾路交叉口正东方向106米左右",
        "tel": "",
        "category": "基础设施:公共设施:公共厕所",
        "type": 0,
        "location": {
            "lat": 41.356564,
            "lng": 119.850598
        },
        "ad_info": {
            "adcode": 211324,
            "province": "辽宁省",
            "city": "朝阳市",
            "district": "喀喇沁左翼蒙古族自治县"
        }
    },
    {
        "id": "6710204000676806556",
        "title": "公共厕所",
        "address": "辽宁省朝阳市喀喇沁左翼蒙古族自治县健康路与民族街交叉口正北方向365米左右",
        "tel": "",
        "category": "基础设施:公共设施:公共厕所",
        "type": 0,
        "location": {
            "lat": 41.130642,
            "lng": 119.746934
        },
        "ad_info": {
            "adcode": 211324,
            "province": "辽宁省",
            "city": "朝阳市",
            "district": "喀喇沁左翼蒙古族自治县"
        }
    },
    {
        "id": "12477259785010244792",
        "title": "牛河梁服务区公共厕所",
        "address": "辽宁省朝阳市建平县长深高速附近",
        "tel": "",
        "category": "基础设施:公共设施:公共厕所",
        "type": 0,
        "location": {
            "lat": 41.369806,
            "lng": 119.624157
        },
        "ad_info": {
            "adcode": 211322,
            "province": "辽宁省",
            "city": "朝阳市",
            "district": "建平县"
        }
    },
    {
        "id": "9722559150745654456",
        "title": "公共厕所",
        "address": "辽宁省朝阳市凌源市南环路与恒泰街交叉口正西方向77米左右",
        "tel": "",
        "category": "基础设施:公共设施:公共厕所",
        "type": 0,
        "location": {
            "lat": 41.229434,
            "lng": 119.389124
        },
        "ad_info": {
            "adcode": 211382,
            "province": "辽宁省",
            "city": "朝阳市",
            "district": "凌源市"
        }
    },
    {
        "id": "15190101122870688884",
        "title": "残障-洗手间",
        "address": "辽宁省朝阳市双塔区黄河路三段2号万达广场F3",
        "tel": "",
        "category": "基础设施:公共设施:无障碍洗手间",
        "type": 0,
        "location": {
            "lat": 41.59071,
            "lng": 120.462898
        },
        "ad_info": {
            "adcode": 211302,
            "province": "辽宁省",
            "city": "朝阳市",
            "district": "双塔区"
        }
    },
    {
        "id": "14391440816206648983",
        "title": "残障-洗手间",
        "address": "辽宁省朝阳市双塔区黄河路三段2号万达广场F4",
        "tel": "",
        "category": "基础设施:公共设施:无障碍洗手间",
        "type": 0,
        "location": {
            "lat": 41.59071,
            "lng": 120.4629
        },
        "ad_info": {
            "adcode": 211302,
            "province": "辽宁省",
            "city": "朝阳市",
            "district": "双塔区"
        }
    },
    {
        "id": "13317102783840866336",
        "title": "男洗手间",
        "address": "辽宁省朝阳市双塔区黄河路三段2号万达广场F4",
        "tel": "",
        "category": "基础设施:公共设施:男洗手间",
        "type": 0,
        "location": {
            "lat": 41.591933,
            "lng": 120.461118
        },
        "ad_info": {
            "adcode": 211302,
            "province": "辽宁省",
            "city": "朝阳市",
            "district": "双塔区"
        }
    },
    {
        "id": "10090795445620387864",
        "title": "公共厕所",
        "address": "辽宁省朝阳市北票市光明街与工农路交叉口正北方向73米左右",
        "tel": "",
        "category": "基础设施:公共设施:公共厕所",
        "type": 0,
        "location": {
            "lat": 41.813315,
            "lng": 120.775918
        },
        "ad_info": {
            "adcode": 211381,
            "province": "辽宁省",
            "city": "朝阳市",
            "district": "北票市"
        }
    },
    {
        "id": "14759130965863854558",
        "title": "公共厕所",
        "address": "辽宁省朝阳市建平县老建平互通与锦赤线交叉口正北方向42米左右",
        "tel": "",
        "category": "基础设施:公共设施:公共厕所",
        "type": 0,
        "location": {
            "lat": 41.899197,
            "lng": 119.769956
        },
        "ad_info": {
            "adcode": 211322,
            "province": "辽宁省",
            "city": "朝阳市",
            "district": "建平县"
        }
    },
    {
        "id": "15008048240325168461",
        "title": "公共厕所",
        "address": "辽宁省朝阳市双塔区坝上路与滨河西街交叉口正西方向93米左右",
        "tel": "",
        "category": "基础设施:公共设施:公共厕所",
        "type": 0,
        "location": {
            "lat": 41.584725,
            "lng": 120.47228
        },
        "ad_info": {
            "adcode": 211302,
            "province": "辽宁省",
            "city": "朝阳市",
            "district": "双塔区"
        }
    },
    {
        "id": "5374294077729887182",
        "title": "男洗手间",
        "address": "辽宁省朝阳市双塔区黄河路三段2号万达广场F4",
        "tel": "",
        "category": "基础设施:公共设施:男洗手间",
        "type": 0,
        "location": {
            "lat": 41.590678,
            "lng": 120.462909
        },
        "ad_info": {
            "adcode": 211302,
            "province": "辽宁省",
            "city": "朝阳市",
            "district": "双塔区"
        }
    },
    {
        "id": "7055059494171193188",
        "title": "二中公共厕所",
        "address": "辽宁省朝阳市建平县向阳街53号",
        "tel": "",
        "category": "基础设施:公共设施:公共厕所",
        "type": 0,
        "location": {
            "lat": 41.413972,
            "lng": 119.642524
        },
        "ad_info": {
            "adcode": 211322,
            "province": "辽宁省",
            "city": "朝阳市",
            "district": "建平县"
        }
    },
    {
        "id": "10934357237317294058",
        "title": "公共厕所(LN-ZY-0978)",
        "address": "辽宁省朝阳市建平县小叶线",
        "tel": "",
        "category": "基础设施:公共设施:公共厕所",
        "type": 0,
        "location": {
            "lat": 41.671109,
            "lng": 119.622301
        },
        "ad_info": {
            "adcode": 211322,
            "province": "辽宁省",
            "city": "朝阳市",
            "district": "建平县"
        }
    },
    {
        "id": "7557518054956531169",
        "title": "公共厕所",
        "address": "辽宁省朝阳市双塔区民生路与玉龙大街交叉口正南方向54米左右",
        "tel": "",
        "category": "基础设施:公共设施:公共厕所",
        "type": 0,
        "location": {
            "lat": 41.605091,
            "lng": 120.490618
        },
        "ad_info": {
            "adcode": 211302,
            "province": "辽宁省",
            "city": "朝阳市",
            "district": "双塔区"
        }
    },
    {
        "id": "16929773910464302488",
        "title": "公共厕所",
        "address": "辽宁省朝阳市龙城区兴中路与龙翔大街交叉口西北方向131米左右",
        "tel": "",
        "category": "基础设施:公共设施:公共厕所",
        "type": 0,
        "location": {
            "lat": 41.571044,
            "lng": 120.411543
        },
        "ad_info": {
            "adcode": 211303,
            "province": "辽宁省",
            "city": "朝阳市",
            "district": "龙城区"
        }
    },
    {
        "id": "1761880633235326406",
        "title": "公共厕所",
        "address": "辽宁省朝阳市双塔区凌河街255-1",
        "tel": "",
        "category": "基础设施:公共设施:公共厕所",
        "type": 0,
        "location": {
            "lat": 41.548503,
            "lng": 120.452961
        },
        "ad_info": {
            "adcode": 211302,
            "province": "辽宁省",
            "city": "朝阳市",
            "district": "双塔区"
        }
    },
    {
        "id": "11434089703908668638",
        "title": "男洗手间",
        "address": "辽宁省朝阳市双塔区黄河路三段2号万达广场F1",
        "tel": "",
        "category": "基础设施:公共设施:男洗手间",
        "type": 0,
        "location": {
            "lat": 41.592051,
            "lng": 120.461016
        },
        "ad_info": {
            "adcode": 211302,
            "province": "辽宁省",
            "city": "朝阳市",
            "district": "双塔区"
        }
    },
    {
        "id": "7045431005580463958",
        "title": "公共厕所",
        "address": "辽宁省朝阳市凌源市红山路西段142-9号",
        "tel": "",
        "category": "基础设施:公共设施:公共厕所",
        "type": 0,
        "location": {
            "lat": 41.235765,
            "lng": 119.39405
        },
        "ad_info": {
            "adcode": 211382,
            "province": "辽宁省",
            "city": "朝阳市",
            "district": "凌源市"
        }
    },
    {
        "id": "5066192777351854032",
        "title": "公共厕所",
        "address": "辽宁省朝阳市双塔区北大街与天心湖路交叉口正南方向111米左右",
        "tel": "",
        "category": "基础设施:公共设施:公共厕所",
        "type": 0,
        "location": {
            "lat": 41.585691,
            "lng": 120.467208
        },
        "ad_info": {
            "adcode": 211302,
            "province": "辽宁省",
            "city": "朝阳市",
            "district": "双塔区"
        }
    },
    {
        "id": "13910023708949428093",
        "title": "男洗手间(万达广场)",
        "address": "辽宁省朝阳市双塔区黄河路三段2号万达广场F3",
        "tel": "",
        "category": "基础设施:公共设施:男洗手间",
        "type": 0,
        "location": {
            "lat": 41.59205,
            "lng": 120.461008
        },
        "ad_info": {
            "adcode": 211302,
            "province": "辽宁省",
            "city": "朝阳市",
            "district": "双塔区"
        }
    },
    {
        "id": "13704609853412940901",
        "title": "女洗手间(万达广场)",
        "address": "辽宁省朝阳市双塔区黄河路三段2号万达广场F1",
        "tel": "",
        "category": "基础设施:公共设施:女洗手间",
        "type": 0,
        "location": {
            "lat": 41.592077,
            "lng": 120.46105
        },
        "ad_info": {
            "adcode": 211302,
            "province": "辽宁省",
            "city": "朝阳市",
            "district": "双塔区"
        }
    },
    {
        "id": "5985482973158046896",
        "title": "桃花吐服务区第二公共厕所",
        "address": "辽宁省朝阳市双塔区长深高速",
        "tel": "",
        "category": "基础设施:公共设施:公共厕所",
        "type": 0,
        "location": {
            "lat": 41.740117,
            "lng": 120.608429
        },
        "ad_info": {
            "adcode": 211302,
            "province": "辽宁省",
            "city": "朝阳市",
            "district": "双塔区"
        }
    },
    {
        "id": "14210544264070030527",
        "title": "男洗手间",
        "address": "辽宁省朝阳市双塔区黄河路三段2号万达广场F2",
        "tel": "",
        "category": "基础设施:公共设施:男洗手间",
        "type": 0,
        "location": {
            "lat": 41.590682,
            "lng": 120.462908
        },
        "ad_info": {
            "adcode": 211302,
            "province": "辽宁省",
            "city": "朝阳市",
            "district": "双塔区"
        }
    },
    {
        "id": "10668716550776817165",
        "title": "公共厕所",
        "address": "辽宁省朝阳市建平县人民路与环城路交叉口东南方向83米左右",
        "tel": "",
        "category": "基础设施:公共设施:公共厕所",
        "type": 0,
        "location": {
            "lat": 41.395779,
            "lng": 119.625597
        },
        "ad_info": {
            "adcode": 211322,
            "province": "辽宁省",
            "city": "朝阳市",
            "district": "建平县"
        }
    },
    {
        "id": "11911887980540689760",
        "title": "公共厕所",
        "address": "辽宁省朝阳市凌源市绥克线与金华路交叉口正南方向1670米左右",
        "tel": "",
        "category": "基础设施:公共设施:公共厕所",
        "type": 0,
        "location": {
            "lat": 41.208475,
            "lng": 119.433595
        },
        "ad_info": {
            "adcode": 211382,
            "province": "辽宁省",
            "city": "朝阳市",
            "district": "凌源市"
        }
    },
    {
        "id": "6230798009564784835",
        "title": "公共厕所",
        "address": "辽宁省朝阳市建平县人民路与长春街交叉口东北方向193米左右",
        "tel": "",
        "category": "基础设施:公共设施:公共厕所",
        "type": 0,
        "location": {
            "lat": 41.40729,
            "lng": 119.655384
        },
        "ad_info": {
            "adcode": 211322,
            "province": "辽宁省",
            "city": "朝阳市",
            "district": "建平县"
        }
    },
    {
        "id": "13317102783840866336",
        "title": "男洗手间",
        "address": "辽宁省朝阳市双塔区黄河路三段2号万达广场F4",
        "tel": "",
        "category": "基础设施:公共设施:男洗手间",
        "type": 0,
        "location": {
            "lat": 41.591933,
            "lng": 120.461118
        },
        "ad_info": {
            "adcode": 211302,
            "province": "辽宁省",
            "city": "朝阳市",
            "district": "双塔区"
        }
    },
    {
        "id": "10090795445620387864",
        "title": "公共厕所",
        "address": "辽宁省朝阳市北票市光明街与工农路交叉口正北方向73米左右",
        "tel": "",
        "category": "基础设施:公共设施:公共厕所",
        "type": 0,
        "location": {
            "lat": 41.813315,
            "lng": 120.775918
        },
        "ad_info": {
            "adcode": 211381,
            "province": "辽宁省",
            "city": "朝阳市",
            "district": "北票市"
        }
    },
    {
        "id": "14759130965863854558",
        "title": "公共厕所",
        "address": "辽宁省朝阳市建平县老建平互通与锦赤线交叉口正北方向42米左右",
        "tel": "",
        "category": "基础设施:公共设施:公共厕所",
        "type": 0,
        "location": {
            "lat": 41.899197,
            "lng": 119.769956
        },
        "ad_info": {
            "adcode": 211322,
            "province": "辽宁省",
            "city": "朝阳市",
            "district": "建平县"
        }
    },
    {
        "id": "15008048240325168461",
        "title": "公共厕所",
        "address": "辽宁省朝阳市双塔区坝上路与滨河西街交叉口正西方向93米左右",
        "tel": "",
        "category": "基础设施:公共设施:公共厕所",
        "type": 0,
        "location": {
            "lat": 41.584725,
            "lng": 120.47228
        },
        "ad_info": {
            "adcode": 211302,
            "province": "辽宁省",
            "city": "朝阳市",
            "district": "双塔区"
        }
    },
    {
        "id": "5374294077729887182",
        "title": "男洗手间",
        "address": "辽宁省朝阳市双塔区黄河路三段2号万达广场F4",
        "tel": "",
        "category": "基础设施:公共设施:男洗手间",
        "type": 0,
        "location": {
            "lat": 41.590678,
            "lng": 120.462909
        },
        "ad_info": {
            "adcode": 211302,
            "province": "辽宁省",
            "city": "朝阳市",
            "district": "双塔区"
        }
    },
    {
        "id": "7055059494171193188",
        "title": "二中公共厕所",
        "address": "辽宁省朝阳市建平县向阳街53号",
        "tel": "",
        "category": "基础设施:公共设施:公共厕所",
        "type": 0,
        "location": {
            "lat": 41.413972,
            "lng": 119.642524
        },
        "ad_info": {
            "adcode": 211322,
            "province": "辽宁省",
            "city": "朝阳市",
            "district": "建平县"
        }
    },
    {
        "id": "10934357237317294058",
        "title": "公共厕所(LN-ZY-0978)",
        "address": "辽宁省朝阳市建平县小叶线",
        "tel": "",
        "category": "基础设施:公共设施:公共厕所",
        "type": 0,
        "location": {
            "lat": 41.671109,
            "lng": 119.622301
        },
        "ad_info": {
            "adcode": 211322,
            "province": "辽宁省",
            "city": "朝阳市",
            "district": "建平县"
        }
    },
    {
        "id": "7557518054956531169",
        "title": "公共厕所",
        "address": "辽宁省朝阳市双塔区民生路与玉龙大街交叉口正南方向54米左右",
        "tel": "",
        "category": "基础设施:公共设施:公共厕所",
        "type": 0,
        "location": {
            "lat": 41.605091,
            "lng": 120.490618
        },
        "ad_info": {
            "adcode": 211302,
            "province": "辽宁省",
            "city": "朝阳市",
            "district": "双塔区"
        }
    },
    {
        "id": "16929773910464302488",
        "title": "公共厕所",
        "address": "辽宁省朝阳市龙城区兴中路与龙翔大街交叉口西北方向131米左右",
        "tel": "",
        "category": "基础设施:公共设施:公共厕所",
        "type": 0,
        "location": {
            "lat": 41.571044,
            "lng": 120.411543
        },
        "ad_info": {
            "adcode": 211303,
            "province": "辽宁省",
            "city": "朝阳市",
            "district": "龙城区"
        }
    },
    {
        "id": "1761880633235326406",
        "title": "公共厕所",
        "address": "辽宁省朝阳市双塔区凌河街255-1",
        "tel": "",
        "category": "基础设施:公共设施:公共厕所",
        "type": 0,
        "location": {
            "lat": 41.548503,
            "lng": 120.452961
        },
        "ad_info": {
            "adcode": 211302,
            "province": "辽宁省",
            "city": "朝阳市",
            "district": "双塔区"
        }
    },
    {
        "id": "11434089703908668638",
        "title": "男洗手间",
        "address": "辽宁省朝阳市双塔区黄河路三段2号万达广场F1",
        "tel": "",
        "category": "基础设施:公共设施:男洗手间",
        "type": 0,
        "location": {
            "lat": 41.592051,
            "lng": 120.461016
        },
        "ad_info": {
            "adcode": 211302,
            "province": "辽宁省",
            "city": "朝阳市",
            "district": "双塔区"
        }
    },
    {
        "id": "7045431005580463958",
        "title": "公共厕所",
        "address": "辽宁省朝阳市凌源市红山路西段142-9号",
        "tel": "",
        "category": "基础设施:公共设施:公共厕所",
        "type": 0,
        "location": {
            "lat": 41.235765,
            "lng": 119.39405
        },
        "ad_info": {
            "adcode": 211382,
            "province": "辽宁省",
            "city": "朝阳市",
            "district": "凌源市"
        }
    },
    {
        "id": "5066192777351854032",
        "title": "公共厕所",
        "address": "辽宁省朝阳市双塔区北大街与天心湖路交叉口正南方向111米左右",
        "tel": "",
        "category": "基础设施:公共设施:公共厕所",
        "type": 0,
        "location": {
            "lat": 41.585691,
            "lng": 120.467208
        },
        "ad_info": {
            "adcode": 211302,
            "province": "辽宁省",
            "city": "朝阳市",
            "district": "双塔区"
        }
    },
    {
        "id": "13910023708949428093",
        "title": "男洗手间(万达广场)",
        "address": "辽宁省朝阳市双塔区黄河路三段2号万达广场F3",
        "tel": "",
        "category": "基础设施:公共设施:男洗手间",
        "type": 0,
        "location": {
            "lat": 41.59205,
            "lng": 120.461008
        },
        "ad_info": {
            "adcode": 211302,
            "province": "辽宁省",
            "city": "朝阳市",
            "district": "双塔区"
        }
    },
    {
        "id": "13704609853412940901",
        "title": "女洗手间(万达广场)",
        "address": "辽宁省朝阳市双塔区黄河路三段2号万达广场F1",
        "tel": "",
        "category": "基础设施:公共设施:女洗手间",
        "type": 0,
        "location": {
            "lat": 41.592077,
            "lng": 120.46105
        },
        "ad_info": {
            "adcode": 211302,
            "province": "辽宁省",
            "city": "朝阳市",
            "district": "双塔区"
        }
    },
    {
        "id": "5985482973158046896",
        "title": "桃花吐服务区第二公共厕所",
        "address": "辽宁省朝阳市双塔区长深高速",
        "tel": "",
        "category": "基础设施:公共设施:公共厕所",
        "type": 0,
        "location": {
            "lat": 41.740117,
            "lng": 120.608429
        },
        "ad_info": {
            "adcode": 211302,
            "province": "辽宁省",
            "city": "朝阳市",
            "district": "双塔区"
        }
    },
    {
        "id": "14210544264070030527",
        "title": "男洗手间",
        "address": "辽宁省朝阳市双塔区黄河路三段2号万达广场F2",
        "tel": "",
        "category": "基础设施:公共设施:男洗手间",
        "type": 0,
        "location": {
            "lat": 41.590682,
            "lng": 120.462908
        },
        "ad_info": {
            "adcode": 211302,
            "province": "辽宁省",
            "city": "朝阳市",
            "district": "双塔区"
        }
    },
    {
        "id": "10668716550776817165",
        "title": "公共厕所",
        "address": "辽宁省朝阳市建平县人民路与环城路交叉口东南方向83米左右",
        "tel": "",
        "category": "基础设施:公共设施:公共厕所",
        "type": 0,
        "location": {
            "lat": 41.395779,
            "lng": 119.625597
        },
        "ad_info": {
            "adcode": 211322,
            "province": "辽宁省",
            "city": "朝阳市",
            "district": "建平县"
        }
    },
    {
        "id": "11911887980540689760",
        "title": "公共厕所",
        "address": "辽宁省朝阳市凌源市绥克线与金华路交叉口正南方向1670米左右",
        "tel": "",
        "category": "基础设施:公共设施:公共厕所",
        "type": 0,
        "location": {
            "lat": 41.208475,
            "lng": 119.433595
        },
        "ad_info": {
            "adcode": 211382,
            "province": "辽宁省",
            "city": "朝阳市",
            "district": "凌源市"
        }
    },
    {
        "id": "6230798009564784835",
        "title": "公共厕所",
        "address": "辽宁省朝阳市建平县人民路与长春街交叉口东北方向193米左右",
        "tel": "",
        "category": "基础设施:公共设施:公共厕所",
        "type": 0,
        "location": {
            "lat": 41.40729,
            "lng": 119.655384
        },
        "ad_info": {
            "adcode": 211322,
            "province": "辽宁省",
            "city": "朝阳市",
            "district": "建平县"
        }
    },
    {
        "id": "13317102783840866336",
        "title": "男洗手间",
        "address": "辽宁省朝阳市双塔区黄河路三段2号万达广场F4",
        "tel": "",
        "category": "基础设施:公共设施:男洗手间",
        "type": 0,
        "location": {
            "lat": 41.591933,
            "lng": 120.461118
        },
        "ad_info": {
            "adcode": 211302,
            "province": "辽宁省",
            "city": "朝阳市",
            "district": "双塔区"
        }
    },
    {
        "id": "10090795445620387864",
        "title": "公共厕所",
        "address": "辽宁省朝阳市北票市光明街与工农路交叉口正北方向73米左右",
        "tel": "",
        "category": "基础设施:公共设施:公共厕所",
        "type": 0,
        "location": {
            "lat": 41.813315,
            "lng": 120.775918
        },
        "ad_info": {
            "adcode": 211381,
            "province": "辽宁省",
            "city": "朝阳市",
            "district": "北票市"
        }
    },
    {
        "id": "14759130965863854558",
        "title": "公共厕所",
        "address": "辽宁省朝阳市建平县老建平互通与锦赤线交叉口正北方向42米左右",
        "tel": "",
        "category": "基础设施:公共设施:公共厕所",
        "type": 0,
        "location": {
            "lat": 41.899197,
            "lng": 119.769956
        },
        "ad_info": {
            "adcode": 211322,
            "province": "辽宁省",
            "city": "朝阳市",
            "district": "建平县"
        }
    },
    {
        "id": "15008048240325168461",
        "title": "公共厕所",
        "address": "辽宁省朝阳市双塔区坝上路与滨河西街交叉口正西方向93米左右",
        "tel": "",
        "category": "基础设施:公共设施:公共厕所",
        "type": 0,
        "location": {
            "lat": 41.584725,
            "lng": 120.47228
        },
        "ad_info": {
            "adcode": 211302,
            "province": "辽宁省",
            "city": "朝阳市",
            "district": "双塔区"
        }
    },
    {
        "id": "5374294077729887182",
        "title": "男洗手间",
        "address": "辽宁省朝阳市双塔区黄河路三段2号万达广场F4",
        "tel": "",
        "category": "基础设施:公共设施:男洗手间",
        "type": 0,
        "location": {
            "lat": 41.590678,
            "lng": 120.462909
        },
        "ad_info": {
            "adcode": 211302,
            "province": "辽宁省",
            "city": "朝阳市",
            "district": "双塔区"
        }
    },
    {
        "id": "7055059494171193188",
        "title": "二中公共厕所",
        "address": "辽宁省朝阳市建平县向阳街53号",
        "tel": "",
        "category": "基础设施:公共设施:公共厕所",
        "type": 0,
        "location": {
            "lat": 41.413972,
            "lng": 119.642524
        },
        "ad_info": {
            "adcode": 211322,
            "province": "辽宁省",
            "city": "朝阳市",
            "district": "建平县"
        }
    },
    {
        "id": "10934357237317294058",
        "title": "公共厕所(LN-ZY-0978)",
        "address": "辽宁省朝阳市建平县小叶线",
        "tel": "",
        "category": "基础设施:公共设施:公共厕所",
        "type": 0,
        "location": {
            "lat": 41.671109,
            "lng": 119.622301
        },
        "ad_info": {
            "adcode": 211322,
            "province": "辽宁省",
            "city": "朝阳市",
            "district": "建平县"
        }
    },
    {
        "id": "7557518054956531169",
        "title": "公共厕所",
        "address": "辽宁省朝阳市双塔区民生路与玉龙大街交叉口正南方向54米左右",
        "tel": "",
        "category": "基础设施:公共设施:公共厕所",
        "type": 0,
        "location": {
            "lat": 41.605091,
            "lng": 120.490618
        },
        "ad_info": {
            "adcode": 211302,
            "province": "辽宁省",
            "city": "朝阳市",
            "district": "双塔区"
        }
    },
    {
        "id": "16929773910464302488",
        "title": "公共厕所",
        "address": "辽宁省朝阳市龙城区兴中路与龙翔大街交叉口西北方向131米左右",
        "tel": "",
        "category": "基础设施:公共设施:公共厕所",
        "type": 0,
        "location": {
            "lat": 41.571044,
            "lng": 120.411543
        },
        "ad_info": {
            "adcode": 211303,
            "province": "辽宁省",
            "city": "朝阳市",
            "district": "龙城区"
        }
    },
    {
        "id": "1761880633235326406",
        "title": "公共厕所",
        "address": "辽宁省朝阳市双塔区凌河街255-1",
        "tel": "",
        "category": "基础设施:公共设施:公共厕所",
        "type": 0,
        "location": {
            "lat": 41.548503,
            "lng": 120.452961
        },
        "ad_info": {
            "adcode": 211302,
            "province": "辽宁省",
            "city": "朝阳市",
            "district": "双塔区"
        }
    },
    {
        "id": "11434089703908668638",
        "title": "男洗手间",
        "address": "辽宁省朝阳市双塔区黄河路三段2号万达广场F1",
        "tel": "",
        "category": "基础设施:公共设施:男洗手间",
        "type": 0,
        "location": {
            "lat": 41.592051,
            "lng": 120.461016
        },
        "ad_info": {
            "adcode": 211302,
            "province": "辽宁省",
            "city": "朝阳市",
            "district": "双塔区"
        }
    },
    {
        "id": "7045431005580463958",
        "title": "公共厕所",
        "address": "辽宁省朝阳市凌源市红山路西段142-9号",
        "tel": "",
        "category": "基础设施:公共设施:公共厕所",
        "type": 0,
        "location": {
            "lat": 41.235765,
            "lng": 119.39405
        },
        "ad_info": {
            "adcode": 211382,
            "province": "辽宁省",
            "city": "朝阳市",
            "district": "凌源市"
        }
    },
    {
        "id": "5066192777351854032",
        "title": "公共厕所",
        "address": "辽宁省朝阳市双塔区北大街与天心湖路交叉口正南方向111米左右",
        "tel": "",
        "category": "基础设施:公共设施:公共厕所",
        "type": 0,
        "location": {
            "lat": 41.585691,
            "lng": 120.467208
        },
        "ad_info": {
            "adcode": 211302,
            "province": "辽宁省",
            "city": "朝阳市",
            "district": "双塔区"
        }
    },
    {
        "id": "13910023708949428093",
        "title": "男洗手间(万达广场)",
        "address": "辽宁省朝阳市双塔区黄河路三段2号万达广场F3",
        "tel": "",
        "category": "基础设施:公共设施:男洗手间",
        "type": 0,
        "location": {
            "lat": 41.59205,
            "lng": 120.461008
        },
        "ad_info": {
            "adcode": 211302,
            "province": "辽宁省",
            "city": "朝阳市",
            "district": "双塔区"
        }
    },
    {
        "id": "13704609853412940901",
        "title": "女洗手间(万达广场)",
        "address": "辽宁省朝阳市双塔区黄河路三段2号万达广场F1",
        "tel": "",
        "category": "基础设施:公共设施:女洗手间",
        "type": 0,
        "location": {
            "lat": 41.592077,
            "lng": 120.46105
        },
        "ad_info": {
            "adcode": 211302,
            "province": "辽宁省",
            "city": "朝阳市",
            "district": "双塔区"
        }
    },
    {
        "id": "5985482973158046896",
        "title": "桃花吐服务区第二公共厕所",
        "address": "辽宁省朝阳市双塔区长深高速",
        "tel": "",
        "category": "基础设施:公共设施:公共厕所",
        "type": 0,
        "location": {
            "lat": 41.740117,
            "lng": 120.608429
        },
        "ad_info": {
            "adcode": 211302,
            "province": "辽宁省",
            "city": "朝阳市",
            "district": "双塔区"
        }
    },
    {
        "id": "14210544264070030527",
        "title": "男洗手间",
        "address": "辽宁省朝阳市双塔区黄河路三段2号万达广场F2",
        "tel": "",
        "category": "基础设施:公共设施:男洗手间",
        "type": 0,
        "location": {
            "lat": 41.590682,
            "lng": 120.462908
        },
        "ad_info": {
            "adcode": 211302,
            "province": "辽宁省",
            "city": "朝阳市",
            "district": "双塔区"
        }
    },
    {
        "id": "10668716550776817165",
        "title": "公共厕所",
        "address": "辽宁省朝阳市建平县人民路与环城路交叉口东南方向83米左右",
        "tel": "",
        "category": "基础设施:公共设施:公共厕所",
        "type": 0,
        "location": {
            "lat": 41.395779,
            "lng": 119.625597
        },
        "ad_info": {
            "adcode": 211322,
            "province": "辽宁省",
            "city": "朝阳市",
            "district": "建平县"
        }
    },
    {
        "id": "11911887980540689760",
        "title": "公共厕所",
        "address": "辽宁省朝阳市凌源市绥克线与金华路交叉口正南方向1670米左右",
        "tel": "",
        "category": "基础设施:公共设施:公共厕所",
        "type": 0,
        "location": {
            "lat": 41.208475,
            "lng": 119.433595
        },
        "ad_info": {
            "adcode": 211382,
            "province": "辽宁省",
            "city": "朝阳市",
            "district": "凌源市"
        }
    },
    {
        "id": "6230798009564784835",
        "title": "公共厕所",
        "address": "辽宁省朝阳市建平县人民路与长春街交叉口东北方向193米左右",
        "tel": "",
        "category": "基础设施:公共设施:公共厕所",
        "type": 0,
        "location": {
            "lat": 41.40729,
            "lng": 119.655384
        },
        "ad_info": {
            "adcode": 211322,
            "province": "辽宁省",
            "city": "朝阳市",
            "district": "建平县"
        }
    },
    {
        "id": "13317102783840866336",
        "title": "男洗手间",
        "address": "辽宁省朝阳市双塔区黄河路三段2号万达广场F4",
        "tel": "",
        "category": "基础设施:公共设施:男洗手间",
        "type": 0,
        "location": {
            "lat": 41.591933,
            "lng": 120.461118
        },
        "ad_info": {
            "adcode": 211302,
            "province": "辽宁省",
            "city": "朝阳市",
            "district": "双塔区"
        }
    },
    {
        "id": "10090795445620387864",
        "title": "公共厕所",
        "address": "辽宁省朝阳市北票市光明街与工农路交叉口正北方向73米左右",
        "tel": "",
        "category": "基础设施:公共设施:公共厕所",
        "type": 0,
        "location": {
            "lat": 41.813315,
            "lng": 120.775918
        },
        "ad_info": {
            "adcode": 211381,
            "province": "辽宁省",
            "city": "朝阳市",
            "district": "北票市"
        }
    },
    {
        "id": "14759130965863854558",
        "title": "公共厕所",
        "address": "辽宁省朝阳市建平县老建平互通与锦赤线交叉口正北方向42米左右",
        "tel": "",
        "category": "基础设施:公共设施:公共厕所",
        "type": 0,
        "location": {
            "lat": 41.899197,
            "lng": 119.769956
        },
        "ad_info": {
            "adcode": 211322,
            "province": "辽宁省",
            "city": "朝阳市",
            "district": "建平县"
        }
    },
    {
        "id": "15008048240325168461",
        "title": "公共厕所",
        "address": "辽宁省朝阳市双塔区坝上路与滨河西街交叉口正西方向93米左右",
        "tel": "",
        "category": "基础设施:公共设施:公共厕所",
        "type": 0,
        "location": {
            "lat": 41.584725,
            "lng": 120.47228
        },
        "ad_info": {
            "adcode": 211302,
            "province": "辽宁省",
            "city": "朝阳市",
            "district": "双塔区"
        }
    },
    {
        "id": "5374294077729887182",
        "title": "男洗手间",
        "address": "辽宁省朝阳市双塔区黄河路三段2号万达广场F4",
        "tel": "",
        "category": "基础设施:公共设施:男洗手间",
        "type": 0,
        "location": {
            "lat": 41.590678,
            "lng": 120.462909
        },
        "ad_info": {
            "adcode": 211302,
            "province": "辽宁省",
            "city": "朝阳市",
            "district": "双塔区"
        }
    },
    {
        "id": "7055059494171193188",
        "title": "二中公共厕所",
        "address": "辽宁省朝阳市建平县向阳街53号",
        "tel": "",
        "category": "基础设施:公共设施:公共厕所",
        "type": 0,
        "location": {
            "lat": 41.413972,
            "lng": 119.642524
        },
        "ad_info": {
            "adcode": 211322,
            "province": "辽宁省",
            "city": "朝阳市",
            "district": "建平县"
        }
    },
    {
        "id": "10934357237317294058",
        "title": "公共厕所(LN-ZY-0978)",
        "address": "辽宁省朝阳市建平县小叶线",
        "tel": "",
        "category": "基础设施:公共设施:公共厕所",
        "type": 0,
        "location": {
            "lat": 41.671109,
            "lng": 119.622301
        },
        "ad_info": {
            "adcode": 211322,
            "province": "辽宁省",
            "city": "朝阳市",
            "district": "建平县"
        }
    },
    {
        "id": "7557518054956531169",
        "title": "公共厕所",
        "address": "辽宁省朝阳市双塔区民生路与玉龙大街交叉口正南方向54米左右",
        "tel": "",
        "category": "基础设施:公共设施:公共厕所",
        "type": 0,
        "location": {
            "lat": 41.605091,
            "lng": 120.490618
        },
        "ad_info": {
            "adcode": 211302,
            "province": "辽宁省",
            "city": "朝阳市",
            "district": "双塔区"
        }
    },
    {
        "id": "16929773910464302488",
        "title": "公共厕所",
        "address": "辽宁省朝阳市龙城区兴中路与龙翔大街交叉口西北方向131米左右",
        "tel": "",
        "category": "基础设施:公共设施:公共厕所",
        "type": 0,
        "location": {
            "lat": 41.571044,
            "lng": 120.411543
        },
        "ad_info": {
            "adcode": 211303,
            "province": "辽宁省",
            "city": "朝阳市",
            "district": "龙城区"
        }
    },
    {
        "id": "1761880633235326406",
        "title": "公共厕所",
        "address": "辽宁省朝阳市双塔区凌河街255-1",
        "tel": "",
        "category": "基础设施:公共设施:公共厕所",
        "type": 0,
        "location": {
            "lat": 41.548503,
            "lng": 120.452961
        },
        "ad_info": {
            "adcode": 211302,
            "province": "辽宁省",
            "city": "朝阳市",
            "district": "双塔区"
        }
    },
    {
        "id": "11434089703908668638",
        "title": "男洗手间",
        "address": "辽宁省朝阳市双塔区黄河路三段2号万达广场F1",
        "tel": "",
        "category": "基础设施:公共设施:男洗手间",
        "type": 0,
        "location": {
            "lat": 41.592051,
            "lng": 120.461016
        },
        "ad_info": {
            "adcode": 211302,
            "province": "辽宁省",
            "city": "朝阳市",
            "district": "双塔区"
        }
    },
    {
        "id": "7045431005580463958",
        "title": "公共厕所",
        "address": "辽宁省朝阳市凌源市红山路西段142-9号",
        "tel": "",
        "category": "基础设施:公共设施:公共厕所",
        "type": 0,
        "location": {
            "lat": 41.235765,
            "lng": 119.39405
        },
        "ad_info": {
            "adcode": 211382,
            "province": "辽宁省",
            "city": "朝阳市",
            "district": "凌源市"
        }
    },
    {
        "id": "5066192777351854032",
        "title": "公共厕所",
        "address": "辽宁省朝阳市双塔区北大街与天心湖路交叉口正南方向111米左右",
        "tel": "",
        "category": "基础设施:公共设施:公共厕所",
        "type": 0,
        "location": {
            "lat": 41.585691,
            "lng": 120.467208
        },
        "ad_info": {
            "adcode": 211302,
            "province": "辽宁省",
            "city": "朝阳市",
            "district": "双塔区"
        }
    },
    {
        "id": "13910023708949428093",
        "title": "男洗手间(万达广场)",
        "address": "辽宁省朝阳市双塔区黄河路三段2号万达广场F3",
        "tel": "",
        "category": "基础设施:公共设施:男洗手间",
        "type": 0,
        "location": {
            "lat": 41.59205,
            "lng": 120.461008
        },
        "ad_info": {
            "adcode": 211302,
            "province": "辽宁省",
            "city": "朝阳市",
            "district": "双塔区"
        }
    },
    {
        "id": "13704609853412940901",
        "title": "女洗手间(万达广场)",
        "address": "辽宁省朝阳市双塔区黄河路三段2号万达广场F1",
        "tel": "",
        "category": "基础设施:公共设施:女洗手间",
        "type": 0,
        "location": {
            "lat": 41.592077,
            "lng": 120.46105
        },
        "ad_info": {
            "adcode": 211302,
            "province": "辽宁省",
            "city": "朝阳市",
            "district": "双塔区"
        }
    },
    {
        "id": "5985482973158046896",
        "title": "桃花吐服务区第二公共厕所",
        "address": "辽宁省朝阳市双塔区长深高速",
        "tel": "",
        "category": "基础设施:公共设施:公共厕所",
        "type": 0,
        "location": {
            "lat": 41.740117,
            "lng": 120.608429
        },
        "ad_info": {
            "adcode": 211302,
            "province": "辽宁省",
            "city": "朝阳市",
            "district": "双塔区"
        }
    },
    {
        "id": "14210544264070030527",
        "title": "男洗手间",
        "address": "辽宁省朝阳市双塔区黄河路三段2号万达广场F2",
        "tel": "",
        "category": "基础设施:公共设施:男洗手间",
        "type": 0,
        "location": {
            "lat": 41.590682,
            "lng": 120.462908
        },
        "ad_info": {
            "adcode": 211302,
            "province": "辽宁省",
            "city": "朝阳市",
            "district": "双塔区"
        }
    },
    {
        "id": "10668716550776817165",
        "title": "公共厕所",
        "address": "辽宁省朝阳市建平县人民路与环城路交叉口东南方向83米左右",
        "tel": "",
        "category": "基础设施:公共设施:公共厕所",
        "type": 0,
        "location": {
            "lat": 41.395779,
            "lng": 119.625597
        },
        "ad_info": {
            "adcode": 211322,
            "province": "辽宁省",
            "city": "朝阳市",
            "district": "建平县"
        }
    },
    {
        "id": "11911887980540689760",
        "title": "公共厕所",
        "address": "辽宁省朝阳市凌源市绥克线与金华路交叉口正南方向1670米左右",
        "tel": "",
        "category": "基础设施:公共设施:公共厕所",
        "type": 0,
        "location": {
            "lat": 41.208475,
            "lng": 119.433595
        },
        "ad_info": {
            "adcode": 211382,
            "province": "辽宁省",
            "city": "朝阳市",
            "district": "凌源市"
        }
    },
    {
        "id": "6230798009564784835",
        "title": "公共厕所",
        "address": "辽宁省朝阳市建平县人民路与长春街交叉口东北方向193米左右",
        "tel": "",
        "category": "基础设施:公共设施:公共厕所",
        "type": 0,
        "location": {
            "lat": 41.40729,
            "lng": 119.655384
        },
        "ad_info": {
            "adcode": 211322,
            "province": "辽宁省",
            "city": "朝阳市",
            "district": "建平县"
        }
    },
    {
        "id": "13317102783840866336",
        "title": "男洗手间",
        "address": "辽宁省朝阳市双塔区黄河路三段2号万达广场F4",
        "tel": "",
        "category": "基础设施:公共设施:男洗手间",
        "type": 0,
        "location": {
            "lat": 41.591933,
            "lng": 120.461118
        },
        "ad_info": {
            "adcode": 211302,
            "province": "辽宁省",
            "city": "朝阳市",
            "district": "双塔区"
        }
    },
    {
        "id": "10090795445620387864",
        "title": "公共厕所",
        "address": "辽宁省朝阳市北票市光明街与工农路交叉口正北方向73米左右",
        "tel": "",
        "category": "基础设施:公共设施:公共厕所",
        "type": 0,
        "location": {
            "lat": 41.813315,
            "lng": 120.775918
        },
        "ad_info": {
            "adcode": 211381,
            "province": "辽宁省",
            "city": "朝阳市",
            "district": "北票市"
        }
    },
    {
        "id": "14759130965863854558",
        "title": "公共厕所",
        "address": "辽宁省朝阳市建平县老建平互通与锦赤线交叉口正北方向42米左右",
        "tel": "",
        "category": "基础设施:公共设施:公共厕所",
        "type": 0,
        "location": {
            "lat": 41.899197,
            "lng": 119.769956
        },
        "ad_info": {
            "adcode": 211322,
            "province": "辽宁省",
            "city": "朝阳市",
            "district": "建平县"
        }
    },
    {
        "id": "15008048240325168461",
        "title": "公共厕所",
        "address": "辽宁省朝阳市双塔区坝上路与滨河西街交叉口正西方向93米左右",
        "tel": "",
        "category": "基础设施:公共设施:公共厕所",
        "type": 0,
        "location": {
            "lat": 41.584725,
            "lng": 120.47228
        },
        "ad_info": {
            "adcode": 211302,
            "province": "辽宁省",
            "city": "朝阳市",
            "district": "双塔区"
        }
    },
    {
        "id": "5374294077729887182",
        "title": "男洗手间",
        "address": "辽宁省朝阳市双塔区黄河路三段2号万达广场F4",
        "tel": "",
        "category": "基础设施:公共设施:男洗手间",
        "type": 0,
        "location": {
            "lat": 41.590678,
            "lng": 120.462909
        },
        "ad_info": {
            "adcode": 211302,
            "province": "辽宁省",
            "city": "朝阳市",
            "district": "双塔区"
        }
    },
    {
        "id": "7055059494171193188",
        "title": "二中公共厕所",
        "address": "辽宁省朝阳市建平县向阳街53号",
        "tel": "",
        "category": "基础设施:公共设施:公共厕所",
        "type": 0,
        "location": {
            "lat": 41.413972,
            "lng": 119.642524
        },
        "ad_info": {
            "adcode": 211322,
            "province": "辽宁省",
            "city": "朝阳市",
            "district": "建平县"
        }
    },
    {
        "id": "10934357237317294058",
        "title": "公共厕所(LN-ZY-0978)",
        "address": "辽宁省朝阳市建平县小叶线",
        "tel": "",
        "category": "基础设施:公共设施:公共厕所",
        "type": 0,
        "location": {
            "lat": 41.671109,
            "lng": 119.622301
        },
        "ad_info": {
            "adcode": 211322,
            "province": "辽宁省",
            "city": "朝阳市",
            "district": "建平县"
        }
    },
    {
        "id": "7557518054956531169",
        "title": "公共厕所",
        "address": "辽宁省朝阳市双塔区民生路与玉龙大街交叉口正南方向54米左右",
        "tel": "",
        "category": "基础设施:公共设施:公共厕所",
        "type": 0,
        "location": {
            "lat": 41.605091,
            "lng": 120.490618
        },
        "ad_info": {
            "adcode": 211302,
            "province": "辽宁省",
            "city": "朝阳市",
            "district": "双塔区"
        }
    },
    {
        "id": "16929773910464302488",
        "title": "公共厕所",
        "address": "辽宁省朝阳市龙城区兴中路与龙翔大街交叉口西北方向131米左右",
        "tel": "",
        "category": "基础设施:公共设施:公共厕所",
        "type": 0,
        "location": {
            "lat": 41.571044,
            "lng": 120.411543
        },
        "ad_info": {
            "adcode": 211303,
            "province": "辽宁省",
            "city": "朝阳市",
            "district": "龙城区"
        }
    },
    {
        "id": "1761880633235326406",
        "title": "公共厕所",
        "address": "辽宁省朝阳市双塔区凌河街255-1",
        "tel": "",
        "category": "基础设施:公共设施:公共厕所",
        "type": 0,
        "location": {
            "lat": 41.548503,
            "lng": 120.452961
        },
        "ad_info": {
            "adcode": 211302,
            "province": "辽宁省",
            "city": "朝阳市",
            "district": "双塔区"
        }
    },
    {
        "id": "11434089703908668638",
        "title": "男洗手间",
        "address": "辽宁省朝阳市双塔区黄河路三段2号万达广场F1",
        "tel": "",
        "category": "基础设施:公共设施:男洗手间",
        "type": 0,
        "location": {
            "lat": 41.592051,
            "lng": 120.461016
        },
        "ad_info": {
            "adcode": 211302,
            "province": "辽宁省",
            "city": "朝阳市",
            "district": "双塔区"
        }
    },
    {
        "id": "7045431005580463958",
        "title": "公共厕所",
        "address": "辽宁省朝阳市凌源市红山路西段142-9号",
        "tel": "",
        "category": "基础设施:公共设施:公共厕所",
        "type": 0,
        "location": {
            "lat": 41.235765,
            "lng": 119.39405
        },
        "ad_info": {
            "adcode": 211382,
            "province": "辽宁省",
            "city": "朝阳市",
            "district": "凌源市"
        }
    },
    {
        "id": "5066192777351854032",
        "title": "公共厕所",
        "address": "辽宁省朝阳市双塔区北大街与天心湖路交叉口正南方向111米左右",
        "tel": "",
        "category": "基础设施:公共设施:公共厕所",
        "type": 0,
        "location": {
            "lat": 41.585691,
            "lng": 120.467208
        },
        "ad_info": {
            "adcode": 211302,
            "province": "辽宁省",
            "city": "朝阳市",
            "district": "双塔区"
        }
    },
    {
        "id": "13910023708949428093",
        "title": "男洗手间(万达广场)",
        "address": "辽宁省朝阳市双塔区黄河路三段2号万达广场F3",
        "tel": "",
        "category": "基础设施:公共设施:男洗手间",
        "type": 0,
        "location": {
            "lat": 41.59205,
            "lng": 120.461008
        },
        "ad_info": {
            "adcode": 211302,
            "province": "辽宁省",
            "city": "朝阳市",
            "district": "双塔区"
        }
    },
    {
        "id": "13704609853412940901",
        "title": "女洗手间(万达广场)",
        "address": "辽宁省朝阳市双塔区黄河路三段2号万达广场F1",
        "tel": "",
        "category": "基础设施:公共设施:女洗手间",
        "type": 0,
        "location": {
            "lat": 41.592077,
            "lng": 120.46105
        },
        "ad_info": {
            "adcode": 211302,
            "province": "辽宁省",
            "city": "朝阳市",
            "district": "双塔区"
        }
    },
    {
        "id": "5985482973158046896",
        "title": "桃花吐服务区第二公共厕所",
        "address": "辽宁省朝阳市双塔区长深高速",
        "tel": "",
        "category": "基础设施:公共设施:公共厕所",
        "type": 0,
        "location": {
            "lat": 41.740117,
            "lng": 120.608429
        },
        "ad_info": {
            "adcode": 211302,
            "province": "辽宁省",
            "city": "朝阳市",
            "district": "双塔区"
        }
    },
    {
        "id": "14210544264070030527",
        "title": "男洗手间",
        "address": "辽宁省朝阳市双塔区黄河路三段2号万达广场F2",
        "tel": "",
        "category": "基础设施:公共设施:男洗手间",
        "type": 0,
        "location": {
            "lat": 41.590682,
            "lng": 120.462908
        },
        "ad_info": {
            "adcode": 211302,
            "province": "辽宁省",
            "city": "朝阳市",
            "district": "双塔区"
        }
    },
    {
        "id": "10668716550776817165",
        "title": "公共厕所",
        "address": "辽宁省朝阳市建平县人民路与环城路交叉口东南方向83米左右",
        "tel": "",
        "category": "基础设施:公共设施:公共厕所",
        "type": 0,
        "location": {
            "lat": 41.395779,
            "lng": 119.625597
        },
        "ad_info": {
            "adcode": 211322,
            "province": "辽宁省",
            "city": "朝阳市",
            "district": "建平县"
        }
    },
    {
        "id": "11911887980540689760",
        "title": "公共厕所",
        "address": "辽宁省朝阳市凌源市绥克线与金华路交叉口正南方向1670米左右",
        "tel": "",
        "category": "基础设施:公共设施:公共厕所",
        "type": 0,
        "location": {
            "lat": 41.208475,
            "lng": 119.433595
        },
        "ad_info": {
            "adcode": 211382,
            "province": "辽宁省",
            "city": "朝阳市",
            "district": "凌源市"
        }
    },
    {
        "id": "6230798009564784835",
        "title": "公共厕所",
        "address": "辽宁省朝阳市建平县人民路与长春街交叉口东北方向193米左右",
        "tel": "",
        "category": "基础设施:公共设施:公共厕所",
        "type": 0,
        "location": {
            "lat": 41.40729,
            "lng": 119.655384
        },
        "ad_info": {
            "adcode": 211322,
            "province": "辽宁省",
            "city": "朝阳市",
            "district": "建平县"
        }
    },
    {
        "id": "13317102783840866336",
        "title": "男洗手间",
        "address": "辽宁省朝阳市双塔区黄河路三段2号万达广场F4",
        "tel": "",
        "category": "基础设施:公共设施:男洗手间",
        "type": 0,
        "location": {
            "lat": 41.591933,
            "lng": 120.461118
        },
        "ad_info": {
            "adcode": 211302,
            "province": "辽宁省",
            "city": "朝阳市",
            "district": "双塔区"
        }
    },
    {
        "id": "10090795445620387864",
        "title": "公共厕所",
        "address": "辽宁省朝阳市北票市光明街与工农路交叉口正北方向73米左右",
        "tel": "",
        "category": "基础设施:公共设施:公共厕所",
        "type": 0,
        "location": {
            "lat": 41.813315,
            "lng": 120.775918
        },
        "ad_info": {
            "adcode": 211381,
            "province": "辽宁省",
            "city": "朝阳市",
            "district": "北票市"
        }
    },
    {
        "id": "14759130965863854558",
        "title": "公共厕所",
        "address": "辽宁省朝阳市建平县老建平互通与锦赤线交叉口正北方向42米左右",
        "tel": "",
        "category": "基础设施:公共设施:公共厕所",
        "type": 0,
        "location": {
            "lat": 41.899197,
            "lng": 119.769956
        },
        "ad_info": {
            "adcode": 211322,
            "province": "辽宁省",
            "city": "朝阳市",
            "district": "建平县"
        }
    },
    {
        "id": "15008048240325168461",
        "title": "公共厕所",
        "address": "辽宁省朝阳市双塔区坝上路与滨河西街交叉口正西方向93米左右",
        "tel": "",
        "category": "基础设施:公共设施:公共厕所",
        "type": 0,
        "location": {
            "lat": 41.584725,
            "lng": 120.47228
        },
        "ad_info": {
            "adcode": 211302,
            "province": "辽宁省",
            "city": "朝阳市",
            "district": "双塔区"
        }
    },
    {
        "id": "5374294077729887182",
        "title": "男洗手间",
        "address": "辽宁省朝阳市双塔区黄河路三段2号万达广场F4",
        "tel": "",
        "category": "基础设施:公共设施:男洗手间",
        "type": 0,
        "location": {
            "lat": 41.590678,
            "lng": 120.462909
        },
        "ad_info": {
            "adcode": 211302,
            "province": "辽宁省",
            "city": "朝阳市",
            "district": "双塔区"
        }
    },
    {
        "id": "7055059494171193188",
        "title": "二中公共厕所",
        "address": "辽宁省朝阳市建平县向阳街53号",
        "tel": "",
        "category": "基础设施:公共设施:公共厕所",
        "type": 0,
        "location": {
            "lat": 41.413972,
            "lng": 119.642524
        },
        "ad_info": {
            "adcode": 211322,
            "province": "辽宁省",
            "city": "朝阳市",
            "district": "建平县"
        }
    },
    {
        "id": "10934357237317294058",
        "title": "公共厕所(LN-ZY-0978)",
        "address": "辽宁省朝阳市建平县小叶线",
        "tel": "",
        "category": "基础设施:公共设施:公共厕所",
        "type": 0,
        "location": {
            "lat": 41.671109,
            "lng": 119.622301
        },
        "ad_info": {
            "adcode": 211322,
            "province": "辽宁省",
            "city": "朝阳市",
            "district": "建平县"
        }
    },
    {
        "id": "7557518054956531169",
        "title": "公共厕所",
        "address": "辽宁省朝阳市双塔区民生路与玉龙大街交叉口正南方向54米左右",
        "tel": "",
        "category": "基础设施:公共设施:公共厕所",
        "type": 0,
        "location": {
            "lat": 41.605091,
            "lng": 120.490618
        },
        "ad_info": {
            "adcode": 211302,
            "province": "辽宁省",
            "city": "朝阳市",
            "district": "双塔区"
        }
    },
    {
        "id": "16929773910464302488",
        "title": "公共厕所",
        "address": "辽宁省朝阳市龙城区兴中路与龙翔大街交叉口西北方向131米左右",
        "tel": "",
        "category": "基础设施:公共设施:公共厕所",
        "type": 0,
        "location": {
            "lat": 41.571044,
            "lng": 120.411543
        },
        "ad_info": {
            "adcode": 211303,
            "province": "辽宁省",
            "city": "朝阳市",
            "district": "龙城区"
        }
    },
    {
        "id": "1761880633235326406",
        "title": "公共厕所",
        "address": "辽宁省朝阳市双塔区凌河街255-1",
        "tel": "",
        "category": "基础设施:公共设施:公共厕所",
        "type": 0,
        "location": {
            "lat": 41.548503,
            "lng": 120.452961
        },
        "ad_info": {
            "adcode": 211302,
            "province": "辽宁省",
            "city": "朝阳市",
            "district": "双塔区"
        }
    },
    {
        "id": "11434089703908668638",
        "title": "男洗手间",
        "address": "辽宁省朝阳市双塔区黄河路三段2号万达广场F1",
        "tel": "",
        "category": "基础设施:公共设施:男洗手间",
        "type": 0,
        "location": {
            "lat": 41.592051,
            "lng": 120.461016
        },
        "ad_info": {
            "adcode": 211302,
            "province": "辽宁省",
            "city": "朝阳市",
            "district": "双塔区"
        }
    },
    {
        "id": "7045431005580463958",
        "title": "公共厕所",
        "address": "辽宁省朝阳市凌源市红山路西段142-9号",
        "tel": "",
        "category": "基础设施:公共设施:公共厕所",
        "type": 0,
        "location": {
            "lat": 41.235765,
            "lng": 119.39405
        },
        "ad_info": {
            "adcode": 211382,
            "province": "辽宁省",
            "city": "朝阳市",
            "district": "凌源市"
        }
    },
    {
        "id": "5066192777351854032",
        "title": "公共厕所",
        "address": "辽宁省朝阳市双塔区北大街与天心湖路交叉口正南方向111米左右",
        "tel": "",
        "category": "基础设施:公共设施:公共厕所",
        "type": 0,
        "location": {
            "lat": 41.585691,
            "lng": 120.467208
        },
        "ad_info": {
            "adcode": 211302,
            "province": "辽宁省",
            "city": "朝阳市",
            "district": "双塔区"
        }
    },
    {
        "id": "13910023708949428093",
        "title": "男洗手间(万达广场)",
        "address": "辽宁省朝阳市双塔区黄河路三段2号万达广场F3",
        "tel": "",
        "category": "基础设施:公共设施:男洗手间",
        "type": 0,
        "location": {
            "lat": 41.59205,
            "lng": 120.461008
        },
        "ad_info": {
            "adcode": 211302,
            "province": "辽宁省",
            "city": "朝阳市",
            "district": "双塔区"
        }
    },
    {
        "id": "13704609853412940901",
        "title": "女洗手间(万达广场)",
        "address": "辽宁省朝阳市双塔区黄河路三段2号万达广场F1",
        "tel": "",
        "category": "基础设施:公共设施:女洗手间",
        "type": 0,
        "location": {
            "lat": 41.592077,
            "lng": 120.46105
        },
        "ad_info": {
            "adcode": 211302,
            "province": "辽宁省",
            "city": "朝阳市",
            "district": "双塔区"
        }
    },
    {
        "id": "5985482973158046896",
        "title": "桃花吐服务区第二公共厕所",
        "address": "辽宁省朝阳市双塔区长深高速",
        "tel": "",
        "category": "基础设施:公共设施:公共厕所",
        "type": 0,
        "location": {
            "lat": 41.740117,
            "lng": 120.608429
        },
        "ad_info": {
            "adcode": 211302,
            "province": "辽宁省",
            "city": "朝阳市",
            "district": "双塔区"
        }
    },
    {
        "id": "14210544264070030527",
        "title": "男洗手间",
        "address": "辽宁省朝阳市双塔区黄河路三段2号万达广场F2",
        "tel": "",
        "category": "基础设施:公共设施:男洗手间",
        "type": 0,
        "location": {
            "lat": 41.590682,
            "lng": 120.462908
        },
        "ad_info": {
            "adcode": 211302,
            "province": "辽宁省",
            "city": "朝阳市",
            "district": "双塔区"
        }
    },
    {
        "id": "10668716550776817165",
        "title": "公共厕所",
        "address": "辽宁省朝阳市建平县人民路与环城路交叉口东南方向83米左右",
        "tel": "",
        "category": "基础设施:公共设施:公共厕所",
        "type": 0,
        "location": {
            "lat": 41.395779,
            "lng": 119.625597
        },
        "ad_info": {
            "adcode": 211322,
            "province": "辽宁省",
            "city": "朝阳市",
            "district": "建平县"
        }
    },
    {
        "id": "11911887980540689760",
        "title": "公共厕所",
        "address": "辽宁省朝阳市凌源市绥克线与金华路交叉口正南方向1670米左右",
        "tel": "",
        "category": "基础设施:公共设施:公共厕所",
        "type": 0,
        "location": {
            "lat": 41.208475,
            "lng": 119.433595
        },
        "ad_info": {
            "adcode": 211382,
            "province": "辽宁省",
            "city": "朝阳市",
            "district": "凌源市"
        }
    },
    {
        "id": "6230798009564784835",
        "title": "公共厕所",
        "address": "辽宁省朝阳市建平县人民路与长春街交叉口东北方向193米左右",
        "tel": "",
        "category": "基础设施:公共设施:公共厕所",
        "type": 0,
        "location": {
            "lat": 41.40729,
            "lng": 119.655384
        },
        "ad_info": {
            "adcode": 211322,
            "province": "辽宁省",
            "city": "朝阳市",
            "district": "建平县"
        }
    },
    {
        "id": "13317102783840866336",
        "title": "男洗手间",
        "address": "辽宁省朝阳市双塔区黄河路三段2号万达广场F4",
        "tel": "",
        "category": "基础设施:公共设施:男洗手间",
        "type": 0,
        "location": {
            "lat": 41.591933,
            "lng": 120.461118
        },
        "ad_info": {
            "adcode": 211302,
            "province": "辽宁省",
            "city": "朝阳市",
            "district": "双塔区"
        }
    },
    {
        "id": "10090795445620387864",
        "title": "公共厕所",
        "address": "辽宁省朝阳市北票市光明街与工农路交叉口正北方向73米左右",
        "tel": "",
        "category": "基础设施:公共设施:公共厕所",
        "type": 0,
        "location": {
            "lat": 41.813315,
            "lng": 120.775918
        },
        "ad_info": {
            "adcode": 211381,
            "province": "辽宁省",
            "city": "朝阳市",
            "district": "北票市"
        }
    },
    {
        "id": "14759130965863854558",
        "title": "公共厕所",
        "address": "辽宁省朝阳市建平县老建平互通与锦赤线交叉口正北方向42米左右",
        "tel": "",
        "category": "基础设施:公共设施:公共厕所",
        "type": 0,
        "location": {
            "lat": 41.899197,
            "lng": 119.769956
        },
        "ad_info": {
            "adcode": 211322,
            "province": "辽宁省",
            "city": "朝阳市",
            "district": "建平县"
        }
    },
    {
        "id": "15008048240325168461",
        "title": "公共厕所",
        "address": "辽宁省朝阳市双塔区坝上路与滨河西街交叉口正西方向93米左右",
        "tel": "",
        "category": "基础设施:公共设施:公共厕所",
        "type": 0,
        "location": {
            "lat": 41.584725,
            "lng": 120.47228
        },
        "ad_info": {
            "adcode": 211302,
            "province": "辽宁省",
            "city": "朝阳市",
            "district": "双塔区"
        }
    },
    {
        "id": "5374294077729887182",
        "title": "男洗手间",
        "address": "辽宁省朝阳市双塔区黄河路三段2号万达广场F4",
        "tel": "",
        "category": "基础设施:公共设施:男洗手间",
        "type": 0,
        "location": {
            "lat": 41.590678,
            "lng": 120.462909
        },
        "ad_info": {
            "adcode": 211302,
            "province": "辽宁省",
            "city": "朝阳市",
            "district": "双塔区"
        }
    },
    {
        "id": "7055059494171193188",
        "title": "二中公共厕所",
        "address": "辽宁省朝阳市建平县向阳街53号",
        "tel": "",
        "category": "基础设施:公共设施:公共厕所",
        "type": 0,
        "location": {
            "lat": 41.413972,
            "lng": 119.642524
        },
        "ad_info": {
            "adcode": 211322,
            "province": "辽宁省",
            "city": "朝阳市",
            "district": "建平县"
        }
    },
    {
        "id": "10934357237317294058",
        "title": "公共厕所(LN-ZY-0978)",
        "address": "辽宁省朝阳市建平县小叶线",
        "tel": "",
        "category": "基础设施:公共设施:公共厕所",
        "type": 0,
        "location": {
            "lat": 41.671109,
            "lng": 119.622301
        },
        "ad_info": {
            "adcode": 211322,
            "province": "辽宁省",
            "city": "朝阳市",
            "district": "建平县"
        }
    },
    {
        "id": "7557518054956531169",
        "title": "公共厕所",
        "address": "辽宁省朝阳市双塔区民生路与玉龙大街交叉口正南方向54米左右",
        "tel": "",
        "category": "基础设施:公共设施:公共厕所",
        "type": 0,
        "location": {
            "lat": 41.605091,
            "lng": 120.490618
        },
        "ad_info": {
            "adcode": 211302,
            "province": "辽宁省",
            "city": "朝阳市",
            "district": "双塔区"
        }
    },
    {
        "id": "16929773910464302488",
        "title": "公共厕所",
        "address": "辽宁省朝阳市龙城区兴中路与龙翔大街交叉口西北方向131米左右",
        "tel": "",
        "category": "基础设施:公共设施:公共厕所",
        "type": 0,
        "location": {
            "lat": 41.571044,
            "lng": 120.411543
        },
        "ad_info": {
            "adcode": 211303,
            "province": "辽宁省",
            "city": "朝阳市",
            "district": "龙城区"
        }
    },
    {
        "id": "1761880633235326406",
        "title": "公共厕所",
        "address": "辽宁省朝阳市双塔区凌河街255-1",
        "tel": "",
        "category": "基础设施:公共设施:公共厕所",
        "type": 0,
        "location": {
            "lat": 41.548503,
            "lng": 120.452961
        },
        "ad_info": {
            "adcode": 211302,
            "province": "辽宁省",
            "city": "朝阳市",
            "district": "双塔区"
        }
    },
    {
        "id": "11434089703908668638",
        "title": "男洗手间",
        "address": "辽宁省朝阳市双塔区黄河路三段2号万达广场F1",
        "tel": "",
        "category": "基础设施:公共设施:男洗手间",
        "type": 0,
        "location": {
            "lat": 41.592051,
            "lng": 120.461016
        },
        "ad_info": {
            "adcode": 211302,
            "province": "辽宁省",
            "city": "朝阳市",
            "district": "双塔区"
        }
    },
    {
        "id": "7045431005580463958",
        "title": "公共厕所",
        "address": "辽宁省朝阳市凌源市红山路西段142-9号",
        "tel": "",
        "category": "基础设施:公共设施:公共厕所",
        "type": 0,
        "location": {
            "lat": 41.235765,
            "lng": 119.39405
        },
        "ad_info": {
            "adcode": 211382,
            "province": "辽宁省",
            "city": "朝阳市",
            "district": "凌源市"
        }
    },
    {
        "id": "5066192777351854032",
        "title": "公共厕所",
        "address": "辽宁省朝阳市双塔区北大街与天心湖路交叉口正南方向111米左右",
        "tel": "",
        "category": "基础设施:公共设施:公共厕所",
        "type": 0,
        "location": {
            "lat": 41.585691,
            "lng": 120.467208
        },
        "ad_info": {
            "adcode": 211302,
            "province": "辽宁省",
            "city": "朝阳市",
            "district": "双塔区"
        }
    },
    {
        "id": "13910023708949428093",
        "title": "男洗手间(万达广场)",
        "address": "辽宁省朝阳市双塔区黄河路三段2号万达广场F3",
        "tel": "",
        "category": "基础设施:公共设施:男洗手间",
        "type": 0,
        "location": {
            "lat": 41.59205,
            "lng": 120.461008
        },
        "ad_info": {
            "adcode": 211302,
            "province": "辽宁省",
            "city": "朝阳市",
            "district": "双塔区"
        }
    },
    {
        "id": "13704609853412940901",
        "title": "女洗手间(万达广场)",
        "address": "辽宁省朝阳市双塔区黄河路三段2号万达广场F1",
        "tel": "",
        "category": "基础设施:公共设施:女洗手间",
        "type": 0,
        "location": {
            "lat": 41.592077,
            "lng": 120.46105
        },
        "ad_info": {
            "adcode": 211302,
            "province": "辽宁省",
            "city": "朝阳市",
            "district": "双塔区"
        }
    },
    {
        "id": "5985482973158046896",
        "title": "桃花吐服务区第二公共厕所",
        "address": "辽宁省朝阳市双塔区长深高速",
        "tel": "",
        "category": "基础设施:公共设施:公共厕所",
        "type": 0,
        "location": {
            "lat": 41.740117,
            "lng": 120.608429
        },
        "ad_info": {
            "adcode": 211302,
            "province": "辽宁省",
            "city": "朝阳市",
            "district": "双塔区"
        }
    },
    {
        "id": "14210544264070030527",
        "title": "男洗手间",
        "address": "辽宁省朝阳市双塔区黄河路三段2号万达广场F2",
        "tel": "",
        "category": "基础设施:公共设施:男洗手间",
        "type": 0,
        "location": {
            "lat": 41.590682,
            "lng": 120.462908
        },
        "ad_info": {
            "adcode": 211302,
            "province": "辽宁省",
            "city": "朝阳市",
            "district": "双塔区"
        }
    },
    {
        "id": "10668716550776817165",
        "title": "公共厕所",
        "address": "辽宁省朝阳市建平县人民路与环城路交叉口东南方向83米左右",
        "tel": "",
        "category": "基础设施:公共设施:公共厕所",
        "type": 0,
        "location": {
            "lat": 41.395779,
            "lng": 119.625597
        },
        "ad_info": {
            "adcode": 211322,
            "province": "辽宁省",
            "city": "朝阳市",
            "district": "建平县"
        }
    },
    {
        "id": "11911887980540689760",
        "title": "公共厕所",
        "address": "辽宁省朝阳市凌源市绥克线与金华路交叉口正南方向1670米左右",
        "tel": "",
        "category": "基础设施:公共设施:公共厕所",
        "type": 0,
        "location": {
            "lat": 41.208475,
            "lng": 119.433595
        },
        "ad_info": {
            "adcode": 211382,
            "province": "辽宁省",
            "city": "朝阳市",
            "district": "凌源市"
        }
    },
    {
        "id": "6230798009564784835",
        "title": "公共厕所",
        "address": "辽宁省朝阳市建平县人民路与长春街交叉口东北方向193米左右",
        "tel": "",
        "category": "基础设施:公共设施:公共厕所",
        "type": 0,
        "location": {
            "lat": 41.40729,
            "lng": 119.655384
        },
        "ad_info": {
            "adcode": 211322,
            "province": "辽宁省",
            "city": "朝阳市",
            "district": "建平县"
        }
    }
]