[
    {
        "id": "1435355999401528391",
        "title": "公共厕所",
        "address": "辽宁省本溪市桓仁满族自治县南关路与长江大街南一小巷交叉口正西方向52米左右",
        "tel": "",
        "category": "基础设施:公共设施:公共厕所",
        "type": 0,
        "location": {
            "lat": 41.261186,
            "lng": 125.355263
        },
        "ad_info": {
            "adcode": 210522,
            "province": "辽宁省",
            "city": "本溪市",
            "district": "桓仁满族自治县"
        }
    },
    {
        "id": "13424003500242558304",
        "title": "公共厕所",
        "address": "辽宁省本溪市明山区水塔路与消防路交叉口西北方向72米左右",
        "tel": "",
        "category": "基础设施:公共设施:公共厕所",
        "type": 0,
        "location": {
            "lat": 41.308248,
            "lng": 123.776498
        },
        "ad_info": {
            "adcode": 210504,
            "province": "辽宁省",
            "city": "本溪市",
            "district": "明山区"
        }
    },
    {
        "id": "3759748642570213060",
        "title": "公共厕所",
        "address": "辽宁省本溪市本溪满族自治县第三中学西侧160米",
        "tel": "",
        "category": "基础设施:公共设施:公共厕所",
        "type": 0,
        "location": {
            "lat": 41.314504,
            "lng": 124.117294
        },
        "ad_info": {
            "adcode": 210521,
            "province": "辽宁省",
            "city": "本溪市",
            "district": "本溪满族自治县"
        }
    },
    {
        "id": "16255294976800491869",
        "title": "公共厕所",
        "address": "辽宁省本溪市溪湖区青年街与高山街交叉口正南方向68米左右",
        "tel": "",
        "category": "基础设施:公共设施:公共厕所",
        "type": 0,
        "location": {
            "lat": 41.31708,
            "lng": 123.739048
        },
        "ad_info": {
            "adcode": 210503,
            "province": "辽宁省",
            "city": "本溪市",
            "district": "溪湖区"
        }
    },
    {
        "id": "11370359206560807543",
        "title": "公共厕所",
        "address": "辽宁省本溪市桓仁满族自治县哈达河街与锦江山路交叉口正南方向38米左右",
        "tel": "",
        "category": "基础设施:公共设施:公共厕所",
        "type": 0,
        "location": {
            "lat": 41.292513,
            "lng": 125.386769
        },
        "ad_info": {
            "adcode": 210522,
            "province": "辽宁省",
            "city": "本溪市",
            "district": "桓仁满族自治县"
        }
    },
    {
        "id": "11537044495418988812",
        "title": "公共厕所",
        "address": "辽宁省本溪市本溪满族自治县兴华街与永安街永安一巷交叉口东南方向28米左右",
        "tel": "",
        "category": "基础设施:公共设施:公共厕所",
        "type": 0,
        "location": {
            "lat": 41.306053,
            "lng": 124.124109
        },
        "ad_info": {
            "adcode": 210521,
            "province": "辽宁省",
            "city": "本溪市",
            "district": "本溪满族自治县"
        }
    },
    {
        "id": "10225758187897269394",
        "title": "公共厕所",
        "address": "辽宁省本溪市南芬区中心路与紫云街交叉口东南方向92米左右",
        "tel": "",
        "category": "基础设施:公共设施:公共厕所",
        "type": 0,
        "location": {
            "lat": 41.102677,
            "lng": 123.749097
        },
        "ad_info": {
            "adcode": 210505,
            "province": "辽宁省",
            "city": "本溪市",
            "district": "南芬区"
        }
    },
    {
        "id": "15416369698551506757",
        "title": "公共厕所",
        "address": "辽宁省本溪市南芬区文化街与铁山三路交叉口正西方向19米左右",
        "tel": "",
        "category": "基础设施:公共设施:公共厕所",
        "type": 0,
        "location": {
            "lat": 41.111895,
            "lng": 123.783318
        },
        "ad_info": {
            "adcode": 210505,
            "province": "辽宁省",
            "city": "本溪市",
            "district": "南芬区"
        }
    },
    {
        "id": "13614808527223745054",
        "title": "公共厕所",
        "address": "辽宁省本溪市南芬区Y521与河东路交叉口东南方向166米左右",
        "tel": "",
        "category": "基础设施:公共设施:公共厕所",
        "type": 0,
        "location": {
            "lat": 41.029756,
            "lng": 123.741123
        },
        "ad_info": {
            "adcode": 210505,
            "province": "辽宁省",
            "city": "本溪市",
            "district": "南芬区"
        }
    },
    {
        "id": "15303094298674994829",
        "title": "公共厕所",
        "address": "辽宁省本溪市平山区胜利路与解放北二路交叉口正北方向44米左右",
        "tel": "",
        "category": "基础设施:公共设施:公共厕所",
        "type": 0,
        "location": {
            "lat": 41.297297,
            "lng": 123.762609
        },
        "ad_info": {
            "adcode": 210502,
            "province": "辽宁省",
            "city": "本溪市",
            "district": "平山区"
        }
    },
    {
        "id": "8377635657732143864",
        "title": "公共厕所",
        "address": "辽宁省本溪市明山区消防劳动大厦对面",
        "tel": "",
        "category": "基础设施:公共设施:公共厕所",
        "type": 0,
        "location": {
            "lat": 41.305833,
            "lng": 123.778514
        },
        "ad_info": {
            "adcode": 210504,
            "province": "辽宁省",
            "city": "本溪市",
            "district": "明山区"
        }
    },
    {
        "id": "9587901643513317385",
        "title": "公共厕所",
        "address": "辽宁省本溪市桓仁满族自治县李六农家院西北侧60米",
        "tel": "",
        "category": "基础设施:公共设施:公共厕所",
        "type": 0,
        "location": {
            "lat": 41.192183,
            "lng": 125.266076
        },
        "ad_info": {
            "adcode": 210522,
            "province": "辽宁省",
            "city": "本溪市",
            "district": "桓仁满族自治县"
        }
    },
    {
        "id": "8777638550860076262",
        "title": "公共厕所",
        "address": "辽宁省本溪市桓仁满族自治县北环路与浑江大街交叉口正南方向210米左右",
        "tel": "",
        "category": "基础设施:公共设施:公共厕所",
        "type": 0,
        "location": {
            "lat": 41.262074,
            "lng": 125.372244
        },
        "ad_info": {
            "adcode": 210522,
            "province": "辽宁省",
            "city": "本溪市",
            "district": "桓仁满族自治县"
        }
    },
    {
        "id": "11698195228017914514",
        "title": "公共厕所",
        "address": "辽宁省本溪市桓仁满族自治县桓永高速与永桓高速交叉口东南方向348米左右",
        "tel": "",
        "category": "基础设施:公共设施:公共厕所",
        "type": 0,
        "location": {
            "lat": 41.299799,
            "lng": 125.332383
        },
        "ad_info": {
            "adcode": 210522,
            "province": "辽宁省",
            "city": "本溪市",
            "district": "桓仁满族自治县"
        }
    },
    {
        "id": "14304015915212764603",
        "title": "公共厕所",
        "address": "辽宁省本溪市本溪满族自治县三九线与本桓线交叉口正西方向426米左右",
        "tel": "",
        "category": "基础设施:公共设施:公共厕所",
        "type": 0,
        "location": {
            "lat": 41.260976,
            "lng": 124.21046
        },
        "ad_info": {
            "adcode": 210521,
            "province": "辽宁省",
            "city": "本溪市",
            "district": "本溪满族自治县"
        }
    },
    {
        "id": "17082334473313580784",
        "title": "公共厕所",
        "address": "辽宁省本溪市溪湖区彩屯北路与彩建街交叉口正北方向44米左右",
        "tel": "",
        "category": "基础设施:公共设施:公共厕所",
        "type": 0,
        "location": {
            "lat": 41.318611,
            "lng": 123.718958
        },
        "ad_info": {
            "adcode": 210503,
            "province": "辽宁省",
            "city": "本溪市",
            "district": "溪湖区"
        }
    },
    {
        "id": "6341891575609615156",
        "title": "公共厕所",
        "address": "辽宁省本溪市本溪满族自治县中心大街与滨河西路交叉口西南方向34米左右",
        "tel": "",
        "category": "基础设施:公共设施:公共厕所",
        "type": 0,
        "location": {
            "lat": 41.321599,
            "lng": 124.1187
        },
        "ad_info": {
            "adcode": 210521,
            "province": "辽宁省",
            "city": "本溪市",
            "district": "本溪满族自治县"
        }
    },
    {
        "id": "1248231033203739303",
        "title": "公共厕所",
        "address": "辽宁省本溪市桓仁满族自治县汇丰街与长白山路交叉口东北方向79米左右",
        "tel": "",
        "category": "基础设施:公共设施:公共厕所",
        "type": 0,
        "location": {
            "lat": 41.291885,
            "lng": 125.385323
        },
        "ad_info": {
            "adcode": 210522,
            "province": "辽宁省",
            "city": "本溪市",
            "district": "桓仁满族自治县"
        }
    },
    {
        "id": "12134303375640871089",
        "title": "公共厕所",
        "address": "辽宁省本溪市桓仁满族自治县中心大街与九华山路交叉口正南方向130米左右",
        "tel": "",
        "category": "基础设施:公共设施:公共厕所",
        "type": 0,
        "location": {
            "lat": 41.260642,
            "lng": 125.367712
        },
        "ad_info": {
            "adcode": 210522,
            "province": "辽宁省",
            "city": "本溪市",
            "district": "桓仁满族自治县"
        }
    },
    {
        "id": "7397659556424668759",
        "title": "公共厕所",
        "address": "辽宁省本溪市南芬区南盘路与铁东路交叉口正北方向130米左右",
        "tel": "",
        "category": "基础设施:公共设施:公共厕所",
        "type": 0,
        "location": {
            "lat": 41.099461,
            "lng": 123.752823
        },
        "ad_info": {
            "adcode": 210505,
            "province": "辽宁省",
            "city": "本溪市",
            "district": "南芬区"
        }
    },
    {
        "id": "10392434578241344822",
        "title": "公共厕所",
        "address": "辽宁省本溪市本溪满族自治县南甸路与沟口街交叉口东北方向200米左右",
        "tel": "",
        "category": "基础设施:公共设施:公共厕所",
        "type": 0,
        "location": {
            "lat": 41.283479,
            "lng": 124.380062
        },
        "ad_info": {
            "adcode": 210521,
            "province": "辽宁省",
            "city": "本溪市",
            "district": "本溪满族自治县"
        }
    },
    {
        "id": "6926382059427535703",
        "title": "公共厕所",
        "address": "辽宁省本溪市本溪满族自治县抗联街与滨河西路交叉口正南方向141米左右",
        "tel": "",
        "category": "基础设施:公共设施:公共厕所",
        "type": 0,
        "location": {
            "lat": 41.288265,
            "lng": 124.131497
        },
        "ad_info": {
            "adcode": 210521,
            "province": "辽宁省",
            "city": "本溪市",
            "district": "本溪满族自治县"
        }
    },
    {
        "id": "11671211681475067418",
        "title": "公共厕所",
        "address": "辽宁省本溪市南芬区北瑷线与小桥线交叉口正东方向1160米左右",
        "tel": "",
        "category": "基础设施:公共设施:公共厕所",
        "type": 0,
        "location": {
            "lat": 41.191662,
            "lng": 123.883713
        },
        "ad_info": {
            "adcode": 210505,
            "province": "辽宁省",
            "city": "本溪市",
            "district": "南芬区"
        }
    },
    {
        "id": "16426278894198566377",
        "title": "公共厕所",
        "address": "辽宁省本溪市桓仁满族自治县北环路与浑江大街交叉口正北方向173米左右",
        "tel": "",
        "category": "基础设施:公共设施:公共厕所",
        "type": 0,
        "location": {
            "lat": 41.261561,
            "lng": 125.371438
        },
        "ad_info": {
            "adcode": 210522,
            "province": "辽宁省",
            "city": "本溪市",
            "district": "桓仁满族自治县"
        }
    },
    {
        "id": "9299541686710306659",
        "title": "公共厕所",
        "address": "辽宁省本溪市本溪满族自治县政府路与文化街交叉口正西方向104米左右",
        "tel": "",
        "category": "基础设施:公共设施:公共厕所",
        "type": 0,
        "location": {
            "lat": 41.301194,
            "lng": 124.122266
        },
        "ad_info": {
            "adcode": 210521,
            "province": "辽宁省",
            "city": "本溪市",
            "district": "本溪满族自治县"
        }
    },
    {
        "id": "1425567251400983522",
        "title": "公共厕所",
        "address": "辽宁省本溪市本溪满族自治县本溪天著商业街东侧240米",
        "tel": "",
        "category": "基础设施:公共设施:公共厕所",
        "type": 0,
        "location": {
            "lat": 41.338805,
            "lng": 124.056159
        },
        "ad_info": {
            "adcode": 210521,
            "province": "辽宁省",
            "city": "本溪市",
            "district": "本溪满族自治县"
        }
    },
    {
        "id": "2767233879855753490",
        "title": "公共厕所",
        "address": "辽宁省本溪市南芬区南山街与甩湾街交叉口正南方向50米左右",
        "tel": "",
        "category": "基础设施:公共设施:公共厕所",
        "type": 0,
        "location": {
            "lat": 41.097608,
            "lng": 123.746453
        },
        "ad_info": {
            "adcode": 210505,
            "province": "辽宁省",
            "city": "本溪市",
            "district": "南芬区"
        }
    },
    {
        "id": "17993187998089250284",
        "title": "公共厕所",
        "address": "辽宁省本溪市本溪满族自治县书苑巷与滨河西路交叉口正南方向132米左右",
        "tel": "",
        "category": "基础设施:公共设施:公共厕所",
        "type": 0,
        "location": {
            "lat": 41.302778,
            "lng": 124.133063
        },
        "ad_info": {
            "adcode": 210521,
            "province": "辽宁省",
            "city": "本溪市",
            "district": "本溪满族自治县"
        }
    },
    {
        "id": "16289210948058984235",
        "title": "公共厕所",
        "address": "辽宁省本溪市桓仁满族自治县G506与桓盖线交叉口正西方向89米左右",
        "tel": "",
        "category": "基础设施:公共设施:公共厕所",
        "type": 0,
        "location": {
            "lat": 41.244754,
            "lng": 124.909647
        },
        "ad_info": {
            "adcode": 210522,
            "province": "辽宁省",
            "city": "本溪市",
            "district": "桓仁满族自治县"
        }
    },
    {
        "id": "14423612088298231144",
        "title": "公共厕所",
        "address": "辽宁省本溪市本溪满族自治县304国道南50米",
        "tel": "",
        "category": "基础设施:公共设施:公共厕所",
        "type": 0,
        "location": {
            "lat": 40.898133,
            "lng": 123.895484
        },
        "ad_info": {
            "adcode": 210521,
            "province": "辽宁省",
            "city": "本溪市",
            "district": "本溪满族自治县"
        }
    },
    {
        "id": "1617888767169956169",
        "title": "公共厕所",
        "address": "辽宁省本溪市本溪满族自治县库区路与铁东路交叉口正北方向546米左右",
        "tel": "",
        "category": "基础设施:公共设施:公共厕所",
        "type": 0,
        "location": {
            "lat": 41.312124,
            "lng": 124.128065
        },
        "ad_info": {
            "adcode": 210521,
            "province": "辽宁省",
            "city": "本溪市",
            "district": "本溪满族自治县"
        }
    },
    {
        "id": "1558557774648110672",
        "title": "公共厕所",
        "address": "辽宁省本溪市平山区双泉街与生源街交叉口正西方向56米左右",
        "tel": "",
        "category": "基础设施:公共设施:公共厕所",
        "type": 0,
        "location": {
            "lat": 41.27169,
            "lng": 123.754938
        },
        "ad_info": {
            "adcode": 210502,
            "province": "辽宁省",
            "city": "本溪市",
            "district": "平山区"
        }
    },
    {
        "id": "12349688384017458972",
        "title": "公共厕所",
        "address": "辽宁省本溪市南芬区G304与黄柏峪线交叉口西南方向1671米左右",
        "tel": "",
        "category": "基础设施:公共设施:公共厕所",
        "type": 0,
        "location": {
            "lat": 41.147768,
            "lng": 123.796127
        },
        "ad_info": {
            "adcode": 210505,
            "province": "辽宁省",
            "city": "本溪市",
            "district": "南芬区"
        }
    },
    {
        "id": "78713213245475714",
        "title": "公共厕所",
        "address": "辽宁省本溪市桓仁满族自治县木通线与本桓线交叉口正南方向103米左右",
        "tel": "",
        "category": "基础设施:公共设施:公共厕所",
        "type": 0,
        "location": {
            "lat": 41.410079,
            "lng": 125.041277
        },
        "ad_info": {
            "adcode": 210522,
            "province": "辽宁省",
            "city": "本溪市",
            "district": "桓仁满族自治县"
        }
    },
    {
        "id": "12335311364661109411",
        "title": "公共厕所",
        "address": "辽宁省本溪市桓仁满族自治县Y596与木通线交叉口正东方向363米左右",
        "tel": "",
        "category": "基础设施:公共设施:公共厕所",
        "type": 0,
        "location": {
            "lat": 41.340694,
            "lng": 125.281521
        },
        "ad_info": {
            "adcode": 210522,
            "province": "辽宁省",
            "city": "本溪市",
            "district": "桓仁满族自治县"
        }
    },
    {
        "id": "15225080654648279281",
        "title": "公共厕所",
        "address": "辽宁省本溪市溪湖区竖井路与育人街交叉口正东方向51米左右",
        "tel": "",
        "category": "基础设施:公共设施:公共厕所",
        "type": 0,
        "location": {
            "lat": 41.318108,
            "lng": 123.723023
        },
        "ad_info": {
            "adcode": 210503,
            "province": "辽宁省",
            "city": "本溪市",
            "district": "溪湖区"
        }
    },
    {
        "id": "12885945438904796845",
        "title": "公共厕所",
        "address": "辽宁省本溪市南芬区S206与甬南线交叉口正西方向391米左右",
        "tel": "",
        "category": "基础设施:公共设施:公共厕所",
        "type": 0,
        "location": {
            "lat": 41.158924,
            "lng": 123.898211
        },
        "ad_info": {
            "adcode": 210505,
            "province": "辽宁省",
            "city": "本溪市",
            "district": "南芬区"
        }
    },
    {
        "id": "4805096398869791624",
        "title": "公共厕所",
        "address": "辽宁省本溪市桓仁满族自治县汇丰街与泰山路交叉口正西方向242米左右",
        "tel": "",
        "category": "基础设施:公共设施:公共厕所",
        "type": 0,
        "location": {
            "lat": 41.289395,
            "lng": 125.375312
        },
        "ad_info": {
            "adcode": 210522,
            "province": "辽宁省",
            "city": "本溪市",
            "district": "桓仁满族自治县"
        }
    },
    {
        "id": "2824754641194814950",
        "title": "公共厕所",
        "address": "辽宁省本溪市桓仁满族自治县G201与鹤大线交叉口东南方向22米左右",
        "tel": "",
        "category": "基础设施:公共设施:公共厕所",
        "type": 0,
        "location": {
            "lat": 41.212014,
            "lng": 125.318686
        },
        "ad_info": {
            "adcode": 210522,
            "province": "辽宁省",
            "city": "本溪市",
            "district": "桓仁满族自治县"
        }
    },
    {
        "id": "163812467183614977",
        "title": "公共厕所",
        "address": "辽宁省本溪市溪湖区高山巷与高山街交叉口西北方向90米左右",
        "tel": "",
        "category": "基础设施:公共设施:公共厕所",
        "type": 0,
        "location": {
            "lat": 41.319916,
            "lng": 123.738642
        },
        "ad_info": {
            "adcode": 210503,
            "province": "辽宁省",
            "city": "本溪市",
            "district": "溪湖区"
        }
    },
    {
        "id": "5856756743298078514",
        "title": "公共厕所",
        "address": "辽宁省本溪市本溪满族自治县本桓线与铁长线交叉口正南方向1399米左右",
        "tel": "",
        "category": "基础设施:公共设施:公共厕所",
        "type": 0,
        "location": {
            "lat": 41.230599,
            "lng": 124.486772
        },
        "ad_info": {
            "adcode": 210521,
            "province": "辽宁省",
            "city": "本溪市",
            "district": "本溪满族自治县"
        }
    },
    {
        "id": "3304953143062050229",
        "title": "公共厕所",
        "address": "辽宁省本溪市溪湖区柳塘路与矿新街交叉口正西方向73米左右",
        "tel": "",
        "category": "基础设施:公共设施:公共厕所",
        "type": 0,
        "location": {
            "lat": 41.335685,
            "lng": 123.745683
        },
        "ad_info": {
            "adcode": 210503,
            "province": "辽宁省",
            "city": "本溪市",
            "district": "溪湖区"
        }
    },
    {
        "id": "7713257881511434822",
        "title": "公共厕所",
        "address": "辽宁省本溪市南芬区东沟路与南山路交叉口东南方向82米左右",
        "tel": "",
        "category": "基础设施:公共设施:公共厕所",
        "type": 0,
        "location": {
            "lat": 41.104075,
            "lng": 123.755288
        },
        "ad_info": {
            "adcode": 210505,
            "province": "辽宁省",
            "city": "本溪市",
            "district": "南芬区"
        }
    },
    {
        "id": "6253412974142696142",
        "title": "公共厕所",
        "address": "辽宁省本溪市本溪满族自治县库区路与铁东路交叉口正北方向82米左右",
        "tel": "",
        "category": "基础设施:公共设施:公共厕所",
        "type": 0,
        "location": {
            "lat": 41.30799,
            "lng": 124.127174
        },
        "ad_info": {
            "adcode": 210521,
            "province": "辽宁省",
            "city": "本溪市",
            "district": "本溪满族自治县"
        }
    },
    {
        "id": "3419998243141943656",
        "title": "公共厕所",
        "address": "辽宁省本溪市溪湖区枫叶路与沈本产业大道交叉口西北方向445米左右",
        "tel": "",
        "category": "基础设施:公共设施:公共厕所",
        "type": 0,
        "location": {
            "lat": 41.502568,
            "lng": 123.654054
        },
        "ad_info": {
            "adcode": 210503,
            "province": "辽宁省",
            "city": "本溪市",
            "district": "溪湖区"
        }
    },
    {
        "id": "17289574245722506902",
        "title": "公共厕所",
        "address": "辽宁省本溪市桓仁满族自治县中心大街与北环路交叉口正东方向262米左右",
        "tel": "",
        "category": "基础设施:公共设施:公共厕所",
        "type": 0,
        "location": {
            "lat": 41.259586,
            "lng": 125.376017
        },
        "ad_info": {
            "adcode": 210522,
            "province": "辽宁省",
            "city": "本溪市",
            "district": "桓仁满族自治县"
        }
    },
    {
        "id": "15436234894633679168",
        "title": "公共厕所",
        "address": "辽宁省本溪市桓仁满族自治县民族路与玄武街交叉口西北方向43米左右",
        "tel": "",
        "category": "基础设施:公共设施:公共厕所",
        "type": 0,
        "location": {
            "lat": 41.276152,
            "lng": 125.366456
        },
        "ad_info": {
            "adcode": 210522,
            "province": "辽宁省",
            "city": "本溪市",
            "district": "桓仁满族自治县"
        }
    },
    {
        "id": "473643956262158338",
        "title": "公共厕所",
        "address": "辽宁省本溪市溪湖区瑛子建材商店(本溪湖公园南)",
        "tel": "",
        "category": "基础设施:公共设施:公共厕所",
        "type": 0,
        "location": {
            "lat": 41.336367,
            "lng": 123.757251
        },
        "ad_info": {
            "adcode": 210503,
            "province": "辽宁省",
            "city": "本溪市",
            "district": "溪湖区"
        }
    },
    {
        "id": "9444206861219280103",
        "title": "公共厕所",
        "address": "辽宁省本溪市明山区塔山街与胜利路交叉口西北方向98米左右",
        "tel": "",
        "category": "基础设施:公共设施:公共厕所",
        "type": 0,
        "location": {
            "lat": 41.303056,
            "lng": 123.772622
        },
        "ad_info": {
            "adcode": 210504,
            "province": "辽宁省",
            "city": "本溪市",
            "district": "明山区"
        }
    },
    {
        "id": "2309622948961098343",
        "title": "公共厕所",
        "address": "辽宁省本溪市桓仁满族自治县本桓线东50米",
        "tel": "",
        "category": "基础设施:公共设施:公共厕所",
        "type": 0,
        "location": {
            "lat": 41.408915,
            "lng": 125.05053
        },
        "ad_info": {
            "adcode": 210522,
            "province": "辽宁省",
            "city": "本溪市",
            "district": "桓仁满族自治县"
        }
    },
    {
        "id": "8882245530344206436",
        "title": "公共厕所",
        "address": "辽宁省本溪市桓仁满族自治县66户街与滚马岭路交叉口西北方向97米左右",
        "tel": "",
        "category": "基础设施:公共设施:公共厕所",
        "type": 0,
        "location": {
            "lat": 41.180551,
            "lng": 125.513354
        },
        "ad_info": {
            "adcode": 210522,
            "province": "辽宁省",
            "city": "本溪市",
            "district": "桓仁满族自治县"
        }
    },
    {
        "id": "12041137038622083029",
        "title": "公共厕所",
        "address": "辽宁省本溪市平山区八卦路与市府南街交叉口正西方向55米左右",
        "tel": "",
        "category": "基础设施:公共设施:公共厕所",
        "type": 0,
        "location": {
            "lat": 41.294033,
            "lng": 123.76085
        },
        "ad_info": {
            "adcode": 210502,
            "province": "辽宁省",
            "city": "本溪市",
            "district": "平山区"
        }
    },
    {
        "id": "7928678759629503785",
        "title": "公共厕所",
        "address": "辽宁省本溪市溪湖区太平二路与矿新街交叉口东北方向278米左右",
        "tel": "",
        "category": "基础设施:公共设施:公共厕所",
        "type": 0,
        "location": {
            "lat": 41.331868,
            "lng": 123.751985
        },
        "ad_info": {
            "adcode": 210503,
            "province": "辽宁省",
            "city": "本溪市",
            "district": "溪湖区"
        }
    },
    {
        "id": "7218961276128808997",
        "title": "公共厕所",
        "address": "辽宁省本溪市溪湖区青年街与高山巷交叉口正西方向47米左右",
        "tel": "",
        "category": "基础设施:公共设施:公共厕所",
        "type": 0,
        "location": {
            "lat": 41.317834,
            "lng": 123.737847
        },
        "ad_info": {
            "adcode": 210503,
            "province": "辽宁省",
            "city": "本溪市",
            "district": "溪湖区"
        }
    },
    {
        "id": "14444878875705413784",
        "title": "公共厕所",
        "address": "辽宁省本溪市溪湖区青年街与高山巷交叉口西北方向374米左右",
        "tel": "",
        "category": "基础设施:公共设施:公共厕所",
        "type": 0,
        "location": {
            "lat": 41.31986,
            "lng": 123.734853
        },
        "ad_info": {
            "adcode": 210503,
            "province": "辽宁省",
            "city": "本溪市",
            "district": "溪湖区"
        }
    },
    {
        "id": "9671566114525290949",
        "title": "公共厕所",
        "address": "辽宁省本溪市本溪满族自治县本桓线与滴桦线交叉口西南方向1590米左右",
        "tel": "",
        "category": "基础设施:公共设施:公共厕所",
        "type": 0,
        "location": {
            "lat": 41.173972,
            "lng": 124.545333
        },
        "ad_info": {
            "adcode": 210521,
            "province": "辽宁省",
            "city": "本溪市",
            "district": "本溪满族自治县"
        }
    },
    {
        "id": "4129780254016287947",
        "title": "公共厕所",
        "address": "辽宁省本溪市本溪满族自治县G304与连鞍线交叉口东南方向65米左右",
        "tel": "",
        "category": "基础设施:公共设施:公共厕所",
        "type": 0,
        "location": {
            "lat": 40.977531,
            "lng": 123.756152
        },
        "ad_info": {
            "adcode": 210521,
            "province": "辽宁省",
            "city": "本溪市",
            "district": "本溪满族自治县"
        }
    },
    {
        "id": "12238855014995565106",
        "title": "公共厕所",
        "address": "辽宁省本溪市本溪满族自治县S310",
        "tel": "",
        "category": "基础设施:公共设施:公共厕所",
        "type": 0,
        "location": {
            "lat": 40.972196,
            "lng": 123.698977
        },
        "ad_info": {
            "adcode": 210521,
            "province": "辽宁省",
            "city": "本溪市",
            "district": "本溪满族自治县"
        }
    },
    {
        "id": "1478458494198581236",
        "title": "公共厕所",
        "address": "辽宁省本溪市本溪满族自治县S304与杨树圈1号桥交叉口正西方向246米左右",
        "tel": "",
        "category": "基础设施:公共设施:公共厕所",
        "type": 0,
        "location": {
            "lat": 41.377371,
            "lng": 124.033881
        },
        "ad_info": {
            "adcode": 210521,
            "province": "辽宁省",
            "city": "本溪市",
            "district": "本溪满族自治县"
        }
    },
    {
        "id": "1847133551497920522",
        "title": "公共厕所",
        "address": "辽宁省本溪市本溪满族自治县G304与小草线交叉口东北方向231米左右",
        "tel": "",
        "category": "基础设施:公共设施:公共厕所",
        "type": 0,
        "location": {
            "lat": 40.885923,
            "lng": 123.912745
        },
        "ad_info": {
            "adcode": 210521,
            "province": "辽宁省",
            "city": "本溪市",
            "district": "本溪满族自治县"
        }
    },
    {
        "id": "4422940521442778580",
        "title": "公共厕所",
        "address": "辽宁省本溪市溪湖区本鸡线与站前街交叉口东南方向605米左右",
        "tel": "",
        "category": "基础设施:公共设施:公共厕所",
        "type": 0,
        "location": {
            "lat": 41.359418,
            "lng": 123.740672
        },
        "ad_info": {
            "adcode": 210503,
            "province": "辽宁省",
            "city": "本溪市",
            "district": "溪湖区"
        }
    },
    {
        "id": "1050797686084842045",
        "title": "公共厕所",
        "address": "辽宁省本溪市溪湖区华阳街与彩屯南路交叉口正北方向218米左右",
        "tel": "",
        "category": "基础设施:公共设施:公共厕所",
        "type": 0,
        "location": {
            "lat": 41.307092,
            "lng": 123.738068
        },
        "ad_info": {
            "adcode": 210503,
            "province": "辽宁省",
            "city": "本溪市",
            "district": "溪湖区"
        }
    },
    {
        "id": "9019769875094222670",
        "title": "公共厕所",
        "address": "辽宁省本溪市溪湖区华中街与竖井路交叉口东北方向29米左右",
        "tel": "",
        "category": "基础设施:公共设施:公共厕所",
        "type": 0,
        "location": {
            "lat": 41.30665,
            "lng": 123.744619
        },
        "ad_info": {
            "adcode": 210503,
            "province": "辽宁省",
            "city": "本溪市",
            "district": "溪湖区"
        }
    },
    {
        "id": "2717815612625613511",
        "title": "公共厕所",
        "address": "辽宁省本溪市溪湖区张石线与木兰路交叉口正西方向225米左右",
        "tel": "",
        "category": "基础设施:公共设施:公共厕所",
        "type": 0,
        "location": {
            "lat": 41.45709,
            "lng": 123.722255
        },
        "ad_info": {
            "adcode": 210503,
            "province": "辽宁省",
            "city": "本溪市",
            "district": "溪湖区"
        }
    },
    {
        "id": "2140265107088639471",
        "title": "公共厕所",
        "address": "辽宁省本溪市溪湖区中国石油石桥子加油站北侧50米",
        "tel": "",
        "category": "基础设施:公共设施:公共厕所",
        "type": 0,
        "location": {
            "lat": 41.433483,
            "lng": 123.737724
        },
        "ad_info": {
            "adcode": 210503,
            "province": "辽宁省",
            "city": "本溪市",
            "district": "溪湖区"
        }
    },
    {
        "id": "2664885634036168848",
        "title": "公共厕所",
        "address": "辽宁省本溪市明山区天门路与文化路交叉口正南方向727米左右",
        "tel": "",
        "category": "基础设施:公共设施:公共厕所",
        "type": 0,
        "location": {
            "lat": 41.251808,
            "lng": 123.80069
        },
        "ad_info": {
            "adcode": 210504,
            "province": "辽宁省",
            "city": "本溪市",
            "district": "明山区"
        }
    },
    {
        "id": "10177756570333785557",
        "title": "公共厕所",
        "address": "辽宁省本溪市溪湖区柳东街与柳塘路交叉口东南方向43米左右",
        "tel": "",
        "category": "基础设施:公共设施:公共厕所",
        "type": 0,
        "location": {
            "lat": 41.334597,
            "lng": 123.743918
        },
        "ad_info": {
            "adcode": 210503,
            "province": "辽宁省",
            "city": "本溪市",
            "district": "溪湖区"
        }
    },
    {
        "id": "16416473164808400130",
        "title": "公共厕所",
        "address": "辽宁省本溪市溪湖区彩屯北路与彩屯南路交叉口东南方向104米左右",
        "tel": "",
        "category": "基础设施:公共设施:公共厕所",
        "type": 0,
        "location": {
            "lat": 41.308032,
            "lng": 123.731449
        },
        "ad_info": {
            "adcode": 210503,
            "province": "辽宁省",
            "city": "本溪市",
            "district": "溪湖区"
        }
    },
    {
        "id": "16179101907285395418",
        "title": "公共厕所",
        "address": "辽宁省本溪市溪湖区柳东街与柳塘路交叉口正西方向96米左右",
        "tel": "",
        "category": "基础设施:公共设施:公共厕所",
        "type": 0,
        "location": {
            "lat": 41.334623,
            "lng": 123.742303
        },
        "ad_info": {
            "adcode": 210503,
            "province": "辽宁省",
            "city": "本溪市",
            "district": "溪湖区"
        }
    },
    {
        "id": "8754295054604180100",
        "title": "公共厕所",
        "address": "辽宁省本溪市溪湖区020县道与304国道交叉口西北100米",
        "tel": "",
        "category": "基础设施:公共设施:公共厕所",
        "type": 0,
        "location": {
            "lat": 41.37181,
            "lng": 123.718342
        },
        "ad_info": {
            "adcode": 210503,
            "province": "辽宁省",
            "city": "本溪市",
            "district": "溪湖区"
        }
    },
    {
        "id": "11787854359289488984",
        "title": "公共厕所",
        "address": "辽宁省本溪市溪湖区滨河北路与煤铁路交叉口西北方向101米左右",
        "tel": "",
        "category": "基础设施:公共设施:公共厕所",
        "type": 0,
        "location": {
            "lat": 41.310148,
            "lng": 123.753984
        },
        "ad_info": {
            "adcode": 210503,
            "province": "辽宁省",
            "city": "本溪市",
            "district": "溪湖区"
        }
    },
    {
        "id": "10216778542850747367",
        "title": "公共厕所",
        "address": "辽宁省本溪市溪湖区枫叶路与沈本产业大道交叉口东北方向484米左右",
        "tel": "",
        "category": "基础设施:公共设施:公共厕所",
        "type": 0,
        "location": {
            "lat": 41.502358,
            "lng": 123.660894
        },
        "ad_info": {
            "adcode": 210503,
            "province": "辽宁省",
            "city": "本溪市",
            "district": "溪湖区"
        }
    },
    {
        "id": "2062707578627440623",
        "title": "公共厕所",
        "address": "辽宁省本溪市溪湖区彩屯北路58号",
        "tel": "",
        "category": "基础设施:公共设施:公共厕所",
        "type": 0,
        "location": {
            "lat": 41.313782,
            "lng": 123.720749
        },
        "ad_info": {
            "adcode": 210503,
            "province": "辽宁省",
            "city": "本溪市",
            "district": "溪湖区"
        }
    },
    {
        "id": "5353828171198337302",
        "title": "公共厕所",
        "address": "辽宁省本溪市溪湖区兴工街与南山街交叉口正西方向128米左右",
        "tel": "",
        "category": "基础设施:公共设施:公共厕所",
        "type": 0,
        "location": {
            "lat": 41.327527,
            "lng": 123.760167
        },
        "ad_info": {
            "adcode": 210503,
            "province": "辽宁省",
            "city": "本溪市",
            "district": "溪湖区"
        }
    },
    {
        "id": "3680229654032454724",
        "title": "公共厕所",
        "address": "辽宁省本溪市明山区唐家路与峪明路交叉口正西方向29米左右",
        "tel": "",
        "category": "基础设施:公共设施:公共厕所",
        "type": 0,
        "location": {
            "lat": 41.30864,
            "lng": 123.793309
        },
        "ad_info": {
            "adcode": 210504,
            "province": "辽宁省",
            "city": "本溪市",
            "district": "明山区"
        }
    },
    {
        "id": "15393680482521549888",
        "title": "公共厕所",
        "address": "辽宁省本溪市明山区文化路与致远街交叉口东南方向211米左右",
        "tel": "",
        "category": "基础设施:公共设施:公共厕所",
        "type": 0,
        "location": {
            "lat": 41.269233,
            "lng": 123.803014
        },
        "ad_info": {
            "adcode": 210504,
            "province": "辽宁省",
            "city": "本溪市",
            "district": "明山区"
        }
    },
    {
        "id": "5247367151854167276",
        "title": "公共厕所",
        "address": "辽宁省本溪市明山区丹阜高速与威宁互通枢纽交叉口东南方向95米左右",
        "tel": "",
        "category": "基础设施:公共设施:公共厕所",
        "type": 0,
        "location": {
            "lat": 41.341838,
            "lng": 123.817874
        },
        "ad_info": {
            "adcode": 210504,
            "province": "辽宁省",
            "city": "本溪市",
            "district": "明山区"
        }
    },
    {
        "id": "17371919961232655282",
        "title": "公共厕所",
        "address": "辽宁省本溪市明山区李庙线与高高线交叉口东北方向1146米左右",
        "tel": "",
        "category": "基础设施:公共设施:公共厕所",
        "type": 0,
        "location": {
            "lat": 41.421694,
            "lng": 123.839419
        },
        "ad_info": {
            "adcode": 210504,
            "province": "辽宁省",
            "city": "本溪市",
            "district": "明山区"
        }
    },
    {
        "id": "15695675014088622898",
        "title": "公共厕所",
        "address": "辽宁省本溪市明山区卧三线与卧牛路交叉口东北方向813米左右",
        "tel": "",
        "category": "基础设施:公共设施:公共厕所",
        "type": 0,
        "location": {
            "lat": 41.342428,
            "lng": 123.889948
        },
        "ad_info": {
            "adcode": 210504,
            "province": "辽宁省",
            "city": "本溪市",
            "district": "明山区"
        }
    },
    {
        "id": "12533914060906152752",
        "title": "公共厕所",
        "address": "辽宁省本溪市明山区卧三线与卧牛路交叉口东北方向293米左右",
        "tel": "",
        "category": "基础设施:公共设施:公共厕所",
        "type": 0,
        "location": {
            "lat": 41.339833,
            "lng": 123.884731
        },
        "ad_info": {
            "adcode": 210504,
            "province": "辽宁省",
            "city": "本溪市",
            "district": "明山区"
        }
    },
    {
        "id": "11663650468458065414",
        "title": "公共厕所",
        "address": "辽宁省本溪市明山区平山路与文化路交叉口正西方向101米左右",
        "tel": "",
        "category": "基础设施:公共设施:公共厕所",
        "type": 0,
        "location": {
            "lat": 41.290847,
            "lng": 123.793278
        },
        "ad_info": {
            "adcode": 210504,
            "province": "辽宁省",
            "city": "本溪市",
            "district": "明山区"
        }
    },
    {
        "id": "6516460543313235446",
        "title": "公共厕所",
        "address": "辽宁省本溪市明山区塔山街与水塔路交叉口正东方向39米左右",
        "tel": "",
        "category": "基础设施:公共设施:公共厕所",
        "type": 0,
        "location": {
            "lat": 41.303728,
            "lng": 123.778846
        },
        "ad_info": {
            "adcode": 210504,
            "province": "辽宁省",
            "city": "本溪市",
            "district": "明山区"
        }
    },
    {
        "id": "755748456162961754",
        "title": "公共厕所",
        "address": "辽宁省本溪市明山区平山路与文化路交叉口正南方向36米左右",
        "tel": "",
        "category": "基础设施:公共设施:公共厕所",
        "type": 0,
        "location": {
            "lat": 41.29029,
            "lng": 123.79445
        },
        "ad_info": {
            "adcode": 210504,
            "province": "辽宁省",
            "city": "本溪市",
            "district": "明山区"
        }
    },
    {
        "id": "9046615091156737183",
        "title": "公共厕所",
        "address": "辽宁省本溪市明山区卧三线与牛欢线交叉口西南方向852米左右",
        "tel": "",
        "category": "基础设施:公共设施:公共厕所",
        "type": 0,
        "location": {
            "lat": 41.343781,
            "lng": 123.891057
        },
        "ad_info": {
            "adcode": 210504,
            "province": "辽宁省",
            "city": "本溪市",
            "district": "明山区"
        }
    },
    {
        "id": "16254382612369677226",
        "title": "无障碍公共厕所",
        "address": "辽宁省本溪市桓仁满族自治县北关路与淮河街交叉口西北方向121米左右",
        "tel": "",
        "category": "基础设施:公共设施:公共厕所",
        "type": 0,
        "location": {
            "lat": 41.270289,
            "lng": 125.36403
        },
        "ad_info": {
            "adcode": 210522,
            "province": "辽宁省",
            "city": "本溪市",
            "district": "桓仁满族自治县"
        }
    },
    {
        "id": "2531614162132647888",
        "title": "公共厕所",
        "address": "辽宁省本溪市本溪满族自治县春光路与阳光街交叉口正北方向165米左右",
        "tel": "",
        "category": "基础设施:公共设施:公共厕所",
        "type": 0,
        "location": {
            "lat": 41.294609,
            "lng": 124.130857
        },
        "ad_info": {
            "adcode": 210521,
            "province": "辽宁省",
            "city": "本溪市",
            "district": "本溪满族自治县"
        }
    },
    {
        "id": "13334681720130400251",
        "title": "公共厕所",
        "address": "辽宁省本溪市明山区明山路与滨河南路交叉口正西方向206米左右",
        "tel": "",
        "category": "基础设施:公共设施:公共厕所",
        "type": 0,
        "location": {
            "lat": 41.316119,
            "lng": 123.778559
        },
        "ad_info": {
            "adcode": 210504,
            "province": "辽宁省",
            "city": "本溪市",
            "district": "明山区"
        }
    },
    {
        "id": "16496422267255426575",
        "title": "公共厕所",
        "address": "辽宁省本溪市明山区卧三线与牛欢线交叉口西南方向669米左右",
        "tel": "",
        "category": "基础设施:公共设施:公共厕所",
        "type": 0,
        "location": {
            "lat": 41.344595,
            "lng": 123.892987
        },
        "ad_info": {
            "adcode": 210504,
            "province": "辽宁省",
            "city": "本溪市",
            "district": "明山区"
        }
    },
    {
        "id": "16188147504336342765",
        "title": "公共厕所",
        "address": "辽宁省本溪市明山区大大线西50米",
        "tel": "",
        "category": "基础设施:公共设施:公共厕所",
        "type": 0,
        "location": {
            "lat": 41.265455,
            "lng": 123.839982
        },
        "ad_info": {
            "adcode": 210504,
            "province": "辽宁省",
            "city": "本溪市",
            "district": "明山区"
        }
    },
    {
        "id": "11100979019002571307",
        "title": "公共厕所",
        "address": "辽宁省本溪市平山区东明路与东风街交叉口正南方向33米左右",
        "tel": "",
        "category": "基础设施:公共设施:公共厕所",
        "type": 0,
        "location": {
            "lat": 41.29062,
            "lng": 123.78406
        },
        "ad_info": {
            "adcode": 210502,
            "province": "辽宁省",
            "city": "本溪市",
            "district": "平山区"
        }
    },
    {
        "id": "1138716122579262841",
        "title": "公共厕所",
        "address": "辽宁省本溪市平山区东明二路53号",
        "tel": "",
        "category": "基础设施:公共设施:公共厕所",
        "type": 0,
        "location": {
            "lat": 41.29443,
            "lng": 123.775929
        },
        "ad_info": {
            "adcode": 210502,
            "province": "辽宁省",
            "city": "本溪市",
            "district": "平山区"
        }
    },
    {
        "id": "14334884957718363447",
        "title": "公共厕所",
        "address": "辽宁省本溪市本溪满族自治县柏家巷与滨河西路交叉口正北方向93米左右",
        "tel": "",
        "category": "基础设施:公共设施:公共厕所",
        "type": 0,
        "location": {
            "lat": 41.298072,
            "lng": 124.133002
        },
        "ad_info": {
            "adcode": 210521,
            "province": "辽宁省",
            "city": "本溪市",
            "district": "本溪满族自治县"
        }
    },
    {
        "id": "6016415715652022840",
        "title": "公共厕所",
        "address": "辽宁省本溪市溪湖区溪湖东路本溪湖站",
        "tel": "",
        "category": "基础设施:公共设施:公共厕所",
        "type": 0,
        "location": {
            "lat": 41.32751,
            "lng": 123.767955
        },
        "ad_info": {
            "adcode": 210503,
            "province": "辽宁省",
            "city": "本溪市",
            "district": "溪湖区"
        }
    },
    {
        "id": "5524309889973310814",
        "title": "公共厕所",
        "address": "辽宁省本溪市溪湖区重型街30号",
        "tel": "",
        "category": "基础设施:公共设施:公共厕所",
        "type": 0,
        "location": {
            "lat": 41.301337,
            "lng": 123.739583
        },
        "ad_info": {
            "adcode": 210503,
            "province": "辽宁省",
            "city": "本溪市",
            "district": "溪湖区"
        }
    },
    {
        "id": "11979174088812134199",
        "title": "公共厕所",
        "address": "辽宁省本溪市明山区解放北路145-6号",
        "tel": "",
        "category": "基础设施:公共设施:公共厕所",
        "type": 0,
        "location": {
            "lat": 41.314703,
            "lng": 123.772181
        },
        "ad_info": {
            "adcode": 210504,
            "province": "辽宁省",
            "city": "本溪市",
            "district": "明山区"
        }
    },
    {
        "id": "3382351437943562521",
        "title": "公共厕所",
        "address": "辽宁省本溪市明山区新明街道峪明路华联生活广场西北",
        "tel": "",
        "category": "基础设施:公共设施:公共厕所",
        "type": 0,
        "location": {
            "lat": 41.311182,
            "lng": 123.818171
        },
        "ad_info": {
            "adcode": 210504,
            "province": "辽宁省",
            "city": "本溪市",
            "district": "明山区"
        }
    },
    {
        "id": "12887304499618512554",
        "title": "公共厕所",
        "address": "辽宁省本溪市溪湖区滨河北路爱鑫双语幼儿园(华联商厦北)",
        "tel": "",
        "category": "基础设施:公共设施:公共厕所",
        "type": 0,
        "location": {
            "lat": 41.304193,
            "lng": 123.74364
        },
        "ad_info": {
            "adcode": 210503,
            "province": "辽宁省",
            "city": "本溪市",
            "district": "溪湖区"
        }
    },
    {
        "id": "14489967562636480806",
        "title": "公共厕所",
        "address": "辽宁省本溪市平山区铁路街本溪市第十三中学",
        "tel": "",
        "category": "基础设施:公共设施:公共厕所",
        "type": 0,
        "location": {
            "lat": 41.292583,
            "lng": 123.763679
        },
        "ad_info": {
            "adcode": 210502,
            "province": "辽宁省",
            "city": "本溪市",
            "district": "平山区"
        }
    },
    {
        "id": "7518665348565818397",
        "title": "铁路医院(平山路)-洗手间",
        "address": "辽宁省本溪市平山区平山路25号",
        "tel": "",
        "category": "基础设施:公共设施:公共厕所",
        "type": 0,
        "location": {
            "lat": 41.287413,
            "lng": 123.766249
        },
        "ad_info": {
            "adcode": 210502,
            "province": "辽宁省",
            "city": "本溪市",
            "district": "平山区"
        }
    },
    {
        "id": "3149265756637015965",
        "title": "公共厕所",
        "address": "辽宁省本溪市平山区北光路与紫金路交叉口正南方向98米左右",
        "tel": "",
        "category": "基础设施:公共设施:公共厕所",
        "type": 0,
        "location": {
            "lat": 41.295989,
            "lng": 123.776389
        },
        "ad_info": {
            "adcode": 210502,
            "province": "辽宁省",
            "city": "本溪市",
            "district": "平山区"
        }
    },
    {
        "id": "17853652587316884637",
        "title": "公共厕所",
        "address": "辽宁省本溪市南芬区中心路与玉花街交叉口东南方向82米左右",
        "tel": "",
        "category": "基础设施:公共设施:公共厕所",
        "type": 0,
        "location": {
            "lat": 41.104686,
            "lng": 123.751282
        },
        "ad_info": {
            "adcode": 210505,
            "province": "辽宁省",
            "city": "本溪市",
            "district": "南芬区"
        }
    },
    {
        "id": "16513303797801813716",
        "title": "公共厕所",
        "address": "辽宁省本溪市平山区南市街与解放南二路交叉口正北方向37米左右",
        "tel": "",
        "category": "基础设施:公共设施:公共厕所",
        "type": 0,
        "location": {
            "lat": 41.279116,
            "lng": 123.755825
        },
        "ad_info": {
            "adcode": 210502,
            "province": "辽宁省",
            "city": "本溪市",
            "district": "平山区"
        }
    },
    {
        "id": "415367698833083795",
        "title": "公共厕所",
        "address": "辽宁省本溪市桓仁满族自治县201国道与S13永桓高速出口交叉口东100米",
        "tel": "",
        "category": "基础设施:公共设施:公共厕所",
        "type": 0,
        "location": {
            "lat": 41.296853,
            "lng": 125.336946
        },
        "ad_info": {
            "adcode": 210522,
            "province": "辽宁省",
            "city": "本溪市",
            "district": "桓仁满族自治县"
        }
    },
    {
        "id": "835958961654058544",
        "title": "公共厕所",
        "address": "辽宁省本溪市平山区南兴路与福金街交叉口正南方向336米左右",
        "tel": "",
        "category": "基础设施:公共设施:公共厕所",
        "type": 0,
        "location": {
            "lat": 41.266622,
            "lng": 123.732534
        },
        "ad_info": {
            "adcode": 210502,
            "province": "辽宁省",
            "city": "本溪市",
            "district": "平山区"
        }
    },
    {
        "id": "17188953938667262140",
        "title": "公共厕所",
        "address": "辽宁省本溪市明山区地工路7-18A栋4号",
        "tel": "",
        "category": "基础设施:公共设施:公共厕所",
        "type": 0,
        "location": {
            "lat": 41.293682,
            "lng": 123.791371
        },
        "ad_info": {
            "adcode": 210504,
            "province": "辽宁省",
            "city": "本溪市",
            "district": "明山区"
        }
    },
    {
        "id": "5238632481005325392",
        "title": "公共厕所",
        "address": "辽宁省本溪市溪湖区彩屯南路与竖井路交叉口正西方向156米左右",
        "tel": "",
        "category": "基础设施:公共设施:公共厕所",
        "type": 0,
        "location": {
            "lat": 41.303916,
            "lng": 123.740487
        },
        "ad_info": {
            "adcode": 210503,
            "province": "辽宁省",
            "city": "本溪市",
            "district": "溪湖区"
        }
    },
    {
        "id": "16253061210656233690",
        "title": "公共厕所",
        "address": "辽宁省本溪市平山区光明街与北光路交叉口正西方向11米左右",
        "tel": "",
        "category": "基础设施:公共设施:公共厕所",
        "type": 0,
        "location": {
            "lat": 41.290605,
            "lng": 123.775625
        },
        "ad_info": {
            "adcode": 210502,
            "province": "辽宁省",
            "city": "本溪市",
            "district": "平山区"
        }
    },
    {
        "id": "3445574722880607765",
        "title": "公共厕所",
        "address": "辽宁省本溪市溪湖区溪湖东路与溪湖西路交叉口西北方向121米左右",
        "tel": "",
        "category": "基础设施:公共设施:公共厕所",
        "type": 0,
        "location": {
            "lat": 41.328487,
            "lng": 123.766158
        },
        "ad_info": {
            "adcode": 210503,
            "province": "辽宁省",
            "city": "本溪市",
            "district": "溪湖区"
        }
    },
    {
        "id": "10268632695090169341",
        "title": "公共厕所",
        "address": "辽宁省本溪市平山区千金路群力幼儿园",
        "tel": "",
        "category": "基础设施:公共设施:公共厕所",
        "type": 0,
        "location": {
            "lat": 41.270977,
            "lng": 123.757807
        },
        "ad_info": {
            "adcode": 210502,
            "province": "辽宁省",
            "city": "本溪市",
            "district": "平山区"
        }
    },
    {
        "id": "15638292934710293453",
        "title": "无障碍公共厕所",
        "address": "辽宁省本溪市桓仁满族自治县佛顶山路与珠江街交叉口正北方向185米左右",
        "tel": "",
        "category": "基础设施:公共设施:公共厕所",
        "type": 0,
        "location": {
            "lat": 41.272872,
            "lng": 125.344082
        },
        "ad_info": {
            "adcode": 210522,
            "province": "辽宁省",
            "city": "本溪市",
            "district": "桓仁满族自治县"
        }
    },
    {
        "id": "11860970532716887701",
        "title": "公共厕所",
        "address": "辽宁省本溪市平山区兴利街与南兴路交叉口正西方向450米左右",
        "tel": "",
        "category": "基础设施:公共设施:公共厕所",
        "type": 0,
        "location": {
            "lat": 41.277641,
            "lng": 123.747613
        },
        "ad_info": {
            "adcode": 210502,
            "province": "辽宁省",
            "city": "本溪市",
            "district": "平山区"
        }
    },
    {
        "id": "13538099995334112075",
        "title": "公共厕所",
        "address": "辽宁省本溪市平山区南兴路68号",
        "tel": "",
        "category": "基础设施:公共设施:公共厕所",
        "type": 0,
        "location": {
            "lat": 41.274721,
            "lng": 123.743809
        },
        "ad_info": {
            "adcode": 210502,
            "province": "辽宁省",
            "city": "本溪市",
            "district": "平山区"
        }
    },
    {
        "id": "16313628093599061916",
        "title": "云峰山服务区公共厕所",
        "address": "辽宁省本溪市桓仁满族自治县云峰山服务区(鹤大高速公路东)",
        "tel": "",
        "category": "基础设施:公共设施:公共厕所",
        "type": 0,
        "location": {
            "lat": 41.233867,
            "lng": 125.324749
        },
        "ad_info": {
            "adcode": 210522,
            "province": "辽宁省",
            "city": "本溪市",
            "district": "桓仁满族自治县"
        }
    },
    {
        "id": "352735050917059954",
        "title": "华来服务区公共厕所",
        "address": "辽宁省本溪市桓仁满族自治县华来镇永桓高速公路华来服务区",
        "tel": "",
        "category": "基础设施:公共设施:公共厕所",
        "type": 0,
        "location": {
            "lat": 41.365394,
            "lng": 125.124187
        },
        "ad_info": {
            "adcode": 210522,
            "province": "辽宁省",
            "city": "本溪市",
            "district": "桓仁满族自治县"
        }
    },
    {
        "id": "13514911580270009845",
        "title": "公共厕所",
        "address": "辽宁省本溪市明山区卧牛路与绢纺巷交叉口正西方向22米左右",
        "tel": "",
        "category": "基础设施:公共设施:公共厕所",
        "type": 0,
        "location": {
            "lat": 41.330751,
            "lng": 123.86077
        },
        "ad_info": {
            "adcode": 210504,
            "province": "辽宁省",
            "city": "本溪市",
            "district": "明山区"
        }
    },
    {
        "id": "15545536318975699074",
        "title": "华来服务区公共厕所",
        "address": "辽宁省本溪市桓仁满族自治县华来枢纽与永桓高速交叉口西北方向348米左右",
        "tel": "",
        "category": "基础设施:公共设施:公共厕所",
        "type": 0,
        "location": {
            "lat": 41.367306,
            "lng": 125.125289
        },
        "ad_info": {
            "adcode": 210522,
            "province": "辽宁省",
            "city": "本溪市",
            "district": "桓仁满族自治县"
        }
    },
    {
        "id": "9161268749321894140",
        "title": "公共厕所",
        "address": "辽宁省本溪市明山区程家街程和鑫居",
        "tel": "",
        "category": "基础设施:公共设施:公共厕所",
        "type": 0,
        "location": {
            "lat": 41.312898,
            "lng": 123.831343
        },
        "ad_info": {
            "adcode": 210504,
            "province": "辽宁省",
            "city": "本溪市",
            "district": "明山区"
        }
    },
    {
        "id": "13828359155451543250",
        "title": "本溪东风湖旅游度假村-公共厕所",
        "address": "辽宁省本溪市溪湖区东风路与郑三线交叉口正南方向547米左右",
        "tel": "",
        "category": "基础设施:公共设施:公共厕所",
        "type": 0,
        "location": {
            "lat": 41.330037,
            "lng": 123.695323
        },
        "ad_info": {
            "adcode": 210503,
            "province": "辽宁省",
            "city": "本溪市",
            "district": "溪湖区"
        }
    },
    {
        "id": "16608161062801007909",
        "title": "公共厕所",
        "address": "辽宁省本溪市明山区卧三线与牛欢线交叉口西南方向430米左右",
        "tel": "",
        "category": "基础设施:公共设施:公共厕所",
        "type": 0,
        "location": {
            "lat": 41.34591,
            "lng": 123.895241
        },
        "ad_info": {
            "adcode": 210504,
            "province": "辽宁省",
            "city": "本溪市",
            "district": "明山区"
        }
    },
    {
        "id": "13658686507685804263",
        "title": "万豪国际酒店-洗手间",
        "address": "辽宁省本溪市明山区西胜街地工路41号(近峪明路)",
        "tel": "",
        "category": "基础设施:公共设施:公共厕所",
        "type": 0,
        "location": {
            "lat": 41.309985,
            "lng": 123.788033
        },
        "ad_info": {
            "adcode": 210504,
            "province": "辽宁省",
            "city": "本溪市",
            "district": "明山区"
        }
    },
    {
        "id": "13390918429901962183",
        "title": "公共厕所",
        "address": "辽宁省本溪市本溪满族自治县政府路与文化街交叉口西北方向72米左右",
        "tel": "",
        "category": "基础设施:公共设施:公共厕所",
        "type": 0,
        "location": {
            "lat": 41.301355,
            "lng": 124.122819
        },
        "ad_info": {
            "adcode": 210521,
            "province": "辽宁省",
            "city": "本溪市",
            "district": "本溪满族自治县"
        }
    },
    {
        "id": "13045056042254612526",
        "title": "公共厕所",
        "address": "辽宁省本溪市桓仁满族自治县滨江大街(东)与府安路交叉口东120米",
        "tel": "",
        "category": "基础设施:公共设施:公共厕所",
        "type": 0,
        "location": {
            "lat": 41.258292,
            "lng": 125.35301
        },
        "ad_info": {
            "adcode": 210522,
            "province": "辽宁省",
            "city": "本溪市",
            "district": "桓仁满族自治县"
        }
    },
    {
        "id": "2616232439154055866",
        "title": "公共厕所",
        "address": "辽宁省本溪市溪湖区柳塘路与溪湖西路交叉口正南方向219米左右",
        "tel": "",
        "category": "基础设施:公共设施:公共厕所",
        "type": 0,
        "location": {
            "lat": 41.336158,
            "lng": 123.756614
        },
        "ad_info": {
            "adcode": 210503,
            "province": "辽宁省",
            "city": "本溪市",
            "district": "溪湖区"
        }
    },
    {
        "id": "882196828121463978",
        "title": "公共厕所",
        "address": "辽宁省本溪市本溪满族自治县本桓线与铁长线交叉口西南方向117米左右",
        "tel": "",
        "category": "基础设施:公共设施:公共厕所",
        "type": 0,
        "location": {
            "lat": 41.242258,
            "lng": 124.487204
        },
        "ad_info": {
            "adcode": 210521,
            "province": "辽宁省",
            "city": "本溪市",
            "district": "本溪满族自治县"
        }
    },
    {
        "id": "9552455813789720431",
        "title": "公共厕所",
        "address": "辽宁省本溪市溪湖区溪湖西路212号本溪湖公园(东南角)",
        "tel": "",
        "category": "基础设施:公共设施:公共厕所",
        "type": 0,
        "location": {
            "lat": 41.33849,
            "lng": 123.756323
        },
        "ad_info": {
            "adcode": 210503,
            "province": "辽宁省",
            "city": "本溪市",
            "district": "溪湖区"
        }
    },
    {
        "id": "14269410048876132772",
        "title": "公共厕所",
        "address": "辽宁省本溪市明山区唐家路与峪明路交叉口正南方向32米左右",
        "tel": "",
        "category": "基础设施:公共设施:公共厕所",
        "type": 0,
        "location": {
            "lat": 41.308421,
            "lng": 123.793501
        },
        "ad_info": {
            "adcode": 210504,
            "province": "辽宁省",
            "city": "本溪市",
            "district": "明山区"
        }
    },
    {
        "id": "18898080551021925",
        "title": "公共卫生间",
        "address": "辽宁省本溪市明山区峪明路与水塔路交叉口西北方向47米左右",
        "tel": "",
        "category": "基础设施:公共设施:公共厕所",
        "type": 0,
        "location": {
            "lat": 41.312918,
            "lng": 123.772265
        },
        "ad_info": {
            "adcode": 210504,
            "province": "辽宁省",
            "city": "本溪市",
            "district": "明山区"
        }
    },
    {
        "id": "16232962124354903077",
        "title": "公共厕所",
        "address": "辽宁省本溪市南芬区细河路河畔小区",
        "tel": "",
        "category": "基础设施:公共设施:公共厕所",
        "type": 0,
        "location": {
            "lat": 41.108376,
            "lng": 123.752789
        },
        "ad_info": {
            "adcode": 210505,
            "province": "辽宁省",
            "city": "本溪市",
            "district": "南芬区"
        }
    },
    {
        "id": "6100611289571588176",
        "title": "公共厕所",
        "address": "辽宁省本溪市桓仁满族自治县府安路与滨江大街(东)交叉口北80米",
        "tel": "",
        "category": "基础设施:公共设施:公共厕所",
        "type": 0,
        "location": {
            "lat": 41.258935,
            "lng": 125.351548
        },
        "ad_info": {
            "adcode": 210522,
            "province": "辽宁省",
            "city": "本溪市",
            "district": "桓仁满族自治县"
        }
    },
    {
        "id": "11789574145555475325",
        "title": "公共厕所",
        "address": "辽宁省本溪市平山区永华街与解放南路交叉口东北方向74米左右",
        "tel": "",
        "category": "基础设施:公共设施:公共厕所",
        "type": 0,
        "location": {
            "lat": 41.290202,
            "lng": 123.759945
        },
        "ad_info": {
            "adcode": 210502,
            "province": "辽宁省",
            "city": "本溪市",
            "district": "平山区"
        }
    },
    {
        "id": "4672065157012927148",
        "title": "公共厕所",
        "address": "辽宁省本溪市桓仁满族自治县五女山路与泰山路交叉口西南方向406米左右",
        "tel": "",
        "category": "基础设施:公共设施:公共厕所",
        "type": 0,
        "location": {
            "lat": 41.290089,
            "lng": 125.372478
        },
        "ad_info": {
            "adcode": 210522,
            "province": "辽宁省",
            "city": "本溪市",
            "district": "桓仁满族自治县"
        }
    },
    {
        "id": "11790645712505950530",
        "title": "公共厕所",
        "address": "辽宁省本溪市桓仁满族自治县站前路与龙宝路交叉口西南方向201米左右",
        "tel": "",
        "category": "基础设施:公共设施:公共厕所",
        "type": 0,
        "location": {
            "lat": 41.27776,
            "lng": 125.32712
        },
        "ad_info": {
            "adcode": 210522,
            "province": "辽宁省",
            "city": "本溪市",
            "district": "桓仁满族自治县"
        }
    },
    {
        "id": "5526984680366249842",
        "title": "公共厕所",
        "address": "辽宁省本溪市明山区G506与水洞路交叉口正西方向268米左右",
        "tel": "",
        "category": "基础设施:公共设施:公共厕所",
        "type": 0,
        "location": {
            "lat": 41.286658,
            "lng": 123.914344
        },
        "ad_info": {
            "adcode": 210504,
            "province": "辽宁省",
            "city": "本溪市",
            "district": "明山区"
        }
    },
    {
        "id": "11608318587112127998",
        "title": "公共厕所",
        "address": "辽宁省本溪市桓仁满族自治县Y567与砬门互通交叉口正东方向97米左右",
        "tel": "",
        "category": "基础设施:公共设施:公共厕所",
        "type": 0,
        "location": {
            "lat": 41.128861,
            "lng": 125.290015
        },
        "ad_info": {
            "adcode": 210522,
            "province": "辽宁省",
            "city": "本溪市",
            "district": "桓仁满族自治县"
        }
    },
    {
        "id": "2352540188734516805",
        "title": "公共厕所",
        "address": "辽宁省本溪市本溪满族自治县仙水山庄北侧90米",
        "tel": "",
        "category": "基础设施:公共设施:公共厕所",
        "type": 0,
        "location": {
            "lat": 41.207132,
            "lng": 124.477508
        },
        "ad_info": {
            "adcode": 210521,
            "province": "辽宁省",
            "city": "本溪市",
            "district": "本溪满族自治县"
        }
    },
    {
        "id": "2210477571110188059",
        "title": "公共厕所(金庭雅苑)",
        "address": "辽宁省本溪市桓仁满族自治县浑江大街与香山路交叉口西南方向114米左右",
        "tel": "",
        "category": "基础设施:公共设施:公共厕所",
        "type": 0,
        "location": {
            "lat": 41.272527,
            "lng": 125.362944
        },
        "ad_info": {
            "adcode": 210522,
            "province": "辽宁省",
            "city": "本溪市",
            "district": "桓仁满族自治县"
        }
    },
    {
        "id": "10786698665916974002",
        "title": "公共厕所",
        "address": "辽宁省本溪市本溪满族自治县Y592与滴桦线交叉口正南方向1398米左右",
        "tel": "",
        "category": "基础设施:公共设施:公共厕所",
        "type": 0,
        "location": {
            "lat": 41.109512,
            "lng": 124.494282
        },
        "ad_info": {
            "adcode": 210521,
            "province": "辽宁省",
            "city": "本溪市",
            "district": "本溪满族自治县"
        }
    },
    {
        "id": "8559117471496070886",
        "title": "公共厕所",
        "address": "辽宁省本溪市平山区彩新街与转山路交叉口东北方向45米左右",
        "tel": "",
        "category": "基础设施:公共设施:公共厕所",
        "type": 0,
        "location": {
            "lat": 41.279855,
            "lng": 123.766356
        },
        "ad_info": {
            "adcode": 210502,
            "province": "辽宁省",
            "city": "本溪市",
            "district": "平山区"
        }
    },
    {
        "id": "14864096097343908540",
        "title": "公共厕所",
        "address": "辽宁省本溪市平山区勇山街与平山四道街交叉口正东方向57米左右",
        "tel": "",
        "category": "基础设施:公共设施:公共厕所",
        "type": 0,
        "location": {
            "lat": 41.285663,
            "lng": 123.781507
        },
        "ad_info": {
            "adcode": 210502,
            "province": "辽宁省",
            "city": "本溪市",
            "district": "平山区"
        }
    },
    {
        "id": "12401815868711446864",
        "title": "公共厕所",
        "address": "辽宁省本溪市南芬区东北第一桥北侧110米",
        "tel": "",
        "category": "基础设施:公共设施:公共厕所",
        "type": 0,
        "location": {
            "lat": 41.143732,
            "lng": 123.682772
        },
        "ad_info": {
            "adcode": 210505,
            "province": "辽宁省",
            "city": "本溪市",
            "district": "南芬区"
        }
    },
    {
        "id": "15884570006642095861",
        "title": "公共厕所(龙锦花园)",
        "address": "辽宁省本溪市桓仁满族自治县长江大街与黄山路交叉口西南方向107米左右",
        "tel": "",
        "category": "基础设施:公共设施:公共厕所",
        "type": 0,
        "location": {
            "lat": 41.269665,
            "lng": 125.34794
        },
        "ad_info": {
            "adcode": 210522,
            "province": "辽宁省",
            "city": "本溪市",
            "district": "桓仁满族自治县"
        }
    },
    {
        "id": "5966094323301457602",
        "title": "公共厕所",
        "address": "辽宁省本溪市溪湖区居仁路与斗力巷交叉口东北方向304米左右",
        "tel": "",
        "category": "基础设施:公共设施:公共厕所",
        "type": 0,
        "location": {
            "lat": 41.335086,
            "lng": 123.764235
        },
        "ad_info": {
            "adcode": 210503,
            "province": "辽宁省",
            "city": "本溪市",
            "district": "溪湖区"
        }
    },
    {
        "id": "624656849509416470",
        "title": "公共厕所",
        "address": "辽宁省本溪市桓仁满族自治县北江大街与民族路交叉口正东方向479米左右",
        "tel": "",
        "category": "基础设施:公共设施:公共厕所",
        "type": 0,
        "location": {
            "lat": 41.279616,
            "lng": 125.376592
        },
        "ad_info": {
            "adcode": 210522,
            "province": "辽宁省",
            "city": "本溪市",
            "district": "桓仁满族自治县"
        }
    },
    {
        "id": "3369599316556842298",
        "title": "公共厕所",
        "address": "辽宁省本溪市平山区人民路与市府北街交叉口西北方向123米左右",
        "tel": "",
        "category": "基础设施:公共设施:公共厕所",
        "type": 0,
        "location": {
            "lat": 41.295322,
            "lng": 123.765071
        },
        "ad_info": {
            "adcode": 210502,
            "province": "辽宁省",
            "city": "本溪市",
            "district": "平山区"
        }
    },
    {
        "id": "4873604407675202275",
        "title": "公共厕所(LN-BX-0427)",
        "address": "辽宁省本溪市溪湖区204线与枫叶路交叉口正北方向820米左右",
        "tel": "",
        "category": "基础设施:公共设施:公共厕所",
        "type": 0,
        "location": {
            "lat": 41.423235,
            "lng": 123.746747
        },
        "ad_info": {
            "adcode": 210503,
            "province": "辽宁省",
            "city": "本溪市",
            "district": "溪湖区"
        }
    },
    {
        "id": "14819744891205024711",
        "title": "公共厕所(鸿运新城)",
        "address": "辽宁省本溪市桓仁满族自治县中心大街与民族路交叉口正南方向79米左右",
        "tel": "",
        "category": "基础设施:公共设施:公共厕所",
        "type": 0,
        "location": {
            "lat": 41.268557,
            "lng": 125.355329
        },
        "ad_info": {
            "adcode": 210522,
            "province": "辽宁省",
            "city": "本溪市",
            "district": "桓仁满族自治县"
        }
    },
    {
        "id": "8515103181868028082",
        "title": "公共厕所",
        "address": "辽宁省本溪市桓仁满族自治县民族路与滨江大街交叉口正北方向22米左右",
        "tel": "",
        "category": "基础设施:公共设施:公共厕所",
        "type": 0,
        "location": {
            "lat": 41.263682,
            "lng": 125.344601
        },
        "ad_info": {
            "adcode": 210522,
            "province": "辽宁省",
            "city": "本溪市",
            "district": "桓仁满族自治县"
        }
    },
    {
        "id": "10196038982982195650",
        "title": "公共厕所",
        "address": "辽宁省本溪市溪湖区彩屯北路与彩建街交叉口东北方向44米左右",
        "tel": "",
        "category": "基础设施:公共设施:公共厕所",
        "type": 0,
        "location": {
            "lat": 41.318483,
            "lng": 123.719252
        },
        "ad_info": {
            "adcode": 210503,
            "province": "辽宁省",
            "city": "本溪市",
            "district": "溪湖区"
        }
    },
    {
        "id": "15461819878085690437",
        "title": "公共厕所",
        "address": "辽宁省本溪市平山区兴山四巷与南兴路交叉口西北方向140米左右",
        "tel": "",
        "category": "基础设施:公共设施:公共厕所",
        "type": 0,
        "location": {
            "lat": 41.261577,
            "lng": 123.701281
        },
        "ad_info": {
            "adcode": 210502,
            "province": "辽宁省",
            "city": "本溪市",
            "district": "平山区"
        }
    },
    {
        "id": "13277772462655200122",
        "title": "公共厕所",
        "address": "辽宁省本溪市溪湖区天桥一街与溪湖西路交叉口正东方向219米左右",
        "tel": "",
        "category": "基础设施:公共设施:公共厕所",
        "type": 0,
        "location": {
            "lat": 41.338753,
            "lng": 123.760555
        },
        "ad_info": {
            "adcode": 210503,
            "province": "辽宁省",
            "city": "本溪市",
            "district": "溪湖区"
        }
    },
    {
        "id": "8409153758806639924",
        "title": "公共厕所",
        "address": "辽宁省本溪市溪湖区复兴二街与复兴街交叉口西南方向76米左右",
        "tel": "",
        "category": "基础设施:公共设施:公共厕所",
        "type": 0,
        "location": {
            "lat": 41.298062,
            "lng": 123.71501
        },
        "ad_info": {
            "adcode": 210503,
            "province": "辽宁省",
            "city": "本溪市",
            "district": "溪湖区"
        }
    },
    {
        "id": "14542893931791539732",
        "title": "公共厕所",
        "address": "辽宁省本溪市本溪满族自治县本桓公路东50米",
        "tel": "",
        "category": "基础设施:公共设施:公共厕所",
        "type": 0,
        "location": {
            "lat": 41.287001,
            "lng": 124.035271
        },
        "ad_info": {
            "adcode": 210521,
            "province": "辽宁省",
            "city": "本溪市",
            "district": "本溪满族自治县"
        }
    },
    {
        "id": "366163664214230351",
        "title": "公共厕所",
        "address": "辽宁省本溪市本溪满族自治县政府路与站前街交叉口正南方向132米左右",
        "tel": "",
        "category": "基础设施:公共设施:公共厕所",
        "type": 0,
        "location": {
            "lat": 41.307024,
            "lng": 124.118706
        },
        "ad_info": {
            "adcode": 210521,
            "province": "辽宁省",
            "city": "本溪市",
            "district": "本溪满族自治县"
        }
    },
    {
        "id": "6517534856569954598",
        "title": "公共厕所",
        "address": "辽宁省本溪市本溪满族自治县长江南路与香山路交叉口正东方向458米左右",
        "tel": "",
        "category": "基础设施:公共设施:公共厕所",
        "type": 0,
        "location": {
            "lat": 41.273894,
            "lng": 124.124004
        },
        "ad_info": {
            "adcode": 210521,
            "province": "辽宁省",
            "city": "本溪市",
            "district": "本溪满族自治县"
        }
    },
    {
        "id": "9309150379230851604",
        "title": "公共厕所",
        "address": "辽宁省本溪市本溪满族自治县新市街与连鞍线交叉口正北方向465米左右",
        "tel": "",
        "category": "基础设施:公共设施:公共厕所",
        "type": 0,
        "location": {
            "lat": 40.968873,
            "lng": 123.760818
        },
        "ad_info": {
            "adcode": 210521,
            "province": "辽宁省",
            "city": "本溪市",
            "district": "本溪满族自治县"
        }
    },
    {
        "id": "8726935343487253307",
        "title": "公共厕所",
        "address": "辽宁省本溪市南芬区G304与石湖线交叉口正北方向342米左右",
        "tel": "",
        "category": "基础设施:公共设施:公共厕所",
        "type": 0,
        "location": {
            "lat": 41.225101,
            "lng": 123.769025
        },
        "ad_info": {
            "adcode": 210505,
            "province": "辽宁省",
            "city": "本溪市",
            "district": "南芬区"
        }
    },
    {
        "id": "11229070446885027290",
        "title": "公共厕所",
        "address": "辽宁省本溪市溪湖区东风路与郑三线交叉口东南方向465米左右",
        "tel": "",
        "category": "基础设施:公共设施:公共厕所",
        "type": 0,
        "location": {
            "lat": 41.332453,
            "lng": 123.70002
        },
        "ad_info": {
            "adcode": 210503,
            "province": "辽宁省",
            "city": "本溪市",
            "district": "溪湖区"
        }
    },
    {
        "id": "11591458905573848425",
        "title": "云峰山服务区第二公共厕所",
        "address": "辽宁省本溪市桓仁满族自治县G201与凤南线交叉口正西方向519米左右",
        "tel": "",
        "category": "基础设施:公共设施:公共厕所",
        "type": 0,
        "location": {
            "lat": 41.234808,
            "lng": 125.32491
        },
        "ad_info": {
            "adcode": 210522,
            "province": "辽宁省",
            "city": "本溪市",
            "district": "桓仁满族自治县"
        }
    },
    {
        "id": "6612730465666961486",
        "title": "公共厕所",
        "address": "辽宁省本溪市明山区水塔路与溪湖大桥交叉口东南方向131米左右",
        "tel": "",
        "category": "基础设施:公共设施:公共厕所",
        "type": 0,
        "location": {
            "lat": 41.314653,
            "lng": 123.772535
        },
        "ad_info": {
            "adcode": 210504,
            "province": "辽宁省",
            "city": "本溪市",
            "district": "明山区"
        }
    },
    {
        "id": "17340504539973067382",
        "title": "公共厕所",
        "address": "辽宁省本溪市溪湖区宝藏街与竖井路交叉口西北方向29米左右",
        "tel": "",
        "category": "基础设施:公共设施:公共厕所",
        "type": 0,
        "location": {
            "lat": 41.316061,
            "lng": 123.734161
        },
        "ad_info": {
            "adcode": 210503,
            "province": "辽宁省",
            "city": "本溪市",
            "district": "溪湖区"
        }
    },
    {
        "id": "2213845246445203628",
        "title": "公共厕所",
        "address": "辽宁省本溪市本溪满族自治县Y524与南甸路交叉口西北方向1628米左右",
        "tel": "",
        "category": "基础设施:公共设施:公共厕所",
        "type": 0,
        "location": {
            "lat": 41.296406,
            "lng": 124.36357
        },
        "ad_info": {
            "adcode": 210521,
            "province": "辽宁省",
            "city": "本溪市",
            "district": "本溪满族自治县"
        }
    },
    {
        "id": "8914397464746690565",
        "title": "公共厕所",
        "address": "辽宁省本溪市溪湖区彩北派出所(彩富路东)",
        "tel": "",
        "category": "基础设施:公共设施:公共厕所",
        "type": 0,
        "location": {
            "lat": 41.312062,
            "lng": 123.721641
        },
        "ad_info": {
            "adcode": 210503,
            "province": "辽宁省",
            "city": "本溪市",
            "district": "溪湖区"
        }
    },
    {
        "id": "9448533890221453874",
        "title": "公共厕所",
        "address": "辽宁省本溪市平山区北光路与紫西路交叉口西南方向20米左右",
        "tel": "",
        "category": "基础设施:公共设施:公共厕所",
        "type": 0,
        "location": {
            "lat": 41.298457,
            "lng": 123.774394
        },
        "ad_info": {
            "adcode": 210502,
            "province": "辽宁省",
            "city": "本溪市",
            "district": "平山区"
        }
    },
    {
        "id": "10947930105054782061",
        "title": "公共厕所",
        "address": "辽宁省本溪市明山区合金街与新峪街交叉口西南方向118米左右",
        "tel": "",
        "category": "基础设施:公共设施:公共厕所",
        "type": 0,
        "location": {
            "lat": 41.303194,
            "lng": 123.797282
        },
        "ad_info": {
            "adcode": 210504,
            "province": "辽宁省",
            "city": "本溪市",
            "district": "明山区"
        }
    },
    {
        "id": "7179602384493275659",
        "title": "公共厕所",
        "address": "辽宁省本溪市平山区解放南路147号",
        "tel": "",
        "category": "基础设施:公共设施:公共厕所",
        "type": 0,
        "location": {
            "lat": 41.277923,
            "lng": 123.753921
        },
        "ad_info": {
            "adcode": 210502,
            "province": "辽宁省",
            "city": "本溪市",
            "district": "平山区"
        }
    },
    {
        "id": "8673847697233374731",
        "title": "公共厕所",
        "address": "辽宁省本溪市南芬区南山街与甩湾街交叉口正北方向21米左右",
        "tel": "",
        "category": "基础设施:公共设施:公共厕所",
        "type": 0,
        "location": {
            "lat": 41.098224,
            "lng": 123.746322
        },
        "ad_info": {
            "adcode": 210505,
            "province": "辽宁省",
            "city": "本溪市",
            "district": "南芬区"
        }
    },
    {
        "id": "8860981804889844772",
        "title": "公共厕所",
        "address": "辽宁省本溪市桓仁满族自治县哈达河街与长白山路交叉口东北方向70米左右",
        "tel": "",
        "category": "基础设施:公共设施:公共厕所",
        "type": 0,
        "location": {
            "lat": 41.293108,
            "lng": 125.385174
        },
        "ad_info": {
            "adcode": 210522,
            "province": "辽宁省",
            "city": "本溪市",
            "district": "桓仁满族自治县"
        }
    },
    {
        "id": "14489840786232294492",
        "title": "公共厕所",
        "address": "辽宁省本溪市溪湖区天桥二街与溪湖西路交叉口正南方向109米左右",
        "tel": "",
        "category": "基础设施:公共设施:公共厕所",
        "type": 0,
        "location": {
            "lat": 41.333292,
            "lng": 123.75877
        },
        "ad_info": {
            "adcode": 210503,
            "province": "辽宁省",
            "city": "本溪市",
            "district": "溪湖区"
        }
    },
    {
        "id": "4764879109769928550",
        "title": "公共厕所",
        "address": "辽宁省本溪市桓仁满族自治县G201与二长线交叉口东北方向192米左右",
        "tel": "",
        "category": "基础设施:公共设施:公共厕所",
        "type": 0,
        "location": {
            "lat": 41.387723,
            "lng": 125.380203
        },
        "ad_info": {
            "adcode": 210522,
            "province": "辽宁省",
            "city": "本溪市",
            "district": "桓仁满族自治县"
        }
    },
    {
        "id": "8866906903538012525",
        "title": "公共厕所",
        "address": "辽宁省本溪市溪湖区井泉街与溪湖西路交叉口正南方向33米左右",
        "tel": "",
        "category": "基础设施:公共设施:公共厕所",
        "type": 0,
        "location": {
            "lat": 41.329139,
            "lng": 123.760736
        },
        "ad_info": {
            "adcode": 210503,
            "province": "辽宁省",
            "city": "本溪市",
            "district": "溪湖区"
        }
    },
    {
        "id": "12292596003170739305",
        "title": "公共厕所",
        "address": "辽宁省本溪市桓仁满族自治县松花江街与汇丰街交叉口东南方向26米左右",
        "tel": "",
        "category": "基础设施:公共设施:公共厕所",
        "type": 0,
        "location": {
            "lat": 41.291366,
            "lng": 125.391328
        },
        "ad_info": {
            "adcode": 210522,
            "province": "辽宁省",
            "city": "本溪市",
            "district": "桓仁满族自治县"
        }
    },
    {
        "id": "11341895715860967815",
        "title": "公共厕所",
        "address": "辽宁省本溪市平山区东明二路与解放北路交叉口正西方向102米左右",
        "tel": "",
        "category": "基础设施:公共设施:公共厕所",
        "type": 0,
        "location": {
            "lat": 41.297993,
            "lng": 123.76009
        },
        "ad_info": {
            "adcode": 210502,
            "province": "辽宁省",
            "city": "本溪市",
            "district": "平山区"
        }
    },
    {
        "id": "3113273839016126223",
        "title": "公共厕所",
        "address": "辽宁省本溪市桓仁满族自治县G201与二北线交叉口东北方向67米左右",
        "tel": "",
        "category": "基础设施:公共设施:公共厕所",
        "type": 0,
        "location": {
            "lat": 41.464896,
            "lng": 125.454172
        },
        "ad_info": {
            "adcode": 210522,
            "province": "辽宁省",
            "city": "本溪市",
            "district": "桓仁满族自治县"
        }
    },
    {
        "id": "11909360697436565065",
        "title": "公共厕所",
        "address": "辽宁省本溪市明山区本石线与高高线交叉口东南方向593米左右",
        "tel": "",
        "category": "基础设施:公共设施:公共厕所",
        "type": 0,
        "location": {
            "lat": 41.377438,
            "lng": 123.815754
        },
        "ad_info": {
            "adcode": 210504,
            "province": "辽宁省",
            "city": "本溪市",
            "district": "明山区"
        }
    },
    {
        "id": "17029757761278615810",
        "title": "公共厕所",
        "address": "辽宁省本溪市明山区小小线与高高线交叉口东160米",
        "tel": "",
        "category": "基础设施:公共设施:公共厕所",
        "type": 0,
        "location": {
            "lat": 41.436982,
            "lng": 123.844942
        },
        "ad_info": {
            "adcode": 210504,
            "province": "辽宁省",
            "city": "本溪市",
            "district": "明山区"
        }
    },
    {
        "id": "13223186372626807259",
        "title": "公共厕所",
        "address": "辽宁省本溪市溪湖区经济开发区天缘木制品厂(石桥子站南)",
        "tel": "",
        "category": "基础设施:公共设施:公共厕所",
        "type": 0,
        "location": {
            "lat": 41.449558,
            "lng": 123.724717
        },
        "ad_info": {
            "adcode": 210503,
            "province": "辽宁省",
            "city": "本溪市",
            "district": "溪湖区"
        }
    },
    {
        "id": "3857151527176230490",
        "title": "公共厕所",
        "address": "辽宁省本溪市桓仁满族自治县汇丰街与长白山路交叉口东南方向102米左右",
        "tel": "",
        "category": "基础设施:公共设施:公共厕所",
        "type": 0,
        "location": {
            "lat": 41.290453,
            "lng": 125.385275
        },
        "ad_info": {
            "adcode": 210522,
            "province": "辽宁省",
            "city": "本溪市",
            "district": "桓仁满族自治县"
        }
    },
    {
        "id": "14751105749813869960",
        "title": "公共厕所",
        "address": "辽宁省本溪市溪湖区本鸡线与溪湖西路交叉口东北方向232米左右",
        "tel": "",
        "category": "基础设施:公共设施:公共厕所",
        "type": 0,
        "location": {
            "lat": 41.348044,
            "lng": 123.765873
        },
        "ad_info": {
            "adcode": 210503,
            "province": "辽宁省",
            "city": "本溪市",
            "district": "溪湖区"
        }
    },
    {
        "id": "7409295414310079988",
        "title": "公共厕所",
        "address": "辽宁省本溪市平山区胜利路与解放北二路交叉口东北方向115米左右",
        "tel": "",
        "category": "基础设施:公共设施:公共厕所",
        "type": 0,
        "location": {
            "lat": 41.297677,
            "lng": 123.763676
        },
        "ad_info": {
            "adcode": 210502,
            "province": "辽宁省",
            "city": "本溪市",
            "district": "平山区"
        }
    },
    {
        "id": "12234420953993939599",
        "title": "本溪水洞服务区公共厕所",
        "address": "辽宁省本溪市溪湖区石桥子街道丹阜高速公路石桥子服务区",
        "tel": "",
        "category": "基础设施:公共设施:公共厕所",
        "type": 0,
        "location": {
            "lat": 41.464441,
            "lng": 123.729621
        },
        "ad_info": {
            "adcode": 210503,
            "province": "辽宁省",
            "city": "本溪市",
            "district": "溪湖区"
        }
    },
    {
        "id": "4505195404704456415",
        "title": "公共厕所",
        "address": "辽宁省本溪市溪湖区木兰路与滨河东路交叉口正南方向171米左右",
        "tel": "",
        "category": "基础设施:公共设施:公共厕所",
        "type": 0,
        "location": {
            "lat": 41.475995,
            "lng": 123.718993
        },
        "ad_info": {
            "adcode": 210503,
            "province": "辽宁省",
            "city": "本溪市",
            "district": "溪湖区"
        }
    },
    {
        "id": "8085604517529514444",
        "title": "公共厕所",
        "address": "辽宁省本溪市溪湖区井东街与煤铁路交叉口西北方向120米左右",
        "tel": "",
        "category": "基础设施:公共设施:公共厕所",
        "type": 0,
        "location": {
            "lat": 41.311949,
            "lng": 123.743299
        },
        "ad_info": {
            "adcode": 210503,
            "province": "辽宁省",
            "city": "本溪市",
            "district": "溪湖区"
        }
    },
    {
        "id": "18060210261747962634",
        "title": "公共厕所",
        "address": "辽宁省本溪市本溪满族自治县G506与本桓线交叉口西北方向64米左右",
        "tel": "",
        "category": "基础设施:公共设施:公共厕所",
        "type": 0,
        "location": {
            "lat": 41.215434,
            "lng": 124.666933
        },
        "ad_info": {
            "adcode": 210521,
            "province": "辽宁省",
            "city": "本溪市",
            "district": "本溪满族自治县"
        }
    },
    {
        "id": "9712338469933139418",
        "title": "公共厕所",
        "address": "辽宁省本溪市平山区三合街与清光街交叉口西南方向25米左右",
        "tel": "",
        "category": "基础设施:公共设施:公共厕所",
        "type": 0,
        "location": {
            "lat": 41.283957,
            "lng": 123.774015
        },
        "ad_info": {
            "adcode": 210502,
            "province": "辽宁省",
            "city": "本溪市",
            "district": "平山区"
        }
    },
    {
        "id": "17109598614059725366",
        "title": "公共厕所",
        "address": "辽宁省本溪市明山区峪明路与明东路交叉口正西方向86米左右",
        "tel": "",
        "category": "基础设施:公共设施:公共厕所",
        "type": 0,
        "location": {
            "lat": 41.313579,
            "lng": 123.784147
        },
        "ad_info": {
            "adcode": 210504,
            "province": "辽宁省",
            "city": "本溪市",
            "district": "明山区"
        }
    },
    {
        "id": "13156721336106266082",
        "title": "公共厕所",
        "address": "辽宁省本溪市溪湖区枫叶路与沈本产业大道交叉口正东方向706米左右",
        "tel": "",
        "category": "基础设施:公共设施:公共厕所",
        "type": 0,
        "location": {
            "lat": 41.50062,
            "lng": 123.665145
        },
        "ad_info": {
            "adcode": 210503,
            "province": "辽宁省",
            "city": "本溪市",
            "district": "溪湖区"
        }
    },
    {
        "id": "5486459929054950445",
        "title": "公共厕所",
        "address": "辽宁省本溪市平山区南兴路与福金街交叉口正南方向120米左右",
        "tel": "",
        "category": "基础设施:公共设施:公共厕所",
        "type": 0,
        "location": {
            "lat": 41.268592,
            "lng": 123.733066
        },
        "ad_info": {
            "adcode": 210502,
            "province": "辽宁省",
            "city": "本溪市",
            "district": "平山区"
        }
    },
    {
        "id": "2132853423574764724",
        "title": "本溪水洞服务区公共厕所",
        "address": "辽宁省本溪市溪湖区丹阜高速",
        "tel": "",
        "category": "基础设施:公共设施:公共厕所",
        "type": 0,
        "location": {
            "lat": 41.46837,
            "lng": 123.728004
        },
        "ad_info": {
            "adcode": 210503,
            "province": "辽宁省",
            "city": "本溪市",
            "district": "溪湖区"
        }
    },
    {
        "id": "2272829124525607713",
        "title": "公共厕所",
        "address": "辽宁省本溪市明山区永明路与解放北二路交叉口东北方向86米左右",
        "tel": "",
        "category": "基础设施:公共设施:公共厕所",
        "type": 0,
        "location": {
            "lat": 41.301422,
            "lng": 123.763351
        },
        "ad_info": {
            "adcode": 210504,
            "province": "辽宁省",
            "city": "本溪市",
            "district": "明山区"
        }
    },
    {
        "id": "14339685405448226330",
        "title": "公共厕所",
        "address": "辽宁省本溪市明山区华程路38栋2号",
        "tel": "",
        "category": "基础设施:公共设施:公共厕所",
        "type": 0,
        "location": {
            "lat": 41.312282,
            "lng": 123.822638
        },
        "ad_info": {
            "adcode": 210504,
            "province": "辽宁省",
            "city": "本溪市",
            "district": "明山区"
        }
    },
    {
        "id": "3437867323755656391",
        "title": "公共厕所",
        "address": "辽宁省本溪市平山区兴利街与南兴路交叉口正南方向155米左右",
        "tel": "",
        "category": "基础设施:公共设施:公共厕所",
        "type": 0,
        "location": {
            "lat": 41.275992,
            "lng": 123.752365
        },
        "ad_info": {
            "adcode": 210502,
            "province": "辽宁省",
            "city": "本溪市",
            "district": "平山区"
        }
    },
    {
        "id": "18294906748440011421",
        "title": "公共厕所",
        "address": "辽宁省本溪市明山区文化路与环山路交叉口正东方向85米左右",
        "tel": "",
        "category": "基础设施:公共设施:公共厕所",
        "type": 0,
        "location": {
            "lat": 41.283776,
            "lng": 123.799588
        },
        "ad_info": {
            "adcode": 210504,
            "province": "辽宁省",
            "city": "本溪市",
            "district": "明山区"
        }
    },
    {
        "id": "16623714475106812631",
        "title": "公共厕所",
        "address": "辽宁省本溪市平山区富强街与工人街交叉口东北方向57米左右",
        "tel": "",
        "category": "基础设施:公共设施:公共厕所",
        "type": 0,
        "location": {
            "lat": 41.282733,
            "lng": 123.760225
        },
        "ad_info": {
            "adcode": 210502,
            "province": "辽宁省",
            "city": "本溪市",
            "district": "平山区"
        }
    },
    {
        "id": "17107331726181993896",
        "title": "公共厕所",
        "address": "辽宁省本溪市溪湖区东风路与郑三线交叉口正西方向1244米左右",
        "tel": "",
        "category": "基础设施:公共设施:公共厕所",
        "type": 0,
        "location": {
            "lat": 41.336337,
            "lng": 123.680811
        },
        "ad_info": {
            "adcode": 210503,
            "province": "辽宁省",
            "city": "本溪市",
            "district": "溪湖区"
        }
    },
    {
        "id": "6719983720259729146",
        "title": "公共厕所",
        "address": "辽宁省本溪市本溪满族自治县本张线与田太线交叉口东北方向1666米左右",
        "tel": "",
        "category": "基础设施:公共设施:公共厕所",
        "type": 0,
        "location": {
            "lat": 41.275954,
            "lng": 124.348845
        },
        "ad_info": {
            "adcode": 210521,
            "province": "辽宁省",
            "city": "本溪市",
            "district": "本溪满族自治县"
        }
    },
    {
        "id": "3605139917561604042",
        "title": "公共厕所",
        "address": "辽宁省本溪市桓仁满族自治县G506与本桓线交叉口正东方向66米左右",
        "tel": "",
        "category": "基础设施:公共设施:公共厕所",
        "type": 0,
        "location": {
            "lat": 41.398386,
            "lng": 125.035458
        },
        "ad_info": {
            "adcode": 210522,
            "province": "辽宁省",
            "city": "本溪市",
            "district": "桓仁满族自治县"
        }
    },
    {
        "id": "15788735521537259338",
        "title": "公共厕所",
        "address": "辽宁省本溪市溪湖区宝藏街与竖井路交叉口正西方向189米左右",
        "tel": "",
        "category": "基础设施:公共设施:公共厕所",
        "type": 0,
        "location": {
            "lat": 41.315876,
            "lng": 123.732067
        },
        "ad_info": {
            "adcode": 210503,
            "province": "辽宁省",
            "city": "本溪市",
            "district": "溪湖区"
        }
    },
    {
        "id": "4441722717065926677",
        "title": "公共厕所",
        "address": "辽宁省本溪市本溪满族自治县中国京油加油站西北侧250米",
        "tel": "",
        "category": "基础设施:公共设施:公共厕所",
        "type": 0,
        "location": {
            "lat": 41.178686,
            "lng": 124.564928
        },
        "ad_info": {
            "adcode": 210521,
            "province": "辽宁省",
            "city": "本溪市",
            "district": "本溪满族自治县"
        }
    },
    {
        "id": "9873766000028219802",
        "title": "公共厕所",
        "address": "辽宁省本溪市平山区市府北街与解放北二路交叉口正东方向99米左右",
        "tel": "",
        "category": "基础设施:公共设施:公共厕所",
        "type": 0,
        "location": {
            "lat": 41.295355,
            "lng": 123.764703
        },
        "ad_info": {
            "adcode": 210502,
            "province": "辽宁省",
            "city": "本溪市",
            "district": "平山区"
        }
    },
    {
        "id": "11206272119156127366",
        "title": "公共厕所",
        "address": "辽宁省本溪市平山区东明二路与解放北路交叉口正西方向122米左右",
        "tel": "",
        "category": "基础设施:公共设施:公共厕所",
        "type": 0,
        "location": {
            "lat": 41.297871,
            "lng": 123.75979
        },
        "ad_info": {
            "adcode": 210502,
            "province": "辽宁省",
            "city": "本溪市",
            "district": "平山区"
        }
    },
    {
        "id": "4505195404704456415",
        "title": "公共厕所",
        "address": "辽宁省本溪市溪湖区木兰路与滨河东路交叉口正南方向171米左右",
        "tel": "",
        "category": "基础设施:公共设施:公共厕所",
        "type": 0,
        "location": {
            "lat": 41.475995,
            "lng": 123.718993
        },
        "ad_info": {
            "adcode": 210503,
            "province": "辽宁省",
            "city": "本溪市",
            "district": "溪湖区"
        }
    },
    {
        "id": "8085604517529514444",
        "title": "公共厕所",
        "address": "辽宁省本溪市溪湖区井东街与煤铁路交叉口西北方向120米左右",
        "tel": "",
        "category": "基础设施:公共设施:公共厕所",
        "type": 0,
        "location": {
            "lat": 41.311949,
            "lng": 123.743299
        },
        "ad_info": {
            "adcode": 210503,
            "province": "辽宁省",
            "city": "本溪市",
            "district": "溪湖区"
        }
    },
    {
        "id": "18060210261747962634",
        "title": "公共厕所",
        "address": "辽宁省本溪市本溪满族自治县G506与本桓线交叉口西北方向64米左右",
        "tel": "",
        "category": "基础设施:公共设施:公共厕所",
        "type": 0,
        "location": {
            "lat": 41.215434,
            "lng": 124.666933
        },
        "ad_info": {
            "adcode": 210521,
            "province": "辽宁省",
            "city": "本溪市",
            "district": "本溪满族自治县"
        }
    },
    {
        "id": "9712338469933139418",
        "title": "公共厕所",
        "address": "辽宁省本溪市平山区三合街与清光街交叉口西南方向25米左右",
        "tel": "",
        "category": "基础设施:公共设施:公共厕所",
        "type": 0,
        "location": {
            "lat": 41.283957,
            "lng": 123.774015
        },
        "ad_info": {
            "adcode": 210502,
            "province": "辽宁省",
            "city": "本溪市",
            "district": "平山区"
        }
    },
    {
        "id": "17109598614059725366",
        "title": "公共厕所",
        "address": "辽宁省本溪市明山区峪明路与明东路交叉口正西方向86米左右",
        "tel": "",
        "category": "基础设施:公共设施:公共厕所",
        "type": 0,
        "location": {
            "lat": 41.313579,
            "lng": 123.784147
        },
        "ad_info": {
            "adcode": 210504,
            "province": "辽宁省",
            "city": "本溪市",
            "district": "明山区"
        }
    },
    {
        "id": "13156721336106266082",
        "title": "公共厕所",
        "address": "辽宁省本溪市溪湖区枫叶路与沈本产业大道交叉口正东方向706米左右",
        "tel": "",
        "category": "基础设施:公共设施:公共厕所",
        "type": 0,
        "location": {
            "lat": 41.50062,
            "lng": 123.665145
        },
        "ad_info": {
            "adcode": 210503,
            "province": "辽宁省",
            "city": "本溪市",
            "district": "溪湖区"
        }
    },
    {
        "id": "5486459929054950445",
        "title": "公共厕所",
        "address": "辽宁省本溪市平山区南兴路与福金街交叉口正南方向120米左右",
        "tel": "",
        "category": "基础设施:公共设施:公共厕所",
        "type": 0,
        "location": {
            "lat": 41.268592,
            "lng": 123.733066
        },
        "ad_info": {
            "adcode": 210502,
            "province": "辽宁省",
            "city": "本溪市",
            "district": "平山区"
        }
    },
    {
        "id": "2132853423574764724",
        "title": "本溪水洞服务区公共厕所",
        "address": "辽宁省本溪市溪湖区丹阜高速",
        "tel": "",
        "category": "基础设施:公共设施:公共厕所",
        "type": 0,
        "location": {
            "lat": 41.46837,
            "lng": 123.728004
        },
        "ad_info": {
            "adcode": 210503,
            "province": "辽宁省",
            "city": "本溪市",
            "district": "溪湖区"
        }
    },
    {
        "id": "2272829124525607713",
        "title": "公共厕所",
        "address": "辽宁省本溪市明山区永明路与解放北二路交叉口东北方向86米左右",
        "tel": "",
        "category": "基础设施:公共设施:公共厕所",
        "type": 0,
        "location": {
            "lat": 41.301422,
            "lng": 123.763351
        },
        "ad_info": {
            "adcode": 210504,
            "province": "辽宁省",
            "city": "本溪市",
            "district": "明山区"
        }
    },
    {
        "id": "14339685405448226330",
        "title": "公共厕所",
        "address": "辽宁省本溪市明山区华程路38栋2号",
        "tel": "",
        "category": "基础设施:公共设施:公共厕所",
        "type": 0,
        "location": {
            "lat": 41.312282,
            "lng": 123.822638
        },
        "ad_info": {
            "adcode": 210504,
            "province": "辽宁省",
            "city": "本溪市",
            "district": "明山区"
        }
    },
    {
        "id": "3437867323755656391",
        "title": "公共厕所",
        "address": "辽宁省本溪市平山区兴利街与南兴路交叉口正南方向155米左右",
        "tel": "",
        "category": "基础设施:公共设施:公共厕所",
        "type": 0,
        "location": {
            "lat": 41.275992,
            "lng": 123.752365
        },
        "ad_info": {
            "adcode": 210502,
            "province": "辽宁省",
            "city": "本溪市",
            "district": "平山区"
        }
    },
    {
        "id": "18294906748440011421",
        "title": "公共厕所",
        "address": "辽宁省本溪市明山区文化路与环山路交叉口正东方向85米左右",
        "tel": "",
        "category": "基础设施:公共设施:公共厕所",
        "type": 0,
        "location": {
            "lat": 41.283776,
            "lng": 123.799588
        },
        "ad_info": {
            "adcode": 210504,
            "province": "辽宁省",
            "city": "本溪市",
            "district": "明山区"
        }
    },
    {
        "id": "16623714475106812631",
        "title": "公共厕所",
        "address": "辽宁省本溪市平山区富强街与工人街交叉口东北方向57米左右",
        "tel": "",
        "category": "基础设施:公共设施:公共厕所",
        "type": 0,
        "location": {
            "lat": 41.282733,
            "lng": 123.760225
        },
        "ad_info": {
            "adcode": 210502,
            "province": "辽宁省",
            "city": "本溪市",
            "district": "平山区"
        }
    },
    {
        "id": "17107331726181993896",
        "title": "公共厕所",
        "address": "辽宁省本溪市溪湖区东风路与郑三线交叉口正西方向1244米左右",
        "tel": "",
        "category": "基础设施:公共设施:公共厕所",
        "type": 0,
        "location": {
            "lat": 41.336337,
            "lng": 123.680811
        },
        "ad_info": {
            "adcode": 210503,
            "province": "辽宁省",
            "city": "本溪市",
            "district": "溪湖区"
        }
    },
    {
        "id": "6719983720259729146",
        "title": "公共厕所",
        "address": "辽宁省本溪市本溪满族自治县本张线与田太线交叉口东北方向1666米左右",
        "tel": "",
        "category": "基础设施:公共设施:公共厕所",
        "type": 0,
        "location": {
            "lat": 41.275954,
            "lng": 124.348845
        },
        "ad_info": {
            "adcode": 210521,
            "province": "辽宁省",
            "city": "本溪市",
            "district": "本溪满族自治县"
        }
    },
    {
        "id": "3605139917561604042",
        "title": "公共厕所",
        "address": "辽宁省本溪市桓仁满族自治县G506与本桓线交叉口正东方向66米左右",
        "tel": "",
        "category": "基础设施:公共设施:公共厕所",
        "type": 0,
        "location": {
            "lat": 41.398386,
            "lng": 125.035458
        },
        "ad_info": {
            "adcode": 210522,
            "province": "辽宁省",
            "city": "本溪市",
            "district": "桓仁满族自治县"
        }
    },
    {
        "id": "15788735521537259338",
        "title": "公共厕所",
        "address": "辽宁省本溪市溪湖区宝藏街与竖井路交叉口正西方向189米左右",
        "tel": "",
        "category": "基础设施:公共设施:公共厕所",
        "type": 0,
        "location": {
            "lat": 41.315876,
            "lng": 123.732067
        },
        "ad_info": {
            "adcode": 210503,
            "province": "辽宁省",
            "city": "本溪市",
            "district": "溪湖区"
        }
    },
    {
        "id": "4441722717065926677",
        "title": "公共厕所",
        "address": "辽宁省本溪市本溪满族自治县中国京油加油站西北侧250米",
        "tel": "",
        "category": "基础设施:公共设施:公共厕所",
        "type": 0,
        "location": {
            "lat": 41.178686,
            "lng": 124.564928
        },
        "ad_info": {
            "adcode": 210521,
            "province": "辽宁省",
            "city": "本溪市",
            "district": "本溪满族自治县"
        }
    },
    {
        "id": "9873766000028219802",
        "title": "公共厕所",
        "address": "辽宁省本溪市平山区市府北街与解放北二路交叉口正东方向99米左右",
        "tel": "",
        "category": "基础设施:公共设施:公共厕所",
        "type": 0,
        "location": {
            "lat": 41.295355,
            "lng": 123.764703
        },
        "ad_info": {
            "adcode": 210502,
            "province": "辽宁省",
            "city": "本溪市",
            "district": "平山区"
        }
    },
    {
        "id": "11206272119156127366",
        "title": "公共厕所",
        "address": "辽宁省本溪市平山区东明二路与解放北路交叉口正西方向122米左右",
        "tel": "",
        "category": "基础设施:公共设施:公共厕所",
        "type": 0,
        "location": {
            "lat": 41.297871,
            "lng": 123.75979
        },
        "ad_info": {
            "adcode": 210502,
            "province": "辽宁省",
            "city": "本溪市",
            "district": "平山区"
        }
    }
]