[
    {
        "id": "9276753168686823745",
        "title": "公共厕所",
        "address": "广西壮族自治区来宾市武宣县仙蜜路与太平路交叉口西南方向44米左右",
        "tel": "",
        "category": "基础设施:公共设施:公共厕所",
        "type": 0,
        "location": {
            "lat": 23.601855,
            "lng": 109.659058
        },
        "ad_info": {
            "adcode": 451323,
            "province": "广西壮族自治区",
            "city": "来宾市",
            "district": "武宣县"
        }
    },
    {
        "id": "18022892589302703149",
        "title": "公共厕所",
        "address": "广西壮族自治区来宾市忻城县芝州二路85号",
        "tel": "",
        "category": "基础设施:公共设施:公共厕所",
        "type": 0,
        "location": {
            "lat": 24.063845,
            "lng": 108.665421
        },
        "ad_info": {
            "adcode": 451321,
            "province": "广西壮族自治区",
            "city": "来宾市",
            "district": "忻城县"
        }
    },
    {
        "id": "14472520182121945313",
        "title": "公共厕所",
        "address": "广西壮族自治区来宾市武宣县裕达小广场旁",
        "tel": "",
        "category": "基础设施:公共设施:公共厕所",
        "type": 0,
        "location": {
            "lat": 23.608591,
            "lng": 109.681535
        },
        "ad_info": {
            "adcode": 451323,
            "province": "广西壮族自治区",
            "city": "来宾市",
            "district": "武宣县"
        }
    },
    {
        "id": "3317234278296995283",
        "title": "公共厕所",
        "address": "广西壮族自治区来宾市武宣县城东路与城北路南段交叉口西北方向243米左右",
        "tel": "",
        "category": "基础设施:公共设施:公共厕所",
        "type": 0,
        "location": {
            "lat": 23.594063,
            "lng": 109.659365
        },
        "ad_info": {
            "adcode": 451323,
            "province": "广西壮族自治区",
            "city": "来宾市",
            "district": "武宣县"
        }
    },
    {
        "id": "1219870460155538298",
        "title": "公共厕所",
        "address": "广西壮族自治区来宾市武宣县文汇路东三巷与武中路交叉口正东方向115米左右",
        "tel": "",
        "category": "基础设施:公共设施:公共厕所",
        "type": 0,
        "location": {
            "lat": 23.605713,
            "lng": 109.667308
        },
        "ad_info": {
            "adcode": 451323,
            "province": "广西壮族自治区",
            "city": "来宾市",
            "district": "武宣县"
        }
    },
    {
        "id": "5048580308258110487",
        "title": "公共厕所",
        "address": "广西壮族自治区来宾市武宣县城东路与滨江路交叉口正东方向191米左右",
        "tel": "",
        "category": "基础设施:公共设施:公共厕所",
        "type": 0,
        "location": {
            "lat": 23.599266,
            "lng": 109.678375
        },
        "ad_info": {
            "adcode": 451323,
            "province": "广西壮族自治区",
            "city": "来宾市",
            "district": "武宣县"
        }
    },
    {
        "id": "9128823836822984781",
        "title": "公共厕所",
        "address": "广西壮族自治区来宾市武宣县S304与东乡街交叉口正南方向1218米左右",
        "tel": "",
        "category": "基础设施:公共设施:公共厕所",
        "type": 0,
        "location": {
            "lat": 23.58544,
            "lng": 109.860008
        },
        "ad_info": {
            "adcode": 451323,
            "province": "广西壮族自治区",
            "city": "来宾市",
            "district": "武宣县"
        }
    },
    {
        "id": "10735013965847005131",
        "title": "公共厕所",
        "address": "广西壮族自治区来宾市兴宾区东盟步行街114号",
        "tel": "",
        "category": "基础设施:公共设施:公共厕所",
        "type": 0,
        "location": {
            "lat": 23.732993,
            "lng": 109.223833
        },
        "ad_info": {
            "adcode": 451302,
            "province": "广西壮族自治区",
            "city": "来宾市",
            "district": "兴宾区"
        }
    },
    {
        "id": "16756289907771649281",
        "title": "公共厕所",
        "address": "广西壮族自治区来宾市忻城县景观路与鞍山路交叉口东南方向43米左右",
        "tel": "",
        "category": "基础设施:公共设施:公共厕所",
        "type": 0,
        "location": {
            "lat": 24.063607,
            "lng": 108.662699
        },
        "ad_info": {
            "adcode": 451321,
            "province": "广西壮族自治区",
            "city": "来宾市",
            "district": "忻城县"
        }
    },
    {
        "id": "14547976439406716511",
        "title": "公共厕所",
        "address": "广西壮族自治区来宾市合山市人民北路与510省道交叉口南300米",
        "tel": "",
        "category": "基础设施:公共设施:公共厕所",
        "type": 0,
        "location": {
            "lat": 23.83139,
            "lng": 108.890849
        },
        "ad_info": {
            "adcode": 451381,
            "province": "广西壮族自治区",
            "city": "来宾市",
            "district": "合山市"
        }
    },
    {
        "id": "2130972285021844544",
        "title": "公共厕所",
        "address": "广西壮族自治区来宾市武宣县高立路a42号",
        "tel": "",
        "category": "基础设施:公共设施:公共厕所",
        "type": 0,
        "location": {
            "lat": 23.599707,
            "lng": 109.657952
        },
        "ad_info": {
            "adcode": 451323,
            "province": "广西壮族自治区",
            "city": "来宾市",
            "district": "武宣县"
        }
    },
    {
        "id": "7965098552072707334",
        "title": "公共厕所",
        "address": "广西壮族自治区来宾市武宣县二塘镇中学南侧250米",
        "tel": "",
        "category": "基础设施:公共设施:公共厕所",
        "type": 0,
        "location": {
            "lat": 23.669853,
            "lng": 109.684885
        },
        "ad_info": {
            "adcode": 451323,
            "province": "广西壮族自治区",
            "city": "来宾市",
            "district": "武宣县"
        }
    },
    {
        "id": "15366355115236871681",
        "title": "公共厕所",
        "address": "广西壮族自治区来宾市武宣县城中路与朝阳路交叉口西南方向200米左右",
        "tel": "",
        "category": "基础设施:公共设施:公共厕所",
        "type": 0,
        "location": {
            "lat": 23.600472,
            "lng": 109.670669
        },
        "ad_info": {
            "adcode": 451323,
            "province": "广西壮族自治区",
            "city": "来宾市",
            "district": "武宣县"
        }
    },
    {
        "id": "303222795212422112",
        "title": "公共厕所",
        "address": "广西壮族自治区来宾市忻城县鞍山路一巷与鞍山路交叉口正东方向329米左右",
        "tel": "",
        "category": "基础设施:公共设施:公共厕所",
        "type": 0,
        "location": {
            "lat": 24.070439,
            "lng": 108.664727
        },
        "ad_info": {
            "adcode": 451321,
            "province": "广西壮族自治区",
            "city": "来宾市",
            "district": "忻城县"
        }
    },
    {
        "id": "400443518744385123",
        "title": "公共厕所",
        "address": "广西壮族自治区来宾市武宣县G209与Y054交叉口东南方向1822米左右",
        "tel": "",
        "category": "基础设施:公共设施:公共厕所",
        "type": 0,
        "location": {
            "lat": 23.758084,
            "lng": 109.64927
        },
        "ad_info": {
            "adcode": 451323,
            "province": "广西壮族自治区",
            "city": "来宾市",
            "district": "武宣县"
        }
    },
    {
        "id": "2380597319510750427",
        "title": "公共厕所",
        "address": "广西壮族自治区来宾市合山市Y004与人民南路交叉口正西方向218米左右",
        "tel": "",
        "category": "基础设施:公共设施:公共厕所",
        "type": 0,
        "location": {
            "lat": 23.800653,
            "lng": 108.876318
        },
        "ad_info": {
            "adcode": 451381,
            "province": "广西壮族自治区",
            "city": "来宾市",
            "district": "合山市"
        }
    },
    {
        "id": "17167730836407101042",
        "title": "公共厕所",
        "address": "广西壮族自治区来宾市金秀瑶族自治县向阳路与惠东街交叉口正东方向175米左右",
        "tel": "",
        "category": "基础设施:公共设施:公共厕所",
        "type": 0,
        "location": {
            "lat": 24.194994,
            "lng": 109.988738
        },
        "ad_info": {
            "adcode": 451324,
            "province": "广西壮族自治区",
            "city": "来宾市",
            "district": "金秀瑶族自治县"
        }
    },
    {
        "id": "324766062468984229",
        "title": "公共厕所",
        "address": "广西壮族自治区来宾市兴宾区柳来路243号",
        "tel": "",
        "category": "基础设施:公共设施:公共厕所",
        "type": 0,
        "location": {
            "lat": 23.731624,
            "lng": 109.232727
        },
        "ad_info": {
            "adcode": 451302,
            "province": "广西壮族自治区",
            "city": "来宾市",
            "district": "兴宾区"
        }
    },
    {
        "id": "1526774424305904449",
        "title": "公共厕所",
        "address": "广西壮族自治区来宾市兴宾区古三路与柳来路交叉口正西方向51米左右",
        "tel": "",
        "category": "基础设施:公共设施:公共厕所",
        "type": 0,
        "location": {
            "lat": 23.742676,
            "lng": 109.231605
        },
        "ad_info": {
            "adcode": 451302,
            "province": "广西壮族自治区",
            "city": "来宾市",
            "district": "兴宾区"
        }
    },
    {
        "id": "10414739987421709292",
        "title": "公共厕所",
        "address": "广西壮族自治区来宾市武宣县G209与新街交叉口西北方向982米左右",
        "tel": "",
        "category": "基础设施:公共设施:公共厕所",
        "type": 0,
        "location": {
            "lat": 23.685132,
            "lng": 109.667229
        },
        "ad_info": {
            "adcode": 451323,
            "province": "广西壮族自治区",
            "city": "来宾市",
            "district": "武宣县"
        }
    },
    {
        "id": "6357513651162239593",
        "title": "公共厕所",
        "address": "广西壮族自治区来宾市武宣县G209与Y254交叉口正北方向1584米左右",
        "tel": "",
        "category": "基础设施:公共设施:公共厕所",
        "type": 0,
        "location": {
            "lat": 23.646015,
            "lng": 109.67606
        },
        "ad_info": {
            "adcode": 451323,
            "province": "广西壮族自治区",
            "city": "来宾市",
            "district": "武宣县"
        }
    },
    {
        "id": "12219342431898206554",
        "title": "公共厕所",
        "address": "广西壮族自治区来宾市金秀瑶族自治县S507与X645交叉口正东方向351米左右",
        "tel": "",
        "category": "基础设施:公共设施:公共厕所",
        "type": 0,
        "location": {
            "lat": 24.201835,
            "lng": 109.995262
        },
        "ad_info": {
            "adcode": 451324,
            "province": "广西壮族自治区",
            "city": "来宾市",
            "district": "金秀瑶族自治县"
        }
    },
    {
        "id": "14658475587267775788",
        "title": "公共厕所",
        "address": "广西壮族自治区来宾市忻城县棒巴风情谷东南侧100米",
        "tel": "",
        "category": "基础设施:公共设施:公共厕所",
        "type": 0,
        "location": {
            "lat": 24.224994,
            "lng": 108.76174
        },
        "ad_info": {
            "adcode": 451321,
            "province": "广西壮族自治区",
            "city": "来宾市",
            "district": "忻城县"
        }
    },
    {
        "id": "5346766415836462599",
        "title": "公共厕所",
        "address": "广西壮族自治区来宾市兴宾区政和路与桂中大道辅路交叉口东北方向118米左右",
        "tel": "",
        "category": "基础设施:公共设施:公共厕所",
        "type": 0,
        "location": {
            "lat": 23.741969,
            "lng": 109.220419
        },
        "ad_info": {
            "adcode": 451302,
            "province": "广西壮族自治区",
            "city": "来宾市",
            "district": "兴宾区"
        }
    },
    {
        "id": "16107954792562416083",
        "title": "卫生间",
        "address": "广西壮族自治区来宾市武宣县泰林经济饭店东南侧",
        "tel": "",
        "category": "基础设施:公共设施:公共厕所",
        "type": 0,
        "location": {
            "lat": 23.47935,
            "lng": 109.643871
        },
        "ad_info": {
            "adcode": 451323,
            "province": "广西壮族自治区",
            "city": "来宾市",
            "district": "武宣县"
        }
    },
    {
        "id": "12782795151820459408",
        "title": "公共厕所",
        "address": "广西壮族自治区来宾市忻城县翠屏西路1号",
        "tel": "",
        "category": "基础设施:公共设施:公共厕所",
        "type": 0,
        "location": {
            "lat": 24.063386,
            "lng": 108.666652
        },
        "ad_info": {
            "adcode": 451321,
            "province": "广西壮族自治区",
            "city": "来宾市",
            "district": "忻城县"
        }
    },
    {
        "id": "16567017018981093910",
        "title": "公共厕所",
        "address": "广西壮族自治区来宾市武宣县S304与东乡大桥交叉口东北方向261米左右",
        "tel": "",
        "category": "基础设施:公共设施:公共厕所",
        "type": 0,
        "location": {
            "lat": 23.589592,
            "lng": 109.84753
        },
        "ad_info": {
            "adcode": 451323,
            "province": "广西壮族自治区",
            "city": "来宾市",
            "district": "武宣县"
        }
    },
    {
        "id": "2528608261159574116",
        "title": "公共厕所",
        "address": "广西壮族自治区来宾市武宣县323省道西100米",
        "tel": "",
        "category": "基础设施:公共设施:公共厕所",
        "type": 0,
        "location": {
            "lat": 23.574118,
            "lng": 109.809806
        },
        "ad_info": {
            "adcode": 451323,
            "province": "广西壮族自治区",
            "city": "来宾市",
            "district": "武宣县"
        }
    },
    {
        "id": "14975792993012730889",
        "title": "厕所",
        "address": "广西壮族自治区来宾市兴宾区G355与Y065交叉口东北方向1105米左右",
        "tel": "",
        "category": "基础设施:公共设施:公共厕所",
        "type": 0,
        "location": {
            "lat": 23.714091,
            "lng": 109.398076
        },
        "ad_info": {
            "adcode": 451302,
            "province": "广西壮族自治区",
            "city": "来宾市",
            "district": "兴宾区"
        }
    },
    {
        "id": "8183953930429860002",
        "title": "公共厕所",
        "address": "广西壮族自治区来宾市合山市三北高速与三南高速交叉口正南方向1140米左右",
        "tel": "",
        "category": "基础设施:公共设施:公共厕所",
        "type": 0,
        "location": {
            "lat": 23.827749,
            "lng": 108.840991
        },
        "ad_info": {
            "adcode": 451381,
            "province": "广西壮族自治区",
            "city": "来宾市",
            "district": "合山市"
        }
    },
    {
        "id": "2377318223347634639",
        "title": "公共厕所",
        "address": "广西壮族自治区来宾市合山市人民中路与教育路交叉口正南方向137米左右",
        "tel": "",
        "category": "基础设施:公共设施:公共厕所",
        "type": 0,
        "location": {
            "lat": 23.808918,
            "lng": 108.888223
        },
        "ad_info": {
            "adcode": 451381,
            "province": "广西壮族自治区",
            "city": "来宾市",
            "district": "合山市"
        }
    },
    {
        "id": "17482828465183703790",
        "title": "公共厕所",
        "address": "广西壮族自治区来宾市合山市",
        "tel": "",
        "category": "基础设施:公共设施:公共厕所",
        "type": 0,
        "location": {
            "lat": 23.727937,
            "lng": 108.940817
        },
        "ad_info": {
            "adcode": 451381,
            "province": "广西壮族自治区",
            "city": "来宾市",
            "district": "合山市"
        }
    },
    {
        "id": "12097601726219497308",
        "title": "公共厕所",
        "address": "广西壮族自治区来宾市兴宾区东环大道辅路与沙来路交叉口正东方向272米左右",
        "tel": "",
        "category": "基础设施:公共设施:公共厕所",
        "type": 0,
        "location": {
            "lat": 23.752657,
            "lng": 109.243888
        },
        "ad_info": {
            "adcode": 451302,
            "province": "广西壮族自治区",
            "city": "来宾市",
            "district": "兴宾区"
        }
    },
    {
        "id": "702919284978634247",
        "title": "公共厕所",
        "address": "广西壮族自治区来宾市兴宾区石陵中心校北侧120米",
        "tel": "",
        "category": "基础设施:公共设施:公共厕所",
        "type": 0,
        "location": {
            "lat": 23.488372,
            "lng": 108.945948
        },
        "ad_info": {
            "adcode": 451302,
            "province": "广西壮族自治区",
            "city": "来宾市",
            "district": "兴宾区"
        }
    },
    {
        "id": "7149495052260126265",
        "title": "公共厕所",
        "address": "广西壮族自治区来宾市金秀瑶族自治县莲花路与解放路交叉口东北方向54米左右",
        "tel": "",
        "category": "基础设施:公共设施:公共厕所",
        "type": 0,
        "location": {
            "lat": 24.13416,
            "lng": 110.189327
        },
        "ad_info": {
            "adcode": 451324,
            "province": "广西壮族自治区",
            "city": "来宾市",
            "district": "金秀瑶族自治县"
        }
    },
    {
        "id": "9392211910691083396",
        "title": "公共厕所",
        "address": "广西壮族自治区来宾市忻城县G242与X652交叉口正南方向778米左右",
        "tel": "",
        "category": "基础设施:公共设施:公共厕所",
        "type": 0,
        "location": {
            "lat": 23.938121,
            "lng": 108.614812
        },
        "ad_info": {
            "adcode": 451321,
            "province": "广西壮族自治区",
            "city": "来宾市",
            "district": "忻城县"
        }
    },
    {
        "id": "8267121176455443100",
        "title": "公共厕所",
        "address": "广西壮族自治区来宾市兴宾区东二路与金塘路交叉口西北方向26米左右",
        "tel": "",
        "category": "基础设施:公共设施:公共厕所",
        "type": 0,
        "location": {
            "lat": 23.726668,
            "lng": 109.23456
        },
        "ad_info": {
            "adcode": 451302,
            "province": "广西壮族自治区",
            "city": "来宾市",
            "district": "兴宾区"
        }
    },
    {
        "id": "14150755197957524340",
        "title": "公共厕所",
        "address": "广西壮族自治区来宾市兴宾区中南路与北二路交叉口正南方向40米左右",
        "tel": "",
        "category": "基础设施:公共设施:公共厕所",
        "type": 0,
        "location": {
            "lat": 23.729195,
            "lng": 109.236093
        },
        "ad_info": {
            "adcode": 451302,
            "province": "广西壮族自治区",
            "city": "来宾市",
            "district": "兴宾区"
        }
    },
    {
        "id": "2871557176114478536",
        "title": "公共厕所",
        "address": "广西壮族自治区来宾市兴宾区绿源路与银河路交叉口东北方向150米左右",
        "tel": "",
        "category": "基础设施:公共设施:公共厕所",
        "type": 0,
        "location": {
            "lat": 23.753447,
            "lng": 109.206798
        },
        "ad_info": {
            "adcode": 451302,
            "province": "广西壮族自治区",
            "city": "来宾市",
            "district": "兴宾区"
        }
    },
    {
        "id": "1671711930286009024",
        "title": "公共厕所",
        "address": "广西壮族自治区来宾市忻城县思尚宾馆东南侧130米",
        "tel": "",
        "category": "基础设施:公共设施:公共厕所",
        "type": 0,
        "location": {
            "lat": 24.052352,
            "lng": 108.914337
        },
        "ad_info": {
            "adcode": 451321,
            "province": "广西壮族自治区",
            "city": "来宾市",
            "district": "忻城县"
        }
    },
    {
        "id": "6078115439696988436",
        "title": "公共厕所",
        "address": "广西壮族自治区来宾市兴宾区盘古大道与祥和路交叉口西北方向192米左右",
        "tel": "",
        "category": "基础设施:公共设施:公共厕所",
        "type": 0,
        "location": {
            "lat": 23.745897,
            "lng": 109.222046
        },
        "ad_info": {
            "adcode": 451302,
            "province": "广西壮族自治区",
            "city": "来宾市",
            "district": "兴宾区"
        }
    },
    {
        "id": "6468133581422383017",
        "title": "公共厕所",
        "address": "广西壮族自治区来宾市合山市Y005与Y140交叉口西北方向1314米左右",
        "tel": "",
        "category": "基础设施:公共设施:公共厕所",
        "type": 0,
        "location": {
            "lat": 23.719877,
            "lng": 108.954897
        },
        "ad_info": {
            "adcode": 451381,
            "province": "广西壮族自治区",
            "city": "来宾市",
            "district": "合山市"
        }
    },
    {
        "id": "7398172269489732796",
        "title": "公共厕所",
        "address": "广西壮族自治区来宾市金秀瑶族自治县云山茶业有限公司东北侧180米",
        "tel": "",
        "category": "基础设施:公共设施:公共厕所",
        "type": 0,
        "location": {
            "lat": 24.22831,
            "lng": 110.209194
        },
        "ad_info": {
            "adcode": 451324,
            "province": "广西壮族自治区",
            "city": "来宾市",
            "district": "金秀瑶族自治县"
        }
    },
    {
        "id": "4804741963217175203",
        "title": "公共厕所",
        "address": "广西壮族自治区来宾市忻城县鞍山路一巷与鞍山路交叉口正北方向221米左右",
        "tel": "",
        "category": "基础设施:公共设施:公共厕所",
        "type": 0,
        "location": {
            "lat": 24.072472,
            "lng": 108.661152
        },
        "ad_info": {
            "adcode": 451321,
            "province": "广西壮族自治区",
            "city": "来宾市",
            "district": "忻城县"
        }
    },
    {
        "id": "7642080456625334353",
        "title": "公共厕所",
        "address": "广西壮族自治区来宾市合山市Y004与人民南路交叉口西南方向124米左右",
        "tel": "",
        "category": "基础设施:公共设施:公共厕所",
        "type": 0,
        "location": {
            "lat": 23.799551,
            "lng": 108.877534
        },
        "ad_info": {
            "adcode": 451381,
            "province": "广西壮族自治区",
            "city": "来宾市",
            "district": "合山市"
        }
    },
    {
        "id": "1176604611372054146",
        "title": "洗手间",
        "address": "广西壮族自治区来宾市忻城县芝州一路17号",
        "tel": "",
        "category": "基础设施:公共设施:公共厕所",
        "type": 0,
        "location": {
            "lat": 24.066531,
            "lng": 108.667427
        },
        "ad_info": {
            "adcode": 451321,
            "province": "广西壮族自治区",
            "city": "来宾市",
            "district": "忻城县"
        }
    },
    {
        "id": "7264593106733730450",
        "title": "公共厕所",
        "address": "广西壮族自治区来宾市忻城县S510与X601交叉口东北方向111米",
        "tel": "",
        "category": "基础设施:公共设施:公共厕所",
        "type": 0,
        "location": {
            "lat": 23.830679,
            "lng": 108.81922
        },
        "ad_info": {
            "adcode": 451321,
            "province": "广西壮族自治区",
            "city": "来宾市",
            "district": "忻城县"
        }
    },
    {
        "id": "629381207592655401",
        "title": "公共厕所",
        "address": "广西壮族自治区来宾市兴宾区东南一路与和平路交叉口西北方向146米左右",
        "tel": "",
        "category": "基础设施:公共设施:公共厕所",
        "type": 0,
        "location": {
            "lat": 23.726188,
            "lng": 109.240771
        },
        "ad_info": {
            "adcode": 451302,
            "province": "广西壮族自治区",
            "city": "来宾市",
            "district": "兴宾区"
        }
    },
    {
        "id": "15030238301982696789",
        "title": "公共厕所",
        "address": "广西壮族自治区来宾市忻城县S510与武忻高速交叉口正北方向1469米左右",
        "tel": "",
        "category": "基础设施:公共设施:公共厕所",
        "type": 0,
        "location": {
            "lat": 23.874936,
            "lng": 108.687659
        },
        "ad_info": {
            "adcode": 451321,
            "province": "广西壮族自治区",
            "city": "来宾市",
            "district": "忻城县"
        }
    },
    {
        "id": "11224688036125807034",
        "title": "公共厕所",
        "address": "广西壮族自治区来宾市忻城县601县道东50米",
        "tel": "",
        "category": "基础设施:公共设施:公共厕所",
        "type": 0,
        "location": {
            "lat": 23.853578,
            "lng": 108.734753
        },
        "ad_info": {
            "adcode": 451321,
            "province": "广西壮族自治区",
            "city": "来宾市",
            "district": "忻城县"
        }
    },
    {
        "id": "2449379393472342801",
        "title": "公共厕所",
        "address": "广西壮族自治区来宾市忻城县601县道西50米",
        "tel": "",
        "category": "基础设施:公共设施:公共厕所",
        "type": 0,
        "location": {
            "lat": 23.861817,
            "lng": 108.752419
        },
        "ad_info": {
            "adcode": 451321,
            "province": "广西壮族自治区",
            "city": "来宾市",
            "district": "忻城县"
        }
    },
    {
        "id": "9921102718464972208",
        "title": "公共厕所",
        "address": "广西壮族自治区来宾市合山市人民南路与里兰商业街交叉口正东方向150米左右",
        "tel": "",
        "category": "基础设施:公共设施:公共厕所",
        "type": 0,
        "location": {
            "lat": 23.797356,
            "lng": 108.873202
        },
        "ad_info": {
            "adcode": 451381,
            "province": "广西壮族自治区",
            "city": "来宾市",
            "district": "合山市"
        }
    },
    {
        "id": "6377011188207852803",
        "title": "公共厕所",
        "address": "广西壮族自治区来宾市兴宾区金塘一路与银塘路交叉口西南方向35米左右",
        "tel": "",
        "category": "基础设施:公共设施:公共厕所",
        "type": 0,
        "location": {
            "lat": 23.725754,
            "lng": 109.233499
        },
        "ad_info": {
            "adcode": 451302,
            "province": "广西壮族自治区",
            "city": "来宾市",
            "district": "兴宾区"
        }
    },
    {
        "id": "2853731557441752138",
        "title": "公共厕所",
        "address": "广西壮族自治区来宾市兴宾区桂中大道与迎宾路交叉口东北方向77米左右",
        "tel": "",
        "category": "基础设施:公共设施:公共厕所",
        "type": 0,
        "location": {
            "lat": 23.746025,
            "lng": 109.210549
        },
        "ad_info": {
            "adcode": 451302,
            "province": "广西壮族自治区",
            "city": "来宾市",
            "district": "兴宾区"
        }
    },
    {
        "id": "11063391728016687262",
        "title": "公共厕所",
        "address": "广西壮族自治区来宾市合山市671县道北50米",
        "tel": "",
        "category": "基础设施:公共设施:公共厕所",
        "type": 0,
        "location": {
            "lat": 23.803457,
            "lng": 108.927978
        },
        "ad_info": {
            "adcode": 451381,
            "province": "广西壮族自治区",
            "city": "来宾市",
            "district": "合山市"
        }
    },
    {
        "id": "14876308665511214557",
        "title": "公共厕所",
        "address": "广西壮族自治区来宾市兴宾区政和路与滨江北路交叉口正南方向30米左右",
        "tel": "",
        "category": "基础设施:公共设施:公共厕所",
        "type": 0,
        "location": {
            "lat": 23.73509,
            "lng": 109.21775
        },
        "ad_info": {
            "adcode": 451302,
            "province": "广西壮族自治区",
            "city": "来宾市",
            "district": "兴宾区"
        }
    },
    {
        "id": "1202831588048249622",
        "title": "公共厕所",
        "address": "广西壮族自治区来宾市兴宾区维林大道与维林新城一巷交叉口正南方向188米左右",
        "tel": "",
        "category": "基础设施:公共设施:公共厕所",
        "type": 0,
        "location": {
            "lat": 23.73105,
            "lng": 109.227352
        },
        "ad_info": {
            "adcode": 451302,
            "province": "广西壮族自治区",
            "city": "来宾市",
            "district": "兴宾区"
        }
    },
    {
        "id": "3461039586038281706",
        "title": "公共厕所",
        "address": "广西壮族自治区来宾市兴宾区振华路与绿源路交叉口东北方向68米左右",
        "tel": "",
        "category": "基础设施:公共设施:公共厕所",
        "type": 0,
        "location": {
            "lat": 23.761817,
            "lng": 109.212388
        },
        "ad_info": {
            "adcode": 451302,
            "province": "广西壮族自治区",
            "city": "来宾市",
            "district": "兴宾区"
        }
    },
    {
        "id": "6256273400407587831",
        "title": "公共厕所",
        "address": "广西壮族自治区来宾市忻城县S510与武忻高速交叉口东南方向476米左右",
        "tel": "",
        "category": "基础设施:公共设施:公共厕所",
        "type": 0,
        "location": {
            "lat": 23.860138,
            "lng": 108.696856
        },
        "ad_info": {
            "adcode": 451321,
            "province": "广西壮族自治区",
            "city": "来宾市",
            "district": "忻城县"
        }
    },
    {
        "id": "2335014695391666967",
        "title": "公共厕所",
        "address": "广西壮族自治区来宾市合山市G322与光明路交叉口正南方向523米左右",
        "tel": "",
        "category": "基础设施:公共设施:公共厕所",
        "type": 0,
        "location": {
            "lat": 23.791321,
            "lng": 108.898747
        },
        "ad_info": {
            "adcode": 451381,
            "province": "广西壮族自治区",
            "city": "来宾市",
            "district": "合山市"
        }
    },
    {
        "id": "8656672564371128850",
        "title": "公共厕所",
        "address": "广西壮族自治区来宾市兴宾区东环大道与翠屏东路交叉口东北方向382米左右",
        "tel": "",
        "category": "基础设施:公共设施:公共厕所",
        "type": 0,
        "location": {
            "lat": 23.750612,
            "lng": 109.243631
        },
        "ad_info": {
            "adcode": 451302,
            "province": "广西壮族自治区",
            "city": "来宾市",
            "district": "兴宾区"
        }
    },
    {
        "id": "6499377259387147179",
        "title": "公共厕所",
        "address": "广西壮族自治区来宾市象州县富龙中路与裕隆北路交叉口正南方向38米左右",
        "tel": "",
        "category": "基础设施:公共设施:公共厕所",
        "type": 0,
        "location": {
            "lat": 23.842965,
            "lng": 109.528384
        },
        "ad_info": {
            "adcode": 451322,
            "province": "广西壮族自治区",
            "city": "来宾市",
            "district": "象州县"
        }
    },
    {
        "id": "4752557733268182919",
        "title": "公共厕所",
        "address": "广西壮族自治区来宾市兴宾区民乐路与盘古大道辅路交叉口西北方向64米左右",
        "tel": "",
        "category": "基础设施:公共设施:公共厕所",
        "type": 0,
        "location": {
            "lat": 23.746408,
            "lng": 109.219475
        },
        "ad_info": {
            "adcode": 451302,
            "province": "广西壮族自治区",
            "city": "来宾市",
            "district": "兴宾区"
        }
    },
    {
        "id": "15337471093616709175",
        "title": "公共厕所",
        "address": "广西壮族自治区来宾市兴宾区民生路与盘古大道辅路交叉口正东方向47米左右",
        "tel": "",
        "category": "基础设施:公共设施:公共厕所",
        "type": 0,
        "location": {
            "lat": 23.746611,
            "lng": 109.219045
        },
        "ad_info": {
            "adcode": 451302,
            "province": "广西壮族自治区",
            "city": "来宾市",
            "district": "兴宾区"
        }
    },
    {
        "id": "18417351889842085091",
        "title": "公共厕所",
        "address": "广西壮族自治区来宾市兴宾区大桥路与长梅路交叉口正南方向284米左右",
        "tel": "",
        "category": "基础设施:公共设施:公共厕所",
        "type": 0,
        "location": {
            "lat": 23.722317,
            "lng": 109.216698
        },
        "ad_info": {
            "adcode": 451302,
            "province": "广西壮族自治区",
            "city": "来宾市",
            "district": "兴宾区"
        }
    },
    {
        "id": "6035522224779802385",
        "title": "公共厕所",
        "address": "广西壮族自治区来宾市兴宾区东一路与东二路交叉口西南方向136米左右",
        "tel": "",
        "category": "基础设施:公共设施:公共厕所",
        "type": 0,
        "location": {
            "lat": 23.718802,
            "lng": 109.234235
        },
        "ad_info": {
            "adcode": 451302,
            "province": "广西壮族自治区",
            "city": "来宾市",
            "district": "兴宾区"
        }
    },
    {
        "id": "6125043939007053114",
        "title": "公共厕所",
        "address": "广西壮族自治区来宾市兴宾区大桥路与民族路交叉口正东方向163米左右",
        "tel": "",
        "category": "基础设施:公共设施:公共厕所",
        "type": 0,
        "location": {
            "lat": 23.72733,
            "lng": 109.223315
        },
        "ad_info": {
            "adcode": 451302,
            "province": "广西壮族自治区",
            "city": "来宾市",
            "district": "兴宾区"
        }
    },
    {
        "id": "3253705007357439945",
        "title": "公共厕所",
        "address": "广西壮族自治区来宾市兴宾区华侨大道与桂中大道交叉口东南方向255米左右",
        "tel": "",
        "category": "基础设施:公共设施:公共厕所",
        "type": 0,
        "location": {
            "lat": 23.754809,
            "lng": 109.198531
        },
        "ad_info": {
            "adcode": 451302,
            "province": "广西壮族自治区",
            "city": "来宾市",
            "district": "兴宾区"
        }
    },
    {
        "id": "345759559624301983",
        "title": "公共厕所",
        "address": "广西壮族自治区来宾市兴宾区S304与S305交叉口正东方向326米左右",
        "tel": "",
        "category": "基础设施:公共设施:公共厕所",
        "type": 0,
        "location": {
            "lat": 23.772905,
            "lng": 109.167595
        },
        "ad_info": {
            "adcode": 451302,
            "province": "广西壮族自治区",
            "city": "来宾市",
            "district": "兴宾区"
        }
    },
    {
        "id": "863066452962222123",
        "title": "公共厕所",
        "address": "广西壮族自治区来宾市兴宾区华侨大道与桂中大道交叉口东南方向216米左右",
        "tel": "",
        "category": "基础设施:公共设施:公共厕所",
        "type": 0,
        "location": {
            "lat": 23.755072,
            "lng": 109.198269
        },
        "ad_info": {
            "adcode": 451302,
            "province": "广西壮族自治区",
            "city": "来宾市",
            "district": "兴宾区"
        }
    },
    {
        "id": "2970099986143055271",
        "title": "公共厕所",
        "address": "广西壮族自治区来宾市兴宾区铁道一路84号来宾站",
        "tel": "",
        "category": "基础设施:公共设施:公共厕所",
        "type": 0,
        "location": {
            "lat": 23.730318,
            "lng": 109.240852
        },
        "ad_info": {
            "adcode": 451302,
            "province": "广西壮族自治区",
            "city": "来宾市",
            "district": "兴宾区"
        }
    },
    {
        "id": "13731772276763821344",
        "title": "公共厕所",
        "address": "广西壮族自治区来宾市兴宾区政和路与翠屏路交叉口正北方向130米左右",
        "tel": "",
        "category": "基础设施:公共设施:公共厕所",
        "type": 0,
        "location": {
            "lat": 23.752516,
            "lng": 109.224656
        },
        "ad_info": {
            "adcode": 451302,
            "province": "广西壮族自治区",
            "city": "来宾市",
            "district": "兴宾区"
        }
    },
    {
        "id": "13265349952685039849",
        "title": "公共厕所",
        "address": "广西壮族自治区来宾市武宣县城东路与镇中路交叉口西南方向34米左右",
        "tel": "",
        "category": "基础设施:公共设施:公共厕所",
        "type": 0,
        "location": {
            "lat": 23.597159,
            "lng": 109.669969
        },
        "ad_info": {
            "adcode": 451323,
            "province": "广西壮族自治区",
            "city": "来宾市",
            "district": "武宣县"
        }
    },
    {
        "id": "16181647808520258627",
        "title": "公共厕所",
        "address": "广西壮族自治区来宾市兴宾区桂中大道辅路与金玉路交叉口正西方向181米左右",
        "tel": "",
        "category": "基础设施:公共设施:公共厕所",
        "type": 0,
        "location": {
            "lat": 23.746869,
            "lng": 109.206578
        },
        "ad_info": {
            "adcode": 451302,
            "province": "广西壮族自治区",
            "city": "来宾市",
            "district": "兴宾区"
        }
    },
    {
        "id": "16310872583634789368",
        "title": "公共厕所",
        "address": "广西壮族自治区来宾市兴宾区时光岛游客中心南侧",
        "tel": "",
        "category": "基础设施:公共设施:公共厕所",
        "type": 0,
        "location": {
            "lat": 23.695977,
            "lng": 109.322611
        },
        "ad_info": {
            "adcode": 451302,
            "province": "广西壮族自治区",
            "city": "来宾市",
            "district": "兴宾区"
        }
    },
    {
        "id": "7427315692944380389",
        "title": "公共厕所",
        "address": "广西壮族自治区来宾市兴宾区G322与S304交叉口西南方向769米左右",
        "tel": "",
        "category": "基础设施:公共设施:公共厕所",
        "type": 0,
        "location": {
            "lat": 23.630239,
            "lng": 108.965923
        },
        "ad_info": {
            "adcode": 451302,
            "province": "广西壮族自治区",
            "city": "来宾市",
            "district": "兴宾区"
        }
    },
    {
        "id": "5264269815820629942",
        "title": "公共厕所",
        "address": "广西壮族自治区来宾市象州县吉象路与教育路交叉口正西方向93米左右",
        "tel": "",
        "category": "基础设施:公共设施:公共厕所",
        "type": 0,
        "location": {
            "lat": 23.972264,
            "lng": 109.711745
        },
        "ad_info": {
            "adcode": 451322,
            "province": "广西壮族自治区",
            "city": "来宾市",
            "district": "象州县"
        }
    },
    {
        "id": "14747371790884590027",
        "title": "公共厕所",
        "address": "广西壮族自治区来宾市兴宾区磨东二路与迎宾路交叉口正南方向218米左右",
        "tel": "",
        "category": "基础设施:公共设施:公共厕所",
        "type": 0,
        "location": {
            "lat": 23.740602,
            "lng": 109.207135
        },
        "ad_info": {
            "adcode": 451302,
            "province": "广西壮族自治区",
            "city": "来宾市",
            "district": "兴宾区"
        }
    },
    {
        "id": "2714741171622383582",
        "title": "公共厕所",
        "address": "广西壮族自治区来宾市兴宾区S304与桥巩街交叉口正北方向54米左右",
        "tel": "",
        "category": "基础设施:公共设施:公共厕所",
        "type": 0,
        "location": {
            "lat": 23.714686,
            "lng": 109.096844
        },
        "ad_info": {
            "adcode": 451302,
            "province": "广西壮族自治区",
            "city": "来宾市",
            "district": "兴宾区"
        }
    },
    {
        "id": "16574912745716421810",
        "title": "公共厕所",
        "address": "广西壮族自治区来宾市象州县朝阳路与象石路交叉口正北方向116米左右",
        "tel": "",
        "category": "基础设施:公共设施:公共厕所",
        "type": 0,
        "location": {
            "lat": 23.960157,
            "lng": 109.686641
        },
        "ad_info": {
            "adcode": 451322,
            "province": "广西壮族自治区",
            "city": "来宾市",
            "district": "象州县"
        }
    },
    {
        "id": "807636044405475156",
        "title": "公共厕所",
        "address": "广西壮族自治区来宾市兴宾区合山路与合山路东二巷交叉口正北方向165米左右",
        "tel": "",
        "category": "基础设施:公共设施:公共厕所",
        "type": 0,
        "location": {
            "lat": 23.733882,
            "lng": 109.239983
        },
        "ad_info": {
            "adcode": 451302,
            "province": "广西壮族自治区",
            "city": "来宾市",
            "district": "兴宾区"
        }
    },
    {
        "id": "1439510050968495133",
        "title": "公共厕所",
        "address": "广西壮族自治区来宾市兴宾区新华路与爱宾路北一巷交叉口正南方向145米左右",
        "tel": "",
        "category": "基础设施:公共设施:公共厕所",
        "type": 0,
        "location": {
            "lat": 23.712047,
            "lng": 109.221042
        },
        "ad_info": {
            "adcode": 451302,
            "province": "广西壮族自治区",
            "city": "来宾市",
            "district": "兴宾区"
        }
    },
    {
        "id": "15065884335684336277",
        "title": "卫生间",
        "address": "广西壮族自治区来宾市兴宾区桂中大道233号大洋购物广场3F",
        "tel": "",
        "category": "基础设施:公共设施:公共厕所",
        "type": 0,
        "location": {
            "lat": 23.740057,
            "lng": 109.218005
        },
        "ad_info": {
            "adcode": 451302,
            "province": "广西壮族自治区",
            "city": "来宾市",
            "district": "兴宾区"
        }
    },
    {
        "id": "6580765054801889997",
        "title": "卫生间",
        "address": "广西壮族自治区来宾市兴宾区桂中大道233号大洋购物广场4F",
        "tel": "",
        "category": "基础设施:公共设施:公共厕所",
        "type": 0,
        "location": {
            "lat": 23.739934,
            "lng": 109.218397
        },
        "ad_info": {
            "adcode": 451302,
            "province": "广西壮族自治区",
            "city": "来宾市",
            "district": "兴宾区"
        }
    },
    {
        "id": "10774214475093100038",
        "title": "卫生间",
        "address": "广西壮族自治区来宾市兴宾区桂中大道233号大洋购物广场4F",
        "tel": "",
        "category": "基础设施:公共设施:公共厕所",
        "type": 0,
        "location": {
            "lat": 23.740078,
            "lng": 109.21799
        },
        "ad_info": {
            "adcode": 451302,
            "province": "广西壮族自治区",
            "city": "来宾市",
            "district": "兴宾区"
        }
    },
    {
        "id": "532433477766711634",
        "title": "公共厕所",
        "address": "广西壮族自治区来宾市象州县温泉大道与象石路交叉口正南方向140米左右",
        "tel": "",
        "category": "基础设施:公共设施:公共厕所",
        "type": 0,
        "location": {
            "lat": 23.960385,
            "lng": 109.687865
        },
        "ad_info": {
            "adcode": 451322,
            "province": "广西壮族自治区",
            "city": "来宾市",
            "district": "象州县"
        }
    },
    {
        "id": "14989658546512583675",
        "title": "公共厕所",
        "address": "广西壮族自治区来宾市兴宾区迁江华侨卫生院南侧270米",
        "tel": "",
        "category": "基础设施:公共设施:公共厕所",
        "type": 0,
        "location": {
            "lat": 23.534004,
            "lng": 108.961245
        },
        "ad_info": {
            "adcode": 451302,
            "province": "广西壮族自治区",
            "city": "来宾市",
            "district": "兴宾区"
        }
    },
    {
        "id": "7997909674328068954",
        "title": "公共厕所",
        "address": "广西壮族自治区来宾市象州县X613与百大路交叉口正北方向99米左右",
        "tel": "",
        "category": "基础设施:公共设施:公共厕所",
        "type": 0,
        "location": {
            "lat": 23.946031,
            "lng": 109.91785
        },
        "ad_info": {
            "adcode": 451322,
            "province": "广西壮族自治区",
            "city": "来宾市",
            "district": "象州县"
        }
    },
    {
        "id": "8429283192499292647",
        "title": "卫生间",
        "address": "广西壮族自治区来宾市兴宾区桂中大道233号大洋购物广场5F",
        "tel": "",
        "category": "基础设施:公共设施:公共厕所",
        "type": 0,
        "location": {
            "lat": 23.740432,
            "lng": 109.217568
        },
        "ad_info": {
            "adcode": 451302,
            "province": "广西壮族自治区",
            "city": "来宾市",
            "district": "兴宾区"
        }
    },
    {
        "id": "17394745784272699312",
        "title": "公共厕所",
        "address": "广西壮族自治区来宾市象州县北街与温泉大道交叉口东北方向112米左右",
        "tel": "",
        "category": "基础设施:公共设施:公共厕所",
        "type": 0,
        "location": {
            "lat": 23.960811,
            "lng": 109.681746
        },
        "ad_info": {
            "adcode": 451322,
            "province": "广西壮族自治区",
            "city": "来宾市",
            "district": "象州县"
        }
    },
    {
        "id": "6036902800341984213",
        "title": "武宣东服务区公共厕所",
        "address": "广西壮族自治区来宾市武宣县七星枢纽与柳北高速交叉口正南方向1783米左右",
        "tel": "",
        "category": "基础设施:公共设施:公共厕所",
        "type": 0,
        "location": {
            "lat": 23.59846,
            "lng": 109.722018
        },
        "ad_info": {
            "adcode": 451323,
            "province": "广西壮族自治区",
            "city": "来宾市",
            "district": "武宣县"
        }
    },
    {
        "id": "9638843209224968886",
        "title": "公共厕所",
        "address": "广西壮族自治区来宾市象州县G355与象桐新街交叉口东北方向289米左右",
        "tel": "",
        "category": "基础设施:公共设施:公共厕所",
        "type": 0,
        "location": {
            "lat": 23.967566,
            "lng": 109.832081
        },
        "ad_info": {
            "adcode": 451322,
            "province": "广西壮族自治区",
            "city": "来宾市",
            "district": "象州县"
        }
    },
    {
        "id": "6504800854182902214",
        "title": "公共厕所",
        "address": "广西壮族自治区来宾市象州县X290与长安路交叉口西北方向314米左右",
        "tel": "",
        "category": "基础设施:公共设施:公共厕所",
        "type": 0,
        "location": {
            "lat": 23.999879,
            "lng": 109.556382
        },
        "ad_info": {
            "adcode": 451322,
            "province": "广西壮族自治区",
            "city": "来宾市",
            "district": "象州县"
        }
    },
    {
        "id": "5731471292277907666",
        "title": "公共厕所",
        "address": "广西壮族自治区来宾市兴宾区长梅路77号",
        "tel": "",
        "category": "基础设施:公共设施:公共厕所",
        "type": 0,
        "location": {
            "lat": 23.725205,
            "lng": 109.214475
        },
        "ad_info": {
            "adcode": 451302,
            "province": "广西壮族自治区",
            "city": "来宾市",
            "district": "兴宾区"
        }
    },
    {
        "id": "11486565534520574389",
        "title": "罗孟村公共厕所",
        "address": "广西壮族自治区来宾市金秀瑶族自治县解放路",
        "tel": "",
        "category": "基础设施:公共设施:公共厕所",
        "type": 0,
        "location": {
            "lat": 24.074194,
            "lng": 110.229435
        },
        "ad_info": {
            "adcode": 451324,
            "province": "广西壮族自治区",
            "city": "来宾市",
            "district": "金秀瑶族自治县"
        }
    },
    {
        "id": "14035111931497255680",
        "title": "公共厕所",
        "address": "广西壮族自治区来宾市兴宾区翠屏路与西山路交叉口东北方向152米左右",
        "tel": "",
        "category": "基础设施:公共设施:公共厕所",
        "type": 0,
        "location": {
            "lat": 23.755403,
            "lng": 109.219563
        },
        "ad_info": {
            "adcode": 451302,
            "province": "广西壮族自治区",
            "city": "来宾市",
            "district": "兴宾区"
        }
    },
    {
        "id": "6801694839741218603",
        "title": "公共厕所",
        "address": "广西壮族自治区来宾市忻城县",
        "tel": "",
        "category": "基础设施:公共设施:公共厕所",
        "type": 0,
        "location": {
            "lat": 23.889753,
            "lng": 108.544392
        },
        "ad_info": {
            "adcode": 451321,
            "province": "广西壮族自治区",
            "city": "来宾市",
            "district": "忻城县"
        }
    },
    {
        "id": "7478103396292241691",
        "title": "武宣服务区公共厕所",
        "address": "广西壮族自治区来宾市武宣县平那高速与柳北高速交叉口正西方向1980米左右",
        "tel": "",
        "category": "基础设施:公共设施:公共厕所",
        "type": 0,
        "location": {
            "lat": 23.513059,
            "lng": 109.65605
        },
        "ad_info": {
            "adcode": 451323,
            "province": "广西壮族自治区",
            "city": "来宾市",
            "district": "武宣县"
        }
    },
    {
        "id": "8514334898294050038",
        "title": "广西科技师范学院西苑餐厅1楼厕所",
        "address": "广西壮族自治区来宾市兴宾区思源路广西科技师范学院",
        "tel": "",
        "category": "基础设施:公共设施:公共厕所",
        "type": 0,
        "location": {
            "lat": 23.775393,
            "lng": 109.212241
        },
        "ad_info": {
            "adcode": 451302,
            "province": "广西壮族自治区",
            "city": "来宾市",
            "district": "兴宾区"
        }
    },
    {
        "id": "6768259909554118689",
        "title": "公共厕所",
        "address": "广西壮族自治区来宾市兴宾区政和路与麒麟路交叉口西北方向75米左右",
        "tel": "",
        "category": "基础设施:公共设施:公共厕所",
        "type": 0,
        "location": {
            "lat": 23.755991,
            "lng": 109.226286
        },
        "ad_info": {
            "adcode": 451302,
            "province": "广西壮族自治区",
            "city": "来宾市",
            "district": "兴宾区"
        }
    },
    {
        "id": "17689186614793686104",
        "title": "小平阳停车区公共厕所",
        "address": "广西壮族自治区来宾市兴宾区S308与Y064交叉口正北方向1788米左右",
        "tel": "",
        "category": "基础设施:公共设施:公共厕所",
        "type": 0,
        "location": {
            "lat": 23.434548,
            "lng": 109.128788
        },
        "ad_info": {
            "adcode": 451302,
            "province": "广西壮族自治区",
            "city": "来宾市",
            "district": "兴宾区"
        }
    },
    {
        "id": "2108723231744245511",
        "title": "公共厕所",
        "address": "广西壮族自治区来宾市兴宾区富民路与康乐路交叉口正东方向23米左右",
        "tel": "",
        "category": "基础设施:公共设施:公共厕所",
        "type": 0,
        "location": {
            "lat": 23.925469,
            "lng": 109.292521
        },
        "ad_info": {
            "adcode": 451302,
            "province": "广西壮族自治区",
            "city": "来宾市",
            "district": "兴宾区"
        }
    },
    {
        "id": "16460235304212298619",
        "title": "公共厕所",
        "address": "广西壮族自治区来宾市兴宾区合山路与合山路东二巷交叉口西南方向29米左右",
        "tel": "",
        "category": "基础设施:公共设施:公共厕所",
        "type": 0,
        "location": {
            "lat": 23.732295,
            "lng": 109.239268
        },
        "ad_info": {
            "adcode": 451302,
            "province": "广西壮族自治区",
            "city": "来宾市",
            "district": "兴宾区"
        }
    },
    {
        "id": "11645968550100681578",
        "title": "公共厕所",
        "address": "广西壮族自治区来宾市兴宾区冶金路与规划纵四路交叉口西北方向63米左右",
        "tel": "",
        "category": "基础设施:公共设施:公共厕所",
        "type": 0,
        "location": {
            "lat": 23.715807,
            "lng": 109.218646
        },
        "ad_info": {
            "adcode": 451302,
            "province": "广西壮族自治区",
            "city": "来宾市",
            "district": "兴宾区"
        }
    },
    {
        "id": "8912288856791465644",
        "title": "武宣服务区第二公共厕所",
        "address": "广西壮族自治区来宾市武宣县平那高速与柳北高速交叉口正西方向1870米左右",
        "tel": "",
        "category": "基础设施:公共设施:公共厕所",
        "type": 0,
        "location": {
            "lat": 23.512861,
            "lng": 109.657273
        },
        "ad_info": {
            "adcode": 451323,
            "province": "广西壮族自治区",
            "city": "来宾市",
            "district": "武宣县"
        }
    },
    {
        "id": "1897615998786657212",
        "title": "公共厕所",
        "address": "广西壮族自治区来宾市兴宾区X617与Y077交叉口正东方向375米左右",
        "tel": "",
        "category": "基础设施:公共设施:公共厕所",
        "type": 0,
        "location": {
            "lat": 23.917635,
            "lng": 109.285659
        },
        "ad_info": {
            "adcode": 451302,
            "province": "广西壮族自治区",
            "city": "来宾市",
            "district": "兴宾区"
        }
    },
    {
        "id": "13393749628433693020",
        "title": "小平阳停车区公共厕所",
        "address": "广西壮族自治区来宾市兴宾区G72泉南高速与小平阳停车区交叉口西南260米",
        "tel": "",
        "category": "基础设施:公共设施:公共厕所",
        "type": 0,
        "location": {
            "lat": 23.433722,
            "lng": 109.125162
        },
        "ad_info": {
            "adcode": 451302,
            "province": "广西壮族自治区",
            "city": "来宾市",
            "district": "兴宾区"
        }
    },
    {
        "id": "9250623503184194962",
        "title": "合山服务区公共厕所",
        "address": "广西壮族自治区来宾市兴宾区X621与X652交叉口正南方向1076米左右",
        "tel": "",
        "category": "基础设施:公共设施:公共厕所",
        "type": 0,
        "location": {
            "lat": 23.740105,
            "lng": 108.842419
        },
        "ad_info": {
            "adcode": 451302,
            "province": "广西壮族自治区",
            "city": "来宾市",
            "district": "兴宾区"
        }
    },
    {
        "id": "10484312808032661636",
        "title": "来宾服务区公共厕所",
        "address": "广西壮族自治区来宾市兴宾区G355与S210交叉口正东方向1883米左右",
        "tel": "",
        "category": "基础设施:公共设施:公共厕所",
        "type": 0,
        "location": {
            "lat": 23.641719,
            "lng": 109.204152
        },
        "ad_info": {
            "adcode": 451302,
            "province": "广西壮族自治区",
            "city": "来宾市",
            "district": "兴宾区"
        }
    },
    {
        "id": "15922659197351323995",
        "title": "环保公共厕所",
        "address": "广西壮族自治区来宾市兴宾区金源达·中央公馆西侧",
        "tel": "",
        "category": "基础设施:公共设施:公共厕所",
        "type": 0,
        "location": {
            "lat": 23.736852,
            "lng": 109.218231
        },
        "ad_info": {
            "adcode": 451302,
            "province": "广西壮族自治区",
            "city": "来宾市",
            "district": "兴宾区"
        }
    },
    {
        "id": "7538859350694083561",
        "title": "来宾北停车区公共厕所",
        "address": "广西壮族自治区来宾市兴宾区泉南高速",
        "tel": "",
        "category": "基础设施:公共设施:公共厕所",
        "type": 0,
        "location": {
            "lat": 23.857437,
            "lng": 109.275267
        },
        "ad_info": {
            "adcode": 451302,
            "province": "广西壮族自治区",
            "city": "来宾市",
            "district": "兴宾区"
        }
    },
    {
        "id": "17888351651889176669",
        "title": "来宾服务区公共厕所",
        "address": "广西壮族自治区来宾市兴宾区福凌路与鳌山路交叉口东南方向399米左右",
        "tel": "",
        "category": "基础设施:公共设施:公共厕所",
        "type": 0,
        "location": {
            "lat": 23.723545,
            "lng": 109.200844
        },
        "ad_info": {
            "adcode": 451302,
            "province": "广西壮族自治区",
            "city": "来宾市",
            "district": "兴宾区"
        }
    },
    {
        "id": "16177150693070806710",
        "title": "无障碍公共厕所",
        "address": "广西壮族自治区来宾市兴宾区磨东二路与迎宾路辅路交叉口西南方向185米",
        "tel": "",
        "category": "基础设施:公共设施:公共厕所",
        "type": 0,
        "location": {
            "lat": 23.74197,
            "lng": 109.206172
        },
        "ad_info": {
            "adcode": 451302,
            "province": "广西壮族自治区",
            "city": "来宾市",
            "district": "兴宾区"
        }
    },
    {
        "id": "4440248048504068693",
        "title": "寺村停车区公共厕所",
        "address": "广西壮族自治区来宾市兴宾区寺村停车区(武平高速公路南)",
        "tel": "",
        "category": "基础设施:公共设施:公共厕所",
        "type": 0,
        "location": {
            "lat": 23.638097,
            "lng": 109.10193
        },
        "ad_info": {
            "adcode": 451302,
            "province": "广西壮族自治区",
            "city": "来宾市",
            "district": "兴宾区"
        }
    },
    {
        "id": "11099640759676954307",
        "title": "来宾南服务区公共厕所",
        "address": "广西壮族自治区来宾市兴宾区S52武平高速附近",
        "tel": "",
        "category": "基础设施:公共设施:公共厕所",
        "type": 0,
        "location": {
            "lat": 23.55304,
            "lng": 109.251259
        },
        "ad_info": {
            "adcode": 451302,
            "province": "广西壮族自治区",
            "city": "来宾市",
            "district": "兴宾区"
        }
    },
    {
        "id": "2924457787370719744",
        "title": "合山服务区公共厕所",
        "address": "广西壮族自治区来宾市兴宾区合山服务区东侧",
        "tel": "",
        "category": "基础设施:公共设施:公共厕所",
        "type": 0,
        "location": {
            "lat": 23.742995,
            "lng": 108.844944
        },
        "ad_info": {
            "adcode": 451302,
            "province": "广西壮族自治区",
            "city": "来宾市",
            "district": "兴宾区"
        }
    },
    {
        "id": "12718872162091794491",
        "title": "象州服务区公共厕所",
        "address": "广西壮族自治区来宾市象州县三北高速",
        "tel": "",
        "category": "基础设施:公共设施:公共厕所",
        "type": 0,
        "location": {
            "lat": 23.951558,
            "lng": 109.578504
        },
        "ad_info": {
            "adcode": 451322,
            "province": "广西壮族自治区",
            "city": "来宾市",
            "district": "象州县"
        }
    },
    {
        "id": "15791803423854766334",
        "title": "来宾服务区公共厕所",
        "address": "广西壮族自治区来宾市兴宾区泉南高速服务区",
        "tel": "",
        "category": "基础设施:公共设施:公共厕所",
        "type": 0,
        "location": {
            "lat": 23.639842,
            "lng": 109.206256
        },
        "ad_info": {
            "adcode": 451302,
            "province": "广西壮族自治区",
            "city": "来宾市",
            "district": "兴宾区"
        }
    },
    {
        "id": "9335046801088798882",
        "title": "马坪服务区公共厕所",
        "address": "广西壮族自治区来宾市象州县马坪服务区与S30贺西高速交叉口东北440米",
        "tel": "",
        "category": "基础设施:公共设施:公共厕所",
        "type": 0,
        "location": {
            "lat": 24.038681,
            "lng": 109.534856
        },
        "ad_info": {
            "adcode": 451322,
            "province": "广西壮族自治区",
            "city": "来宾市",
            "district": "象州县"
        }
    },
    {
        "id": "5652927122860682631",
        "title": "象州服务区公共厕所",
        "address": "广西壮族自治区来宾市象州县G355与柳北高速交叉口西北方向1950米左右",
        "tel": "",
        "category": "基础设施:公共设施:公共厕所",
        "type": 0,
        "location": {
            "lat": 23.947796,
            "lng": 109.577702
        },
        "ad_info": {
            "adcode": 451322,
            "province": "广西壮族自治区",
            "city": "来宾市",
            "district": "象州县"
        }
    },
    {
        "id": "2301251318026239120",
        "title": "公共厕所",
        "address": "广西壮族自治区来宾市兴宾区G72泉南高速与来宾服务区交叉口南260米",
        "tel": "",
        "category": "基础设施:公共设施:公共厕所",
        "type": 0,
        "location": {
            "lat": 23.723531,
            "lng": 109.200548
        },
        "ad_info": {
            "adcode": 451302,
            "province": "广西壮族自治区",
            "city": "来宾市",
            "district": "兴宾区"
        }
    },
    {
        "id": "13511651804156849509",
        "title": "卫生间",
        "address": "广西壮族自治区来宾市兴宾区桂中大道233号大洋购物广场4F",
        "tel": "",
        "category": "基础设施:公共设施:公共厕所",
        "type": 0,
        "location": {
            "lat": 23.740445,
            "lng": 109.217565
        },
        "ad_info": {
            "adcode": 451302,
            "province": "广西壮族自治区",
            "city": "来宾市",
            "district": "兴宾区"
        }
    },
    {
        "id": "17884331327618730227",
        "title": "公共厕所",
        "address": "广西壮族自治区来宾市兴宾区南京路与大桥路交叉口东北方向29米左右",
        "tel": "",
        "category": "基础设施:公共设施:公共厕所",
        "type": 0,
        "location": {
            "lat": 23.717924,
            "lng": 109.217202
        },
        "ad_info": {
            "adcode": 451302,
            "province": "广西壮族自治区",
            "city": "来宾市",
            "district": "兴宾区"
        }
    },
    {
        "id": "12938697639782910304",
        "title": "公共厕所",
        "address": "广西壮族自治区来宾市象州县吉象路与花坪大道交叉口正东方向389米左右",
        "tel": "",
        "category": "基础设施:公共设施:公共厕所",
        "type": 0,
        "location": {
            "lat": 23.963763,
            "lng": 109.719978
        },
        "ad_info": {
            "adcode": 451322,
            "province": "广西壮族自治区",
            "city": "来宾市",
            "district": "象州县"
        }
    },
    {
        "id": "14715738840009012822",
        "title": "雅山服务区公共厕所",
        "address": "广西壮族自治区来宾市兴宾区S52武平高速附近",
        "tel": "",
        "category": "基础设施:公共设施:公共厕所",
        "type": 0,
        "location": {
            "lat": 23.595537,
            "lng": 108.915115
        },
        "ad_info": {
            "adcode": 451302,
            "province": "广西壮族自治区",
            "city": "来宾市",
            "district": "兴宾区"
        }
    },
    {
        "id": "5743457482064511037",
        "title": "武宣东服务区公共厕所",
        "address": "广西壮族自治区来宾市武宣县G7212柳北高速与武宣东服务区交叉口南360米",
        "tel": "",
        "category": "基础设施:公共设施:公共厕所",
        "type": 0,
        "location": {
            "lat": 23.599733,
            "lng": 109.724438
        },
        "ad_info": {
            "adcode": 451323,
            "province": "广西壮族自治区",
            "city": "来宾市",
            "district": "武宣县"
        }
    },
    {
        "id": "16072432229423570876",
        "title": "武宣服务区公共厕所",
        "address": "广西壮族自治区来宾市武宣县平那高速与柳北高速交叉口正西方向1797米左右",
        "tel": "",
        "category": "基础设施:公共设施:公共厕所",
        "type": 0,
        "location": {
            "lat": 23.514758,
            "lng": 109.657362
        },
        "ad_info": {
            "adcode": 451323,
            "province": "广西壮族自治区",
            "city": "来宾市",
            "district": "武宣县"
        }
    },
    {
        "id": "15046309034396529664",
        "title": "象州东服务区公共厕所",
        "address": "广西壮族自治区来宾市象州县象州东服务区南30米",
        "tel": "",
        "category": "基础设施:公共设施:公共厕所",
        "type": 0,
        "location": {
            "lat": 24.04114,
            "lng": 109.817045
        },
        "ad_info": {
            "adcode": 451322,
            "province": "广西壮族自治区",
            "city": "来宾市",
            "district": "象州县"
        }
    },
    {
        "id": "62337963622601146",
        "title": "公共厕所",
        "address": "广西壮族自治区来宾市兴宾区天然桥西路与新华路交叉口正南方向222米左右",
        "tel": "",
        "category": "基础设施:公共设施:公共厕所",
        "type": 0,
        "location": {
            "lat": 23.703201,
            "lng": 109.220531
        },
        "ad_info": {
            "adcode": 451302,
            "province": "广西壮族自治区",
            "city": "来宾市",
            "district": "兴宾区"
        }
    },
    {
        "id": "4267517252143773266",
        "title": "公共厕所",
        "address": "广西壮族自治区来宾市合山市G322与武忻高速交叉口东南方向1101米左右",
        "tel": "",
        "category": "基础设施:公共设施:公共厕所",
        "type": 0,
        "location": {
            "lat": 23.883609,
            "lng": 108.916406
        },
        "ad_info": {
            "adcode": 451381,
            "province": "广西壮族自治区",
            "city": "来宾市",
            "district": "合山市"
        }
    },
    {
        "id": "12617893441056344296",
        "title": "来宾南服务区公共厕所",
        "address": "广西壮族自治区来宾市兴宾区平那高速与武平高速交叉口正东方向546米左右",
        "tel": "",
        "category": "基础设施:公共设施:公共厕所",
        "type": 0,
        "location": {
            "lat": 23.554264,
            "lng": 109.25262
        },
        "ad_info": {
            "adcode": 451302,
            "province": "广西壮族自治区",
            "city": "来宾市",
            "district": "兴宾区"
        }
    },
    {
        "id": "11303599201136977977",
        "title": "公共厕所",
        "address": "广西壮族自治区来宾市合山市人民中路与岭南路交叉口正南方向118米左右",
        "tel": "",
        "category": "基础设施:公共设施:公共厕所",
        "type": 0,
        "location": {
            "lat": 23.821301,
            "lng": 108.88912
        },
        "ad_info": {
            "adcode": 451381,
            "province": "广西壮族自治区",
            "city": "来宾市",
            "district": "合山市"
        }
    },
    {
        "id": "13309908460929486138",
        "title": "公共厕所",
        "address": "广西壮族自治区来宾市忻城县翠屏北路与芝州一路交叉口西北方向502米左右",
        "tel": "",
        "category": "基础设施:公共设施:公共厕所",
        "type": 0,
        "location": {
            "lat": 24.070094,
            "lng": 108.669344
        },
        "ad_info": {
            "adcode": 451321,
            "province": "广西壮族自治区",
            "city": "来宾市",
            "district": "忻城县"
        }
    },
    {
        "id": "9688531565291941889",
        "title": "公共厕所",
        "address": "广西壮族自治区来宾市象州县G209与人民路交叉口正西方向110米左右",
        "tel": "",
        "category": "基础设施:公共设施:公共厕所",
        "type": 0,
        "location": {
            "lat": 23.846801,
            "lng": 109.520731
        },
        "ad_info": {
            "adcode": 451322,
            "province": "广西壮族自治区",
            "city": "来宾市",
            "district": "象州县"
        }
    },
    {
        "id": "6937809748014845138",
        "title": "公共厕所",
        "address": "广西壮族自治区来宾市合山市Y005与Y140交叉口正西方向1295米左右",
        "tel": "",
        "category": "基础设施:公共设施:公共厕所",
        "type": 0,
        "location": {
            "lat": 23.712391,
            "lng": 108.951565
        },
        "ad_info": {
            "adcode": 451381,
            "province": "广西壮族自治区",
            "city": "来宾市",
            "district": "合山市"
        }
    },
    {
        "id": "11724997311230348088",
        "title": "公共厕所",
        "address": "广西壮族自治区来宾市合山市江滨大道与江滨路交叉口正东方向294米左右",
        "tel": "",
        "category": "基础设施:公共设施:公共厕所",
        "type": 0,
        "location": {
            "lat": 23.801502,
            "lng": 108.875521
        },
        "ad_info": {
            "adcode": 451381,
            "province": "广西壮族自治区",
            "city": "来宾市",
            "district": "合山市"
        }
    },
    {
        "id": "5002538799185772952",
        "title": "公共厕所",
        "address": "广西壮族自治区来宾市兴宾区靓车公汇汽车美容服务中心东北侧",
        "tel": "",
        "category": "基础设施:公共设施:公共厕所",
        "type": 0,
        "location": {
            "lat": 23.603156,
            "lng": 108.961386
        },
        "ad_info": {
            "adcode": 451302,
            "province": "广西壮族自治区",
            "city": "来宾市",
            "district": "兴宾区"
        }
    },
    {
        "id": "11296941537854448171",
        "title": "雅山服务区公共厕所",
        "address": "广西壮族自治区来宾市兴宾区S52武平高速附近",
        "tel": "",
        "category": "基础设施:公共设施:公共厕所",
        "type": 0,
        "location": {
            "lat": 23.596978,
            "lng": 108.915394
        },
        "ad_info": {
            "adcode": 451302,
            "province": "广西壮族自治区",
            "city": "来宾市",
            "district": "兴宾区"
        }
    },
    {
        "id": "9643391390150842168",
        "title": "公共厕所",
        "address": "广西壮族自治区来宾市金秀瑶族自治县G323与三江街交叉口东北方向529米左右",
        "tel": "",
        "category": "基础设施:公共设施:公共厕所",
        "type": 0,
        "location": {
            "lat": 24.40129,
            "lng": 110.147526
        },
        "ad_info": {
            "adcode": 451324,
            "province": "广西壮族自治区",
            "city": "来宾市",
            "district": "金秀瑶族自治县"
        }
    },
    {
        "id": "7937509052577526683",
        "title": "公共厕所",
        "address": "广西壮族自治区来宾市武宣县G209与Y054交叉口东南方向1449米左右",
        "tel": "",
        "category": "基础设施:公共设施:公共厕所",
        "type": 0,
        "location": {
            "lat": 23.766685,
            "lng": 109.652556
        },
        "ad_info": {
            "adcode": 451323,
            "province": "广西壮族自治区",
            "city": "来宾市",
            "district": "武宣县"
        }
    },
    {
        "id": "13772959605363633208",
        "title": "公共厕所",
        "address": "广西壮族自治区来宾市合山市城中一街与城中七街交叉口正北方向69米左右",
        "tel": "",
        "category": "基础设施:公共设施:公共厕所",
        "type": 0,
        "location": {
            "lat": 23.812992,
            "lng": 108.890267
        },
        "ad_info": {
            "adcode": 451381,
            "province": "广西壮族自治区",
            "city": "来宾市",
            "district": "合山市"
        }
    },
    {
        "id": "8570211586470931638",
        "title": "公共厕所",
        "address": "广西壮族自治区来宾市象州县吉象路与幸福大道交叉口西南方向55米左右",
        "tel": "",
        "category": "基础设施:公共设施:公共厕所",
        "type": 0,
        "location": {
            "lat": 23.967067,
            "lng": 109.714203
        },
        "ad_info": {
            "adcode": 451322,
            "province": "广西壮族自治区",
            "city": "来宾市",
            "district": "象州县"
        }
    },
    {
        "id": "7246378184502148735",
        "title": "公共厕所",
        "address": "广西壮族自治区来宾市兴宾区中南大道与中南路交叉口东北方向25米左右",
        "tel": "",
        "category": "基础设施:公共设施:公共厕所",
        "type": 0,
        "location": {
            "lat": 23.743785,
            "lng": 109.23692
        },
        "ad_info": {
            "adcode": 451302,
            "province": "广西壮族自治区",
            "city": "来宾市",
            "district": "兴宾区"
        }
    },
    {
        "id": "8091415748484785612",
        "title": "公共厕所",
        "address": "广西壮族自治区来宾市武宣县G209与马步街交叉口正北方向293米左右",
        "tel": "",
        "category": "基础设施:公共设施:公共厕所",
        "type": 0,
        "location": {
            "lat": 23.555668,
            "lng": 109.646492
        },
        "ad_info": {
            "adcode": 451323,
            "province": "广西壮族自治区",
            "city": "来宾市",
            "district": "武宣县"
        }
    },
    {
        "id": "11197644470189626663",
        "title": "公共厕所",
        "address": "广西壮族自治区来宾市忻城县易捷便利店(里苗加油站)北侧",
        "tel": "",
        "category": "基础设施:公共设施:公共厕所",
        "type": 0,
        "location": {
            "lat": 24.315941,
            "lng": 108.758914
        },
        "ad_info": {
            "adcode": 451321,
            "province": "广西壮族自治区",
            "city": "来宾市",
            "district": "忻城县"
        }
    },
    {
        "id": "4212070539634067882",
        "title": "公共厕所",
        "address": "广西壮族自治区来宾市象州县X613与百丈乡路交叉口正北方向212米左右",
        "tel": "",
        "category": "基础设施:公共设施:公共厕所",
        "type": 0,
        "location": {
            "lat": 24.003377,
            "lng": 109.949618
        },
        "ad_info": {
            "adcode": 451322,
            "province": "广西壮族自治区",
            "city": "来宾市",
            "district": "象州县"
        }
    },
    {
        "id": "1635803388717341452",
        "title": "公共厕所",
        "address": "广西壮族自治区来宾市兴宾区东环大道与翠屏东路交叉口东北方向421米左右",
        "tel": "",
        "category": "基础设施:公共设施:公共厕所",
        "type": 0,
        "location": {
            "lat": 23.750482,
            "lng": 109.244403
        },
        "ad_info": {
            "adcode": 451302,
            "province": "广西壮族自治区",
            "city": "来宾市",
            "district": "兴宾区"
        }
    },
    {
        "id": "17527045641670466049",
        "title": "公共厕所",
        "address": "广西壮族自治区来宾市金秀瑶族自治县忠良乡巴勒乡村旅游区",
        "tel": "",
        "category": "基础设施:公共设施:公共厕所",
        "type": 0,
        "location": {
            "lat": 24.264394,
            "lng": 110.353861
        },
        "ad_info": {
            "adcode": 451324,
            "province": "广西壮族自治区",
            "city": "来宾市",
            "district": "金秀瑶族自治县"
        }
    }
]