[
    {
        "id": "4019108560070898595",
        "title": "公共卫生间",
        "address": "吉林省松原市前郭尔罗斯蒙古族自治县那达慕路郭尔罗斯体育馆",
        "tel": "",
        "category": "基础设施:公共设施:公共厕所",
        "type": 0,
        "location": {
            "lat": 45.121657,
            "lng": 124.83084
        },
        "ad_info": {
            "adcode": 220721,
            "province": "吉林省",
            "city": "松原市",
            "district": "前郭尔罗斯蒙古族自治县"
        }
    },
    {
        "id": "3030188448138773422",
        "title": "洗手间",
        "address": "吉林省松原市前郭尔罗斯蒙古族自治县李先生牛肉面餐厅",
        "tel": "",
        "category": "基础设施:公共设施:公共厕所",
        "type": 0,
        "location": {
            "lat": 45.114907,
            "lng": 124.82023
        },
        "ad_info": {
            "adcode": 220721,
            "province": "吉林省",
            "city": "松原市",
            "district": "前郭尔罗斯蒙古族自治县"
        }
    },
    {
        "id": "3429490725688733086",
        "title": "公共厕所",
        "address": "吉林省松原市前郭尔罗斯蒙古族自治县明沈线",
        "tel": "",
        "category": "基础设施:公共设施:公共厕所",
        "type": 0,
        "location": {
            "lat": 44.586342,
            "lng": 124.425057
        },
        "ad_info": {
            "adcode": 220721,
            "province": "吉林省",
            "city": "松原市",
            "district": "前郭尔罗斯蒙古族自治县"
        }
    },
    {
        "id": "15076648930689969794",
        "title": "公共厕所",
        "address": "吉林省松原市前郭尔罗斯蒙古族自治县步行街与胜利路交叉口西南方向20米左右",
        "tel": "",
        "category": "基础设施:公共设施:公共厕所",
        "type": 0,
        "location": {
            "lat": 45.114413,
            "lng": 124.824507
        },
        "ad_info": {
            "adcode": 220721,
            "province": "吉林省",
            "city": "松原市",
            "district": "前郭尔罗斯蒙古族自治县"
        }
    },
    {
        "id": "7417971803178214287",
        "title": "公共厕所",
        "address": "吉林省松原市前郭尔罗斯蒙古族自治县圣水路与运河东街交叉口东北方向73米左右",
        "tel": "",
        "category": "基础设施:公共设施:公共厕所",
        "type": 0,
        "location": {
            "lat": 45.211359,
            "lng": 124.425878
        },
        "ad_info": {
            "adcode": 220721,
            "province": "吉林省",
            "city": "松原市",
            "district": "前郭尔罗斯蒙古族自治县"
        }
    },
    {
        "id": "6718334812480028163",
        "title": "公共厕所",
        "address": "吉林省松原市前郭尔罗斯蒙古族自治县G302与Y012交叉口正北方向61米左右",
        "tel": "",
        "category": "基础设施:公共设施:公共厕所",
        "type": 0,
        "location": {
            "lat": 45.036886,
            "lng": 124.977713
        },
        "ad_info": {
            "adcode": 220721,
            "province": "吉林省",
            "city": "松原市",
            "district": "前郭尔罗斯蒙古族自治县"
        }
    },
    {
        "id": "12488184632739937500",
        "title": "公共厕所",
        "address": "吉林省松原市前郭尔罗斯蒙古族自治县G302与长白公路交叉口东南方向926米左右",
        "tel": "",
        "category": "基础设施:公共设施:公共厕所",
        "type": 0,
        "location": {
            "lat": 45.43153,
            "lng": 124.344596
        },
        "ad_info": {
            "adcode": 220721,
            "province": "吉林省",
            "city": "松原市",
            "district": "前郭尔罗斯蒙古族自治县"
        }
    },
    {
        "id": "8418984085013728256",
        "title": "公共厕所",
        "address": "吉林省松原市前郭尔罗斯蒙古族自治县G302与王大线交叉口东北方向137米左右",
        "tel": "",
        "category": "基础设施:公共设施:公共厕所",
        "type": 0,
        "location": {
            "lat": 44.888209,
            "lng": 125.029581
        },
        "ad_info": {
            "adcode": 220721,
            "province": "吉林省",
            "city": "松原市",
            "district": "前郭尔罗斯蒙古族自治县"
        }
    },
    {
        "id": "10679387653009536806",
        "title": "公共厕所",
        "address": "吉林省松原市前郭尔罗斯蒙古族自治县203国道东50米",
        "tel": "",
        "category": "基础设施:公共设施:公共厕所",
        "type": 0,
        "location": {
            "lat": 44.692006,
            "lng": 124.486427
        },
        "ad_info": {
            "adcode": 220721,
            "province": "吉林省",
            "city": "松原市",
            "district": "前郭尔罗斯蒙古族自治县"
        }
    },
    {
        "id": "1354424017806717047",
        "title": "公共厕所",
        "address": "吉林省松原市前郭尔罗斯蒙古族自治县Y013与Y017交叉口东北方向798米左右",
        "tel": "",
        "category": "基础设施:公共设施:公共厕所",
        "type": 0,
        "location": {
            "lat": 44.888919,
            "lng": 124.859829
        },
        "ad_info": {
            "adcode": 220721,
            "province": "吉林省",
            "city": "松原市",
            "district": "前郭尔罗斯蒙古族自治县"
        }
    },
    {
        "id": "11149590971468016237",
        "title": "公共厕所",
        "address": "吉林省松原市前郭尔罗斯蒙古族自治县南湖大路与王爷府东街交叉口正西方向123米左右",
        "tel": "",
        "category": "基础设施:公共设施:公共厕所",
        "type": 0,
        "location": {
            "lat": 45.197562,
            "lng": 124.431702
        },
        "ad_info": {
            "adcode": 220721,
            "province": "吉林省",
            "city": "松原市",
            "district": "前郭尔罗斯蒙古族自治县"
        }
    },
    {
        "id": "3978348108764932668",
        "title": "公共厕所",
        "address": "吉林省松原市前郭尔罗斯蒙古族自治县白依拉嘎初级职业中学西侧190米",
        "tel": "",
        "category": "基础设施:公共设施:公共厕所",
        "type": 0,
        "location": {
            "lat": 45.029123,
            "lng": 124.759947
        },
        "ad_info": {
            "adcode": 220721,
            "province": "吉林省",
            "city": "松原市",
            "district": "前郭尔罗斯蒙古族自治县"
        }
    },
    {
        "id": "7603021733158461050",
        "title": "公共厕所",
        "address": "吉林省松原市前郭尔罗斯蒙古族自治县外七诊所东侧",
        "tel": "",
        "category": "基础设施:公共设施:公共厕所",
        "type": 0,
        "location": {
            "lat": 45.015779,
            "lng": 124.5506
        },
        "ad_info": {
            "adcode": 220721,
            "province": "吉林省",
            "city": "松原市",
            "district": "前郭尔罗斯蒙古族自治县"
        }
    },
    {
        "id": "3399991954526249247",
        "title": "公共厕所",
        "address": "吉林省松原市前郭尔罗斯蒙古族自治县G203与X138交叉口东北方向274米左右",
        "tel": "",
        "category": "基础设施:公共设施:公共厕所",
        "type": 0,
        "location": {
            "lat": 44.794754,
            "lng": 124.540603
        },
        "ad_info": {
            "adcode": 220721,
            "province": "吉林省",
            "city": "松原市",
            "district": "前郭尔罗斯蒙古族自治县"
        }
    },
    {
        "id": "4520788051538051613",
        "title": "公共厕所",
        "address": "吉林省松原市前郭尔罗斯蒙古族自治县迟宝环诊所东侧240米",
        "tel": "",
        "category": "基础设施:公共设施:公共厕所",
        "type": 0,
        "location": {
            "lat": 45.096895,
            "lng": 124.908939
        },
        "ad_info": {
            "adcode": 220721,
            "province": "吉林省",
            "city": "松原市",
            "district": "前郭尔罗斯蒙古族自治县"
        }
    },
    {
        "id": "927665637859662197",
        "title": "公共厕所",
        "address": "吉林省松原市前郭尔罗斯蒙古族自治县X138与Y130交叉口正北方向1052米左右",
        "tel": "",
        "category": "基础设施:公共设施:公共厕所",
        "type": 0,
        "location": {
            "lat": 44.811813,
            "lng": 124.552824
        },
        "ad_info": {
            "adcode": 220721,
            "province": "吉林省",
            "city": "松原市",
            "district": "前郭尔罗斯蒙古族自治县"
        }
    },
    {
        "id": "17234830579761658296",
        "title": "公共厕所",
        "address": "吉林省松原市前郭尔罗斯蒙古族自治县安代路与海宽大路交叉口正南方向522米左右",
        "tel": "",
        "category": "基础设施:公共设施:公共厕所",
        "type": 0,
        "location": {
            "lat": 45.202625,
            "lng": 124.445476
        },
        "ad_info": {
            "adcode": 220721,
            "province": "吉林省",
            "city": "松原市",
            "district": "前郭尔罗斯蒙古族自治县"
        }
    },
    {
        "id": "8400306391329923778",
        "title": "公共厕所",
        "address": "吉林省松原市前郭尔罗斯蒙古族自治县明沈线",
        "tel": "",
        "category": "基础设施:公共设施:公共厕所",
        "type": 0,
        "location": {
            "lat": 44.375115,
            "lng": 124.103073
        },
        "ad_info": {
            "adcode": 220721,
            "province": "吉林省",
            "city": "松原市",
            "district": "前郭尔罗斯蒙古族自治县"
        }
    },
    {
        "id": "9802603053780741572",
        "title": "公共厕所",
        "address": "吉林省松原市长岭县东关南街与岭南东路交叉口东北方向37米左右",
        "tel": "",
        "category": "基础设施:公共设施:公共厕所",
        "type": 0,
        "location": {
            "lat": 44.266806,
            "lng": 123.991554
        },
        "ad_info": {
            "adcode": 220722,
            "province": "吉林省",
            "city": "松原市",
            "district": "长岭县"
        }
    },
    {
        "id": "18165798498235533888",
        "title": "公共厕所",
        "address": "吉林省松原市前郭尔罗斯蒙古族自治县G302与工农大路交叉口西北方向742米左右",
        "tel": "",
        "category": "基础设施:公共设施:公共厕所",
        "type": 0,
        "location": {
            "lat": 45.319278,
            "lng": 124.463653
        },
        "ad_info": {
            "adcode": 220721,
            "province": "吉林省",
            "city": "松原市",
            "district": "前郭尔罗斯蒙古族自治县"
        }
    },
    {
        "id": "13604292678967166726",
        "title": "公共厕所",
        "address": "吉林省松原市长岭县长庆北街与长盛东路交叉口正西方向91米左右",
        "tel": "",
        "category": "基础设施:公共设施:公共厕所",
        "type": 0,
        "location": {
            "lat": 44.280731,
            "lng": 123.984408
        },
        "ad_info": {
            "adcode": 220722,
            "province": "吉林省",
            "city": "松原市",
            "district": "长岭县"
        }
    },
    {
        "id": "5582873155221019159",
        "title": "公共厕所",
        "address": "吉林省松原市长岭县G203与G334交叉口正东方向355米左右",
        "tel": "",
        "category": "基础设施:公共设施:公共厕所",
        "type": 0,
        "location": {
            "lat": 44.284569,
            "lng": 124.047504
        },
        "ad_info": {
            "adcode": 220722,
            "province": "吉林省",
            "city": "松原市",
            "district": "长岭县"
        }
    },
    {
        "id": "11555209005993823019",
        "title": "公共厕所",
        "address": "吉林省松原市长岭县S106与岭城东路交叉口正南方向235米左右",
        "tel": "",
        "category": "基础设施:公共设施:公共厕所",
        "type": 0,
        "location": {
            "lat": 44.277201,
            "lng": 124.006356
        },
        "ad_info": {
            "adcode": 220722,
            "province": "吉林省",
            "city": "松原市",
            "district": "长岭县"
        }
    },
    {
        "id": "3313191499455296866",
        "title": "公共厕所",
        "address": "吉林省松原市长岭县005县道东50米",
        "tel": "",
        "category": "基础设施:公共设施:公共厕所",
        "type": 0,
        "location": {
            "lat": 44.469932,
            "lng": 124.463587
        },
        "ad_info": {
            "adcode": 220722,
            "province": "吉林省",
            "city": "松原市",
            "district": "长岭县"
        }
    },
    {
        "id": "8624016267814938003",
        "title": "公共厕所",
        "address": "吉林省松原市长岭县G231与G334交叉口东南方向1214米左右",
        "tel": "",
        "category": "基础设施:公共设施:公共厕所",
        "type": 0,
        "location": {
            "lat": 44.472504,
            "lng": 123.152476
        },
        "ad_info": {
            "adcode": 220722,
            "province": "吉林省",
            "city": "松原市",
            "district": "长岭县"
        }
    },
    {
        "id": "4354218188869271392",
        "title": "公共厕所",
        "address": "吉林省松原市乾安县夜光路与昆池街交叉口正北方向20米左右",
        "tel": "",
        "category": "基础设施:公共设施:公共厕所",
        "type": 0,
        "location": {
            "lat": 45.007163,
            "lng": 124.027758
        },
        "ad_info": {
            "adcode": 220723,
            "province": "吉林省",
            "city": "松原市",
            "district": "乾安县"
        }
    },
    {
        "id": "1032686839780034486",
        "title": "公共厕所",
        "address": "吉林省松原市长岭县G334与永久路交叉口东北方向230米左右",
        "tel": "",
        "category": "基础设施:公共设施:公共厕所",
        "type": 0,
        "location": {
            "lat": 44.271784,
            "lng": 123.945391
        },
        "ad_info": {
            "adcode": 220722,
            "province": "吉林省",
            "city": "松原市",
            "district": "长岭县"
        }
    },
    {
        "id": "5348065632705831193",
        "title": "公共厕所",
        "address": "吉林省松原市长岭县G231与S517交叉口正东方向653米左右",
        "tel": "",
        "category": "基础设施:公共设施:公共厕所",
        "type": 0,
        "location": {
            "lat": 44.396592,
            "lng": 123.220733
        },
        "ad_info": {
            "adcode": 220722,
            "province": "吉林省",
            "city": "松原市",
            "district": "长岭县"
        }
    },
    {
        "id": "14642948568783078050",
        "title": "公共厕所",
        "address": "吉林省松原市长岭县双龙乡中心小学南侧120米",
        "tel": "",
        "category": "基础设施:公共设施:公共厕所",
        "type": 0,
        "location": {
            "lat": 44.213213,
            "lng": 124.134692
        },
        "ad_info": {
            "adcode": 220722,
            "province": "吉林省",
            "city": "松原市",
            "district": "长岭县"
        }
    },
    {
        "id": "14487801905218073451",
        "title": "公共厕所",
        "address": "吉林省松原市长岭县天能电池西南侧",
        "tel": "",
        "category": "基础设施:公共设施:公共厕所",
        "type": 0,
        "location": {
            "lat": 44.280543,
            "lng": 123.539654
        },
        "ad_info": {
            "adcode": 220722,
            "province": "吉林省",
            "city": "松原市",
            "district": "长岭县"
        }
    },
    {
        "id": "8271908399416299677",
        "title": "公共厕所",
        "address": "吉林省松原市长岭县X052与Y026交叉口正西方向340米左右",
        "tel": "",
        "category": "基础设施:公共设施:公共厕所",
        "type": 0,
        "location": {
            "lat": 44.091815,
            "lng": 124.13839
        },
        "ad_info": {
            "adcode": 220722,
            "province": "吉林省",
            "city": "松原市",
            "district": "长岭县"
        }
    },
    {
        "id": "8173447927916785227",
        "title": "公共厕所",
        "address": "吉林省松原市长岭县203国道东50米",
        "tel": "",
        "category": "基础设施:公共设施:公共厕所",
        "type": 0,
        "location": {
            "lat": 44.233787,
            "lng": 123.966398
        },
        "ad_info": {
            "adcode": 220722,
            "province": "吉林省",
            "city": "松原市",
            "district": "长岭县"
        }
    },
    {
        "id": "10522467289706085666",
        "title": "公共厕所",
        "address": "吉林省松原市乾安县丽水路与鸣凤大街交叉口正南方向76米左右",
        "tel": "",
        "category": "基础设施:公共设施:公共厕所",
        "type": 0,
        "location": {
            "lat": 45.010528,
            "lng": 124.021373
        },
        "ad_info": {
            "adcode": 220723,
            "province": "吉林省",
            "city": "松原市",
            "district": "乾安县"
        }
    },
    {
        "id": "13790123571976062033",
        "title": "公共厕所",
        "address": "吉林省松原市长岭县106省道东50米",
        "tel": "",
        "category": "基础设施:公共设施:公共厕所",
        "type": 0,
        "location": {
            "lat": 44.244826,
            "lng": 124.443769
        },
        "ad_info": {
            "adcode": 220722,
            "province": "吉林省",
            "city": "松原市",
            "district": "长岭县"
        }
    },
    {
        "id": "6369861575084569498",
        "title": "公共厕所",
        "address": "吉林省松原市乾安县G503与Y012交叉口东南方向861米左右",
        "tel": "",
        "category": "基础设施:公共设施:公共厕所",
        "type": 0,
        "location": {
            "lat": 44.857122,
            "lng": 123.626546
        },
        "ad_info": {
            "adcode": 220723,
            "province": "吉林省",
            "city": "松原市",
            "district": "乾安县"
        }
    },
    {
        "id": "14378209382069039402",
        "title": "公共厕所",
        "address": "吉林省松原市乾安县X119与Y001交叉口正西方向107米左右",
        "tel": "",
        "category": "基础设施:公共设施:公共厕所",
        "type": 0,
        "location": {
            "lat": 44.808804,
            "lng": 123.760189
        },
        "ad_info": {
            "adcode": 220723,
            "province": "吉林省",
            "city": "松原市",
            "district": "乾安县"
        }
    },
    {
        "id": "2619075176349716753",
        "title": "公共厕所",
        "address": "吉林省松原市宁江区和平路辅路与民和街交叉口正东方向54米左右",
        "tel": "",
        "category": "基础设施:公共设施:公共厕所",
        "type": 0,
        "location": {
            "lat": 45.180982,
            "lng": 124.827551
        },
        "ad_info": {
            "adcode": 220702,
            "province": "吉林省",
            "city": "松原市",
            "district": "宁江区"
        }
    },
    {
        "id": "3493287179527889955",
        "title": "公共厕所",
        "address": "吉林省松原市宁江区乌兰大街与建华路交叉口西北方向35米左右",
        "tel": "",
        "category": "基础设施:公共设施:公共厕所",
        "type": 0,
        "location": {
            "lat": 45.110593,
            "lng": 124.817673
        },
        "ad_info": {
            "adcode": 220702,
            "province": "吉林省",
            "city": "松原市",
            "district": "宁江区"
        }
    },
    {
        "id": "15362182235160863894",
        "title": "公共厕所",
        "address": "吉林省松原市宁江区光华街中山公园内",
        "tel": "",
        "category": "基础设施:公共设施:公共厕所",
        "type": 0,
        "location": {
            "lat": 45.135458,
            "lng": 124.843982
        },
        "ad_info": {
            "adcode": 220702,
            "province": "吉林省",
            "city": "松原市",
            "district": "宁江区"
        }
    },
    {
        "id": "13890057574407494559",
        "title": "公共厕所",
        "address": "吉林省松原市宁江区繁华路与荣昌街交叉口西南方向178米左右",
        "tel": "",
        "category": "基础设施:公共设施:公共厕所",
        "type": 0,
        "location": {
            "lat": 45.115009,
            "lng": 124.813365
        },
        "ad_info": {
            "adcode": 220702,
            "province": "吉林省",
            "city": "松原市",
            "district": "宁江区"
        }
    },
    {
        "id": "6041546104419312280",
        "title": "公共厕所",
        "address": "吉林省松原市扶余市G503与北环路交叉口西北方向113米左右",
        "tel": "",
        "category": "基础设施:公共设施:公共厕所",
        "type": 0,
        "location": {
            "lat": 44.997855,
            "lng": 126.004028
        },
        "ad_info": {
            "adcode": 220781,
            "province": "吉林省",
            "city": "松原市",
            "district": "扶余市"
        }
    },
    {
        "id": "17057316420407910261",
        "title": "公共厕所",
        "address": "吉林省松原市宁江区扶余大路2111号",
        "tel": "",
        "category": "基础设施:公共设施:公共厕所",
        "type": 0,
        "location": {
            "lat": 45.170206,
            "lng": 124.858967
        },
        "ad_info": {
            "adcode": 220702,
            "province": "吉林省",
            "city": "松原市",
            "district": "宁江区"
        }
    },
    {
        "id": "16317462035196927777",
        "title": "公共厕所",
        "address": "吉林省松原市乾安县乾安镇四中东侧",
        "tel": "",
        "category": "基础设施:公共设施:公共厕所",
        "type": 0,
        "location": {
            "lat": 44.996077,
            "lng": 124.019837
        },
        "ad_info": {
            "adcode": 220723,
            "province": "吉林省",
            "city": "松原市",
            "district": "乾安县"
        }
    },
    {
        "id": "12260697111957922971",
        "title": "公共厕所",
        "address": "吉林省松原市宁江区中奥路与奥林匹克商业街交叉口西北方向97米左右",
        "tel": "",
        "category": "基础设施:公共设施:公共厕所",
        "type": 0,
        "location": {
            "lat": 45.121881,
            "lng": 124.842552
        },
        "ad_info": {
            "adcode": 220702,
            "province": "吉林省",
            "city": "松原市",
            "district": "宁江区"
        }
    },
    {
        "id": "13227941554491344969",
        "title": "公共厕所",
        "address": "吉林省松原市乾安县乾安段与群英路交叉口西南方向249米左右",
        "tel": "",
        "category": "基础设施:公共设施:公共厕所",
        "type": 0,
        "location": {
            "lat": 44.984295,
            "lng": 123.993982
        },
        "ad_info": {
            "adcode": 220723,
            "province": "吉林省",
            "city": "松原市",
            "district": "乾安县"
        }
    },
    {
        "id": "16797481826313220507",
        "title": "公共厕所",
        "address": "吉林省松原市乾安县乾安段与群英路交叉口东北方向88米左右",
        "tel": "",
        "category": "基础设施:公共设施:公共厕所",
        "type": 0,
        "location": {
            "lat": 44.986123,
            "lng": 123.997405
        },
        "ad_info": {
            "adcode": 220723,
            "province": "吉林省",
            "city": "松原市",
            "district": "乾安县"
        }
    },
    {
        "id": "14931686422359979160",
        "title": "公共厕所",
        "address": "吉林省松原市乾安县G503与Y006交叉口东北方向356米左右",
        "tel": "",
        "category": "基础设施:公共设施:公共厕所",
        "type": 0,
        "location": {
            "lat": 44.920871,
            "lng": 123.809902
        },
        "ad_info": {
            "adcode": 220723,
            "province": "吉林省",
            "city": "松原市",
            "district": "乾安县"
        }
    },
    {
        "id": "17883942429722399190",
        "title": "公共厕所",
        "address": "吉林省松原市扶余市新万发镇中心小学附近",
        "tel": "",
        "category": "基础设施:公共设施:公共厕所",
        "type": 0,
        "location": {
            "lat": 45.076606,
            "lng": 125.566606
        },
        "ad_info": {
            "adcode": 220781,
            "province": "吉林省",
            "city": "松原市",
            "district": "扶余市"
        }
    },
    {
        "id": "10007317957060913343",
        "title": "公共厕所",
        "address": "吉林省松原市扶余市X144与Y034交叉口正西方向490米左右",
        "tel": "",
        "category": "基础设施:公共设施:公共厕所",
        "type": 0,
        "location": {
            "lat": 44.93013,
            "lng": 125.828611
        },
        "ad_info": {
            "adcode": 220781,
            "province": "吉林省",
            "city": "松原市",
            "district": "扶余市"
        }
    },
    {
        "id": "15245009699111998133",
        "title": "公共厕所",
        "address": "吉林省松原市前郭尔罗斯蒙古族自治县G302与S302交叉口正东方向1045米左右",
        "tel": "",
        "category": "基础设施:公共设施:公共厕所",
        "type": 0,
        "location": {
            "lat": 44.847802,
            "lng": 125.051629
        },
        "ad_info": {
            "adcode": 220721,
            "province": "吉林省",
            "city": "松原市",
            "district": "前郭尔罗斯蒙古族自治县"
        }
    },
    {
        "id": "16004046968612486231",
        "title": "公共厕所",
        "address": "吉林省松原市扶余市榆陶公路与榆陶路交叉口东南方向1970米左右",
        "tel": "",
        "category": "基础设施:公共设施:公共厕所",
        "type": 0,
        "location": {
            "lat": 44.824791,
            "lng": 125.93997
        },
        "ad_info": {
            "adcode": 220781,
            "province": "吉林省",
            "city": "松原市",
            "district": "扶余市"
        }
    },
    {
        "id": "13518659430727837481",
        "title": "公共厕所",
        "address": "吉林省松原市扶余市G102与G503交叉口西北方向64米左右",
        "tel": "",
        "category": "基础设施:公共设施:公共厕所",
        "type": 0,
        "location": {
            "lat": 44.984826,
            "lng": 126.119726
        },
        "ad_info": {
            "adcode": 220781,
            "province": "吉林省",
            "city": "松原市",
            "district": "扶余市"
        }
    },
    {
        "id": "8668969812741504767",
        "title": "公共厕所",
        "address": "吉林省松原市前郭尔罗斯蒙古族自治县查干淖尔大街与源江东路交叉口正东方向39米左右",
        "tel": "",
        "category": "基础设施:公共设施:公共厕所",
        "type": 0,
        "location": {
            "lat": 45.114262,
            "lng": 124.843816
        },
        "ad_info": {
            "adcode": 220721,
            "province": "吉林省",
            "city": "松原市",
            "district": "前郭尔罗斯蒙古族自治县"
        }
    },
    {
        "id": "6181778884307679040",
        "title": "公共厕所",
        "address": "吉林省松原市乾安县X118与鸣凤大街交叉口东南方向251米左右",
        "tel": "",
        "category": "基础设施:公共设施:公共厕所",
        "type": 0,
        "location": {
            "lat": 45.019761,
            "lng": 124.010165
        },
        "ad_info": {
            "adcode": 220723,
            "province": "吉林省",
            "city": "松原市",
            "district": "乾安县"
        }
    },
    {
        "id": "16304851208815067709",
        "title": "公共厕所",
        "address": "吉林省松原市长岭县来薰东路与长庆南街交叉口正北方向99米左右",
        "tel": "",
        "category": "基础设施:公共设施:公共厕所",
        "type": 0,
        "location": {
            "lat": 44.270699,
            "lng": 123.988156
        },
        "ad_info": {
            "adcode": 220722,
            "province": "吉林省",
            "city": "松原市",
            "district": "长岭县"
        }
    },
    {
        "id": "780669131493380653",
        "title": "公共厕所",
        "address": "吉林省松原市宁江区镜湖南路与青年大街辅路交叉口西北100米",
        "tel": "",
        "category": "基础设施:公共设施:公共厕所",
        "type": 0,
        "location": {
            "lat": 45.131101,
            "lng": 124.796705
        },
        "ad_info": {
            "adcode": 220702,
            "province": "吉林省",
            "city": "松原市",
            "district": "宁江区"
        }
    },
    {
        "id": "7634546402720507312",
        "title": "公用公共厕所",
        "address": "吉林省松原市前郭尔罗斯蒙古族自治县哈达大街辅路与额济纳路交叉口正西方向112米左右",
        "tel": "",
        "category": "基础设施:公共设施:公共厕所",
        "type": 0,
        "location": {
            "lat": 45.111706,
            "lng": 124.850928
        },
        "ad_info": {
            "adcode": 220721,
            "province": "吉林省",
            "city": "松原市",
            "district": "前郭尔罗斯蒙古族自治县"
        }
    },
    {
        "id": "9380721750383347439",
        "title": "公共厕所",
        "address": "吉林省松原市宁江区沿江西路富源小区",
        "tel": "",
        "category": "基础设施:公共设施:公共厕所",
        "type": 0,
        "location": {
            "lat": 45.150737,
            "lng": 124.801382
        },
        "ad_info": {
            "adcode": 220702,
            "province": "吉林省",
            "city": "松原市",
            "district": "宁江区"
        }
    },
    {
        "id": "10834869746267733557",
        "title": "公共厕所",
        "address": "吉林省松原市扶余市士英街与春华路交叉口西南方向20米左右",
        "tel": "",
        "category": "基础设施:公共设施:公共厕所",
        "type": 0,
        "location": {
            "lat": 44.987911,
            "lng": 126.03357
        },
        "ad_info": {
            "adcode": 220781,
            "province": "吉林省",
            "city": "松原市",
            "district": "扶余市"
        }
    },
    {
        "id": "13124538811875327322",
        "title": "公共厕所",
        "address": "吉林省松原市宁江区成吉思汗大街与郭尔罗斯大路交叉口西北方向47米左右",
        "tel": "",
        "category": "基础设施:公共设施:公共厕所",
        "type": 0,
        "location": {
            "lat": 45.092792,
            "lng": 124.871351
        },
        "ad_info": {
            "adcode": 220702,
            "province": "吉林省",
            "city": "松原市",
            "district": "宁江区"
        }
    },
    {
        "id": "7424384161427003586",
        "title": "生态卫生公共厕所",
        "address": "吉林省松原市前郭尔罗斯蒙古族自治县民康大药房",
        "tel": "",
        "category": "基础设施:公共设施:公共厕所",
        "type": 0,
        "location": {
            "lat": 44.88538,
            "lng": 124.850098
        },
        "ad_info": {
            "adcode": 220721,
            "province": "吉林省",
            "city": "松原市",
            "district": "前郭尔罗斯蒙古族自治县"
        }
    },
    {
        "id": "8973362625691675593",
        "title": "公共厕所",
        "address": "吉林省松原市扶余市144县道与503国道交叉口南100米",
        "tel": "",
        "category": "基础设施:公共设施:公共厕所",
        "type": 0,
        "location": {
            "lat": 45.157691,
            "lng": 125.12685
        },
        "ad_info": {
            "adcode": 220781,
            "province": "吉林省",
            "city": "松原市",
            "district": "扶余市"
        }
    },
    {
        "id": "13552595946617029103",
        "title": "公共厕所",
        "address": "吉林省松原市宁江区兴业大街与镜湖南路交叉口西南方向172米左右",
        "tel": "",
        "category": "基础设施:公共设施:公共厕所",
        "type": 0,
        "location": {
            "lat": 45.136182,
            "lng": 124.777035
        },
        "ad_info": {
            "adcode": 220702,
            "province": "吉林省",
            "city": "松原市",
            "district": "宁江区"
        }
    },
    {
        "id": "5732845906850496194",
        "title": "公共厕所",
        "address": "吉林省松原市宁江区扶余大路与滨江东路交叉口正东方向140米左右",
        "tel": "",
        "category": "基础设施:公共设施:公共厕所",
        "type": 0,
        "location": {
            "lat": 45.166251,
            "lng": 124.835739
        },
        "ad_info": {
            "adcode": 220702,
            "province": "吉林省",
            "city": "松原市",
            "district": "宁江区"
        }
    },
    {
        "id": "8144978880636277234",
        "title": "公共厕所",
        "address": "吉林省松原市宁江区兴业大街与镜湖南路交叉口正北方向354米左右",
        "tel": "",
        "category": "基础设施:公共设施:公共厕所",
        "type": 0,
        "location": {
            "lat": 45.140491,
            "lng": 124.777276
        },
        "ad_info": {
            "adcode": 220702,
            "province": "吉林省",
            "city": "松原市",
            "district": "宁江区"
        }
    },
    {
        "id": "18324824681502799139",
        "title": "公共厕所",
        "address": "吉林省松原市宁江区查干淖尔南街与郭尔罗斯大路交叉口正南方向279米左右",
        "tel": "",
        "category": "基础设施:公共设施:公共厕所",
        "type": 0,
        "location": {
            "lat": 45.104377,
            "lng": 124.837745
        },
        "ad_info": {
            "adcode": 220702,
            "province": "吉林省",
            "city": "松原市",
            "district": "宁江区"
        }
    },
    {
        "id": "8353494426059832105",
        "title": "公共厕所",
        "address": "吉林省松原市宁江区湛江路吉林油田总医院",
        "tel": "",
        "category": "基础设施:公共设施:公共厕所",
        "type": 0,
        "location": {
            "lat": 45.144565,
            "lng": 124.807453
        },
        "ad_info": {
            "adcode": 220702,
            "province": "吉林省",
            "city": "松原市",
            "district": "宁江区"
        }
    },
    {
        "id": "16683895827242381763",
        "title": "公共厕所",
        "address": "吉林省松原市宁江区伯都讷大街学府名城-北区",
        "tel": "",
        "category": "基础设施:公共设施:公共厕所",
        "type": 0,
        "location": {
            "lat": 45.177512,
            "lng": 124.84026
        },
        "ad_info": {
            "adcode": 220702,
            "province": "吉林省",
            "city": "松原市",
            "district": "宁江区"
        }
    },
    {
        "id": "3812467684822463881",
        "title": "公共厕所",
        "address": "吉林省松原市宁江区文瑞街与滨江东路交叉口正西方向131米左右",
        "tel": "",
        "category": "基础设施:公共设施:公共厕所",
        "type": 0,
        "location": {
            "lat": 45.167583,
            "lng": 124.828367
        },
        "ad_info": {
            "adcode": 220702,
            "province": "吉林省",
            "city": "松原市",
            "district": "宁江区"
        }
    },
    {
        "id": "15433947315934928266",
        "title": "公共厕所",
        "address": "吉林省松原市宁江区和平路与长宁南街交叉口西南方向95米左右",
        "tel": "",
        "category": "基础设施:公共设施:公共厕所",
        "type": 0,
        "location": {
            "lat": 45.180436,
            "lng": 124.819431
        },
        "ad_info": {
            "adcode": 220702,
            "province": "吉林省",
            "city": "松原市",
            "district": "宁江区"
        }
    },
    {
        "id": "9194539244747097822",
        "title": "公共厕所",
        "address": "吉林省松原市宁江区五环大街与铂金路交叉口东南方向116米左右",
        "tel": "",
        "category": "基础设施:公共设施:公共厕所",
        "type": 0,
        "location": {
            "lat": 45.12588,
            "lng": 124.845043
        },
        "ad_info": {
            "adcode": 220702,
            "province": "吉林省",
            "city": "松原市",
            "district": "宁江区"
        }
    },
    {
        "id": "6095341349264066141",
        "title": "公共厕所",
        "address": "吉林省松原市宁江区滨江西路与龙江路交叉口东南方向46米左右",
        "tel": "",
        "category": "基础设施:公共设施:公共厕所",
        "type": 0,
        "location": {
            "lat": 45.172019,
            "lng": 124.815559
        },
        "ad_info": {
            "adcode": 220702,
            "province": "吉林省",
            "city": "松原市",
            "district": "宁江区"
        }
    },
    {
        "id": "8974869113874480181",
        "title": "公共厕所",
        "address": "吉林省松原市宁江区创业大街与百年汉克路交叉口正东方向100米左右",
        "tel": "",
        "category": "基础设施:公共设施:公共厕所",
        "type": 0,
        "location": {
            "lat": 45.142047,
            "lng": 124.796957
        },
        "ad_info": {
            "adcode": 220702,
            "province": "吉林省",
            "city": "松原市",
            "district": "宁江区"
        }
    },
    {
        "id": "6795901411198635209",
        "title": "公共厕所",
        "address": "吉林省松原市宁江区郭尔罗斯大路990号",
        "tel": "",
        "category": "基础设施:公共设施:公共厕所",
        "type": 0,
        "location": {
            "lat": 45.121029,
            "lng": 124.804425
        },
        "ad_info": {
            "adcode": 220702,
            "province": "吉林省",
            "city": "松原市",
            "district": "宁江区"
        }
    },
    {
        "id": "3656704925031255300",
        "title": "公共厕所",
        "address": "吉林省松原市宁江区郭尔罗斯大路309号",
        "tel": "",
        "category": "基础设施:公共设施:公共厕所",
        "type": 0,
        "location": {
            "lat": 45.124551,
            "lng": 124.798193
        },
        "ad_info": {
            "adcode": 220702,
            "province": "吉林省",
            "city": "松原市",
            "district": "宁江区"
        }
    },
    {
        "id": "9180356247912436854",
        "title": "公共厕所",
        "address": "吉林省松原市宁江区新园街与西八条交叉口西南方向98米左右",
        "tel": "",
        "category": "基础设施:公共设施:公共厕所",
        "type": 0,
        "location": {
            "lat": 45.166564,
            "lng": 124.865904
        },
        "ad_info": {
            "adcode": 220702,
            "province": "吉林省",
            "city": "松原市",
            "district": "宁江区"
        }
    },
    {
        "id": "3477114974137884256",
        "title": "公共厕所",
        "address": "吉林省松原市宁江区滨江东路与长宁南街交叉口正北方向67米左右",
        "tel": "",
        "category": "基础设施:公共设施:公共厕所",
        "type": 0,
        "location": {
            "lat": 45.169559,
            "lng": 124.820526
        },
        "ad_info": {
            "adcode": 220702,
            "province": "吉林省",
            "city": "松原市",
            "district": "宁江区"
        }
    },
    {
        "id": "10983177346493628442",
        "title": "公共厕所",
        "address": "吉林省松原市宁江区丽霞超市东侧130米",
        "tel": "",
        "category": "基础设施:公共设施:公共厕所",
        "type": 0,
        "location": {
            "lat": 45.103975,
            "lng": 124.796417
        },
        "ad_info": {
            "adcode": 220702,
            "province": "吉林省",
            "city": "松原市",
            "district": "宁江区"
        }
    },
    {
        "id": "3248030597965642424",
        "title": "公共厕所",
        "address": "吉林省松原市宁江区古城街与新城东路交叉口东北方向22米左右",
        "tel": "",
        "category": "基础设施:公共设施:公共厕所",
        "type": 0,
        "location": {
            "lat": 45.183595,
            "lng": 124.857959
        },
        "ad_info": {
            "adcode": 220702,
            "province": "吉林省",
            "city": "松原市",
            "district": "宁江区"
        }
    },
    {
        "id": "12423719387974115133",
        "title": "拐脖店服务区公共厕所",
        "address": "吉林省松原市前郭尔罗斯蒙古族自治县大广高速公路拐脖店服务区附近",
        "tel": "",
        "category": "基础设施:公共设施:公共厕所",
        "type": 0,
        "location": {
            "lat": 44.986355,
            "lng": 124.55882
        },
        "ad_info": {
            "adcode": 220721,
            "province": "吉林省",
            "city": "松原市",
            "district": "前郭尔罗斯蒙古族自治县"
        }
    },
    {
        "id": "9093757430638866163",
        "title": "公共厕所",
        "address": "吉林省松原市宁江区一厂西路与一厂路交叉口正南方向193米左右",
        "tel": "",
        "category": "基础设施:公共设施:公共厕所",
        "type": 0,
        "location": {
            "lat": 45.199139,
            "lng": 124.808909
        },
        "ad_info": {
            "adcode": 220702,
            "province": "吉林省",
            "city": "松原市",
            "district": "宁江区"
        }
    },
    {
        "id": "4088974667258685889",
        "title": "公共厕所",
        "address": "吉林省松原市宁江区化工大街与宁海路交叉口正南方向109米左右",
        "tel": "",
        "category": "基础设施:公共设施:公共厕所",
        "type": 0,
        "location": {
            "lat": 45.217935,
            "lng": 124.863064
        },
        "ad_info": {
            "adcode": 220702,
            "province": "吉林省",
            "city": "松原市",
            "district": "宁江区"
        }
    },
    {
        "id": "12677811065802869826",
        "title": "公共厕所",
        "address": "吉林省松原市长岭县东关北街与永安东路交叉口西北方向29米左右",
        "tel": "",
        "category": "基础设施:公共设施:公共厕所",
        "type": 0,
        "location": {
            "lat": 44.27965,
            "lng": 123.98823
        },
        "ad_info": {
            "adcode": 220722,
            "province": "吉林省",
            "city": "松原市",
            "district": "长岭县"
        }
    },
    {
        "id": "7591290981211469504",
        "title": "公共厕所",
        "address": "吉林省松原市扶余市太祖路与通达街交叉口西北方向112米左右",
        "tel": "",
        "category": "基础设施:公共设施:公共厕所",
        "type": 0,
        "location": {
            "lat": 44.987492,
            "lng": 126.025926
        },
        "ad_info": {
            "adcode": 220781,
            "province": "吉林省",
            "city": "松原市",
            "district": "扶余市"
        }
    },
    {
        "id": "4333987761656069588",
        "title": "公共厕所",
        "address": "吉林省松原市宁江区地钻北路与青年大街辅路交叉口正南方向45米左右",
        "tel": "",
        "category": "基础设施:公共设施:公共厕所",
        "type": 0,
        "location": {
            "lat": 45.11584,
            "lng": 124.791404
        },
        "ad_info": {
            "adcode": 220702,
            "province": "吉林省",
            "city": "松原市",
            "district": "宁江区"
        }
    },
    {
        "id": "15263192379410293145",
        "title": "公共厕所",
        "address": "吉林省松原市宁江区松杨胡同与松柳胡同交叉口东南方向213米左右",
        "tel": "",
        "category": "基础设施:公共设施:公共厕所",
        "type": 0,
        "location": {
            "lat": 45.178936,
            "lng": 124.807731
        },
        "ad_info": {
            "adcode": 220702,
            "province": "吉林省",
            "city": "松原市",
            "district": "宁江区"
        }
    },
    {
        "id": "4463439202157746432",
        "title": "公共厕所",
        "address": "吉林省松原市宁江区伯都讷大街与滨江东路交叉口东北方向326米左右",
        "tel": "",
        "category": "基础设施:公共设施:公共厕所",
        "type": 0,
        "location": {
            "lat": 45.165604,
            "lng": 124.851859
        },
        "ad_info": {
            "adcode": 220702,
            "province": "吉林省",
            "city": "松原市",
            "district": "宁江区"
        }
    },
    {
        "id": "8901297744762748382",
        "title": "公共厕所",
        "address": "吉林省松原市前郭尔罗斯蒙古族自治县乌兰大街1680号",
        "tel": "",
        "category": "基础设施:公共设施:公共厕所",
        "type": 0,
        "location": {
            "lat": 45.122216,
            "lng": 124.829494
        },
        "ad_info": {
            "adcode": 220721,
            "province": "吉林省",
            "city": "松原市",
            "district": "前郭尔罗斯蒙古族自治县"
        }
    },
    {
        "id": "15713272525930361920",
        "title": "公共厕所",
        "address": "吉林省松原市扶余市X148与三岔河大街交叉口西南方向45米左右",
        "tel": "",
        "category": "基础设施:公共设施:公共厕所",
        "type": 0,
        "location": {
            "lat": 44.985467,
            "lng": 126.021301
        },
        "ad_info": {
            "adcode": 220781,
            "province": "吉林省",
            "city": "松原市",
            "district": "扶余市"
        }
    },
    {
        "id": "3471820011394393358",
        "title": "公共厕所",
        "address": "吉林省松原市扶余市三岔河大街与哈尔滨街交叉口正西方向38米左右",
        "tel": "",
        "category": "基础设施:公共设施:公共厕所",
        "type": 0,
        "location": {
            "lat": 44.988621,
            "lng": 126.017882
        },
        "ad_info": {
            "adcode": 220781,
            "province": "吉林省",
            "city": "松原市",
            "district": "扶余市"
        }
    },
    {
        "id": "6196638179055535387",
        "title": "公共厕所",
        "address": "吉林省松原市宁江区石化西街与铁安路交叉口西北方向481米左右",
        "tel": "",
        "category": "基础设施:公共设施:公共厕所",
        "type": 0,
        "location": {
            "lat": 45.093014,
            "lng": 124.839832
        },
        "ad_info": {
            "adcode": 220702,
            "province": "吉林省",
            "city": "松原市",
            "district": "宁江区"
        }
    },
    {
        "id": "4886262311713764450",
        "title": "公共厕所",
        "address": "吉林省松原市宁江区单家东街与贺尔其勒东路交叉口西北方向733米左右",
        "tel": "",
        "category": "基础设施:公共设施:公共厕所",
        "type": 0,
        "location": {
            "lat": 45.124842,
            "lng": 124.761447
        },
        "ad_info": {
            "adcode": 220702,
            "province": "吉林省",
            "city": "松原市",
            "district": "宁江区"
        }
    },
    {
        "id": "16220692117988830073",
        "title": "拐脖店服务区第二公共厕所",
        "address": "吉林省松原市前郭尔罗斯蒙古族自治县G45大广高速西100米",
        "tel": "",
        "category": "基础设施:公共设施:公共厕所",
        "type": 0,
        "location": {
            "lat": 44.986324,
            "lng": 124.556601
        },
        "ad_info": {
            "adcode": 220721,
            "province": "吉林省",
            "city": "松原市",
            "district": "前郭尔罗斯蒙古族自治县"
        }
    },
    {
        "id": "722309215101948502",
        "title": "公共厕所",
        "address": "吉林省松原市宁江区G203与S514交叉口东北方向747米左右",
        "tel": "",
        "category": "基础设施:公共设施:公共厕所",
        "type": 0,
        "location": {
            "lat": 45.200855,
            "lng": 124.910591
        },
        "ad_info": {
            "adcode": 220702,
            "province": "吉林省",
            "city": "松原市",
            "district": "宁江区"
        }
    },
    {
        "id": "579478841643930147",
        "title": "万宝山服务区公共厕所",
        "address": "吉林省松原市前郭尔罗斯蒙古族自治县大广高速万宝山服务区",
        "tel": "",
        "category": "基础设施:公共设施:公共厕所",
        "type": 0,
        "location": {
            "lat": 44.535691,
            "lng": 124.254169
        },
        "ad_info": {
            "adcode": 220721,
            "province": "吉林省",
            "city": "松原市",
            "district": "前郭尔罗斯蒙古族自治县"
        }
    },
    {
        "id": "4054318187366897445",
        "title": "王府服务区公共厕所",
        "address": "吉林省松原市前郭尔罗斯蒙古族自治县珲乌高速",
        "tel": "",
        "category": "基础设施:公共设施:公共厕所",
        "type": 0,
        "location": {
            "lat": 44.784048,
            "lng": 125.082762
        },
        "ad_info": {
            "adcode": 220721,
            "province": "吉林省",
            "city": "松原市",
            "district": "前郭尔罗斯蒙古族自治县"
        }
    },
    {
        "id": "5037452584233801870",
        "title": "王府服务区公共厕所",
        "address": "吉林省松原市前郭尔罗斯蒙古族自治县王府站镇珲乌高速公路王府服务区",
        "tel": "",
        "category": "基础设施:公共设施:公共厕所",
        "type": 0,
        "location": {
            "lat": 44.784048,
            "lng": 125.084818
        },
        "ad_info": {
            "adcode": 220721,
            "province": "吉林省",
            "city": "松原市",
            "district": "前郭尔罗斯蒙古族自治县"
        }
    },
    {
        "id": "9545881649688816939",
        "title": "公共厕所",
        "address": "吉林省松原市宁江区X144与Y011交叉口正南方向928米左右",
        "tel": "",
        "category": "基础设施:公共设施:公共厕所",
        "type": 0,
        "location": {
            "lat": 45.378657,
            "lng": 124.779744
        },
        "ad_info": {
            "adcode": 220702,
            "province": "吉林省",
            "city": "松原市",
            "district": "宁江区"
        }
    },
    {
        "id": "11599084485767771878",
        "title": "公共厕所",
        "address": "吉林省松原市宁江区建华路1599号",
        "tel": "",
        "category": "基础设施:公共设施:公共厕所",
        "type": 0,
        "location": {
            "lat": 45.108271,
            "lng": 124.823302
        },
        "ad_info": {
            "adcode": 220702,
            "province": "吉林省",
            "city": "松原市",
            "district": "宁江区"
        }
    },
    {
        "id": "11310080806279396631",
        "title": "公共厕所",
        "address": "吉林省松原市宁江区建设街与长虹东路交叉口西北方向72米左右",
        "tel": "",
        "category": "基础设施:公共设施:公共厕所",
        "type": 0,
        "location": {
            "lat": 45.198928,
            "lng": 124.816015
        },
        "ad_info": {
            "adcode": 220702,
            "province": "吉林省",
            "city": "松原市",
            "district": "宁江区"
        }
    },
    {
        "id": "13289272787371190033",
        "title": "公共厕所",
        "address": "吉林省松原市宁江区兴原乡于家小学北400米",
        "tel": "",
        "category": "基础设施:公共设施:公共厕所",
        "type": 0,
        "location": {
            "lat": 45.10234,
            "lng": 124.815044
        },
        "ad_info": {
            "adcode": 220702,
            "province": "吉林省",
            "city": "松原市",
            "district": "宁江区"
        }
    },
    {
        "id": "3161580923156989590",
        "title": "公共厕所",
        "address": "吉林省松原市宁江区余杭路与化工大街交叉口正西方向1145米左右",
        "tel": "",
        "category": "基础设施:公共设施:公共厕所",
        "type": 0,
        "location": {
            "lat": 45.22446,
            "lng": 124.848991
        },
        "ad_info": {
            "adcode": 220702,
            "province": "吉林省",
            "city": "松原市",
            "district": "宁江区"
        }
    },
    {
        "id": "15239337299189860712",
        "title": "公共厕所",
        "address": "吉林省松原市宁江区兴原乡于家围子村宏扬药店左侧旁边",
        "tel": "",
        "category": "基础设施:公共设施:公共厕所",
        "type": 0,
        "location": {
            "lat": 45.102276,
            "lng": 124.82091
        },
        "ad_info": {
            "adcode": 220702,
            "province": "吉林省",
            "city": "松原市",
            "district": "宁江区"
        }
    },
    {
        "id": "8796468699158221189",
        "title": "公共厕所",
        "address": "吉林省松原市宁江区大庆钻探修井作业公司运输项目部东南侧210米",
        "tel": "",
        "category": "基础设施:公共设施:公共厕所",
        "type": 0,
        "location": {
            "lat": 45.225613,
            "lng": 124.801492
        },
        "ad_info": {
            "adcode": 220702,
            "province": "吉林省",
            "city": "松原市",
            "district": "宁江区"
        }
    },
    {
        "id": "13545548995044601421",
        "title": "公共厕所",
        "address": "吉林省松原市宁江区新和胡同文化康城小区",
        "tel": "",
        "category": "基础设施:公共设施:公共厕所",
        "type": 0,
        "location": {
            "lat": 45.177705,
            "lng": 124.836933
        },
        "ad_info": {
            "adcode": 220702,
            "province": "吉林省",
            "city": "松原市",
            "district": "宁江区"
        }
    },
    {
        "id": "6386818335008114455",
        "title": "公共厕所",
        "address": "吉林省松原市宁江区乌兰大街与沿江东路交叉口西北方向83米左右",
        "tel": "",
        "category": "基础设施:公共设施:公共厕所",
        "type": 0,
        "location": {
            "lat": 45.136474,
            "lng": 124.839237
        },
        "ad_info": {
            "adcode": 220702,
            "province": "吉林省",
            "city": "松原市",
            "district": "宁江区"
        }
    },
    {
        "id": "4370822047087139450",
        "title": "太平川服务区公共厕所",
        "address": "吉林省松原市长岭县中国石化吉高能源太平川服务区加油站东侧150米",
        "tel": "",
        "category": "基础设施:公共设施:公共厕所",
        "type": 0,
        "location": {
            "lat": 44.492059,
            "lng": 123.15576
        },
        "ad_info": {
            "adcode": 220722,
            "province": "吉林省",
            "city": "松原市",
            "district": "长岭县"
        }
    },
    {
        "id": "16549956201793958378",
        "title": "公共厕所",
        "address": "吉林省松原市宁江区商贸中街与昌宁路交叉口西北方向16米左右",
        "tel": "",
        "category": "基础设施:公共设施:公共厕所",
        "type": 0,
        "location": {
            "lat": 45.174078,
            "lng": 124.827969
        },
        "ad_info": {
            "adcode": 220702,
            "province": "吉林省",
            "city": "松原市",
            "district": "宁江区"
        }
    },
    {
        "id": "158651319325859988",
        "title": "长岭服务区公共厕所",
        "address": "吉林省松原市长岭县长岭镇大广高速公路长岭服务区附近",
        "tel": "",
        "category": "基础设施:公共设施:公共厕所",
        "type": 0,
        "location": {
            "lat": 44.178533,
            "lng": 123.995895
        },
        "ad_info": {
            "adcode": 220722,
            "province": "吉林省",
            "city": "松原市",
            "district": "长岭县"
        }
    },
    {
        "id": "15313951111096982188",
        "title": "长岭服务区公共厕所",
        "address": "吉林省松原市长岭县双龙工业园区大广高速公路长岭服务区",
        "tel": "",
        "category": "基础设施:公共设施:公共厕所",
        "type": 0,
        "location": {
            "lat": 44.177167,
            "lng": 123.996941
        },
        "ad_info": {
            "adcode": 220722,
            "province": "吉林省",
            "city": "松原市",
            "district": "长岭县"
        }
    },
    {
        "id": "7362332270313233171",
        "title": "公共厕所",
        "address": "吉林省松原市宁江区塔虎城街与大同路交叉口东北方向28米左右",
        "tel": "",
        "category": "基础设施:公共设施:公共厕所",
        "type": 0,
        "location": {
            "lat": 45.118031,
            "lng": 124.81923
        },
        "ad_info": {
            "adcode": 220702,
            "province": "吉林省",
            "city": "松原市",
            "district": "宁江区"
        }
    },
    {
        "id": "6600792861986692375",
        "title": "公共厕所",
        "address": "吉林省松原市宁江区沿江西路与绿园街交叉口正南方向42米左右",
        "tel": "",
        "category": "基础设施:公共设施:公共厕所",
        "type": 0,
        "location": {
            "lat": 45.143478,
            "lng": 124.817394
        },
        "ad_info": {
            "adcode": 220702,
            "province": "吉林省",
            "city": "松原市",
            "district": "宁江区"
        }
    },
    {
        "id": "9489976820795179402",
        "title": "公共厕所",
        "address": "吉林省松原市宁江区建祥路与建设街交叉口正东方向43米左右",
        "tel": "",
        "category": "基础设施:公共设施:公共厕所",
        "type": 0,
        "location": {
            "lat": 45.185647,
            "lng": 124.826711
        },
        "ad_info": {
            "adcode": 220702,
            "province": "吉林省",
            "city": "松原市",
            "district": "宁江区"
        }
    },
    {
        "id": "8303695876024935480",
        "title": "长岭服务区第二公共厕所",
        "address": "吉林省松原市长岭县大广高速附近",
        "tel": "",
        "category": "基础设施:公共设施:公共厕所",
        "type": 0,
        "location": {
            "lat": 44.178427,
            "lng": 123.99804
        },
        "ad_info": {
            "adcode": 220722,
            "province": "吉林省",
            "city": "松原市",
            "district": "长岭县"
        }
    },
    {
        "id": "12840248238125522201",
        "title": "公共厕所",
        "address": "吉林省松原市宁江区永泰家园南门南(团民胡同东)",
        "tel": "",
        "category": "基础设施:公共设施:公共厕所",
        "type": 0,
        "location": {
            "lat": 45.172642,
            "lng": 124.818291
        },
        "ad_info": {
            "adcode": 220702,
            "province": "吉林省",
            "city": "松原市",
            "district": "宁江区"
        }
    },
    {
        "id": "982315801230258754",
        "title": "陶赖昭服务区公共厕所",
        "address": "吉林省松原市扶余市京哈高速陶赖昭服务区",
        "tel": "",
        "category": "基础设施:公共设施:公共厕所",
        "type": 0,
        "location": {
            "lat": 44.874828,
            "lng": 125.93661
        },
        "ad_info": {
            "adcode": 220781,
            "province": "吉林省",
            "city": "松原市",
            "district": "扶余市"
        }
    },
    {
        "id": "10337326133209012679",
        "title": "大洼服务区公共厕所",
        "address": "吉林省松原市宁江区大广高速公路大洼服务区",
        "tel": "",
        "category": "基础设施:公共设施:公共厕所",
        "type": 0,
        "location": {
            "lat": 45.307491,
            "lng": 124.946232
        },
        "ad_info": {
            "adcode": 220702,
            "province": "吉林省",
            "city": "松原市",
            "district": "宁江区"
        }
    },
    {
        "id": "14743596072176690904",
        "title": "公共厕所",
        "address": "吉林省松原市宁江区康宁街与铁宁路交叉口西南方向40米左右",
        "tel": "",
        "category": "基础设施:公共设施:公共厕所",
        "type": 0,
        "location": {
            "lat": 45.112335,
            "lng": 124.801277
        },
        "ad_info": {
            "adcode": 220702,
            "province": "吉林省",
            "city": "松原市",
            "district": "宁江区"
        }
    },
    {
        "id": "16396696536860621156",
        "title": "大洼服务区公共厕所",
        "address": "吉林省松原市宁江区G203与明沈线交叉口东北方向1944米左右",
        "tel": "",
        "category": "基础设施:公共设施:公共厕所",
        "type": 0,
        "location": {
            "lat": 45.308485,
            "lng": 124.944248
        },
        "ad_info": {
            "adcode": 220702,
            "province": "吉林省",
            "city": "松原市",
            "district": "宁江区"
        }
    },
    {
        "id": "12238536780423315200",
        "title": "公共厕所",
        "address": "吉林省松原市长岭县拱宸西路与挹爽北街交叉口正东方向98米左右",
        "tel": "",
        "category": "基础设施:公共设施:公共厕所",
        "type": 0,
        "location": {
            "lat": 44.282467,
            "lng": 123.970631
        },
        "ad_info": {
            "adcode": 220722,
            "province": "吉林省",
            "city": "松原市",
            "district": "长岭县"
        }
    },
    {
        "id": "18035191031509107004",
        "title": "公共厕所",
        "address": "吉林省松原市乾安县G232与Y008交叉口正北方向592米左右",
        "tel": "",
        "category": "基础设施:公共设施:公共厕所",
        "type": 0,
        "location": {
            "lat": 44.909414,
            "lng": 124.040009
        },
        "ad_info": {
            "adcode": 220723,
            "province": "吉林省",
            "city": "松原市",
            "district": "乾安县"
        }
    },
    {
        "id": "6389608889318951141",
        "title": "公共厕所",
        "address": "吉林省松原市宁江区伯都讷大街附近",
        "tel": "",
        "category": "基础设施:公共设施:公共厕所",
        "type": 0,
        "location": {
            "lat": 45.166063,
            "lng": 124.847005
        },
        "ad_info": {
            "adcode": 220702,
            "province": "吉林省",
            "city": "松原市",
            "district": "宁江区"
        }
    },
    {
        "id": "1334248463019832428",
        "title": "公共厕所",
        "address": "吉林省松原市宁江区新福街与西十四条交叉口正南方向71米左右",
        "tel": "",
        "category": "基础设施:公共设施:公共厕所",
        "type": 0,
        "location": {
            "lat": 45.163652,
            "lng": 124.861767
        },
        "ad_info": {
            "adcode": 220702,
            "province": "吉林省",
            "city": "松原市",
            "district": "宁江区"
        }
    },
    {
        "id": "9708825047365245633",
        "title": "公共厕所",
        "address": "吉林省松原市前郭尔罗斯蒙古族自治县G302与Y009交叉口正东方向846米左右",
        "tel": "",
        "category": "基础设施:公共设施:公共厕所",
        "type": 0,
        "location": {
            "lat": 45.374322,
            "lng": 124.408707
        },
        "ad_info": {
            "adcode": 220721,
            "province": "吉林省",
            "city": "松原市",
            "district": "前郭尔罗斯蒙古族自治县"
        }
    },
    {
        "id": "1600434851230570998",
        "title": "公共厕所",
        "address": "吉林省松原市宁江区五环广场与建华路交叉口东140米",
        "tel": "",
        "category": "基础设施:公共设施:公共厕所",
        "type": 0,
        "location": {
            "lat": 45.106699,
            "lng": 124.825982
        },
        "ad_info": {
            "adcode": 220702,
            "province": "吉林省",
            "city": "松原市",
            "district": "宁江区"
        }
    },
    {
        "id": "7850620317449400008",
        "title": "榆树沟服务区公共厕所",
        "address": "吉林省松原市扶余市中国石油榆树沟服务区加油站西北侧160米",
        "tel": "",
        "category": "基础设施:公共设施:公共厕所",
        "type": 0,
        "location": {
            "lat": 45.009554,
            "lng": 125.865405
        },
        "ad_info": {
            "adcode": 220781,
            "province": "吉林省",
            "city": "松原市",
            "district": "扶余市"
        }
    },
    {
        "id": "7786188466478413834",
        "title": "公共厕所",
        "address": "吉林省松原市乾安县传声街与诚美路交叉口西北方向24米左右",
        "tel": "",
        "category": "基础设施:公共设施:公共厕所",
        "type": 0,
        "location": {
            "lat": 44.996959,
            "lng": 124.012037
        },
        "ad_info": {
            "adcode": 220723,
            "province": "吉林省",
            "city": "松原市",
            "district": "乾安县"
        }
    },
    {
        "id": "4158934261648157673",
        "title": "公共厕所",
        "address": "吉林省松原市宁江区工艺技术研究所附近",
        "tel": "",
        "category": "基础设施:公共设施:公共厕所",
        "type": 0,
        "location": {
            "lat": 45.227964,
            "lng": 124.798755
        },
        "ad_info": {
            "adcode": 220702,
            "province": "吉林省",
            "city": "松原市",
            "district": "宁江区"
        }
    },
    {
        "id": "8975039421253369476",
        "title": "公共厕所",
        "address": "吉林省松原市长岭县G334与永久路交叉口西南方向454米左右",
        "tel": "",
        "category": "基础设施:公共设施:公共厕所",
        "type": 0,
        "location": {
            "lat": 44.269192,
            "lng": 123.937614
        },
        "ad_info": {
            "adcode": 220722,
            "province": "吉林省",
            "city": "松原市",
            "district": "长岭县"
        }
    },
    {
        "id": "8771186633244793041",
        "title": "公共厕所",
        "address": "吉林省松原市宁江区和美路与铁安路交叉口西北方向78米左右",
        "tel": "",
        "category": "基础设施:公共设施:公共厕所",
        "type": 0,
        "location": {
            "lat": 45.092818,
            "lng": 124.858794
        },
        "ad_info": {
            "adcode": 220702,
            "province": "吉林省",
            "city": "松原市",
            "district": "宁江区"
        }
    },
    {
        "id": "3870939058210066902",
        "title": "公共厕所",
        "address": "吉林省松原市宁江区扶新街与新城东路交叉口东南方向231米左右",
        "tel": "",
        "category": "基础设施:公共设施:公共厕所",
        "type": 0,
        "location": {
            "lat": 45.183749,
            "lng": 124.868789
        },
        "ad_info": {
            "adcode": 220702,
            "province": "吉林省",
            "city": "松原市",
            "district": "宁江区"
        }
    },
    {
        "id": "9452946683566639667",
        "title": "公共厕所",
        "address": "吉林省松原市长岭县G334与前七号镇路交叉口西北方向90米左右",
        "tel": "",
        "category": "基础设施:公共设施:公共厕所",
        "type": 0,
        "location": {
            "lat": 44.202017,
            "lng": 123.699958
        },
        "ad_info": {
            "adcode": 220722,
            "province": "吉林省",
            "city": "松原市",
            "district": "长岭县"
        }
    },
    {
        "id": "12163584150491945648",
        "title": "公共厕所",
        "address": "吉林省松原市乾安县冬藏大街与金生路交叉口正北方向653米左右",
        "tel": "",
        "category": "基础设施:公共设施:公共厕所",
        "type": 0,
        "location": {
            "lat": 45.021804,
            "lng": 124.025331
        },
        "ad_info": {
            "adcode": 220723,
            "province": "吉林省",
            "city": "松原市",
            "district": "乾安县"
        }
    },
    {
        "id": "4426890207653523128",
        "title": "公共厕所",
        "address": "吉林省松原市宁江区外滩路纳仁汗公园(西侧)",
        "tel": "",
        "category": "基础设施:公共设施:公共厕所",
        "type": 0,
        "location": {
            "lat": 45.148219,
            "lng": 124.827216
        },
        "ad_info": {
            "adcode": 220702,
            "province": "吉林省",
            "city": "松原市",
            "district": "宁江区"
        }
    },
    {
        "id": "11059336020951704048",
        "title": "长岭服务区第二公共厕所",
        "address": "吉林省松原市长岭县G45大广高速附近",
        "tel": "",
        "category": "基础设施:公共设施:公共厕所",
        "type": 0,
        "location": {
            "lat": 44.17721,
            "lng": 123.994845
        },
        "ad_info": {
            "adcode": 220722,
            "province": "吉林省",
            "city": "松原市",
            "district": "长岭县"
        }
    },
    {
        "id": "4106203627192133582",
        "title": "公共厕所",
        "address": "吉林省松原市前郭尔罗斯蒙古族自治县查干淖尔大街739号",
        "tel": "",
        "category": "基础设施:公共设施:公共厕所",
        "type": 0,
        "location": {
            "lat": 45.113599,
            "lng": 124.843347
        },
        "ad_info": {
            "adcode": 220721,
            "province": "吉林省",
            "city": "松原市",
            "district": "前郭尔罗斯蒙古族自治县"
        }
    },
    {
        "id": "13059650050983327455",
        "title": "公共厕所",
        "address": "吉林省松原市宁江区扶余大路与新园街交叉口正北方向585米左右",
        "tel": "",
        "category": "基础设施:公共设施:公共厕所",
        "type": 0,
        "location": {
            "lat": 45.175622,
            "lng": 124.863891
        },
        "ad_info": {
            "adcode": 220702,
            "province": "吉林省",
            "city": "松原市",
            "district": "宁江区"
        }
    },
    {
        "id": "11084665577855125058",
        "title": "公共厕所",
        "address": "吉林省松原市宁江区一厂东路与一厂路交叉口正西方向137米左右",
        "tel": "",
        "category": "基础设施:公共设施:公共厕所",
        "type": 0,
        "location": {
            "lat": 45.201249,
            "lng": 124.81068
        },
        "ad_info": {
            "adcode": 220702,
            "province": "吉林省",
            "city": "松原市",
            "district": "宁江区"
        }
    },
    {
        "id": "10192236677127429039",
        "title": "公共厕所",
        "address": "吉林省松原市扶余市G102与京哈线交叉口正北方向75米左右",
        "tel": "",
        "category": "基础设施:公共设施:公共厕所",
        "type": 0,
        "location": {
            "lat": 45.011527,
            "lng": 126.144134
        },
        "ad_info": {
            "adcode": 220781,
            "province": "吉林省",
            "city": "松原市",
            "district": "扶余市"
        }
    },
    {
        "id": "15870877164041202963",
        "title": "公共厕所",
        "address": "吉林省松原市扶余市繁华街与通铁路交叉口正北方向210米左右",
        "tel": "",
        "category": "基础设施:公共设施:公共厕所",
        "type": 0,
        "location": {
            "lat": 44.989979,
            "lng": 126.030464
        },
        "ad_info": {
            "adcode": 220781,
            "province": "吉林省",
            "city": "松原市",
            "district": "扶余市"
        }
    },
    {
        "id": "6869924118813828699",
        "title": "公共厕所",
        "address": "吉林省松原市长岭县新居南街与永久西路交叉口东南方向65米左右",
        "tel": "",
        "category": "基础设施:公共设施:公共厕所",
        "type": 0,
        "location": {
            "lat": 44.272656,
            "lng": 123.966814
        },
        "ad_info": {
            "adcode": 220722,
            "province": "吉林省",
            "city": "松原市",
            "district": "长岭县"
        }
    },
    {
        "id": "1112141157162920157",
        "title": "公用公共厕所",
        "address": "吉林省松原市前郭尔罗斯蒙古族自治县大路与郭尔罗斯金街交叉路口往西约100米郭尔罗斯体育场东侧",
        "tel": "",
        "category": "基础设施:公共设施:公共厕所",
        "type": 0,
        "location": {
            "lat": 45.122911,
            "lng": 124.83171
        },
        "ad_info": {
            "adcode": 220721,
            "province": "吉林省",
            "city": "松原市",
            "district": "前郭尔罗斯蒙古族自治县"
        }
    },
    {
        "id": "2196752305768229433",
        "title": "让字服务区公共厕所",
        "address": "吉林省松原市前郭尔罗斯蒙古族自治县G1015铁科高速与让字服务区交叉口东460米",
        "tel": "",
        "category": "基础设施:公共设施:公共厕所",
        "type": 0,
        "location": {
            "lat": 45.012216,
            "lng": 124.360543
        },
        "ad_info": {
            "adcode": 220721,
            "province": "吉林省",
            "city": "松原市",
            "district": "前郭尔罗斯蒙古族自治县"
        }
    },
    {
        "id": "6987440306669683355",
        "title": "房身村公共厕所",
        "address": "吉林省松原市宁江区房身村服务活动中心西南侧90米",
        "tel": "",
        "category": "基础设施:公共设施:公共厕所",
        "type": 0,
        "location": {
            "lat": 45.319376,
            "lng": 124.95125
        },
        "ad_info": {
            "adcode": 220702,
            "province": "吉林省",
            "city": "松原市",
            "district": "宁江区"
        }
    },
    {
        "id": "15568199501067433739",
        "title": "公共厕所",
        "address": "吉林省松原市前郭尔罗斯蒙古族自治县圣水路与青山大街交叉口西北方向1062米左右",
        "tel": "",
        "category": "基础设施:公共设施:公共厕所",
        "type": 0,
        "location": {
            "lat": 45.223823,
            "lng": 124.426039
        },
        "ad_info": {
            "adcode": 220721,
            "province": "吉林省",
            "city": "松原市",
            "district": "前郭尔罗斯蒙古族自治县"
        }
    },
    {
        "id": "11523387324011439287",
        "title": "公共卫生间",
        "address": "吉林省松原市前郭尔罗斯蒙古族自治县文品胡同与萨日朗路交叉口西南方向23米左右",
        "tel": "",
        "category": "基础设施:公共设施:公共厕所",
        "type": 0,
        "location": {
            "lat": 45.113059,
            "lng": 124.825467
        },
        "ad_info": {
            "adcode": 220721,
            "province": "吉林省",
            "city": "松原市",
            "district": "前郭尔罗斯蒙古族自治县"
        }
    },
    {
        "id": "13130343942411894804",
        "title": "公共厕所",
        "address": "吉林省松原市长岭县北关西路与北关路交叉口正北方向94米左右",
        "tel": "",
        "category": "基础设施:公共设施:公共厕所",
        "type": 0,
        "location": {
            "lat": 44.282385,
            "lng": 123.975132
        },
        "ad_info": {
            "adcode": 220722,
            "province": "吉林省",
            "city": "松原市",
            "district": "长岭县"
        }
    },
    {
        "id": "14962972597448486752",
        "title": "松原市幸福公园卫生间(西)",
        "address": "吉林省松原市宁江区南园街与镜湖路交叉口西北方向124米左右",
        "tel": "",
        "category": "基础设施:公共设施:公共厕所",
        "type": 0,
        "location": {
            "lat": 45.129642,
            "lng": 124.806865
        },
        "ad_info": {
            "adcode": 220702,
            "province": "吉林省",
            "city": "松原市",
            "district": "宁江区"
        }
    },
    {
        "id": "17761457503145243124",
        "title": "公共厕所",
        "address": "吉林省松原市扶余市X148与公用街交叉口西北方向426米左右",
        "tel": "",
        "category": "基础设施:公共设施:公共厕所",
        "type": 0,
        "location": {
            "lat": 44.983697,
            "lng": 126.01695
        },
        "ad_info": {
            "adcode": 220781,
            "province": "吉林省",
            "city": "松原市",
            "district": "扶余市"
        }
    },
    {
        "id": "16469690888274940990",
        "title": "公共厕所",
        "address": "吉林省松原市前郭尔罗斯蒙古族自治县南湖大路与运河东街交叉口东南方向176米左右",
        "tel": "",
        "category": "基础设施:公共设施:公共厕所",
        "type": 0,
        "location": {
            "lat": 45.196607,
            "lng": 124.438708
        },
        "ad_info": {
            "adcode": 220721,
            "province": "吉林省",
            "city": "松原市",
            "district": "前郭尔罗斯蒙古族自治县"
        }
    },
    {
        "id": "4786640739050142875",
        "title": "公共厕所联盟",
        "address": "吉林省松原市前郭尔罗斯蒙古族自治县查干淖尔大街王爷府小区楼下",
        "tel": "",
        "category": "基础设施:公共设施:公共厕所",
        "type": 0,
        "location": {
            "lat": 45.116351,
            "lng": 124.845856
        },
        "ad_info": {
            "adcode": 220721,
            "province": "吉林省",
            "city": "松原市",
            "district": "前郭尔罗斯蒙古族自治县"
        }
    },
    {
        "id": "13447194709137455285",
        "title": "公共厕所",
        "address": "吉林省松原市扶余市三岔河大街与振瀛大路交叉口东北方向87米左右",
        "tel": "",
        "category": "基础设施:公共设施:公共厕所",
        "type": 0,
        "location": {
            "lat": 44.984501,
            "lng": 126.025779
        },
        "ad_info": {
            "adcode": 220781,
            "province": "吉林省",
            "city": "松原市",
            "district": "扶余市"
        }
    },
    {
        "id": "6287380941312454695",
        "title": "洗手间",
        "address": "吉林省松原市前郭尔罗斯蒙古族自治县呼格吉乐路33号",
        "tel": "",
        "category": "基础设施:公共设施:公共厕所",
        "type": 0,
        "location": {
            "lat": 45.112965,
            "lng": 124.850406
        },
        "ad_info": {
            "adcode": 220721,
            "province": "吉林省",
            "city": "松原市",
            "district": "前郭尔罗斯蒙古族自治县"
        }
    },
    {
        "id": "15027902387199189361",
        "title": "公共厕所",
        "address": "吉林省松原市宁江区油田高中学生公寓北侧150米",
        "tel": "",
        "category": "基础设施:公共设施:公共厕所",
        "type": 0,
        "location": {
            "lat": 45.133328,
            "lng": 124.815324
        },
        "ad_info": {
            "adcode": 220702,
            "province": "吉林省",
            "city": "松原市",
            "district": "宁江区"
        }
    },
    {
        "id": "14074215545902321603",
        "title": "公共厕所",
        "address": "吉林省松原市前郭尔罗斯蒙古族自治县青山大街",
        "tel": "",
        "category": "基础设施:公共设施:公共厕所",
        "type": 0,
        "location": {
            "lat": 45.23284,
            "lng": 124.416757
        },
        "ad_info": {
            "adcode": 220721,
            "province": "吉林省",
            "city": "松原市",
            "district": "前郭尔罗斯蒙古族自治县"
        }
    },
    {
        "id": "5392723204779764862",
        "title": "公共厕所",
        "address": "吉林省松原市长岭县永久东路350号",
        "tel": "",
        "category": "基础设施:公共设施:公共厕所",
        "type": 0,
        "location": {
            "lat": 44.274433,
            "lng": 123.986021
        },
        "ad_info": {
            "adcode": 220722,
            "province": "吉林省",
            "city": "松原市",
            "district": "长岭县"
        }
    },
    {
        "id": "995394954547395697",
        "title": "公共厕所",
        "address": "吉林省松原市前郭尔罗斯蒙古族自治县工农大路与长山大街交叉口正东方向118米左右",
        "tel": "",
        "category": "基础设施:公共设施:公共厕所",
        "type": 0,
        "location": {
            "lat": 45.318308,
            "lng": 124.476825
        },
        "ad_info": {
            "adcode": 220721,
            "province": "吉林省",
            "city": "松原市",
            "district": "前郭尔罗斯蒙古族自治县"
        }
    },
    {
        "id": "14012426445333809304",
        "title": "公共厕所",
        "address": "吉林省松原市前郭尔罗斯蒙古族自治县开发大街与新水线交叉口正北方向33米左右",
        "tel": "",
        "category": "基础设施:公共设施:公共厕所",
        "type": 0,
        "location": {
            "lat": 45.198614,
            "lng": 124.429139
        },
        "ad_info": {
            "adcode": 220721,
            "province": "吉林省",
            "city": "松原市",
            "district": "前郭尔罗斯蒙古族自治县"
        }
    },
    {
        "id": "10424950932416020867",
        "title": "公共厕所",
        "address": "吉林省松原市宁江区和平路与团结街交叉口正南方向141米左右",
        "tel": "",
        "category": "基础设施:公共设施:公共厕所",
        "type": 0,
        "location": {
            "lat": 45.179492,
            "lng": 124.812485
        },
        "ad_info": {
            "adcode": 220702,
            "province": "吉林省",
            "city": "松原市",
            "district": "宁江区"
        }
    },
    {
        "id": "10488981753419699983",
        "title": "公共厕所",
        "address": "吉林省松原市前郭尔罗斯蒙古族自治县旱河街与渔村路交叉口东北方向44米左右",
        "tel": "",
        "category": "基础设施:公共设施:公共厕所",
        "type": 0,
        "location": {
            "lat": 45.303157,
            "lng": 124.289745
        },
        "ad_info": {
            "adcode": 220721,
            "province": "吉林省",
            "city": "松原市",
            "district": "前郭尔罗斯蒙古族自治县"
        }
    },
    {
        "id": "1209841268314446382",
        "title": "大洼服务区公共厕所",
        "address": "吉林省松原市宁江区G203与明沈线交叉口东北方向1971米左右",
        "tel": "",
        "category": "基础设施:公共设施:公共厕所",
        "type": 0,
        "location": {
            "lat": 45.308753,
            "lng": 124.944256
        },
        "ad_info": {
            "adcode": 220702,
            "province": "吉林省",
            "city": "松原市",
            "district": "宁江区"
        }
    },
    {
        "id": "11924546858460368262",
        "title": "公共厕所",
        "address": "吉林省松原市前郭尔罗斯蒙古族自治县",
        "tel": "",
        "category": "基础设施:公共设施:公共厕所",
        "type": 0,
        "location": {
            "lat": 45.243374,
            "lng": 124.405987
        },
        "ad_info": {
            "adcode": 220721,
            "province": "吉林省",
            "city": "松原市",
            "district": "前郭尔罗斯蒙古族自治县"
        }
    },
    {
        "id": "1069641925200089844",
        "title": "公共厕所",
        "address": "吉林省松原市前郭尔罗斯蒙古族自治县南湖大路与新水线交叉口正西方向174米左右",
        "tel": "",
        "category": "基础设施:公共设施:公共厕所",
        "type": 0,
        "location": {
            "lat": 45.197779,
            "lng": 124.427051
        },
        "ad_info": {
            "adcode": 220721,
            "province": "吉林省",
            "city": "松原市",
            "district": "前郭尔罗斯蒙古族自治县"
        }
    },
    {
        "id": "11822567846614385781",
        "title": "公共厕所",
        "address": "吉林省松原市前郭尔罗斯蒙古族自治县捺钵街与西山外街交叉口正北方向680米左右",
        "tel": "",
        "category": "基础设施:公共设施:公共厕所",
        "type": 0,
        "location": {
            "lat": 45.310524,
            "lng": 124.279061
        },
        "ad_info": {
            "adcode": 220721,
            "province": "吉林省",
            "city": "松原市",
            "district": "前郭尔罗斯蒙古族自治县"
        }
    },
    {
        "id": "1885598396642307211",
        "title": "大兴服务区公共厕所",
        "address": "吉林省松原市长岭县中国石油吉高能源大兴服务区加油站西北侧150米",
        "tel": "",
        "category": "基础设施:公共设施:公共厕所",
        "type": 0,
        "location": {
            "lat": 44.080346,
            "lng": 123.412286
        },
        "ad_info": {
            "adcode": 220722,
            "province": "吉林省",
            "city": "松原市",
            "district": "长岭县"
        }
    },
    {
        "id": "3477817829328068042",
        "title": "公共厕所",
        "address": "吉林省松原市前郭尔罗斯蒙古族自治县南湖大路与运河东街交叉口正东方向262米左右",
        "tel": "",
        "category": "基础设施:公共设施:公共厕所",
        "type": 0,
        "location": {
            "lat": 45.196957,
            "lng": 124.440042
        },
        "ad_info": {
            "adcode": 220721,
            "province": "吉林省",
            "city": "松原市",
            "district": "前郭尔罗斯蒙古族自治县"
        }
    },
    {
        "id": "17674534681656693560",
        "title": "公共厕所",
        "address": "吉林省松原市宁江区扶余大路与滨江东路交叉口正东方向141米左右",
        "tel": "",
        "category": "基础设施:公共设施:公共厕所",
        "type": 0,
        "location": {
            "lat": 45.165996,
            "lng": 124.835684
        },
        "ad_info": {
            "adcode": 220702,
            "province": "吉林省",
            "city": "松原市",
            "district": "宁江区"
        }
    },
    {
        "id": "6730996397608194432",
        "title": "太平川服务区公共厕所",
        "address": "吉林省松原市长岭县中国石化吉高能源太平川服务区加油站西北侧120米",
        "tel": "",
        "category": "基础设施:公共设施:公共厕所",
        "type": 0,
        "location": {
            "lat": 44.490629,
            "lng": 123.153213
        },
        "ad_info": {
            "adcode": 220722,
            "province": "吉林省",
            "city": "松原市",
            "district": "长岭县"
        }
    },
    {
        "id": "386936578025167047",
        "title": "公共厕所",
        "address": "吉林省松原市长岭县S106与S517交叉口正西方向109米左右",
        "tel": "",
        "category": "基础设施:公共设施:公共厕所",
        "type": 0,
        "location": {
            "lat": 44.395717,
            "lng": 123.230375
        },
        "ad_info": {
            "adcode": 220722,
            "province": "吉林省",
            "city": "松原市",
            "district": "长岭县"
        }
    },
    {
        "id": "1282639567699487459",
        "title": "公共厕所",
        "address": "吉林省松原市前郭尔罗斯蒙古族自治县查干淖尔大街与鄂尔多斯路交叉口正北方向45米左右",
        "tel": "",
        "category": "基础设施:公共设施:公共厕所",
        "type": 0,
        "location": {
            "lat": 45.112568,
            "lng": 124.841606
        },
        "ad_info": {
            "adcode": 220721,
            "province": "吉林省",
            "city": "松原市",
            "district": "前郭尔罗斯蒙古族自治县"
        }
    },
    {
        "id": "10753962183800249330",
        "title": "公共厕所",
        "address": "吉林省松原市宁江区乌兰大街与金星路交叉口东北方向200米左右",
        "tel": "",
        "category": "基础设施:公共设施:公共厕所",
        "type": 0,
        "location": {
            "lat": 45.133299,
            "lng": 124.838368
        },
        "ad_info": {
            "adcode": 220702,
            "province": "吉林省",
            "city": "松原市",
            "district": "宁江区"
        }
    },
    {
        "id": "4110513757807865472",
        "title": "大兴服务区公共厕所",
        "address": "吉林省松原市长岭县服务区",
        "tel": "",
        "category": "基础设施:公共设施:公共厕所",
        "type": 0,
        "location": {
            "lat": 44.080474,
            "lng": 123.415444
        },
        "ad_info": {
            "adcode": 220722,
            "province": "吉林省",
            "city": "松原市",
            "district": "长岭县"
        }
    },
    {
        "id": "9735670114704478462",
        "title": "公共厕所",
        "address": "吉林省松原市前郭尔罗斯蒙古族自治县哈萨尔路与文品胡同交叉口正北方向40米左右",
        "tel": "",
        "category": "基础设施:公共设施:公共厕所",
        "type": 0,
        "location": {
            "lat": 45.115562,
            "lng": 124.82735
        },
        "ad_info": {
            "adcode": 220721,
            "province": "吉林省",
            "city": "松原市",
            "district": "前郭尔罗斯蒙古族自治县"
        }
    },
    {
        "id": "14836597615622048795",
        "title": "公共厕所",
        "address": "吉林省松原市前郭尔罗斯蒙古族自治县圣荷路与运河东街交叉口东南方向62米左右",
        "tel": "",
        "category": "基础设施:公共设施:公共厕所",
        "type": 0,
        "location": {
            "lat": 45.208126,
            "lng": 124.428761
        },
        "ad_info": {
            "adcode": 220721,
            "province": "吉林省",
            "city": "松原市",
            "district": "前郭尔罗斯蒙古族自治县"
        }
    },
    {
        "id": "4610379486305532702",
        "title": "公共厕所",
        "address": "吉林省松原市前郭尔罗斯蒙古族自治县查干湖生态鱼庄东南侧220米",
        "tel": "",
        "category": "基础设施:公共设施:公共厕所",
        "type": 0,
        "location": {
            "lat": 45.304052,
            "lng": 124.297719
        },
        "ad_info": {
            "adcode": 220721,
            "province": "吉林省",
            "city": "松原市",
            "district": "前郭尔罗斯蒙古族自治县"
        }
    },
    {
        "id": "14496172912115702617",
        "title": "公共厕所",
        "address": "吉林省松原市扶余市育才街167号",
        "tel": "",
        "category": "基础设施:公共设施:公共厕所",
        "type": 0,
        "location": {
            "lat": 44.984335,
            "lng": 126.04162
        },
        "ad_info": {
            "adcode": 220781,
            "province": "吉林省",
            "city": "松原市",
            "district": "扶余市"
        }
    },
    {
        "id": "17973778737533533288",
        "title": "泥林服务区公共厕所",
        "address": "吉林省松原市乾安县G1015铁科高速与泥林服务区交叉口西420米",
        "tel": "",
        "category": "基础设施:公共设施:公共厕所",
        "type": 0,
        "location": {
            "lat": 44.866005,
            "lng": 123.759143
        },
        "ad_info": {
            "adcode": 220723,
            "province": "吉林省",
            "city": "松原市",
            "district": "乾安县"
        }
    },
    {
        "id": "1664050802368122759",
        "title": "公共厕所",
        "address": "吉林省松原市前郭尔罗斯蒙古族自治县查干湖大路与王爷府东街交叉口西北方向166米左右",
        "tel": "",
        "category": "基础设施:公共设施:公共厕所",
        "type": 0,
        "location": {
            "lat": 45.204277,
            "lng": 124.432069
        },
        "ad_info": {
            "adcode": 220721,
            "province": "吉林省",
            "city": "松原市",
            "district": "前郭尔罗斯蒙古族自治县"
        }
    },
    {
        "id": "12393805330764107295",
        "title": "公共厕所",
        "address": "吉林省松原市扶余市扶余大街360号",
        "tel": "",
        "category": "基础设施:公共设施:公共厕所",
        "type": 0,
        "location": {
            "lat": 44.991119,
            "lng": 126.05127
        },
        "ad_info": {
            "adcode": 220781,
            "province": "吉林省",
            "city": "松原市",
            "district": "扶余市"
        }
    },
    {
        "id": "1551017541546142306",
        "title": "公共厕所",
        "address": "吉林省松原市长岭县岭城东路与长庆南街交叉口正南方向97米左右",
        "tel": "",
        "category": "基础设施:公共设施:公共厕所",
        "type": 0,
        "location": {
            "lat": 44.27638,
            "lng": 123.986466
        },
        "ad_info": {
            "adcode": 220722,
            "province": "吉林省",
            "city": "松原市",
            "district": "长岭县"
        }
    },
    {
        "id": "1843373927326393471",
        "title": "公共厕所",
        "address": "吉林省松原市宁江区吉林牧神机械有限责任公司东侧160米",
        "tel": "",
        "category": "基础设施:公共设施:公共厕所",
        "type": 0,
        "location": {
            "lat": 45.119049,
            "lng": 124.729676
        },
        "ad_info": {
            "adcode": 220702,
            "province": "吉林省",
            "city": "松原市",
            "district": "宁江区"
        }
    },
    {
        "id": "13958206842380848425",
        "title": "公共厕所",
        "address": "吉林省松原市宁江区繁荣路与荣兴胡同交叉口正南方向35米左右",
        "tel": "",
        "category": "基础设施:公共设施:公共厕所",
        "type": 0,
        "location": {
            "lat": 45.112099,
            "lng": 124.81873
        },
        "ad_info": {
            "adcode": 220702,
            "province": "吉林省",
            "city": "松原市",
            "district": "宁江区"
        }
    },
    {
        "id": "16620833596529975137",
        "title": "公共厕所",
        "address": "吉林省松原市乾安县安定大路与群英路交叉口正西方向37米左右",
        "tel": "",
        "category": "基础设施:公共设施:公共厕所",
        "type": 0,
        "location": {
            "lat": 44.991194,
            "lng": 124.002545
        },
        "ad_info": {
            "adcode": 220723,
            "province": "吉林省",
            "city": "松原市",
            "district": "乾安县"
        }
    },
    {
        "id": "8174155425613091384",
        "title": "公共厕所",
        "address": "吉林省松原市扶余市惠民路与通铁路交叉口正西方向289米左右",
        "tel": "",
        "category": "基础设施:公共设施:公共厕所",
        "type": 0,
        "location": {
            "lat": 44.992369,
            "lng": 126.025625
        },
        "ad_info": {
            "adcode": 220781,
            "province": "吉林省",
            "city": "松原市",
            "district": "扶余市"
        }
    },
    {
        "id": "1285684388359299845",
        "title": "陶赖昭服务区公共厕所",
        "address": "吉林省松原市扶余市陶赖昭服务区东南30米",
        "tel": "",
        "category": "基础设施:公共设施:公共厕所",
        "type": 0,
        "location": {
            "lat": 44.873225,
            "lng": 125.939592
        },
        "ad_info": {
            "adcode": 220781,
            "province": "吉林省",
            "city": "松原市",
            "district": "扶余市"
        }
    },
    {
        "id": "2901801157541445742",
        "title": "公共厕所",
        "address": "吉林省松原市乾安县G232与繁荣大街交叉口正北方向69米左右",
        "tel": "",
        "category": "基础设施:公共设施:公共厕所",
        "type": 0,
        "location": {
            "lat": 44.820359,
            "lng": 124.045305
        },
        "ad_info": {
            "adcode": 220723,
            "province": "吉林省",
            "city": "松原市",
            "district": "乾安县"
        }
    },
    {
        "id": "3893783662357546284",
        "title": "公共厕所",
        "address": "吉林省松原市宁江区古城街与新城东路交叉口西南方向144米左右",
        "tel": "",
        "category": "基础设施:公共设施:公共厕所",
        "type": 0,
        "location": {
            "lat": 45.182688,
            "lng": 124.856292
        },
        "ad_info": {
            "adcode": 220702,
            "province": "吉林省",
            "city": "松原市",
            "district": "宁江区"
        }
    },
    {
        "id": "10876388689424975758",
        "title": "公共厕所",
        "address": "吉林省松原市宁江区工农路与建设街交叉口西南方向299米左右",
        "tel": "",
        "category": "基础设施:公共设施:公共厕所",
        "type": 0,
        "location": {
            "lat": 45.19417,
            "lng": 124.817584
        },
        "ad_info": {
            "adcode": 220702,
            "province": "吉林省",
            "city": "松原市",
            "district": "宁江区"
        }
    },
    {
        "id": "16305487723997671523",
        "title": "公共厕所",
        "address": "吉林省松原市扶余市春华路与民生街交叉口正东方向368米左右",
        "tel": "",
        "category": "基础设施:公共设施:公共厕所",
        "type": 0,
        "location": {
            "lat": 44.98726,
            "lng": 126.05157
        },
        "ad_info": {
            "adcode": 220781,
            "province": "吉林省",
            "city": "松原市",
            "district": "扶余市"
        }
    },
    {
        "id": "4763018305404846605",
        "title": "公共厕所",
        "address": "吉林省松原市前郭尔罗斯蒙古族自治县易捷便利店(大广加油站)东南侧70米",
        "tel": "",
        "category": "基础设施:公共设施:公共厕所",
        "type": 0,
        "location": {
            "lat": 44.340135,
            "lng": 124.055643
        },
        "ad_info": {
            "adcode": 220721,
            "province": "吉林省",
            "city": "松原市",
            "district": "前郭尔罗斯蒙古族自治县"
        }
    },
    {
        "id": "911114794676163378",
        "title": "公共厕所",
        "address": "吉林省松原市前郭尔罗斯蒙古族自治县科尔沁大街哈萨尔广场",
        "tel": "",
        "category": "基础设施:公共设施:公共厕所",
        "type": 0,
        "location": {
            "lat": 45.115008,
            "lng": 124.829319
        },
        "ad_info": {
            "adcode": 220721,
            "province": "吉林省",
            "city": "松原市",
            "district": "前郭尔罗斯蒙古族自治县"
        }
    },
    {
        "id": "2307190046522099182",
        "title": "公共厕所",
        "address": "吉林省松原市长岭县岭南西路与长丰南街交叉口正南方向683米左右",
        "tel": "",
        "category": "基础设施:公共设施:公共厕所",
        "type": 0,
        "location": {
            "lat": 44.258892,
            "lng": 123.979494
        },
        "ad_info": {
            "adcode": 220722,
            "province": "吉林省",
            "city": "松原市",
            "district": "长岭县"
        }
    },
    {
        "id": "5502176542082313147",
        "title": "公共厕所",
        "address": "吉林省松原市前郭尔罗斯蒙古族自治县郭尔罗斯博物馆西南侧100米",
        "tel": "",
        "category": "基础设施:公共设施:公共厕所",
        "type": 0,
        "location": {
            "lat": 45.202116,
            "lng": 124.444027
        },
        "ad_info": {
            "adcode": 220721,
            "province": "吉林省",
            "city": "松原市",
            "district": "前郭尔罗斯蒙古族自治县"
        }
    },
    {
        "id": "8742043965237251744",
        "title": "让字服务区公共厕所",
        "address": "吉林省松原市前郭尔罗斯蒙古族自治县石油吉高能源让字服务区加油站东侧110米",
        "tel": "",
        "category": "基础设施:公共设施:公共厕所",
        "type": 0,
        "location": {
            "lat": 45.014288,
            "lng": 124.361182
        },
        "ad_info": {
            "adcode": 220721,
            "province": "吉林省",
            "city": "松原市",
            "district": "前郭尔罗斯蒙古族自治县"
        }
    },
    {
        "id": "3013796936681885474",
        "title": "公共厕所",
        "address": "吉林省松原市宁江区郭旗街前郭尔罗斯蒙古族自治县中医院",
        "tel": "",
        "category": "基础设施:公共设施:公共厕所",
        "type": 0,
        "location": {
            "lat": 45.11497,
            "lng": 124.817573
        },
        "ad_info": {
            "adcode": 220702,
            "province": "吉林省",
            "city": "松原市",
            "district": "宁江区"
        }
    },
    {
        "id": "14459628275544940041",
        "title": "公共厕所",
        "address": "吉林省松原市前郭尔罗斯蒙古族自治县查干湖大路与海宽大路交叉口西南方向909米左右",
        "tel": "",
        "category": "基础设施:公共设施:公共厕所",
        "type": 0,
        "location": {
            "lat": 45.215072,
            "lng": 124.459182
        },
        "ad_info": {
            "adcode": 220721,
            "province": "吉林省",
            "city": "松原市",
            "district": "前郭尔罗斯蒙古族自治县"
        }
    },
    {
        "id": "2528686210362524589",
        "title": "公共厕所",
        "address": "吉林省松原市前郭尔罗斯蒙古族自治县塔虎街与张编匠路交叉口西南方向43米左右",
        "tel": "",
        "category": "基础设施:公共设施:公共厕所",
        "type": 0,
        "location": {
            "lat": 45.3014,
            "lng": 124.288463
        },
        "ad_info": {
            "adcode": 220721,
            "province": "吉林省",
            "city": "松原市",
            "district": "前郭尔罗斯蒙古族自治县"
        }
    },
    {
        "id": "4786308187099114639",
        "title": "公共厕所",
        "address": "吉林省松原市扶余市和平街与太祖路交汇辅路侧人行横道旁",
        "tel": "",
        "category": "基础设施:公共设施:公共厕所",
        "type": 0,
        "location": {
            "lat": 44.985732,
            "lng": 126.062105
        },
        "ad_info": {
            "adcode": 220781,
            "province": "吉林省",
            "city": "松原市",
            "district": "扶余市"
        }
    },
    {
        "id": "4960688963857235839",
        "title": "公共厕所",
        "address": "吉林省松原市前郭尔罗斯蒙古族自治县安代路与海宽大路交叉口西南方向643米左右",
        "tel": "",
        "category": "基础设施:公共设施:公共厕所",
        "type": 0,
        "location": {
            "lat": 45.201814,
            "lng": 124.444212
        },
        "ad_info": {
            "adcode": 220721,
            "province": "吉林省",
            "city": "松原市",
            "district": "前郭尔罗斯蒙古族自治县"
        }
    },
    {
        "id": "8369709696640512797",
        "title": "公共厕所",
        "address": "吉林省松原市前郭尔罗斯蒙古族自治县203国道南50米",
        "tel": "",
        "category": "基础设施:公共设施:公共厕所",
        "type": 0,
        "location": {
            "lat": 44.482172,
            "lng": 124.237823
        },
        "ad_info": {
            "adcode": 220721,
            "province": "吉林省",
            "city": "松原市",
            "district": "前郭尔罗斯蒙古族自治县"
        }
    },
    {
        "id": "1843373927326393471",
        "title": "公共厕所",
        "address": "吉林省松原市宁江区吉林牧神机械有限责任公司东侧160米",
        "tel": "",
        "category": "基础设施:公共设施:公共厕所",
        "type": 0,
        "location": {
            "lat": 45.119049,
            "lng": 124.729676
        },
        "ad_info": {
            "adcode": 220702,
            "province": "吉林省",
            "city": "松原市",
            "district": "宁江区"
        }
    },
    {
        "id": "13958206842380848425",
        "title": "公共厕所",
        "address": "吉林省松原市宁江区繁荣路与荣兴胡同交叉口正南方向35米左右",
        "tel": "",
        "category": "基础设施:公共设施:公共厕所",
        "type": 0,
        "location": {
            "lat": 45.112099,
            "lng": 124.81873
        },
        "ad_info": {
            "adcode": 220702,
            "province": "吉林省",
            "city": "松原市",
            "district": "宁江区"
        }
    },
    {
        "id": "16620833596529975137",
        "title": "公共厕所",
        "address": "吉林省松原市乾安县安定大路与群英路交叉口正西方向37米左右",
        "tel": "",
        "category": "基础设施:公共设施:公共厕所",
        "type": 0,
        "location": {
            "lat": 44.991194,
            "lng": 124.002545
        },
        "ad_info": {
            "adcode": 220723,
            "province": "吉林省",
            "city": "松原市",
            "district": "乾安县"
        }
    },
    {
        "id": "8174155425613091384",
        "title": "公共厕所",
        "address": "吉林省松原市扶余市惠民路与通铁路交叉口正西方向289米左右",
        "tel": "",
        "category": "基础设施:公共设施:公共厕所",
        "type": 0,
        "location": {
            "lat": 44.992369,
            "lng": 126.025625
        },
        "ad_info": {
            "adcode": 220781,
            "province": "吉林省",
            "city": "松原市",
            "district": "扶余市"
        }
    },
    {
        "id": "1285684388359299845",
        "title": "陶赖昭服务区公共厕所",
        "address": "吉林省松原市扶余市陶赖昭服务区东南30米",
        "tel": "",
        "category": "基础设施:公共设施:公共厕所",
        "type": 0,
        "location": {
            "lat": 44.873225,
            "lng": 125.939592
        },
        "ad_info": {
            "adcode": 220781,
            "province": "吉林省",
            "city": "松原市",
            "district": "扶余市"
        }
    },
    {
        "id": "2901801157541445742",
        "title": "公共厕所",
        "address": "吉林省松原市乾安县G232与繁荣大街交叉口正北方向69米左右",
        "tel": "",
        "category": "基础设施:公共设施:公共厕所",
        "type": 0,
        "location": {
            "lat": 44.820359,
            "lng": 124.045305
        },
        "ad_info": {
            "adcode": 220723,
            "province": "吉林省",
            "city": "松原市",
            "district": "乾安县"
        }
    },
    {
        "id": "3893783662357546284",
        "title": "公共厕所",
        "address": "吉林省松原市宁江区古城街与新城东路交叉口西南方向144米左右",
        "tel": "",
        "category": "基础设施:公共设施:公共厕所",
        "type": 0,
        "location": {
            "lat": 45.182688,
            "lng": 124.856292
        },
        "ad_info": {
            "adcode": 220702,
            "province": "吉林省",
            "city": "松原市",
            "district": "宁江区"
        }
    },
    {
        "id": "10876388689424975758",
        "title": "公共厕所",
        "address": "吉林省松原市宁江区工农路与建设街交叉口西南方向299米左右",
        "tel": "",
        "category": "基础设施:公共设施:公共厕所",
        "type": 0,
        "location": {
            "lat": 45.19417,
            "lng": 124.817584
        },
        "ad_info": {
            "adcode": 220702,
            "province": "吉林省",
            "city": "松原市",
            "district": "宁江区"
        }
    },
    {
        "id": "16305487723997671523",
        "title": "公共厕所",
        "address": "吉林省松原市扶余市春华路与民生街交叉口正东方向368米左右",
        "tel": "",
        "category": "基础设施:公共设施:公共厕所",
        "type": 0,
        "location": {
            "lat": 44.98726,
            "lng": 126.05157
        },
        "ad_info": {
            "adcode": 220781,
            "province": "吉林省",
            "city": "松原市",
            "district": "扶余市"
        }
    },
    {
        "id": "4763018305404846605",
        "title": "公共厕所",
        "address": "吉林省松原市前郭尔罗斯蒙古族自治县易捷便利店(大广加油站)东南侧70米",
        "tel": "",
        "category": "基础设施:公共设施:公共厕所",
        "type": 0,
        "location": {
            "lat": 44.340135,
            "lng": 124.055643
        },
        "ad_info": {
            "adcode": 220721,
            "province": "吉林省",
            "city": "松原市",
            "district": "前郭尔罗斯蒙古族自治县"
        }
    },
    {
        "id": "911114794676163378",
        "title": "公共厕所",
        "address": "吉林省松原市前郭尔罗斯蒙古族自治县科尔沁大街哈萨尔广场",
        "tel": "",
        "category": "基础设施:公共设施:公共厕所",
        "type": 0,
        "location": {
            "lat": 45.115008,
            "lng": 124.829319
        },
        "ad_info": {
            "adcode": 220721,
            "province": "吉林省",
            "city": "松原市",
            "district": "前郭尔罗斯蒙古族自治县"
        }
    },
    {
        "id": "2307190046522099182",
        "title": "公共厕所",
        "address": "吉林省松原市长岭县岭南西路与长丰南街交叉口正南方向683米左右",
        "tel": "",
        "category": "基础设施:公共设施:公共厕所",
        "type": 0,
        "location": {
            "lat": 44.258892,
            "lng": 123.979494
        },
        "ad_info": {
            "adcode": 220722,
            "province": "吉林省",
            "city": "松原市",
            "district": "长岭县"
        }
    },
    {
        "id": "5502176542082313147",
        "title": "公共厕所",
        "address": "吉林省松原市前郭尔罗斯蒙古族自治县郭尔罗斯博物馆西南侧100米",
        "tel": "",
        "category": "基础设施:公共设施:公共厕所",
        "type": 0,
        "location": {
            "lat": 45.202116,
            "lng": 124.444027
        },
        "ad_info": {
            "adcode": 220721,
            "province": "吉林省",
            "city": "松原市",
            "district": "前郭尔罗斯蒙古族自治县"
        }
    },
    {
        "id": "8742043965237251744",
        "title": "让字服务区公共厕所",
        "address": "吉林省松原市前郭尔罗斯蒙古族自治县石油吉高能源让字服务区加油站东侧110米",
        "tel": "",
        "category": "基础设施:公共设施:公共厕所",
        "type": 0,
        "location": {
            "lat": 45.014288,
            "lng": 124.361182
        },
        "ad_info": {
            "adcode": 220721,
            "province": "吉林省",
            "city": "松原市",
            "district": "前郭尔罗斯蒙古族自治县"
        }
    },
    {
        "id": "3013796936681885474",
        "title": "公共厕所",
        "address": "吉林省松原市宁江区郭旗街前郭尔罗斯蒙古族自治县中医院",
        "tel": "",
        "category": "基础设施:公共设施:公共厕所",
        "type": 0,
        "location": {
            "lat": 45.11497,
            "lng": 124.817573
        },
        "ad_info": {
            "adcode": 220702,
            "province": "吉林省",
            "city": "松原市",
            "district": "宁江区"
        }
    },
    {
        "id": "14459628275544940041",
        "title": "公共厕所",
        "address": "吉林省松原市前郭尔罗斯蒙古族自治县查干湖大路与海宽大路交叉口西南方向909米左右",
        "tel": "",
        "category": "基础设施:公共设施:公共厕所",
        "type": 0,
        "location": {
            "lat": 45.215072,
            "lng": 124.459182
        },
        "ad_info": {
            "adcode": 220721,
            "province": "吉林省",
            "city": "松原市",
            "district": "前郭尔罗斯蒙古族自治县"
        }
    },
    {
        "id": "2528686210362524589",
        "title": "公共厕所",
        "address": "吉林省松原市前郭尔罗斯蒙古族自治县塔虎街与张编匠路交叉口西南方向43米左右",
        "tel": "",
        "category": "基础设施:公共设施:公共厕所",
        "type": 0,
        "location": {
            "lat": 45.3014,
            "lng": 124.288463
        },
        "ad_info": {
            "adcode": 220721,
            "province": "吉林省",
            "city": "松原市",
            "district": "前郭尔罗斯蒙古族自治县"
        }
    },
    {
        "id": "4786308187099114639",
        "title": "公共厕所",
        "address": "吉林省松原市扶余市和平街与太祖路交汇辅路侧人行横道旁",
        "tel": "",
        "category": "基础设施:公共设施:公共厕所",
        "type": 0,
        "location": {
            "lat": 44.985732,
            "lng": 126.062105
        },
        "ad_info": {
            "adcode": 220781,
            "province": "吉林省",
            "city": "松原市",
            "district": "扶余市"
        }
    },
    {
        "id": "4960688963857235839",
        "title": "公共厕所",
        "address": "吉林省松原市前郭尔罗斯蒙古族自治县安代路与海宽大路交叉口西南方向643米左右",
        "tel": "",
        "category": "基础设施:公共设施:公共厕所",
        "type": 0,
        "location": {
            "lat": 45.201814,
            "lng": 124.444212
        },
        "ad_info": {
            "adcode": 220721,
            "province": "吉林省",
            "city": "松原市",
            "district": "前郭尔罗斯蒙古族自治县"
        }
    },
    {
        "id": "8369709696640512797",
        "title": "公共厕所",
        "address": "吉林省松原市前郭尔罗斯蒙古族自治县203国道南50米",
        "tel": "",
        "category": "基础设施:公共设施:公共厕所",
        "type": 0,
        "location": {
            "lat": 44.482172,
            "lng": 124.237823
        },
        "ad_info": {
            "adcode": 220721,
            "province": "吉林省",
            "city": "松原市",
            "district": "前郭尔罗斯蒙古族自治县"
        }
    },
    {
        "id": "1843373927326393471",
        "title": "公共厕所",
        "address": "吉林省松原市宁江区吉林牧神机械有限责任公司东侧160米",
        "tel": "",
        "category": "基础设施:公共设施:公共厕所",
        "type": 0,
        "location": {
            "lat": 45.119049,
            "lng": 124.729676
        },
        "ad_info": {
            "adcode": 220702,
            "province": "吉林省",
            "city": "松原市",
            "district": "宁江区"
        }
    },
    {
        "id": "13958206842380848425",
        "title": "公共厕所",
        "address": "吉林省松原市宁江区繁荣路与荣兴胡同交叉口正南方向35米左右",
        "tel": "",
        "category": "基础设施:公共设施:公共厕所",
        "type": 0,
        "location": {
            "lat": 45.112099,
            "lng": 124.81873
        },
        "ad_info": {
            "adcode": 220702,
            "province": "吉林省",
            "city": "松原市",
            "district": "宁江区"
        }
    },
    {
        "id": "16620833596529975137",
        "title": "公共厕所",
        "address": "吉林省松原市乾安县安定大路与群英路交叉口正西方向37米左右",
        "tel": "",
        "category": "基础设施:公共设施:公共厕所",
        "type": 0,
        "location": {
            "lat": 44.991194,
            "lng": 124.002545
        },
        "ad_info": {
            "adcode": 220723,
            "province": "吉林省",
            "city": "松原市",
            "district": "乾安县"
        }
    },
    {
        "id": "8174155425613091384",
        "title": "公共厕所",
        "address": "吉林省松原市扶余市惠民路与通铁路交叉口正西方向289米左右",
        "tel": "",
        "category": "基础设施:公共设施:公共厕所",
        "type": 0,
        "location": {
            "lat": 44.992369,
            "lng": 126.025625
        },
        "ad_info": {
            "adcode": 220781,
            "province": "吉林省",
            "city": "松原市",
            "district": "扶余市"
        }
    },
    {
        "id": "1285684388359299845",
        "title": "陶赖昭服务区公共厕所",
        "address": "吉林省松原市扶余市陶赖昭服务区东南30米",
        "tel": "",
        "category": "基础设施:公共设施:公共厕所",
        "type": 0,
        "location": {
            "lat": 44.873225,
            "lng": 125.939592
        },
        "ad_info": {
            "adcode": 220781,
            "province": "吉林省",
            "city": "松原市",
            "district": "扶余市"
        }
    },
    {
        "id": "2901801157541445742",
        "title": "公共厕所",
        "address": "吉林省松原市乾安县G232与繁荣大街交叉口正北方向69米左右",
        "tel": "",
        "category": "基础设施:公共设施:公共厕所",
        "type": 0,
        "location": {
            "lat": 44.820359,
            "lng": 124.045305
        },
        "ad_info": {
            "adcode": 220723,
            "province": "吉林省",
            "city": "松原市",
            "district": "乾安县"
        }
    },
    {
        "id": "3893783662357546284",
        "title": "公共厕所",
        "address": "吉林省松原市宁江区古城街与新城东路交叉口西南方向144米左右",
        "tel": "",
        "category": "基础设施:公共设施:公共厕所",
        "type": 0,
        "location": {
            "lat": 45.182688,
            "lng": 124.856292
        },
        "ad_info": {
            "adcode": 220702,
            "province": "吉林省",
            "city": "松原市",
            "district": "宁江区"
        }
    },
    {
        "id": "10876388689424975758",
        "title": "公共厕所",
        "address": "吉林省松原市宁江区工农路与建设街交叉口西南方向299米左右",
        "tel": "",
        "category": "基础设施:公共设施:公共厕所",
        "type": 0,
        "location": {
            "lat": 45.19417,
            "lng": 124.817584
        },
        "ad_info": {
            "adcode": 220702,
            "province": "吉林省",
            "city": "松原市",
            "district": "宁江区"
        }
    },
    {
        "id": "16305487723997671523",
        "title": "公共厕所",
        "address": "吉林省松原市扶余市春华路与民生街交叉口正东方向368米左右",
        "tel": "",
        "category": "基础设施:公共设施:公共厕所",
        "type": 0,
        "location": {
            "lat": 44.98726,
            "lng": 126.05157
        },
        "ad_info": {
            "adcode": 220781,
            "province": "吉林省",
            "city": "松原市",
            "district": "扶余市"
        }
    },
    {
        "id": "4763018305404846605",
        "title": "公共厕所",
        "address": "吉林省松原市前郭尔罗斯蒙古族自治县易捷便利店(大广加油站)东南侧70米",
        "tel": "",
        "category": "基础设施:公共设施:公共厕所",
        "type": 0,
        "location": {
            "lat": 44.340135,
            "lng": 124.055643
        },
        "ad_info": {
            "adcode": 220721,
            "province": "吉林省",
            "city": "松原市",
            "district": "前郭尔罗斯蒙古族自治县"
        }
    },
    {
        "id": "911114794676163378",
        "title": "公共厕所",
        "address": "吉林省松原市前郭尔罗斯蒙古族自治县科尔沁大街哈萨尔广场",
        "tel": "",
        "category": "基础设施:公共设施:公共厕所",
        "type": 0,
        "location": {
            "lat": 45.115008,
            "lng": 124.829319
        },
        "ad_info": {
            "adcode": 220721,
            "province": "吉林省",
            "city": "松原市",
            "district": "前郭尔罗斯蒙古族自治县"
        }
    },
    {
        "id": "2307190046522099182",
        "title": "公共厕所",
        "address": "吉林省松原市长岭县岭南西路与长丰南街交叉口正南方向683米左右",
        "tel": "",
        "category": "基础设施:公共设施:公共厕所",
        "type": 0,
        "location": {
            "lat": 44.258892,
            "lng": 123.979494
        },
        "ad_info": {
            "adcode": 220722,
            "province": "吉林省",
            "city": "松原市",
            "district": "长岭县"
        }
    },
    {
        "id": "5502176542082313147",
        "title": "公共厕所",
        "address": "吉林省松原市前郭尔罗斯蒙古族自治县郭尔罗斯博物馆西南侧100米",
        "tel": "",
        "category": "基础设施:公共设施:公共厕所",
        "type": 0,
        "location": {
            "lat": 45.202116,
            "lng": 124.444027
        },
        "ad_info": {
            "adcode": 220721,
            "province": "吉林省",
            "city": "松原市",
            "district": "前郭尔罗斯蒙古族自治县"
        }
    },
    {
        "id": "8742043965237251744",
        "title": "让字服务区公共厕所",
        "address": "吉林省松原市前郭尔罗斯蒙古族自治县石油吉高能源让字服务区加油站东侧110米",
        "tel": "",
        "category": "基础设施:公共设施:公共厕所",
        "type": 0,
        "location": {
            "lat": 45.014288,
            "lng": 124.361182
        },
        "ad_info": {
            "adcode": 220721,
            "province": "吉林省",
            "city": "松原市",
            "district": "前郭尔罗斯蒙古族自治县"
        }
    },
    {
        "id": "3013796936681885474",
        "title": "公共厕所",
        "address": "吉林省松原市宁江区郭旗街前郭尔罗斯蒙古族自治县中医院",
        "tel": "",
        "category": "基础设施:公共设施:公共厕所",
        "type": 0,
        "location": {
            "lat": 45.11497,
            "lng": 124.817573
        },
        "ad_info": {
            "adcode": 220702,
            "province": "吉林省",
            "city": "松原市",
            "district": "宁江区"
        }
    },
    {
        "id": "14459628275544940041",
        "title": "公共厕所",
        "address": "吉林省松原市前郭尔罗斯蒙古族自治县查干湖大路与海宽大路交叉口西南方向909米左右",
        "tel": "",
        "category": "基础设施:公共设施:公共厕所",
        "type": 0,
        "location": {
            "lat": 45.215072,
            "lng": 124.459182
        },
        "ad_info": {
            "adcode": 220721,
            "province": "吉林省",
            "city": "松原市",
            "district": "前郭尔罗斯蒙古族自治县"
        }
    },
    {
        "id": "2528686210362524589",
        "title": "公共厕所",
        "address": "吉林省松原市前郭尔罗斯蒙古族自治县塔虎街与张编匠路交叉口西南方向43米左右",
        "tel": "",
        "category": "基础设施:公共设施:公共厕所",
        "type": 0,
        "location": {
            "lat": 45.3014,
            "lng": 124.288463
        },
        "ad_info": {
            "adcode": 220721,
            "province": "吉林省",
            "city": "松原市",
            "district": "前郭尔罗斯蒙古族自治县"
        }
    },
    {
        "id": "4786308187099114639",
        "title": "公共厕所",
        "address": "吉林省松原市扶余市和平街与太祖路交汇辅路侧人行横道旁",
        "tel": "",
        "category": "基础设施:公共设施:公共厕所",
        "type": 0,
        "location": {
            "lat": 44.985732,
            "lng": 126.062105
        },
        "ad_info": {
            "adcode": 220781,
            "province": "吉林省",
            "city": "松原市",
            "district": "扶余市"
        }
    },
    {
        "id": "4960688963857235839",
        "title": "公共厕所",
        "address": "吉林省松原市前郭尔罗斯蒙古族自治县安代路与海宽大路交叉口西南方向643米左右",
        "tel": "",
        "category": "基础设施:公共设施:公共厕所",
        "type": 0,
        "location": {
            "lat": 45.201814,
            "lng": 124.444212
        },
        "ad_info": {
            "adcode": 220721,
            "province": "吉林省",
            "city": "松原市",
            "district": "前郭尔罗斯蒙古族自治县"
        }
    },
    {
        "id": "8369709696640512797",
        "title": "公共厕所",
        "address": "吉林省松原市前郭尔罗斯蒙古族自治县203国道南50米",
        "tel": "",
        "category": "基础设施:公共设施:公共厕所",
        "type": 0,
        "location": {
            "lat": 44.482172,
            "lng": 124.237823
        },
        "ad_info": {
            "adcode": 220721,
            "province": "吉林省",
            "city": "松原市",
            "district": "前郭尔罗斯蒙古族自治县"
        }
    },
    {
        "id": "1843373927326393471",
        "title": "公共厕所",
        "address": "吉林省松原市宁江区吉林牧神机械有限责任公司东侧160米",
        "tel": "",
        "category": "基础设施:公共设施:公共厕所",
        "type": 0,
        "location": {
            "lat": 45.119049,
            "lng": 124.729676
        },
        "ad_info": {
            "adcode": 220702,
            "province": "吉林省",
            "city": "松原市",
            "district": "宁江区"
        }
    },
    {
        "id": "13958206842380848425",
        "title": "公共厕所",
        "address": "吉林省松原市宁江区繁荣路与荣兴胡同交叉口正南方向35米左右",
        "tel": "",
        "category": "基础设施:公共设施:公共厕所",
        "type": 0,
        "location": {
            "lat": 45.112099,
            "lng": 124.81873
        },
        "ad_info": {
            "adcode": 220702,
            "province": "吉林省",
            "city": "松原市",
            "district": "宁江区"
        }
    },
    {
        "id": "16620833596529975137",
        "title": "公共厕所",
        "address": "吉林省松原市乾安县安定大路与群英路交叉口正西方向37米左右",
        "tel": "",
        "category": "基础设施:公共设施:公共厕所",
        "type": 0,
        "location": {
            "lat": 44.991194,
            "lng": 124.002545
        },
        "ad_info": {
            "adcode": 220723,
            "province": "吉林省",
            "city": "松原市",
            "district": "乾安县"
        }
    },
    {
        "id": "8174155425613091384",
        "title": "公共厕所",
        "address": "吉林省松原市扶余市惠民路与通铁路交叉口正西方向289米左右",
        "tel": "",
        "category": "基础设施:公共设施:公共厕所",
        "type": 0,
        "location": {
            "lat": 44.992369,
            "lng": 126.025625
        },
        "ad_info": {
            "adcode": 220781,
            "province": "吉林省",
            "city": "松原市",
            "district": "扶余市"
        }
    },
    {
        "id": "1285684388359299845",
        "title": "陶赖昭服务区公共厕所",
        "address": "吉林省松原市扶余市陶赖昭服务区东南30米",
        "tel": "",
        "category": "基础设施:公共设施:公共厕所",
        "type": 0,
        "location": {
            "lat": 44.873225,
            "lng": 125.939592
        },
        "ad_info": {
            "adcode": 220781,
            "province": "吉林省",
            "city": "松原市",
            "district": "扶余市"
        }
    },
    {
        "id": "2901801157541445742",
        "title": "公共厕所",
        "address": "吉林省松原市乾安县G232与繁荣大街交叉口正北方向69米左右",
        "tel": "",
        "category": "基础设施:公共设施:公共厕所",
        "type": 0,
        "location": {
            "lat": 44.820359,
            "lng": 124.045305
        },
        "ad_info": {
            "adcode": 220723,
            "province": "吉林省",
            "city": "松原市",
            "district": "乾安县"
        }
    },
    {
        "id": "3893783662357546284",
        "title": "公共厕所",
        "address": "吉林省松原市宁江区古城街与新城东路交叉口西南方向144米左右",
        "tel": "",
        "category": "基础设施:公共设施:公共厕所",
        "type": 0,
        "location": {
            "lat": 45.182688,
            "lng": 124.856292
        },
        "ad_info": {
            "adcode": 220702,
            "province": "吉林省",
            "city": "松原市",
            "district": "宁江区"
        }
    },
    {
        "id": "10876388689424975758",
        "title": "公共厕所",
        "address": "吉林省松原市宁江区工农路与建设街交叉口西南方向299米左右",
        "tel": "",
        "category": "基础设施:公共设施:公共厕所",
        "type": 0,
        "location": {
            "lat": 45.19417,
            "lng": 124.817584
        },
        "ad_info": {
            "adcode": 220702,
            "province": "吉林省",
            "city": "松原市",
            "district": "宁江区"
        }
    },
    {
        "id": "16305487723997671523",
        "title": "公共厕所",
        "address": "吉林省松原市扶余市春华路与民生街交叉口正东方向368米左右",
        "tel": "",
        "category": "基础设施:公共设施:公共厕所",
        "type": 0,
        "location": {
            "lat": 44.98726,
            "lng": 126.05157
        },
        "ad_info": {
            "adcode": 220781,
            "province": "吉林省",
            "city": "松原市",
            "district": "扶余市"
        }
    },
    {
        "id": "4763018305404846605",
        "title": "公共厕所",
        "address": "吉林省松原市前郭尔罗斯蒙古族自治县易捷便利店(大广加油站)东南侧70米",
        "tel": "",
        "category": "基础设施:公共设施:公共厕所",
        "type": 0,
        "location": {
            "lat": 44.340135,
            "lng": 124.055643
        },
        "ad_info": {
            "adcode": 220721,
            "province": "吉林省",
            "city": "松原市",
            "district": "前郭尔罗斯蒙古族自治县"
        }
    },
    {
        "id": "911114794676163378",
        "title": "公共厕所",
        "address": "吉林省松原市前郭尔罗斯蒙古族自治县科尔沁大街哈萨尔广场",
        "tel": "",
        "category": "基础设施:公共设施:公共厕所",
        "type": 0,
        "location": {
            "lat": 45.115008,
            "lng": 124.829319
        },
        "ad_info": {
            "adcode": 220721,
            "province": "吉林省",
            "city": "松原市",
            "district": "前郭尔罗斯蒙古族自治县"
        }
    },
    {
        "id": "2307190046522099182",
        "title": "公共厕所",
        "address": "吉林省松原市长岭县岭南西路与长丰南街交叉口正南方向683米左右",
        "tel": "",
        "category": "基础设施:公共设施:公共厕所",
        "type": 0,
        "location": {
            "lat": 44.258892,
            "lng": 123.979494
        },
        "ad_info": {
            "adcode": 220722,
            "province": "吉林省",
            "city": "松原市",
            "district": "长岭县"
        }
    },
    {
        "id": "5502176542082313147",
        "title": "公共厕所",
        "address": "吉林省松原市前郭尔罗斯蒙古族自治县郭尔罗斯博物馆西南侧100米",
        "tel": "",
        "category": "基础设施:公共设施:公共厕所",
        "type": 0,
        "location": {
            "lat": 45.202116,
            "lng": 124.444027
        },
        "ad_info": {
            "adcode": 220721,
            "province": "吉林省",
            "city": "松原市",
            "district": "前郭尔罗斯蒙古族自治县"
        }
    },
    {
        "id": "8742043965237251744",
        "title": "让字服务区公共厕所",
        "address": "吉林省松原市前郭尔罗斯蒙古族自治县石油吉高能源让字服务区加油站东侧110米",
        "tel": "",
        "category": "基础设施:公共设施:公共厕所",
        "type": 0,
        "location": {
            "lat": 45.014288,
            "lng": 124.361182
        },
        "ad_info": {
            "adcode": 220721,
            "province": "吉林省",
            "city": "松原市",
            "district": "前郭尔罗斯蒙古族自治县"
        }
    },
    {
        "id": "3013796936681885474",
        "title": "公共厕所",
        "address": "吉林省松原市宁江区郭旗街前郭尔罗斯蒙古族自治县中医院",
        "tel": "",
        "category": "基础设施:公共设施:公共厕所",
        "type": 0,
        "location": {
            "lat": 45.11497,
            "lng": 124.817573
        },
        "ad_info": {
            "adcode": 220702,
            "province": "吉林省",
            "city": "松原市",
            "district": "宁江区"
        }
    },
    {
        "id": "14459628275544940041",
        "title": "公共厕所",
        "address": "吉林省松原市前郭尔罗斯蒙古族自治县查干湖大路与海宽大路交叉口西南方向909米左右",
        "tel": "",
        "category": "基础设施:公共设施:公共厕所",
        "type": 0,
        "location": {
            "lat": 45.215072,
            "lng": 124.459182
        },
        "ad_info": {
            "adcode": 220721,
            "province": "吉林省",
            "city": "松原市",
            "district": "前郭尔罗斯蒙古族自治县"
        }
    },
    {
        "id": "2528686210362524589",
        "title": "公共厕所",
        "address": "吉林省松原市前郭尔罗斯蒙古族自治县塔虎街与张编匠路交叉口西南方向43米左右",
        "tel": "",
        "category": "基础设施:公共设施:公共厕所",
        "type": 0,
        "location": {
            "lat": 45.3014,
            "lng": 124.288463
        },
        "ad_info": {
            "adcode": 220721,
            "province": "吉林省",
            "city": "松原市",
            "district": "前郭尔罗斯蒙古族自治县"
        }
    },
    {
        "id": "4786308187099114639",
        "title": "公共厕所",
        "address": "吉林省松原市扶余市和平街与太祖路交汇辅路侧人行横道旁",
        "tel": "",
        "category": "基础设施:公共设施:公共厕所",
        "type": 0,
        "location": {
            "lat": 44.985732,
            "lng": 126.062105
        },
        "ad_info": {
            "adcode": 220781,
            "province": "吉林省",
            "city": "松原市",
            "district": "扶余市"
        }
    },
    {
        "id": "4960688963857235839",
        "title": "公共厕所",
        "address": "吉林省松原市前郭尔罗斯蒙古族自治县安代路与海宽大路交叉口西南方向643米左右",
        "tel": "",
        "category": "基础设施:公共设施:公共厕所",
        "type": 0,
        "location": {
            "lat": 45.201814,
            "lng": 124.444212
        },
        "ad_info": {
            "adcode": 220721,
            "province": "吉林省",
            "city": "松原市",
            "district": "前郭尔罗斯蒙古族自治县"
        }
    },
    {
        "id": "8369709696640512797",
        "title": "公共厕所",
        "address": "吉林省松原市前郭尔罗斯蒙古族自治县203国道南50米",
        "tel": "",
        "category": "基础设施:公共设施:公共厕所",
        "type": 0,
        "location": {
            "lat": 44.482172,
            "lng": 124.237823
        },
        "ad_info": {
            "adcode": 220721,
            "province": "吉林省",
            "city": "松原市",
            "district": "前郭尔罗斯蒙古族自治县"
        }
    },
    {
        "id": "1843373927326393471",
        "title": "公共厕所",
        "address": "吉林省松原市宁江区吉林牧神机械有限责任公司东侧160米",
        "tel": "",
        "category": "基础设施:公共设施:公共厕所",
        "type": 0,
        "location": {
            "lat": 45.119049,
            "lng": 124.729676
        },
        "ad_info": {
            "adcode": 220702,
            "province": "吉林省",
            "city": "松原市",
            "district": "宁江区"
        }
    },
    {
        "id": "13958206842380848425",
        "title": "公共厕所",
        "address": "吉林省松原市宁江区繁荣路与荣兴胡同交叉口正南方向35米左右",
        "tel": "",
        "category": "基础设施:公共设施:公共厕所",
        "type": 0,
        "location": {
            "lat": 45.112099,
            "lng": 124.81873
        },
        "ad_info": {
            "adcode": 220702,
            "province": "吉林省",
            "city": "松原市",
            "district": "宁江区"
        }
    },
    {
        "id": "16620833596529975137",
        "title": "公共厕所",
        "address": "吉林省松原市乾安县安定大路与群英路交叉口正西方向37米左右",
        "tel": "",
        "category": "基础设施:公共设施:公共厕所",
        "type": 0,
        "location": {
            "lat": 44.991194,
            "lng": 124.002545
        },
        "ad_info": {
            "adcode": 220723,
            "province": "吉林省",
            "city": "松原市",
            "district": "乾安县"
        }
    },
    {
        "id": "8174155425613091384",
        "title": "公共厕所",
        "address": "吉林省松原市扶余市惠民路与通铁路交叉口正西方向289米左右",
        "tel": "",
        "category": "基础设施:公共设施:公共厕所",
        "type": 0,
        "location": {
            "lat": 44.992369,
            "lng": 126.025625
        },
        "ad_info": {
            "adcode": 220781,
            "province": "吉林省",
            "city": "松原市",
            "district": "扶余市"
        }
    },
    {
        "id": "1285684388359299845",
        "title": "陶赖昭服务区公共厕所",
        "address": "吉林省松原市扶余市陶赖昭服务区东南30米",
        "tel": "",
        "category": "基础设施:公共设施:公共厕所",
        "type": 0,
        "location": {
            "lat": 44.873225,
            "lng": 125.939592
        },
        "ad_info": {
            "adcode": 220781,
            "province": "吉林省",
            "city": "松原市",
            "district": "扶余市"
        }
    },
    {
        "id": "2901801157541445742",
        "title": "公共厕所",
        "address": "吉林省松原市乾安县G232与繁荣大街交叉口正北方向69米左右",
        "tel": "",
        "category": "基础设施:公共设施:公共厕所",
        "type": 0,
        "location": {
            "lat": 44.820359,
            "lng": 124.045305
        },
        "ad_info": {
            "adcode": 220723,
            "province": "吉林省",
            "city": "松原市",
            "district": "乾安县"
        }
    },
    {
        "id": "3893783662357546284",
        "title": "公共厕所",
        "address": "吉林省松原市宁江区古城街与新城东路交叉口西南方向144米左右",
        "tel": "",
        "category": "基础设施:公共设施:公共厕所",
        "type": 0,
        "location": {
            "lat": 45.182688,
            "lng": 124.856292
        },
        "ad_info": {
            "adcode": 220702,
            "province": "吉林省",
            "city": "松原市",
            "district": "宁江区"
        }
    },
    {
        "id": "10876388689424975758",
        "title": "公共厕所",
        "address": "吉林省松原市宁江区工农路与建设街交叉口西南方向299米左右",
        "tel": "",
        "category": "基础设施:公共设施:公共厕所",
        "type": 0,
        "location": {
            "lat": 45.19417,
            "lng": 124.817584
        },
        "ad_info": {
            "adcode": 220702,
            "province": "吉林省",
            "city": "松原市",
            "district": "宁江区"
        }
    },
    {
        "id": "16305487723997671523",
        "title": "公共厕所",
        "address": "吉林省松原市扶余市春华路与民生街交叉口正东方向368米左右",
        "tel": "",
        "category": "基础设施:公共设施:公共厕所",
        "type": 0,
        "location": {
            "lat": 44.98726,
            "lng": 126.05157
        },
        "ad_info": {
            "adcode": 220781,
            "province": "吉林省",
            "city": "松原市",
            "district": "扶余市"
        }
    },
    {
        "id": "4763018305404846605",
        "title": "公共厕所",
        "address": "吉林省松原市前郭尔罗斯蒙古族自治县易捷便利店(大广加油站)东南侧70米",
        "tel": "",
        "category": "基础设施:公共设施:公共厕所",
        "type": 0,
        "location": {
            "lat": 44.340135,
            "lng": 124.055643
        },
        "ad_info": {
            "adcode": 220721,
            "province": "吉林省",
            "city": "松原市",
            "district": "前郭尔罗斯蒙古族自治县"
        }
    },
    {
        "id": "911114794676163378",
        "title": "公共厕所",
        "address": "吉林省松原市前郭尔罗斯蒙古族自治县科尔沁大街哈萨尔广场",
        "tel": "",
        "category": "基础设施:公共设施:公共厕所",
        "type": 0,
        "location": {
            "lat": 45.115008,
            "lng": 124.829319
        },
        "ad_info": {
            "adcode": 220721,
            "province": "吉林省",
            "city": "松原市",
            "district": "前郭尔罗斯蒙古族自治县"
        }
    },
    {
        "id": "2307190046522099182",
        "title": "公共厕所",
        "address": "吉林省松原市长岭县岭南西路与长丰南街交叉口正南方向683米左右",
        "tel": "",
        "category": "基础设施:公共设施:公共厕所",
        "type": 0,
        "location": {
            "lat": 44.258892,
            "lng": 123.979494
        },
        "ad_info": {
            "adcode": 220722,
            "province": "吉林省",
            "city": "松原市",
            "district": "长岭县"
        }
    },
    {
        "id": "5502176542082313147",
        "title": "公共厕所",
        "address": "吉林省松原市前郭尔罗斯蒙古族自治县郭尔罗斯博物馆西南侧100米",
        "tel": "",
        "category": "基础设施:公共设施:公共厕所",
        "type": 0,
        "location": {
            "lat": 45.202116,
            "lng": 124.444027
        },
        "ad_info": {
            "adcode": 220721,
            "province": "吉林省",
            "city": "松原市",
            "district": "前郭尔罗斯蒙古族自治县"
        }
    },
    {
        "id": "8742043965237251744",
        "title": "让字服务区公共厕所",
        "address": "吉林省松原市前郭尔罗斯蒙古族自治县石油吉高能源让字服务区加油站东侧110米",
        "tel": "",
        "category": "基础设施:公共设施:公共厕所",
        "type": 0,
        "location": {
            "lat": 45.014288,
            "lng": 124.361182
        },
        "ad_info": {
            "adcode": 220721,
            "province": "吉林省",
            "city": "松原市",
            "district": "前郭尔罗斯蒙古族自治县"
        }
    },
    {
        "id": "3013796936681885474",
        "title": "公共厕所",
        "address": "吉林省松原市宁江区郭旗街前郭尔罗斯蒙古族自治县中医院",
        "tel": "",
        "category": "基础设施:公共设施:公共厕所",
        "type": 0,
        "location": {
            "lat": 45.11497,
            "lng": 124.817573
        },
        "ad_info": {
            "adcode": 220702,
            "province": "吉林省",
            "city": "松原市",
            "district": "宁江区"
        }
    },
    {
        "id": "14459628275544940041",
        "title": "公共厕所",
        "address": "吉林省松原市前郭尔罗斯蒙古族自治县查干湖大路与海宽大路交叉口西南方向909米左右",
        "tel": "",
        "category": "基础设施:公共设施:公共厕所",
        "type": 0,
        "location": {
            "lat": 45.215072,
            "lng": 124.459182
        },
        "ad_info": {
            "adcode": 220721,
            "province": "吉林省",
            "city": "松原市",
            "district": "前郭尔罗斯蒙古族自治县"
        }
    },
    {
        "id": "2528686210362524589",
        "title": "公共厕所",
        "address": "吉林省松原市前郭尔罗斯蒙古族自治县塔虎街与张编匠路交叉口西南方向43米左右",
        "tel": "",
        "category": "基础设施:公共设施:公共厕所",
        "type": 0,
        "location": {
            "lat": 45.3014,
            "lng": 124.288463
        },
        "ad_info": {
            "adcode": 220721,
            "province": "吉林省",
            "city": "松原市",
            "district": "前郭尔罗斯蒙古族自治县"
        }
    },
    {
        "id": "4786308187099114639",
        "title": "公共厕所",
        "address": "吉林省松原市扶余市和平街与太祖路交汇辅路侧人行横道旁",
        "tel": "",
        "category": "基础设施:公共设施:公共厕所",
        "type": 0,
        "location": {
            "lat": 44.985732,
            "lng": 126.062105
        },
        "ad_info": {
            "adcode": 220781,
            "province": "吉林省",
            "city": "松原市",
            "district": "扶余市"
        }
    },
    {
        "id": "4960688963857235839",
        "title": "公共厕所",
        "address": "吉林省松原市前郭尔罗斯蒙古族自治县安代路与海宽大路交叉口西南方向643米左右",
        "tel": "",
        "category": "基础设施:公共设施:公共厕所",
        "type": 0,
        "location": {
            "lat": 45.201814,
            "lng": 124.444212
        },
        "ad_info": {
            "adcode": 220721,
            "province": "吉林省",
            "city": "松原市",
            "district": "前郭尔罗斯蒙古族自治县"
        }
    },
    {
        "id": "8369709696640512797",
        "title": "公共厕所",
        "address": "吉林省松原市前郭尔罗斯蒙古族自治县203国道南50米",
        "tel": "",
        "category": "基础设施:公共设施:公共厕所",
        "type": 0,
        "location": {
            "lat": 44.482172,
            "lng": 124.237823
        },
        "ad_info": {
            "adcode": 220721,
            "province": "吉林省",
            "city": "松原市",
            "district": "前郭尔罗斯蒙古族自治县"
        }
    }
]