[
    {
        "id": "16252672321177377196",
        "title": "公共厕所",
        "address": "西藏自治区林芝市波密县札木中路波密县政府南侧",
        "tel": "",
        "category": "基础设施:公共设施:公共厕所",
        "type": 0,
        "location": {
            "lat": 29.85841,
            "lng": 95.768126
        },
        "ad_info": {
            "adcode": 540424,
            "province": "西藏自治区",
            "city": "林芝市",
            "district": "波密县"
        }
    },
    {
        "id": "6331799058563837680",
        "title": "公共厕所",
        "address": "西藏自治区林芝市朗县伊鑫美食城东南侧210米",
        "tel": "",
        "category": "基础设施:公共设施:公共厕所",
        "type": 0,
        "location": {
            "lat": 29.04159,
            "lng": 93.066948
        },
        "ad_info": {
            "adcode": 540426,
            "province": "西藏自治区",
            "city": "林芝市",
            "district": "朗县"
        }
    },
    {
        "id": "69257416390787793",
        "title": "公共厕所",
        "address": "西藏自治区林芝市波密县江北路4号",
        "tel": "",
        "category": "基础设施:公共设施:公共厕所",
        "type": 0,
        "location": {
            "lat": 29.856878,
            "lng": 95.768543
        },
        "ad_info": {
            "adcode": 540424,
            "province": "西藏自治区",
            "city": "林芝市",
            "district": "波密县"
        }
    },
    {
        "id": "15590635029461767980",
        "title": "公共厕所",
        "address": "西藏自治区林芝市工布江达县G318与彩虹路交叉口西北方向388米左右",
        "tel": "",
        "category": "基础设施:公共设施:公共厕所",
        "type": 0,
        "location": {
            "lat": 29.884501,
            "lng": 93.249096
        },
        "ad_info": {
            "adcode": 540421,
            "province": "西藏自治区",
            "city": "林芝市",
            "district": "工布江达县"
        }
    },
    {
        "id": "12528275631644573137",
        "title": "公共厕所",
        "address": "西藏自治区林芝市朗县朗镇冲康村",
        "tel": "",
        "category": "基础设施:公共设施:公共厕所",
        "type": 0,
        "location": {
            "lat": 29.069337,
            "lng": 92.897762
        },
        "ad_info": {
            "adcode": 540426,
            "province": "西藏自治区",
            "city": "林芝市",
            "district": "朗县"
        }
    },
    {
        "id": "2831575718075457087",
        "title": "公共厕所",
        "address": "西藏自治区林芝市波密县索通青蛙农产西北侧",
        "tel": "",
        "category": "基础设施:公共设施:公共厕所",
        "type": 0,
        "location": {
            "lat": 30.020001,
            "lng": 95.287262
        },
        "ad_info": {
            "adcode": 540424,
            "province": "西藏自治区",
            "city": "林芝市",
            "district": "波密县"
        }
    },
    {
        "id": "4689032465654676377",
        "title": "公共厕所",
        "address": "西藏自治区林芝市波密县米堆冰川格拉丹东民宿东侧140米",
        "tel": "",
        "category": "基础设施:公共设施:公共厕所",
        "type": 0,
        "location": {
            "lat": 29.535008,
            "lng": 96.503548
        },
        "ad_info": {
            "adcode": 540424,
            "province": "西藏自治区",
            "city": "林芝市",
            "district": "波密县"
        }
    },
    {
        "id": "1776073178908232581",
        "title": "公共厕所",
        "address": "西藏自治区林芝市工布江达县错高乡巴松措景区大门入口",
        "tel": "",
        "category": "基础设施:公共设施:公共厕所",
        "type": 0,
        "location": {
            "lat": 29.990229,
            "lng": 93.886004
        },
        "ad_info": {
            "adcode": 540421,
            "province": "西藏自治区",
            "city": "林芝市",
            "district": "工布江达县"
        }
    },
    {
        "id": "6441225851211679947",
        "title": "公共厕所",
        "address": "西藏自治区林芝市波密县天府川菜馆玉普店西南侧70米",
        "tel": "",
        "category": "基础设施:公共设施:公共厕所",
        "type": 0,
        "location": {
            "lat": 29.630702,
            "lng": 96.24724
        },
        "ad_info": {
            "adcode": 540424,
            "province": "西藏自治区",
            "city": "林芝市",
            "district": "波密县"
        }
    },
    {
        "id": "8321857899597283817",
        "title": "公共厕所",
        "address": "西藏自治区林芝市工布江达县G318与工布江达大桥交叉口东南方向86米左右",
        "tel": "",
        "category": "基础设施:公共设施:公共厕所",
        "type": 0,
        "location": {
            "lat": 29.879074,
            "lng": 93.258551
        },
        "ad_info": {
            "adcode": 540421,
            "province": "西藏自治区",
            "city": "林芝市",
            "district": "工布江达县"
        }
    },
    {
        "id": "3513071170448127376",
        "title": "公共厕所",
        "address": "西藏自治区林芝市工布江达县林拉公路与雅叶高速交叉口东北方向387米",
        "tel": "",
        "category": "基础设施:公共设施:公共厕所",
        "type": 0,
        "location": {
            "lat": 29.899815,
            "lng": 93.600011
        },
        "ad_info": {
            "adcode": 540421,
            "province": "西藏自治区",
            "city": "林芝市",
            "district": "工布江达县"
        }
    },
    {
        "id": "4962120207563066035",
        "title": "洗手间",
        "address": "西藏自治区林芝市波密县藏王洞观景台西南侧50米",
        "tel": "",
        "category": "基础设施:公共设施:公共厕所",
        "type": 0,
        "location": {
            "lat": 29.935348,
            "lng": 95.398802
        },
        "ad_info": {
            "adcode": 540424,
            "province": "西藏自治区",
            "city": "林芝市",
            "district": "波密县"
        }
    },
    {
        "id": "17226742830082241359",
        "title": "公共厕所",
        "address": "西藏自治区林芝市工布江达县G318与泉州二桥交叉口正北方向210米左右",
        "tel": "",
        "category": "基础设施:公共设施:公共厕所",
        "type": 0,
        "location": {
            "lat": 29.882739,
            "lng": 93.24187
        },
        "ad_info": {
            "adcode": 540421,
            "province": "西藏自治区",
            "city": "林芝市",
            "district": "工布江达县"
        }
    },
    {
        "id": "16430304213046513901",
        "title": "公共厕所",
        "address": "西藏自治区林芝市工布江达县S504与电台桥交叉口正东方向1910米左右",
        "tel": "",
        "category": "基础设施:公共设施:公共厕所",
        "type": 0,
        "location": {
            "lat": 29.986853,
            "lng": 93.811974
        },
        "ad_info": {
            "adcode": 540421,
            "province": "西藏自治区",
            "city": "林芝市",
            "district": "工布江达县"
        }
    },
    {
        "id": "4012078230347567116",
        "title": "公共厕所",
        "address": "西藏自治区林芝市朗县涵江楼东侧60米",
        "tel": "",
        "category": "基础设施:公共设施:公共厕所",
        "type": 0,
        "location": {
            "lat": 29.067084,
            "lng": 92.836439
        },
        "ad_info": {
            "adcode": 540426,
            "province": "西藏自治区",
            "city": "林芝市",
            "district": "朗县"
        }
    },
    {
        "id": "14578214405941546783",
        "title": "公共厕所",
        "address": "西藏自治区林芝市工布江达县错高乡结巴村",
        "tel": "",
        "category": "基础设施:公共设施:公共厕所",
        "type": 0,
        "location": {
            "lat": 30.00141,
            "lng": 93.979044
        },
        "ad_info": {
            "adcode": 540421,
            "province": "西藏自治区",
            "city": "林芝市",
            "district": "工布江达县"
        }
    },
    {
        "id": "574133213189569627",
        "title": "公共厕所",
        "address": "西藏自治区林芝市波密县香满园餐厅(通麦店)西南侧",
        "tel": "",
        "category": "基础设施:公共设施:公共厕所",
        "type": 0,
        "location": {
            "lat": 30.099757,
            "lng": 95.088159
        },
        "ad_info": {
            "adcode": 540424,
            "province": "西藏自治区",
            "city": "林芝市",
            "district": "波密县"
        }
    },
    {
        "id": "13927583890655636358",
        "title": "公共厕所",
        "address": "西藏自治区林芝市工布江达县318国道与G4218雅叶高速入口交叉口西南20米",
        "tel": "",
        "category": "基础设施:公共设施:公共厕所",
        "type": 0,
        "location": {
            "lat": 29.926327,
            "lng": 92.794103
        },
        "ad_info": {
            "adcode": 540421,
            "province": "西藏自治区",
            "city": "林芝市",
            "district": "工布江达县"
        }
    },
    {
        "id": "14914210240669139119",
        "title": "公共厕所",
        "address": "西藏自治区林芝市波密县G318与札木东路交叉口东北方向49米左右",
        "tel": "",
        "category": "基础设施:公共设施:公共厕所",
        "type": 0,
        "location": {
            "lat": 29.807252,
            "lng": 95.806989
        },
        "ad_info": {
            "adcode": 540424,
            "province": "西藏自治区",
            "city": "林芝市",
            "district": "波密县"
        }
    },
    {
        "id": "12586520496304380286",
        "title": "公共厕所",
        "address": "西藏自治区林芝市工布江达县扎西路与民族路交叉口正北方向129米左右",
        "tel": "",
        "category": "基础设施:公共设施:公共厕所",
        "type": 0,
        "location": {
            "lat": 29.860389,
            "lng": 93.665387
        },
        "ad_info": {
            "adcode": 540421,
            "province": "西藏自治区",
            "city": "林芝市",
            "district": "工布江达县"
        }
    },
    {
        "id": "1003024486929075622",
        "title": "公共厕所(XZ-LZ-0021)",
        "address": "西藏自治区林芝市米林市G219与林邛路交叉口西南方向234米左右",
        "tel": "",
        "category": "基础设施:公共设施:公共厕所",
        "type": 0,
        "location": {
            "lat": 29.181693,
            "lng": 94.188415
        },
        "ad_info": {
            "adcode": 540422,
            "province": "西藏自治区",
            "city": "林芝市",
            "district": "米林市"
        }
    },
    {
        "id": "4097526234298910272",
        "title": "公共厕所",
        "address": "西藏自治区林芝市波密县倍耐力轮胎东侧60米",
        "tel": "",
        "category": "基础设施:公共设施:公共厕所",
        "type": 0,
        "location": {
            "lat": 29.624829,
            "lng": 96.264956
        },
        "ad_info": {
            "adcode": 540424,
            "province": "西藏自治区",
            "city": "林芝市",
            "district": "波密县"
        }
    },
    {
        "id": "12144310146613553238",
        "title": "公共厕所",
        "address": "西藏自治区林芝市波密县G318与加龙坝桥交叉口正东方向1269米左右",
        "tel": "",
        "category": "基础设施:公共设施:公共厕所",
        "type": 0,
        "location": {
            "lat": 30.034799,
            "lng": 95.270225
        },
        "ad_info": {
            "adcode": 540424,
            "province": "西藏自治区",
            "city": "林芝市",
            "district": "波密县"
        }
    },
    {
        "id": "7744967632185829363",
        "title": "公共厕所",
        "address": "西藏自治区林芝市工布江达县G318与泉州路交叉口西北方向382米左右",
        "tel": "",
        "category": "基础设施:公共设施:公共厕所",
        "type": 0,
        "location": {
            "lat": 29.883978,
            "lng": 93.243905
        },
        "ad_info": {
            "adcode": 540421,
            "province": "西藏自治区",
            "city": "林芝市",
            "district": "工布江达县"
        }
    },
    {
        "id": "18014044112375260566",
        "title": "公共厕所",
        "address": "西藏自治区林芝市工布江达县金达石油加油站西侧140米",
        "tel": "",
        "category": "基础设施:公共设施:公共厕所",
        "type": 0,
        "location": {
            "lat": 30.024696,
            "lng": 92.904063
        },
        "ad_info": {
            "adcode": 540421,
            "province": "西藏自治区",
            "city": "林芝市",
            "district": "工布江达县"
        }
    },
    {
        "id": "3816662039207930294",
        "title": "公共厕所",
        "address": "西藏自治区林芝市波密县G318与玉普中桥交叉口正南方向1872米左右",
        "tel": "",
        "category": "基础设施:公共设施:公共厕所",
        "type": 0,
        "location": {
            "lat": 29.663175,
            "lng": 96.210872
        },
        "ad_info": {
            "adcode": 540424,
            "province": "西藏自治区",
            "city": "林芝市",
            "district": "波密县"
        }
    },
    {
        "id": "4248870689367650979",
        "title": "公共厕所",
        "address": "西藏自治区林芝市波密县",
        "tel": "",
        "category": "基础设施:公共设施:公共厕所",
        "type": 0,
        "location": {
            "lat": 29.785601,
            "lng": 95.897565
        },
        "ad_info": {
            "adcode": 540424,
            "province": "西藏自治区",
            "city": "林芝市",
            "district": "波密县"
        }
    },
    {
        "id": "16780174707345458115",
        "title": "公共厕所",
        "address": "西藏自治区林芝市工布江达县旁村公益电影放映点西北侧370米",
        "tel": "",
        "category": "基础设施:公共设施:公共厕所",
        "type": 0,
        "location": {
            "lat": 29.999688,
            "lng": 93.044268
        },
        "ad_info": {
            "adcode": 540421,
            "province": "西藏自治区",
            "city": "林芝市",
            "district": "工布江达县"
        }
    },
    {
        "id": "4572417062135766337",
        "title": "公共厕所",
        "address": "西藏自治区林芝市工布江达县G318与尼比桥交叉口正东方向845米左右",
        "tel": "",
        "category": "基础设施:公共设施:公共厕所",
        "type": 0,
        "location": {
            "lat": 30.00373,
            "lng": 93.026378
        },
        "ad_info": {
            "adcode": 540421,
            "province": "西藏自治区",
            "city": "林芝市",
            "district": "工布江达县"
        }
    },
    {
        "id": "18416970110889395088",
        "title": "公共厕所",
        "address": "西藏自治区林芝市工布江达县江达乡中心小学南侧110米",
        "tel": "",
        "category": "基础设施:公共设施:公共厕所",
        "type": 0,
        "location": {
            "lat": 29.935715,
            "lng": 93.147194
        },
        "ad_info": {
            "adcode": 540421,
            "province": "西藏自治区",
            "city": "林芝市",
            "district": "工布江达县"
        }
    },
    {
        "id": "6169062408661317334",
        "title": "公共厕所",
        "address": "西藏自治区林芝市工布江达县G318与S205交叉口东南方向677米左右",
        "tel": "",
        "category": "基础设施:公共设施:公共厕所",
        "type": 0,
        "location": {
            "lat": 29.992176,
            "lng": 93.089438
        },
        "ad_info": {
            "adcode": 540421,
            "province": "西藏自治区",
            "city": "林芝市",
            "district": "工布江达县"
        }
    },
    {
        "id": "1773785796095793709",
        "title": "公共厕所",
        "address": "西藏自治区林芝市工布江达县虫草收购店东北侧220米",
        "tel": "",
        "category": "基础设施:公共设施:公共厕所",
        "type": 0,
        "location": {
            "lat": 29.923986,
            "lng": 92.78979
        },
        "ad_info": {
            "adcode": 540421,
            "province": "西藏自治区",
            "city": "林芝市",
            "district": "工布江达县"
        }
    },
    {
        "id": "15465649008569625740",
        "title": "公共厕所",
        "address": "西藏自治区林芝市工布江达县果林路5号",
        "tel": "",
        "category": "基础设施:公共设施:公共厕所",
        "type": 0,
        "location": {
            "lat": 29.881198,
            "lng": 93.244711
        },
        "ad_info": {
            "adcode": 540421,
            "province": "西藏自治区",
            "city": "林芝市",
            "district": "工布江达县"
        }
    },
    {
        "id": "1400391052578407821",
        "title": "公共厕所",
        "address": "西藏自治区林芝市工布江达县318国道西150米藏宝阁附近",
        "tel": "",
        "category": "基础设施:公共设施:公共厕所",
        "type": 0,
        "location": {
            "lat": 29.893239,
            "lng": 93.304945
        },
        "ad_info": {
            "adcode": 540421,
            "province": "西藏自治区",
            "city": "林芝市",
            "district": "工布江达县"
        }
    },
    {
        "id": "773193071040097163",
        "title": "公共厕所",
        "address": "西藏自治区林芝市工布江达县中国邮政(工布江达县金达镇邮政所)西侧170米",
        "tel": "",
        "category": "基础设施:公共设施:公共厕所",
        "type": 0,
        "location": {
            "lat": 30.024992,
            "lng": 92.901529
        },
        "ad_info": {
            "adcode": 540421,
            "province": "西藏自治区",
            "city": "林芝市",
            "district": "工布江达县"
        }
    },
    {
        "id": "18229198285470776684",
        "title": "公共厕所",
        "address": "西藏自治区林芝市工布江达县G318与泉州路交叉口西北方向494米左右",
        "tel": "",
        "category": "基础设施:公共设施:公共厕所",
        "type": 0,
        "location": {
            "lat": 29.88517,
            "lng": 93.243902
        },
        "ad_info": {
            "adcode": 540421,
            "province": "西藏自治区",
            "city": "林芝市",
            "district": "工布江达县"
        }
    },
    {
        "id": "10774877834016423179",
        "title": "公共厕所(XZ-LZ-0047)",
        "address": "西藏自治区林芝市米林市",
        "tel": "",
        "category": "基础设施:公共设施:公共厕所",
        "type": 0,
        "location": {
            "lat": 29.152525,
            "lng": 94.217419
        },
        "ad_info": {
            "adcode": 540422,
            "province": "西藏自治区",
            "city": "林芝市",
            "district": "米林市"
        }
    },
    {
        "id": "4436170920389271680",
        "title": "公共厕所",
        "address": "西藏自治区林芝市波密县米堆冰川景区内",
        "tel": "",
        "category": "基础设施:公共设施:公共厕所",
        "type": 0,
        "location": {
            "lat": 29.504199,
            "lng": 96.495265
        },
        "ad_info": {
            "adcode": 540424,
            "province": "西藏自治区",
            "city": "林芝市",
            "district": "波密县"
        }
    },
    {
        "id": "6843563128440497082",
        "title": "公共厕所",
        "address": "西藏自治区林芝市工布江达县G318与雅叶高速交叉口正西方向475米左右",
        "tel": "",
        "category": "基础设施:公共设施:公共厕所",
        "type": 0,
        "location": {
            "lat": 29.892495,
            "lng": 92.48066
        },
        "ad_info": {
            "adcode": 540421,
            "province": "西藏自治区",
            "city": "林芝市",
            "district": "工布江达县"
        }
    },
    {
        "id": "5930310842570163020",
        "title": "公共厕所",
        "address": "西藏自治区林芝市波密县米堆冰川景区内",
        "tel": "",
        "category": "基础设施:公共设施:公共厕所",
        "type": 0,
        "location": {
            "lat": 29.479667,
            "lng": 96.493493
        },
        "ad_info": {
            "adcode": 540424,
            "province": "西藏自治区",
            "city": "林芝市",
            "district": "波密县"
        }
    },
    {
        "id": "9821625740000795337",
        "title": "公共厕所",
        "address": "西藏自治区林芝市工布江达县旺丰芝灵芝馆(西藏巨宝生态科技有限公司)西北侧230米",
        "tel": "",
        "category": "基础设施:公共设施:公共厕所",
        "type": 0,
        "location": {
            "lat": 29.987436,
            "lng": 93.785545
        },
        "ad_info": {
            "adcode": 540421,
            "province": "西藏自治区",
            "city": "林芝市",
            "district": "工布江达县"
        }
    },
    {
        "id": "12932670537982409782",
        "title": "公共厕所",
        "address": "西藏自治区林芝市工布江达县巴松措售票处附近",
        "tel": "",
        "category": "基础设施:公共设施:公共厕所",
        "type": 0,
        "location": {
            "lat": 29.990966,
            "lng": 93.88536
        },
        "ad_info": {
            "adcode": 540421,
            "province": "西藏自治区",
            "city": "林芝市",
            "district": "工布江达县"
        }
    },
    {
        "id": "15031938659448805187",
        "title": "公共厕所",
        "address": "西藏自治区林芝市波密县G318与红心路交叉口东南方向87米左右",
        "tel": "",
        "category": "基础设施:公共设施:公共厕所",
        "type": 0,
        "location": {
            "lat": 29.744929,
            "lng": 96.103606
        },
        "ad_info": {
            "adcode": 540424,
            "province": "西藏自治区",
            "city": "林芝市",
            "district": "波密县"
        }
    },
    {
        "id": "15862964361712898211",
        "title": "公共厕所",
        "address": "西藏自治区林芝市波密县米堆冰川景区内",
        "tel": "",
        "category": "基础设施:公共设施:公共厕所",
        "type": 0,
        "location": {
            "lat": 29.468753,
            "lng": 96.500549
        },
        "ad_info": {
            "adcode": 540424,
            "province": "西藏自治区",
            "city": "林芝市",
            "district": "波密县"
        }
    },
    {
        "id": "15797227610553829802",
        "title": "公共厕所",
        "address": "西藏自治区林芝市波密县梅州路5号",
        "tel": "",
        "category": "基础设施:公共设施:公共厕所",
        "type": 0,
        "location": {
            "lat": 29.856332,
            "lng": 95.771547
        },
        "ad_info": {
            "adcode": 540424,
            "province": "西藏自治区",
            "city": "林芝市",
            "district": "波密县"
        }
    },
    {
        "id": "6608792911221082264",
        "title": "公共厕所",
        "address": "西藏自治区林芝市工布江达县巴松措布多栈道对面",
        "tel": "",
        "category": "基础设施:公共设施:公共厕所",
        "type": 0,
        "location": {
            "lat": 30.00027,
            "lng": 93.950762
        },
        "ad_info": {
            "adcode": 540421,
            "province": "西藏自治区",
            "city": "林芝市",
            "district": "工布江达县"
        }
    },
    {
        "id": "17820093482024946778",
        "title": "公共厕所",
        "address": "西藏自治区林芝市工布江达县",
        "tel": "",
        "category": "基础设施:公共设施:公共厕所",
        "type": 0,
        "location": {
            "lat": 29.959957,
            "lng": 93.127425
        },
        "ad_info": {
            "adcode": 540421,
            "province": "西藏自治区",
            "city": "林芝市",
            "district": "工布江达县"
        }
    },
    {
        "id": "12711750756957726112",
        "title": "公共厕所",
        "address": "西藏自治区林芝市工布江达县318国道与G4218雅叶高速出口交叉口西60米",
        "tel": "",
        "category": "基础设施:公共设施:公共厕所",
        "type": 0,
        "location": {
            "lat": 29.891814,
            "lng": 92.484837
        },
        "ad_info": {
            "adcode": 540421,
            "province": "西藏自治区",
            "city": "林芝市",
            "district": "工布江达县"
        }
    },
    {
        "id": "10587579385484970808",
        "title": "公共厕所",
        "address": "西藏自治区林芝市工布江达县G318与彩虹路交叉口正南方向58米左右",
        "tel": "",
        "category": "基础设施:公共设施:公共厕所",
        "type": 0,
        "location": {
            "lat": 29.881437,
            "lng": 93.251619
        },
        "ad_info": {
            "adcode": 540421,
            "province": "西藏自治区",
            "city": "林芝市",
            "district": "工布江达县"
        }
    },
    {
        "id": "2104680529354199152",
        "title": "公共厕所",
        "address": "西藏自治区林芝市波密县G318与中坝明洞交叉口正西方向1363米左右",
        "tel": "",
        "category": "基础设施:公共设施:公共厕所",
        "type": 0,
        "location": {
            "lat": 29.614454,
            "lng": 96.34266
        },
        "ad_info": {
            "adcode": 540424,
            "province": "西藏自治区",
            "city": "林芝市",
            "district": "波密县"
        }
    },
    {
        "id": "16979646429637913187",
        "title": "公共厕所",
        "address": "西藏自治区林芝市巴宜区白玛岗路与迎宾大道交叉口正北方向144米左右",
        "tel": "",
        "category": "基础设施:公共设施:公共厕所",
        "type": 0,
        "location": {
            "lat": 29.63027,
            "lng": 94.372756
        },
        "ad_info": {
            "adcode": 540402,
            "province": "西藏自治区",
            "city": "林芝市",
            "district": "巴宜区"
        }
    },
    {
        "id": "16850809018793998475",
        "title": "公共厕所",
        "address": "西藏自治区林芝市巴宜区八一大街中段与平安路交叉口北180米",
        "tel": "",
        "category": "基础设施:公共设施:公共厕所",
        "type": 0,
        "location": {
            "lat": 29.658693,
            "lng": 94.35933
        },
        "ad_info": {
            "adcode": 540402,
            "province": "西藏自治区",
            "city": "林芝市",
            "district": "巴宜区"
        }
    },
    {
        "id": "12023777357193671055",
        "title": "公共厕所",
        "address": "西藏自治区林芝市波密县米堆冰川景区入口左侧",
        "tel": "",
        "category": "基础设施:公共设施:公共厕所",
        "type": 0,
        "location": {
            "lat": 29.535002,
            "lng": 96.503
        },
        "ad_info": {
            "adcode": 540424,
            "province": "西藏自治区",
            "city": "林芝市",
            "district": "波密县"
        }
    },
    {
        "id": "8330509021528937418",
        "title": "公共厕所",
        "address": "西藏自治区林芝市工布江达县S504与雪卡桥交叉口东南方向965米左右",
        "tel": "",
        "category": "基础设施:公共设施:公共厕所",
        "type": 0,
        "location": {
            "lat": 29.966823,
            "lng": 93.692026
        },
        "ad_info": {
            "adcode": 540421,
            "province": "西藏自治区",
            "city": "林芝市",
            "district": "工布江达县"
        }
    },
    {
        "id": "5428020417825534888",
        "title": "公共厕所",
        "address": "西藏自治区林芝市巴宜区八一大街中段与德吉路交叉口东北40米",
        "tel": "",
        "category": "基础设施:公共设施:公共厕所",
        "type": 0,
        "location": {
            "lat": 29.652777,
            "lng": 94.359651
        },
        "ad_info": {
            "adcode": 540402,
            "province": "西藏自治区",
            "city": "林芝市",
            "district": "巴宜区"
        }
    },
    {
        "id": "12129556063538079000",
        "title": "公共厕所",
        "address": "西藏自治区林芝市工布江达县仲莎乡林则景区啊沛管家庄园",
        "tel": "",
        "category": "基础设施:公共设施:公共厕所",
        "type": 0,
        "location": {
            "lat": 29.878978,
            "lng": 93.49016
        },
        "ad_info": {
            "adcode": 540421,
            "province": "西藏自治区",
            "city": "林芝市",
            "district": "工布江达县"
        }
    },
    {
        "id": "13791214159745580442",
        "title": "公共厕所",
        "address": "西藏自治区林芝市巴宜区幸福三路新城农贸市场内",
        "tel": "",
        "category": "基础设施:公共设施:公共厕所",
        "type": 0,
        "location": {
            "lat": 29.625751,
            "lng": 94.38053
        },
        "ad_info": {
            "adcode": 540402,
            "province": "西藏自治区",
            "city": "林芝市",
            "district": "巴宜区"
        }
    },
    {
        "id": "14265022367669672962",
        "title": "公共厕所",
        "address": "西藏自治区林芝市巴宜区八一大街工布宾馆",
        "tel": "",
        "category": "基础设施:公共设施:公共厕所",
        "type": 0,
        "location": {
            "lat": 29.649629,
            "lng": 94.358987
        },
        "ad_info": {
            "adcode": 540402,
            "province": "西藏自治区",
            "city": "林芝市",
            "district": "巴宜区"
        }
    },
    {
        "id": "8963664085571821792",
        "title": "公共厕所",
        "address": "西藏自治区林芝市墨脱县墨脱公路米日村",
        "tel": "",
        "category": "基础设施:公共设施:公共厕所",
        "type": 0,
        "location": {
            "lat": 29.417073,
            "lng": 95.408512
        },
        "ad_info": {
            "adcode": 540423,
            "province": "西藏自治区",
            "city": "林芝市",
            "district": "墨脱县"
        }
    },
    {
        "id": "3635030415839869060",
        "title": "公共厕所",
        "address": "西藏自治区林芝市墨脱县G219与墨脱公路交叉口正南方向1980米左右",
        "tel": "",
        "category": "基础设施:公共设施:公共厕所",
        "type": 0,
        "location": {
            "lat": 29.464293,
            "lng": 95.445172
        },
        "ad_info": {
            "adcode": 540423,
            "province": "西藏自治区",
            "city": "林芝市",
            "district": "墨脱县"
        }
    },
    {
        "id": "17103455630522295025",
        "title": "公共厕所",
        "address": "西藏自治区林芝市墨脱县",
        "tel": "",
        "category": "基础设施:公共设施:公共厕所",
        "type": 0,
        "location": {
            "lat": 29.300156,
            "lng": 95.345594
        },
        "ad_info": {
            "adcode": 540423,
            "province": "西藏自治区",
            "city": "林芝市",
            "district": "墨脱县"
        }
    },
    {
        "id": "13671818886225459431",
        "title": "公共厕所",
        "address": "西藏自治区林芝市巴宜区八一镇广州大道112号(山水S酒店对面)",
        "tel": "",
        "category": "基础设施:公共设施:公共厕所",
        "type": 0,
        "location": {
            "lat": 29.65379,
            "lng": 94.364379
        },
        "ad_info": {
            "adcode": 540402,
            "province": "西藏自治区",
            "city": "林芝市",
            "district": "巴宜区"
        }
    },
    {
        "id": "16362446561773604",
        "title": "公共厕所",
        "address": "西藏自治区林芝市巴宜区滨河大道中段与滨河大道北段交叉口正南方向117米左右",
        "tel": "",
        "category": "基础设施:公共设施:公共厕所",
        "type": 0,
        "location": {
            "lat": 29.66302,
            "lng": 94.35436
        },
        "ad_info": {
            "adcode": 540402,
            "province": "西藏自治区",
            "city": "林芝市",
            "district": "巴宜区"
        }
    },
    {
        "id": "13290173179838987812",
        "title": "公共厕所",
        "address": "西藏自治区林芝市墨脱县",
        "tel": "",
        "category": "基础设施:公共设施:公共厕所",
        "type": 0,
        "location": {
            "lat": 29.325942,
            "lng": 95.271195
        },
        "ad_info": {
            "adcode": 540423,
            "province": "西藏自治区",
            "city": "林芝市",
            "district": "墨脱县"
        }
    },
    {
        "id": "7755915941736973996",
        "title": "公共厕所",
        "address": "西藏自治区林芝市墨脱县219国道北侧",
        "tel": "",
        "category": "基础设施:公共设施:公共厕所",
        "type": 0,
        "location": {
            "lat": 29.297109,
            "lng": 95.281436
        },
        "ad_info": {
            "adcode": 540423,
            "province": "西藏自治区",
            "city": "林芝市",
            "district": "墨脱县"
        }
    },
    {
        "id": "8957767405625882535",
        "title": "公共厕所",
        "address": "西藏自治区林芝市墨脱县G219与向国容桥交叉口正北方向732米左右",
        "tel": "",
        "category": "基础设施:公共设施:公共厕所",
        "type": 0,
        "location": {
            "lat": 29.321392,
            "lng": 95.297794
        },
        "ad_info": {
            "adcode": 540423,
            "province": "西藏自治区",
            "city": "林芝市",
            "district": "墨脱县"
        }
    },
    {
        "id": "14890226372702399195",
        "title": "公共厕所",
        "address": "西藏自治区林芝市墨脱县东布路与帕宗二路交叉口西南方向536米左右",
        "tel": "",
        "category": "基础设施:公共设施:公共厕所",
        "type": 0,
        "location": {
            "lat": 29.318854,
            "lng": 95.326918
        },
        "ad_info": {
            "adcode": 540423,
            "province": "西藏自治区",
            "city": "林芝市",
            "district": "墨脱县"
        }
    },
    {
        "id": "7477102550760311519",
        "title": "公共厕所",
        "address": "西藏自治区林芝市墨脱县双拥路与白玛岗路交叉口东北方向373米左右",
        "tel": "",
        "category": "基础设施:公共设施:公共厕所",
        "type": 0,
        "location": {
            "lat": 29.327634,
            "lng": 95.337329
        },
        "ad_info": {
            "adcode": 540423,
            "province": "西藏自治区",
            "city": "林芝市",
            "district": "墨脱县"
        }
    },
    {
        "id": "17314658077917552735",
        "title": "公共厕所",
        "address": "西藏自治区林芝市工布江达县S504与电站桥交叉口西南方向193米左右",
        "tel": "",
        "category": "基础设施:公共设施:公共厕所",
        "type": 0,
        "location": {
            "lat": 29.981359,
            "lng": 93.864736
        },
        "ad_info": {
            "adcode": 540421,
            "province": "西藏自治区",
            "city": "林芝市",
            "district": "工布江达县"
        }
    },
    {
        "id": "15663880050172674612",
        "title": "公共厕所",
        "address": "西藏自治区林芝市巴宜区妇幼保健院北侧110米",
        "tel": "",
        "category": "基础设施:公共设施:公共厕所",
        "type": 0,
        "location": {
            "lat": 29.657573,
            "lng": 94.364238
        },
        "ad_info": {
            "adcode": 540402,
            "province": "西藏自治区",
            "city": "林芝市",
            "district": "巴宜区"
        }
    },
    {
        "id": "3865570235086829826",
        "title": "公共厕所",
        "address": "西藏自治区林芝市墨脱县仁青崩寺北侧190米",
        "tel": "",
        "category": "基础设施:公共设施:公共厕所",
        "type": 0,
        "location": {
            "lat": 29.303047,
            "lng": 95.354047
        },
        "ad_info": {
            "adcode": 540423,
            "province": "西藏自治区",
            "city": "林芝市",
            "district": "墨脱县"
        }
    },
    {
        "id": "10917012036751553675",
        "title": "公共厕所",
        "address": "西藏自治区林芝市巴宜区站前路林芝站停车场",
        "tel": "",
        "category": "基础设施:公共设施:公共厕所",
        "type": 0,
        "location": {
            "lat": 29.526018,
            "lng": 94.435394
        },
        "ad_info": {
            "adcode": 540402,
            "province": "西藏自治区",
            "city": "林芝市",
            "district": "巴宜区"
        }
    },
    {
        "id": "11239617556602325546",
        "title": "公共厕所",
        "address": "西藏自治区林芝市墨脱县格林境遇民宿西侧",
        "tel": "",
        "category": "基础设施:公共设施:公共厕所",
        "type": 0,
        "location": {
            "lat": 29.213914,
            "lng": 95.1716
        },
        "ad_info": {
            "adcode": 540423,
            "province": "西藏自治区",
            "city": "林芝市",
            "district": "墨脱县"
        }
    },
    {
        "id": "6270915165589627466",
        "title": "公共厕所",
        "address": "西藏自治区林芝市巴宜区和谐路与工布民俗街交叉口正西方向110米左右",
        "tel": "",
        "category": "基础设施:公共设施:公共厕所",
        "type": 0,
        "location": {
            "lat": 29.639869,
            "lng": 94.371713
        },
        "ad_info": {
            "adcode": 540402,
            "province": "西藏自治区",
            "city": "林芝市",
            "district": "巴宜区"
        }
    },
    {
        "id": "11200312125794166027",
        "title": "莲花公园内公共厕所",
        "address": "西藏自治区林芝市墨脱县东布路与帕宗二路交叉口东北方向112米左右",
        "tel": "18008984107",
        "category": "基础设施:公共设施:公共厕所",
        "type": 0,
        "location": {
            "lat": 29.323248,
            "lng": 95.33123
        },
        "ad_info": {
            "adcode": 540423,
            "province": "西藏自治区",
            "city": "林芝市",
            "district": "墨脱县"
        }
    },
    {
        "id": "6563954164067055863",
        "title": "公共厕所",
        "address": "西藏自治区林芝市墨脱县中墨石油加油站南侧50米",
        "tel": "",
        "category": "基础设施:公共设施:公共厕所",
        "type": 0,
        "location": {
            "lat": 29.327602,
            "lng": 95.342647
        },
        "ad_info": {
            "adcode": 540423,
            "province": "西藏自治区",
            "city": "林芝市",
            "district": "墨脱县"
        }
    },
    {
        "id": "6835665116492980832",
        "title": "公共厕所",
        "address": "西藏自治区林芝市墨脱县双拥路与白玛岗路交叉口正北方向1223米左右",
        "tel": "",
        "category": "基础设施:公共设施:公共厕所",
        "type": 0,
        "location": {
            "lat": 29.336421,
            "lng": 95.335012
        },
        "ad_info": {
            "adcode": 540423,
            "province": "西藏自治区",
            "city": "林芝市",
            "district": "墨脱县"
        }
    },
    {
        "id": "6479132625766630173",
        "title": "公共厕所",
        "address": "西藏自治区林芝市巴宜区广福大道与滨河大道中段交叉口正南方向55米左右",
        "tel": "",
        "category": "基础设施:公共设施:公共厕所",
        "type": 0,
        "location": {
            "lat": 29.64751,
            "lng": 94.354437
        },
        "ad_info": {
            "adcode": 540402,
            "province": "西藏自治区",
            "city": "林芝市",
            "district": "巴宜区"
        }
    },
    {
        "id": "8492255586512588862",
        "title": "公共厕所",
        "address": "西藏自治区林芝市巴宜区鲁朗小镇",
        "tel": "",
        "category": "基础设施:公共设施:公共厕所",
        "type": 0,
        "location": {
            "lat": 29.730486,
            "lng": 94.725123
        },
        "ad_info": {
            "adcode": 540402,
            "province": "西藏自治区",
            "city": "林芝市",
            "district": "巴宜区"
        }
    },
    {
        "id": "950362778549775672",
        "title": "公共厕所",
        "address": "西藏自治区林芝市巴宜区G318与双拥北路交叉口正北方向631米左右",
        "tel": "",
        "category": "基础设施:公共设施:公共厕所",
        "type": 0,
        "location": {
            "lat": 29.684676,
            "lng": 94.354175
        },
        "ad_info": {
            "adcode": 540402,
            "province": "西藏自治区",
            "city": "林芝市",
            "district": "巴宜区"
        }
    },
    {
        "id": "2873013496186106104",
        "title": "公共厕所",
        "address": "西藏自治区林芝市巴宜区平安路与滨河大道中段交叉口西南方向145米左右",
        "tel": "",
        "category": "基础设施:公共设施:公共厕所",
        "type": 0,
        "location": {
            "lat": 29.655783,
            "lng": 94.352883
        },
        "ad_info": {
            "adcode": 540402,
            "province": "西藏自治区",
            "city": "林芝市",
            "district": "巴宜区"
        }
    },
    {
        "id": "15629309780788858806",
        "title": "公共厕所",
        "address": "西藏自治区林芝市巴宜区G318与鲁杰桥交叉口正北方向1561米左右",
        "tel": "",
        "category": "基础设施:公共设施:公共厕所",
        "type": 0,
        "location": {
            "lat": 29.741916,
            "lng": 94.726436
        },
        "ad_info": {
            "adcode": 540402,
            "province": "西藏自治区",
            "city": "林芝市",
            "district": "巴宜区"
        }
    },
    {
        "id": "4033895239463362067",
        "title": "公共厕所",
        "address": "西藏自治区林芝市巴宜区G318与林芝桥交叉口西北方向450米左右",
        "tel": "",
        "category": "基础设施:公共设施:公共厕所",
        "type": 0,
        "location": {
            "lat": 29.564325,
            "lng": 94.508198
        },
        "ad_info": {
            "adcode": 540402,
            "province": "西藏自治区",
            "city": "林芝市",
            "district": "巴宜区"
        }
    },
    {
        "id": "10157985489137445834",
        "title": "公共厕所",
        "address": "西藏自治区林芝市巴宜区喇嘛岭附近",
        "tel": "",
        "category": "基础设施:公共设施:公共厕所",
        "type": 0,
        "location": {
            "lat": 29.458599,
            "lng": 94.394449
        },
        "ad_info": {
            "adcode": 540402,
            "province": "西藏自治区",
            "city": "林芝市",
            "district": "巴宜区"
        }
    },
    {
        "id": "8859276244934652251",
        "title": "公共厕所",
        "address": "西藏自治区林芝市巴宜区G318与帕隆2号隧道交叉口东北方向52米左右",
        "tel": "",
        "category": "基础设施:公共设施:公共厕所",
        "type": 0,
        "location": {
            "lat": 30.020707,
            "lng": 95.006448
        },
        "ad_info": {
            "adcode": 540402,
            "province": "西藏自治区",
            "city": "林芝市",
            "district": "巴宜区"
        }
    },
    {
        "id": "10768112546656081673",
        "title": "公共厕所",
        "address": "西藏自治区林芝市巴宜区世界柏树王园林风景区西侧110米",
        "tel": "",
        "category": "基础设施:公共设施:公共厕所",
        "type": 0,
        "location": {
            "lat": 29.619282,
            "lng": 94.402119
        },
        "ad_info": {
            "adcode": 540402,
            "province": "西藏自治区",
            "city": "林芝市",
            "district": "巴宜区"
        }
    },
    {
        "id": "17714807746254508065",
        "title": "加色服务区公共厕所",
        "address": "西藏自治区林芝市工布江达县G4218林拉公路与加色服务区交叉口西南260米",
        "tel": "",
        "category": "基础设施:公共设施:公共厕所",
        "type": 0,
        "location": {
            "lat": 29.877919,
            "lng": 92.70789
        },
        "ad_info": {
            "adcode": 540421,
            "province": "西藏自治区",
            "city": "林芝市",
            "district": "工布江达县"
        }
    },
    {
        "id": "1052938702997812246",
        "title": "公共厕所",
        "address": "西藏自治区林芝市巴宜区G318与仲泉中桥交叉口西南方向1753米左右",
        "tel": "",
        "category": "基础设施:公共设施:公共厕所",
        "type": 0,
        "location": {
            "lat": 29.750046,
            "lng": 94.730739
        },
        "ad_info": {
            "adcode": 540402,
            "province": "西藏自治区",
            "city": "林芝市",
            "district": "巴宜区"
        }
    },
    {
        "id": "2725080200091272218",
        "title": "公共厕所",
        "address": "西藏自治区林芝市墨脱县东布路与帕宗二路交叉口西北方向45米左右",
        "tel": "",
        "category": "基础设施:公共设施:公共厕所",
        "type": 0,
        "location": {
            "lat": 29.322982,
            "lng": 95.329873
        },
        "ad_info": {
            "adcode": 540423,
            "province": "西藏自治区",
            "city": "林芝市",
            "district": "墨脱县"
        }
    },
    {
        "id": "17857830770802705219",
        "title": "公共厕所",
        "address": "西藏自治区林芝市巴宜区中国邮政(百巴镇邮政所)东侧170米",
        "tel": "",
        "category": "基础设施:公共设施:公共厕所",
        "type": 0,
        "location": {
            "lat": 29.795023,
            "lng": 93.852962
        },
        "ad_info": {
            "adcode": 540402,
            "province": "西藏自治区",
            "city": "林芝市",
            "district": "巴宜区"
        }
    },
    {
        "id": "13886050698021510908",
        "title": "公共厕所",
        "address": "西藏自治区林芝市巴宜区鲁朗镇",
        "tel": "",
        "category": "基础设施:公共设施:公共厕所",
        "type": 0,
        "location": {
            "lat": 29.672436,
            "lng": 94.731711
        },
        "ad_info": {
            "adcode": 540402,
            "province": "西藏自治区",
            "city": "林芝市",
            "district": "巴宜区"
        }
    },
    {
        "id": "244474073352684239",
        "title": "公共厕所",
        "address": "西藏自治区林芝市巴宜区鲁朗镇",
        "tel": "",
        "category": "基础设施:公共设施:公共厕所",
        "type": 0,
        "location": {
            "lat": 29.645048,
            "lng": 94.736167
        },
        "ad_info": {
            "adcode": 540402,
            "province": "西藏自治区",
            "city": "林芝市",
            "district": "巴宜区"
        }
    },
    {
        "id": "15922215113663833989",
        "title": "公共厕所",
        "address": "西藏自治区林芝市巴宜区昌隆废品收购站西南侧",
        "tel": "",
        "category": "基础设施:公共设施:公共厕所",
        "type": 0,
        "location": {
            "lat": 29.763059,
            "lng": 94.740316
        },
        "ad_info": {
            "adcode": 540402,
            "province": "西藏自治区",
            "city": "林芝市",
            "district": "巴宜区"
        }
    },
    {
        "id": "4699912030401465743",
        "title": "公共厕所",
        "address": "西藏自治区林芝市墨脱县G219与背崩雅鲁藏布大桥交叉口正南方向197米左右",
        "tel": "",
        "category": "基础设施:公共设施:公共厕所",
        "type": 0,
        "location": {
            "lat": 29.241377,
            "lng": 95.166488
        },
        "ad_info": {
            "adcode": 540423,
            "province": "西藏自治区",
            "city": "林芝市",
            "district": "墨脱县"
        }
    },
    {
        "id": "10889494309165193282",
        "title": "公共厕所",
        "address": "西藏自治区林芝市巴宜区G318国道田园风光景区旁",
        "tel": "",
        "category": "基础设施:公共设施:公共厕所",
        "type": 0,
        "location": {
            "lat": 29.673169,
            "lng": 94.726452
        },
        "ad_info": {
            "adcode": 540402,
            "province": "西藏自治区",
            "city": "林芝市",
            "district": "巴宜区"
        }
    },
    {
        "id": "2076695579894706897",
        "title": "墨脱县62K公共厕所",
        "address": "西藏自治区林芝市墨脱县墨脱公路",
        "tel": "",
        "category": "基础设施:公共设施:公共厕所",
        "type": 0,
        "location": {
            "lat": 29.707149,
            "lng": 95.583897
        },
        "ad_info": {
            "adcode": 540423,
            "province": "西藏自治区",
            "city": "林芝市",
            "district": "墨脱县"
        }
    },
    {
        "id": "8060788312184537868",
        "title": "公共厕所",
        "address": "西藏自治区林芝市巴宜区G318(沪聂线)千年核桃民俗村",
        "tel": "",
        "category": "基础设施:公共设施:公共厕所",
        "type": 0,
        "location": {
            "lat": 29.698208,
            "lng": 94.342897
        },
        "ad_info": {
            "adcode": 540402,
            "province": "西藏自治区",
            "city": "林芝市",
            "district": "巴宜区"
        }
    },
    {
        "id": "8332582191980071198",
        "title": "公共厕所",
        "address": "西藏自治区林芝市巴宜区鲁朗镇",
        "tel": "",
        "category": "基础设施:公共设施:公共厕所",
        "type": 0,
        "location": {
            "lat": 29.745266,
            "lng": 94.740442
        },
        "ad_info": {
            "adcode": 540402,
            "province": "西藏自治区",
            "city": "林芝市",
            "district": "巴宜区"
        }
    },
    {
        "id": "10075832591341157728",
        "title": "公共厕所",
        "address": "西藏自治区林芝市墨脱县墨脱公路玛迪村公共厕所",
        "tel": "",
        "category": "基础设施:公共设施:公共厕所",
        "type": 0,
        "location": {
            "lat": 29.39167,
            "lng": 95.380751
        },
        "ad_info": {
            "adcode": 540423,
            "province": "西藏自治区",
            "city": "林芝市",
            "district": "墨脱县"
        }
    },
    {
        "id": "5360003679920416157",
        "title": "公共厕所",
        "address": "西藏自治区林芝市墨脱县G219与致富路交叉口正西方向468米左右",
        "tel": "",
        "category": "基础设施:公共设施:公共厕所",
        "type": 0,
        "location": {
            "lat": 29.322298,
            "lng": 95.322987
        },
        "ad_info": {
            "adcode": 540423,
            "province": "西藏自治区",
            "city": "林芝市",
            "district": "墨脱县"
        }
    },
    {
        "id": "16387372657949988402",
        "title": "墨脱县52K公共厕所",
        "address": "西藏自治区林芝市墨脱县墨脱公路52K公共厕所",
        "tel": "18889047553",
        "category": "基础设施:公共设施:公共厕所",
        "type": 0,
        "location": {
            "lat": 29.735081,
            "lng": 95.677998
        },
        "ad_info": {
            "adcode": 540423,
            "province": "西藏自治区",
            "city": "林芝市",
            "district": "墨脱县"
        }
    },
    {
        "id": "6151808474433638267",
        "title": "邦杰塘服务区公共厕所",
        "address": "西藏自治区林芝市工布江达县邦杰塘服务区丁肉东侧",
        "tel": "",
        "category": "基础设施:公共设施:公共厕所",
        "type": 0,
        "location": {
            "lat": 29.908705,
            "lng": 92.358057
        },
        "ad_info": {
            "adcode": 540421,
            "province": "西藏自治区",
            "city": "林芝市",
            "district": "工布江达县"
        }
    },
    {
        "id": "14189236687184508284",
        "title": "金达服务区公共厕所",
        "address": "西藏自治区林芝市工布江达县金达服务区中国邮政西侧",
        "tel": "",
        "category": "基础设施:公共设施:公共厕所",
        "type": 0,
        "location": {
            "lat": 30.030944,
            "lng": 92.919483
        },
        "ad_info": {
            "adcode": 540421,
            "province": "西藏自治区",
            "city": "林芝市",
            "district": "工布江达县"
        }
    },
    {
        "id": "17383476916607746354",
        "title": "秀巴停车区公共厕所",
        "address": "西藏自治区林芝市工布江达县秀巴停车区与G4218雅叶高速交叉口西280米",
        "tel": "",
        "category": "基础设施:公共设施:公共厕所",
        "type": 0,
        "location": {
            "lat": 29.836201,
            "lng": 93.719379
        },
        "ad_info": {
            "adcode": 540421,
            "province": "西藏自治区",
            "city": "林芝市",
            "district": "工布江达县"
        }
    },
    {
        "id": "16527723864826356276",
        "title": "加色服务区公共厕所",
        "address": "西藏自治区林芝市工布江达县G4218雅叶高速与加色服务区交叉口西南260米",
        "tel": "",
        "category": "基础设施:公共设施:公共厕所",
        "type": 0,
        "location": {
            "lat": 29.878799,
            "lng": 92.70728
        },
        "ad_info": {
            "adcode": 540421,
            "province": "西藏自治区",
            "city": "林芝市",
            "district": "工布江达县"
        }
    },
    {
        "id": "3533889417936846991",
        "title": "金达服务区公共厕所",
        "address": "西藏自治区林芝市工布江达县G4218林拉公路与金达服务区交叉口西320米",
        "tel": "",
        "category": "基础设施:公共设施:公共厕所",
        "type": 0,
        "location": {
            "lat": 30.032751,
            "lng": 92.920036
        },
        "ad_info": {
            "adcode": 540421,
            "province": "西藏自治区",
            "city": "林芝市",
            "district": "工布江达县"
        }
    },
    {
        "id": "3794947759261606288",
        "title": "邦杰塘服务区公共厕所",
        "address": "西藏自治区林芝市工布江达县G4218林拉公路与邦杰塘服务区交叉口西300米",
        "tel": "",
        "category": "基础设施:公共设施:公共厕所",
        "type": 0,
        "location": {
            "lat": 29.910378,
            "lng": 92.357487
        },
        "ad_info": {
            "adcode": 540421,
            "province": "西藏自治区",
            "city": "林芝市",
            "district": "工布江达县"
        }
    },
    {
        "id": "1213699672582190140",
        "title": "皮康村服务区公共厕所",
        "address": "西藏自治区林芝市工布江达县G4218雅叶高速与皮康村服务区交叉口南180米",
        "tel": "",
        "category": "基础设施:公共设施:公共厕所",
        "type": 0,
        "location": {
            "lat": 29.976767,
            "lng": 93.104638
        },
        "ad_info": {
            "adcode": 540421,
            "province": "西藏自治区",
            "city": "林芝市",
            "district": "工布江达县"
        }
    },
    {
        "id": "5034059978556384512",
        "title": "皮康村服务区公共厕所",
        "address": "西藏自治区林芝市工布江达县皮康村服务区与G4218雅叶高速交叉口东南160米",
        "tel": "",
        "category": "基础设施:公共设施:公共厕所",
        "type": 0,
        "location": {
            "lat": 29.976773,
            "lng": 93.106002
        },
        "ad_info": {
            "adcode": 540421,
            "province": "西藏自治区",
            "city": "林芝市",
            "district": "工布江达县"
        }
    },
    {
        "id": "98816484917162934",
        "title": "玉膳府-公共厕所",
        "address": "西藏自治区林芝市巴宜区广州大道与广州大道南段交叉口正北方向161米左右",
        "tel": "",
        "category": "基础设施:公共设施:公共厕所",
        "type": 0,
        "location": {
            "lat": 29.649006,
            "lng": 94.363277
        },
        "ad_info": {
            "adcode": 540402,
            "province": "西藏自治区",
            "city": "林芝市",
            "district": "巴宜区"
        }
    },
    {
        "id": "15504732206758848991",
        "title": "55k公共厕所",
        "address": "西藏自治区林芝市墨脱县",
        "tel": "",
        "category": "基础设施:公共设施:公共厕所",
        "type": 0,
        "location": {
            "lat": 29.714414,
            "lng": 95.619526
        },
        "ad_info": {
            "adcode": 540423,
            "province": "西藏自治区",
            "city": "林芝市",
            "district": "墨脱县"
        }
    },
    {
        "id": "3404613130866249287",
        "title": "80k公共厕所",
        "address": "西藏自治区林芝市墨脱县",
        "tel": "",
        "category": "基础设施:公共设施:公共厕所",
        "type": 0,
        "location": {
            "lat": 29.655882,
            "lng": 95.49166
        },
        "ad_info": {
            "adcode": 540423,
            "province": "西藏自治区",
            "city": "林芝市",
            "district": "墨脱县"
        }
    },
    {
        "id": "798766312950444103",
        "title": "玉膳府-公共厕所",
        "address": "西藏自治区林芝市巴宜区八一镇广卅大道112号(山水S酒店对面)",
        "tel": "",
        "category": "基础设施:公共设施:公共厕所",
        "type": 0,
        "location": {
            "lat": 29.649365,
            "lng": 94.36332
        },
        "ad_info": {
            "adcode": 540402,
            "province": "西藏自治区",
            "city": "林芝市",
            "district": "巴宜区"
        }
    },
    {
        "id": "10929578236920192234",
        "title": "莲花公园古街公共厕所",
        "address": "西藏自治区林芝市墨脱县东布路与帕宗二路交叉口正东方向116米左右",
        "tel": "18008984107",
        "category": "基础设施:公共设施:公共厕所",
        "type": 0,
        "location": {
            "lat": 29.322668,
            "lng": 95.331436
        },
        "ad_info": {
            "adcode": 540423,
            "province": "西藏自治区",
            "city": "林芝市",
            "district": "墨脱县"
        }
    },
    {
        "id": "8683248615537028096",
        "title": "莲花公园东公共厕所",
        "address": "西藏自治区林芝市墨脱县双拥路与白玛岗路交叉口正南方向294米",
        "tel": "",
        "category": "基础设施:公共设施:公共厕所",
        "type": 0,
        "location": {
            "lat": 29.322747,
            "lng": 95.334212
        },
        "ad_info": {
            "adcode": 540423,
            "province": "西藏自治区",
            "city": "林芝市",
            "district": "墨脱县"
        }
    },
    {
        "id": "1591746694232971909",
        "title": "公共厕所",
        "address": "西藏自治区林芝市巴宜区双拥东路与林安路交叉口正东方向1277米左右",
        "tel": "",
        "category": "基础设施:公共设施:公共厕所",
        "type": 0,
        "location": {
            "lat": 29.652543,
            "lng": 94.382537
        },
        "ad_info": {
            "adcode": 540402,
            "province": "西藏自治区",
            "city": "林芝市",
            "district": "巴宜区"
        }
    },
    {
        "id": "1919886119787806189",
        "title": "公共厕所",
        "address": "西藏自治区林芝市巴宜区雅鲁藏布(恰巴村)蓝莓基地西南侧60米",
        "tel": "",
        "category": "基础设施:公共设施:公共厕所",
        "type": 0,
        "location": {
            "lat": 29.751418,
            "lng": 94.201496
        },
        "ad_info": {
            "adcode": 540402,
            "province": "西藏自治区",
            "city": "林芝市",
            "district": "巴宜区"
        }
    },
    {
        "id": "11246926987168695841",
        "title": "百巴服务区公共厕所",
        "address": "西藏自治区林芝市巴宜区中国石油军民融合百巴服务区加油站东侧150米",
        "tel": "",
        "category": "基础设施:公共设施:公共厕所",
        "type": 0,
        "location": {
            "lat": 29.793631,
            "lng": 93.897892
        },
        "ad_info": {
            "adcode": 540402,
            "province": "西藏自治区",
            "city": "林芝市",
            "district": "巴宜区"
        }
    },
    {
        "id": "13896424010673641011",
        "title": "百巴服务区公共厕所",
        "address": "西藏自治区林芝市巴宜区中国石油军民融合百巴服务区加油站西侧140米",
        "tel": "",
        "category": "基础设施:公共设施:公共厕所",
        "type": 0,
        "location": {
            "lat": 29.792589,
            "lng": 93.895234
        },
        "ad_info": {
            "adcode": 540402,
            "province": "西藏自治区",
            "city": "林芝市",
            "district": "巴宜区"
        }
    },
    {
        "id": "3977042709991963499",
        "title": "多布停车区公共厕所",
        "address": "西藏自治区林芝市巴宜区多布停车区西北40米",
        "tel": "",
        "category": "基础设施:公共设施:公共厕所",
        "type": 0,
        "location": {
            "lat": 29.734239,
            "lng": 94.126468
        },
        "ad_info": {
            "adcode": 540402,
            "province": "西藏自治区",
            "city": "林芝市",
            "district": "巴宜区"
        }
    },
    {
        "id": "12169087345926128297",
        "title": "公共厕所",
        "address": "西藏自治区林芝市巴宜区S306与仲莎桥交叉口东北方向975米左右",
        "tel": "",
        "category": "基础设施:公共设施:公共厕所",
        "type": 0,
        "location": {
            "lat": 29.411611,
            "lng": 94.439942
        },
        "ad_info": {
            "adcode": 540402,
            "province": "西藏自治区",
            "city": "林芝市",
            "district": "巴宜区"
        }
    },
    {
        "id": "1811059803091402830",
        "title": "公共厕所",
        "address": "西藏自治区林芝市巴宜区G318(沪聂线)",
        "tel": "",
        "category": "基础设施:公共设施:公共厕所",
        "type": 0,
        "location": {
            "lat": 29.607341,
            "lng": 94.652383
        },
        "ad_info": {
            "adcode": 540402,
            "province": "西藏自治区",
            "city": "林芝市",
            "district": "巴宜区"
        }
    },
    {
        "id": "7023054981139749673",
        "title": "公共厕所",
        "address": "西藏自治区林芝市巴宜区滨河大道南段与白玛岗路交叉口东南方向59米左右",
        "tel": "",
        "category": "基础设施:公共设施:公共厕所",
        "type": 0,
        "location": {
            "lat": 29.625882,
            "lng": 94.366822
        },
        "ad_info": {
            "adcode": 540402,
            "province": "西藏自治区",
            "city": "林芝市",
            "district": "巴宜区"
        }
    },
    {
        "id": "17281037741295197223",
        "title": "工布江达服务区公共厕所",
        "address": "西藏自治区林芝市工布江达县中国石化工布江达服务区加油站北侧150米",
        "tel": "",
        "category": "基础设施:公共设施:公共厕所",
        "type": 0,
        "location": {
            "lat": 29.889673,
            "lng": 93.325074
        },
        "ad_info": {
            "adcode": 540421,
            "province": "西藏自治区",
            "city": "林芝市",
            "district": "工布江达县"
        }
    },
    {
        "id": "7295466723492359841",
        "title": "工布江达服务区公共厕所",
        "address": "西藏自治区林芝市工布江达县中国石化工布江达服务区加油站南侧170米",
        "tel": "",
        "category": "基础设施:公共设施:公共厕所",
        "type": 0,
        "location": {
            "lat": 29.887532,
            "lng": 93.323421
        },
        "ad_info": {
            "adcode": 540421,
            "province": "西藏自治区",
            "city": "林芝市",
            "district": "工布江达县"
        }
    },
    {
        "id": "12758907114041006529",
        "title": "公共厕所",
        "address": "西藏自治区林芝市巴宜区尼池中路与尼池西路交叉口正南方向136米左右",
        "tel": "",
        "category": "基础设施:公共设施:公共厕所",
        "type": 0,
        "location": {
            "lat": 29.634369,
            "lng": 94.363833
        },
        "ad_info": {
            "adcode": 540402,
            "province": "西藏自治区",
            "city": "林芝市",
            "district": "巴宜区"
        }
    }
]