[
    {
        "id": "17846292647241874520",
        "title": "公共厕所",
        "address": "青海省果洛藏族自治州玛沁县环城西路与解放路交叉口西北方向100米左右",
        "tel": "",
        "category": "基础设施:公共设施:公共厕所",
        "type": 0,
        "location": {
            "lat": 34.470396,
            "lng": 100.236727
        },
        "ad_info": {
            "adcode": 632621,
            "province": "青海省",
            "city": "果洛藏族自治州",
            "district": "玛沁县"
        }
    },
    {
        "id": "17346947097257215646",
        "title": "公共厕所",
        "address": "青海省果洛藏族自治州玛沁县体育滨河路与体育路交叉口正北方向56米左右",
        "tel": "",
        "category": "基础设施:公共设施:公共厕所",
        "type": 0,
        "location": {
            "lat": 34.454504,
            "lng": 100.256346
        },
        "ad_info": {
            "adcode": 632621,
            "province": "青海省",
            "city": "果洛藏族自治州",
            "district": "玛沁县"
        }
    },
    {
        "id": "9262332504682779228",
        "title": "公共厕所",
        "address": "青海省果洛藏族自治州玛沁县滨河北路与解放路交叉口东北方向145米左右",
        "tel": "",
        "category": "基础设施:公共设施:公共厕所",
        "type": 0,
        "location": {
            "lat": 34.466322,
            "lng": 100.231272
        },
        "ad_info": {
            "adcode": 632621,
            "province": "青海省",
            "city": "果洛藏族自治州",
            "district": "玛沁县"
        }
    },
    {
        "id": "13701687938273972056",
        "title": "公共厕所",
        "address": "青海省果洛藏族自治州玛沁县环城西路与班玛路交叉口正东方向56米左右",
        "tel": "",
        "category": "基础设施:公共设施:公共厕所",
        "type": 0,
        "location": {
            "lat": 34.466521,
            "lng": 100.240372
        },
        "ad_info": {
            "adcode": 632621,
            "province": "青海省",
            "city": "果洛藏族自治州",
            "district": "玛沁县"
        }
    },
    {
        "id": "14047813844427202277",
        "title": "公共厕所",
        "address": "青海省果洛藏族自治州玛沁县健康路与雪山路交叉口东北方向228米左右",
        "tel": "",
        "category": "基础设施:公共设施:公共厕所",
        "type": 0,
        "location": {
            "lat": 34.479968,
            "lng": 100.240795
        },
        "ad_info": {
            "adcode": 632621,
            "province": "青海省",
            "city": "果洛藏族自治州",
            "district": "玛沁县"
        }
    },
    {
        "id": "4677129971666185082",
        "title": "公共厕所",
        "address": "青海省果洛藏族自治州班玛县环城东路与阿什羌路交叉口西南方向191米左右",
        "tel": "",
        "category": "基础设施:公共设施:公共厕所",
        "type": 0,
        "location": {
            "lat": 32.925445,
            "lng": 100.745651
        },
        "ad_info": {
            "adcode": 632622,
            "province": "青海省",
            "city": "果洛藏族自治州",
            "district": "班玛县"
        }
    },
    {
        "id": "13260320774872890921",
        "title": "公共厕所",
        "address": "青海省果洛藏族自治州玛沁县环城西路与胜利路交叉口东南方向268米左右",
        "tel": "",
        "category": "基础设施:公共设施:公共厕所",
        "type": 0,
        "location": {
            "lat": 34.463873,
            "lng": 100.241764
        },
        "ad_info": {
            "adcode": 632621,
            "province": "青海省",
            "city": "果洛藏族自治州",
            "district": "玛沁县"
        }
    },
    {
        "id": "1970364460553231815",
        "title": "公共厕所",
        "address": "青海省果洛藏族自治州久治县南环路2号",
        "tel": "",
        "category": "基础设施:公共设施:公共厕所",
        "type": 0,
        "location": {
            "lat": 33.429164,
            "lng": 101.491015
        },
        "ad_info": {
            "adcode": 632625,
            "province": "青海省",
            "city": "果洛藏族自治州",
            "district": "久治县"
        }
    },
    {
        "id": "17204568415165437497",
        "title": "公共厕所",
        "address": "青海省果洛藏族自治州玛沁县安宁路与环城北路交叉口西北方向23米左右",
        "tel": "",
        "category": "基础设施:公共设施:公共厕所",
        "type": 0,
        "location": {
            "lat": 34.484652,
            "lng": 100.2385
        },
        "ad_info": {
            "adcode": 632621,
            "province": "青海省",
            "city": "果洛藏族自治州",
            "district": "玛沁县"
        }
    },
    {
        "id": "13277432254332315302",
        "title": "公共厕所",
        "address": "青海省果洛藏族自治州玛多县安康路与聪宏路交叉口正西方向84米左右",
        "tel": "",
        "category": "基础设施:公共设施:公共厕所",
        "type": 0,
        "location": {
            "lat": 34.911806,
            "lng": 98.210482
        },
        "ad_info": {
            "adcode": 632626,
            "province": "青海省",
            "city": "果洛藏族自治州",
            "district": "玛多县"
        }
    },
    {
        "id": "1177510121794251991",
        "title": "公共厕所",
        "address": "青海省果洛藏族自治州甘德县吾勤东路与吾勤西路交叉口东南方向153米左右",
        "tel": "",
        "category": "基础设施:公共设施:公共厕所",
        "type": 0,
        "location": {
            "lat": 33.96524,
            "lng": 99.903131
        },
        "ad_info": {
            "adcode": 632623,
            "province": "青海省",
            "city": "果洛藏族自治州",
            "district": "甘德县"
        }
    },
    {
        "id": "10848447657452721713",
        "title": "公共厕所",
        "address": "青海省果洛藏族自治州玛沁县洋玉路与滨河北路交叉口东北方向172米左右",
        "tel": "",
        "category": "基础设施:公共设施:公共厕所",
        "type": 0,
        "location": {
            "lat": 34.468284,
            "lng": 100.230391
        },
        "ad_info": {
            "adcode": 632621,
            "province": "青海省",
            "city": "果洛藏族自治州",
            "district": "玛沁县"
        }
    },
    {
        "id": "14503348158851941303",
        "title": "公共厕所",
        "address": "青海省果洛藏族自治州达日县S101与平安路交叉口正东方向57米左右",
        "tel": "",
        "category": "基础设施:公共设施:公共厕所",
        "type": 0,
        "location": {
            "lat": 33.76044,
            "lng": 99.660619
        },
        "ad_info": {
            "adcode": 632624,
            "province": "青海省",
            "city": "果洛藏族自治州",
            "district": "达日县"
        }
    },
    {
        "id": "1133249185955188614",
        "title": "公共厕所",
        "address": "青海省果洛藏族自治州久治县索乎日麻乡政府",
        "tel": "",
        "category": "基础设施:公共设施:公共厕所",
        "type": 0,
        "location": {
            "lat": 33.428898,
            "lng": 101.055123
        },
        "ad_info": {
            "adcode": 632625,
            "province": "青海省",
            "city": "果洛藏族自治州",
            "district": "久治县"
        }
    },
    {
        "id": "11751086909161209930",
        "title": "公共厕所",
        "address": "青海省果洛藏族自治州玛多县G214与S219交叉口正东方向203米左右",
        "tel": "",
        "category": "基础设施:公共设施:公共厕所",
        "type": 0,
        "location": {
            "lat": 35.11507,
            "lng": 98.868859
        },
        "ad_info": {
            "adcode": 632626,
            "province": "青海省",
            "city": "果洛藏族自治州",
            "district": "玛多县"
        }
    },
    {
        "id": "4259447412852770794",
        "title": "公共厕所",
        "address": "青海省果洛藏族自治州班玛县S208(赛格段)",
        "tel": "",
        "category": "基础设施:公共设施:公共厕所",
        "type": 0,
        "location": {
            "lat": 32.774966,
            "lng": 100.826322
        },
        "ad_info": {
            "adcode": 632622,
            "province": "青海省",
            "city": "果洛藏族自治州",
            "district": "班玛县"
        }
    },
    {
        "id": "9661892757822303049",
        "title": "公共厕所",
        "address": "青海省果洛藏族自治州达日县S101与黄河东路交叉口西南方向145米左右",
        "tel": "",
        "category": "基础设施:公共设施:公共厕所",
        "type": 0,
        "location": {
            "lat": 33.757048,
            "lng": 99.659977
        },
        "ad_info": {
            "adcode": 632624,
            "province": "青海省",
            "city": "果洛藏族自治州",
            "district": "达日县"
        }
    },
    {
        "id": "5892891366779430344",
        "title": "公共厕所",
        "address": "青海省果洛藏族自治州久治县101省道附近",
        "tel": "",
        "category": "基础设施:公共设施:公共厕所",
        "type": 0,
        "location": {
            "lat": 33.286061,
            "lng": 100.861719
        },
        "ad_info": {
            "adcode": 632625,
            "province": "青海省",
            "city": "果洛藏族自治州",
            "district": "久治县"
        }
    },
    {
        "id": "17805190256380522482",
        "title": "公共厕所",
        "address": "青海省果洛藏族自治州达日县建设乡狮龙宫殿西侧",
        "tel": "",
        "category": "基础设施:公共设施:公共厕所",
        "type": 0,
        "location": {
            "lat": 33.77092,
            "lng": 99.480021
        },
        "ad_info": {
            "adcode": 632624,
            "province": "青海省",
            "city": "果洛藏族自治州",
            "district": "达日县"
        }
    },
    {
        "id": "14136502773429736270",
        "title": "公共厕所",
        "address": "青海省果洛藏族自治州玛多县G214与黄河沿路交叉口正东方向130米左右",
        "tel": "",
        "category": "基础设施:公共设施:公共厕所",
        "type": 0,
        "location": {
            "lat": 34.88961,
            "lng": 98.214461
        },
        "ad_info": {
            "adcode": 632626,
            "province": "青海省",
            "city": "果洛藏族自治州",
            "district": "玛多县"
        }
    },
    {
        "id": "16917219360478137446",
        "title": "公共厕所",
        "address": "青海省果洛藏族自治州甘德县吾勤东路与滨河路交叉口正东方向270米左右",
        "tel": "",
        "category": "基础设施:公共设施:公共厕所",
        "type": 0,
        "location": {
            "lat": 33.96792,
            "lng": 99.909718
        },
        "ad_info": {
            "adcode": 632623,
            "province": "青海省",
            "city": "果洛藏族自治州",
            "district": "甘德县"
        }
    },
    {
        "id": "13170954472403964835",
        "title": "公共厕所",
        "address": "青海省果洛藏族自治州达日县Y742(确查段)",
        "tel": "",
        "category": "基础设施:公共设施:公共厕所",
        "type": 0,
        "location": {
            "lat": 33.727666,
            "lng": 99.506109
        },
        "ad_info": {
            "adcode": 632624,
            "province": "青海省",
            "city": "果洛藏族自治州",
            "district": "达日县"
        }
    },
    {
        "id": "12552829646109489555",
        "title": "公共厕所",
        "address": "青海省果洛藏族自治州班玛县人民路中石油加油站",
        "tel": "",
        "category": "基础设施:公共设施:公共厕所",
        "type": 0,
        "location": {
            "lat": 32.944777,
            "lng": 100.735358
        },
        "ad_info": {
            "adcode": 632622,
            "province": "青海省",
            "city": "果洛藏族自治州",
            "district": "班玛县"
        }
    },
    {
        "id": "3336111299967943505",
        "title": "公共厕所",
        "address": "青海省果洛藏族自治州班玛县白扎寺旅游景区西南侧180米",
        "tel": "",
        "category": "基础设施:公共设施:公共厕所",
        "type": 0,
        "location": {
            "lat": 32.916481,
            "lng": 100.77259
        },
        "ad_info": {
            "adcode": 632622,
            "province": "青海省",
            "city": "果洛藏族自治州",
            "district": "班玛县"
        }
    },
    {
        "id": "6974170652968750824",
        "title": "公共厕所",
        "address": "青海省果洛藏族自治州班玛县101省道西50米",
        "tel": "",
        "category": "基础设施:公共设施:公共厕所",
        "type": 0,
        "location": {
            "lat": 33.123053,
            "lng": 100.564663
        },
        "ad_info": {
            "adcode": 632622,
            "province": "青海省",
            "city": "果洛藏族自治州",
            "district": "班玛县"
        }
    },
    {
        "id": "9190772213331160335",
        "title": "旅游公共厕所",
        "address": "青海省果洛藏族自治州玛多县S205与环城东路交叉口正南方向641米左右",
        "tel": "",
        "category": "基础设施:公共设施:公共厕所",
        "type": 0,
        "location": {
            "lat": 35.103462,
            "lng": 98.860795
        },
        "ad_info": {
            "adcode": 632626,
            "province": "青海省",
            "city": "果洛藏族自治州",
            "district": "玛多县"
        }
    },
    {
        "id": "15583117525166057019",
        "title": "门堂服务区公共厕所",
        "address": "青海省果洛藏族自治州久治县G0615德马高速与门堂服务区交叉口西北300米",
        "tel": "",
        "category": "基础设施:公共设施:公共厕所",
        "type": 0,
        "location": {
            "lat": 33.819422,
            "lng": 101.03615
        },
        "ad_info": {
            "adcode": 632625,
            "province": "青海省",
            "city": "果洛藏族自治州",
            "district": "久治县"
        }
    },
    {
        "id": "12976200803193370843",
        "title": "东倾沟停车区公共厕所",
        "address": "青海省果洛藏族自治州玛沁县G0615德马高速与东倾沟停车区交叉口西220米",
        "tel": "",
        "category": "基础设施:公共设施:公共厕所",
        "type": 0,
        "location": {
            "lat": 34.564988,
            "lng": 99.945698
        },
        "ad_info": {
            "adcode": 632621,
            "province": "青海省",
            "city": "果洛藏族自治州",
            "district": "玛沁县"
        }
    },
    {
        "id": "10858030119108082463",
        "title": "门堂服务区公共厕所",
        "address": "青海省果洛藏族自治州久治县G0615德马高速与门堂服务区交叉口西北440米",
        "tel": "",
        "category": "基础设施:公共设施:公共厕所",
        "type": 0,
        "location": {
            "lat": 33.819319,
            "lng": 101.033553
        },
        "ad_info": {
            "adcode": 632625,
            "province": "青海省",
            "city": "果洛藏族自治州",
            "district": "久治县"
        }
    },
    {
        "id": "3073999800715579620",
        "title": "东倾沟停车区公共厕所",
        "address": "青海省果洛藏族自治州玛沁县G0615德马高速与东倾沟停车区交叉口西280米",
        "tel": "",
        "category": "基础设施:公共设施:公共厕所",
        "type": 0,
        "location": {
            "lat": 34.563943,
            "lng": 99.944718
        },
        "ad_info": {
            "adcode": 632621,
            "province": "青海省",
            "city": "果洛藏族自治州",
            "district": "玛沁县"
        }
    }
]