[
    {
        "id": "6793410287957674579",
        "title": "公共厕所",
        "address": "广西壮族自治区柳州市城中区公园路72号星河大厦2层",
        "tel": "",
        "category": "基础设施:公共设施:公共厕所",
        "type": 0,
        "location": {
            "lat": 24.314602,
            "lng": 109.411998
        },
        "ad_info": {
            "adcode": 450202,
            "province": "广西壮族自治区",
            "city": "柳州市",
            "district": "城中区"
        }
    },
    {
        "id": "15989422190929326712",
        "title": "公共厕所",
        "address": "广西壮族自治区柳州市城中区公园路与公园路北三巷交叉口西北方向50米左右",
        "tel": "",
        "category": "基础设施:公共设施:公共厕所",
        "type": 0,
        "location": {
            "lat": 24.314313,
            "lng": 109.412913
        },
        "ad_info": {
            "adcode": 450202,
            "province": "广西壮族自治区",
            "city": "柳州市",
            "district": "城中区"
        }
    },
    {
        "id": "15534131770057009448",
        "title": "公共厕所",
        "address": "广西壮族自治区柳州市城中区解放南路40号泰华大厦",
        "tel": "",
        "category": "基础设施:公共设施:公共厕所",
        "type": 0,
        "location": {
            "lat": 24.311393,
            "lng": 109.413167
        },
        "ad_info": {
            "adcode": 450202,
            "province": "广西壮族自治区",
            "city": "柳州市",
            "district": "城中区"
        }
    },
    {
        "id": "9180177229189390494",
        "title": "公共厕所",
        "address": "广西壮族自治区柳州市城中区康顺路与柳州东街交叉口正西方向150米左右",
        "tel": "",
        "category": "基础设施:公共设施:公共厕所",
        "type": 0,
        "location": {
            "lat": 24.329143,
            "lng": 109.444655
        },
        "ad_info": {
            "adcode": 450202,
            "province": "广西壮族自治区",
            "city": "柳州市",
            "district": "城中区"
        }
    },
    {
        "id": "5721211170695381485",
        "title": "公共厕所",
        "address": "广西壮族自治区柳州市城中区中山中路与中山西路交叉口西南方向29米左右",
        "tel": "",
        "category": "基础设施:公共设施:公共厕所",
        "type": 0,
        "location": {
            "lat": 24.311418,
            "lng": 109.409074
        },
        "ad_info": {
            "adcode": 450202,
            "province": "广西壮族自治区",
            "city": "柳州市",
            "district": "城中区"
        }
    },
    {
        "id": "9980059531590663334",
        "title": "公共厕所",
        "address": "广西壮族自治区柳州市城中区五星商业步行街与曙光中路交叉口正西方向90米左右",
        "tel": "",
        "category": "基础设施:公共设施:公共厕所",
        "type": 0,
        "location": {
            "lat": 24.309772,
            "lng": 109.412371
        },
        "ad_info": {
            "adcode": 450202,
            "province": "广西壮族自治区",
            "city": "柳州市",
            "district": "城中区"
        }
    },
    {
        "id": "2188749314142990211",
        "title": "公共厕所",
        "address": "广西壮族自治区柳州市城中区桂柳路36号",
        "tel": "",
        "category": "基础设施:公共设施:公共厕所",
        "type": 0,
        "location": {
            "lat": 24.324808,
            "lng": 109.464706
        },
        "ad_info": {
            "adcode": 450202,
            "province": "广西壮族自治区",
            "city": "柳州市",
            "district": "城中区"
        }
    },
    {
        "id": "6251807561972081212",
        "title": "公共厕所",
        "address": "广西壮族自治区柳州市城中区学院路东一巷与通达路交叉口西南方向96米左右",
        "tel": "",
        "category": "基础设施:公共设施:公共厕所",
        "type": 0,
        "location": {
            "lat": 24.329014,
            "lng": 109.452938
        },
        "ad_info": {
            "adcode": 450202,
            "province": "广西壮族自治区",
            "city": "柳州市",
            "district": "城中区"
        }
    },
    {
        "id": "8416546417388390612",
        "title": "公共厕所",
        "address": "广西壮族自治区柳州市城中区东环大道272号西北方向170米",
        "tel": "",
        "category": "基础设施:公共设施:公共厕所",
        "type": 0,
        "location": {
            "lat": 24.33699,
            "lng": 109.43815
        },
        "ad_info": {
            "adcode": 450202,
            "province": "广西壮族自治区",
            "city": "柳州市",
            "district": "城中区"
        }
    },
    {
        "id": "5702142609117581584",
        "title": "公共厕所",
        "address": "广西壮族自治区柳州市城中区桂中大道与红葫路交叉口西南方向256米左右",
        "tel": "",
        "category": "基础设施:公共设施:公共厕所",
        "type": 0,
        "location": {
            "lat": 24.373954,
            "lng": 109.4308
        },
        "ad_info": {
            "adcode": 450202,
            "province": "广西壮族自治区",
            "city": "柳州市",
            "district": "城中区"
        }
    },
    {
        "id": "2692345675124003707",
        "title": "公共厕所",
        "address": "广西壮族自治区柳州市城中区友谊路与文昌大桥交叉口正南方向143米左右",
        "tel": "",
        "category": "基础设施:公共设施:公共厕所",
        "type": 0,
        "location": {
            "lat": 24.319956,
            "lng": 109.417974
        },
        "ad_info": {
            "adcode": 450202,
            "province": "广西壮族自治区",
            "city": "柳州市",
            "district": "城中区"
        }
    },
    {
        "id": "12230423336452066516",
        "title": "公共厕所",
        "address": "广西壮族自治区柳州市鱼峰区大同巷与谷埠路交叉口正东方向133米左右",
        "tel": "",
        "category": "基础设施:公共设施:公共厕所",
        "type": 0,
        "location": {
            "lat": 24.301781,
            "lng": 109.408591
        },
        "ad_info": {
            "adcode": 450203,
            "province": "广西壮族自治区",
            "city": "柳州市",
            "district": "鱼峰区"
        }
    },
    {
        "id": "5914453592501595076",
        "title": "公共厕所",
        "address": "广西壮族自治区柳州市鱼峰区静兰路10号西北方向170米",
        "tel": "",
        "category": "基础设施:公共设施:公共厕所",
        "type": 0,
        "location": {
            "lat": 24.31907,
            "lng": 109.451
        },
        "ad_info": {
            "adcode": 450203,
            "province": "广西壮族自治区",
            "city": "柳州市",
            "district": "鱼峰区"
        }
    },
    {
        "id": "9034066502538244756",
        "title": "公共厕所",
        "address": "广西壮族自治区柳州市城中区解放南路与解放南路金鱼巷交叉口东北方向20米",
        "tel": "",
        "category": "基础设施:公共设施:公共厕所",
        "type": 0,
        "location": {
            "lat": 24.315687,
            "lng": 109.413102
        },
        "ad_info": {
            "adcode": 450202,
            "province": "广西壮族自治区",
            "city": "柳州市",
            "district": "城中区"
        }
    },
    {
        "id": "12638767898144129802",
        "title": "公共厕所",
        "address": "广西壮族自治区柳州市鱼峰区白云路与白云路东一巷交叉口正北方向183米左右",
        "tel": "",
        "category": "基础设施:公共设施:公共厕所",
        "type": 0,
        "location": {
            "lat": 24.300833,
            "lng": 109.435225
        },
        "ad_info": {
            "adcode": 450203,
            "province": "广西壮族自治区",
            "city": "柳州市",
            "district": "鱼峰区"
        }
    },
    {
        "id": "6048432199709336094",
        "title": "公共厕所",
        "address": "广西壮族自治区柳州市鱼峰区东环大道与柳东路交叉口东北方向109米左右",
        "tel": "",
        "category": "基础设施:公共设施:公共厕所",
        "type": 0,
        "location": {
            "lat": 24.321463,
            "lng": 109.441
        },
        "ad_info": {
            "adcode": 450203,
            "province": "广西壮族自治区",
            "city": "柳州市",
            "district": "鱼峰区"
        }
    },
    {
        "id": "5178908435547267329",
        "title": "公共厕所",
        "address": "广西壮族自治区柳州市鱼峰区蟠龙路窑埠古镇(北侧)",
        "tel": "",
        "category": "基础设施:公共设施:公共厕所",
        "type": 0,
        "location": {
            "lat": 24.317358,
            "lng": 109.427393
        },
        "ad_info": {
            "adcode": 450203,
            "province": "广西壮族自治区",
            "city": "柳州市",
            "district": "鱼峰区"
        }
    },
    {
        "id": "3055668958644340069",
        "title": "公共卫生间",
        "address": "广西壮族自治区柳州市城中区红葫路与红葫路北一巷交叉口西南方向73米左右",
        "tel": "",
        "category": "基础设施:公共设施:公共厕所",
        "type": 0,
        "location": {
            "lat": 24.375621,
            "lng": 109.436156
        },
        "ad_info": {
            "adcode": 450202,
            "province": "广西壮族自治区",
            "city": "柳州市",
            "district": "城中区"
        }
    },
    {
        "id": "735025910842123686",
        "title": "公共厕所",
        "address": "广西壮族自治区柳州市鱼峰区蟠龙路窑埠古镇(北侧)",
        "tel": "",
        "category": "基础设施:公共设施:公共厕所",
        "type": 0,
        "location": {
            "lat": 24.31796,
            "lng": 109.428241
        },
        "ad_info": {
            "adcode": 450203,
            "province": "广西壮族自治区",
            "city": "柳州市",
            "district": "鱼峰区"
        }
    },
    {
        "id": "12143701478899969922",
        "title": "公共厕所",
        "address": "广西壮族自治区柳州市鱼峰区鱼峰路68号20",
        "tel": "",
        "category": "基础设施:公共设施:公共厕所",
        "type": 0,
        "location": {
            "lat": 24.301094,
            "lng": 109.40836
        },
        "ad_info": {
            "adcode": 450203,
            "province": "广西壮族自治区",
            "city": "柳州市",
            "district": "鱼峰区"
        }
    },
    {
        "id": "18007948352325640694",
        "title": "公共厕所",
        "address": "广西壮族自治区柳州市柳南区红光路新区-134-1号",
        "tel": "",
        "category": "基础设施:公共设施:公共厕所",
        "type": 0,
        "location": {
            "lat": 24.302495,
            "lng": 109.39829
        },
        "ad_info": {
            "adcode": 450204,
            "province": "广西壮族自治区",
            "city": "柳州市",
            "district": "柳南区"
        }
    },
    {
        "id": "8208444608314928338",
        "title": "公共厕所",
        "address": "广西壮族自治区柳州市鱼峰区乐园路与博园大道交叉口正南方向142米左右",
        "tel": "",
        "category": "基础设施:公共设施:公共厕所",
        "type": 0,
        "location": {
            "lat": 24.392806,
            "lng": 109.553962
        },
        "ad_info": {
            "adcode": 450203,
            "province": "广西壮族自治区",
            "city": "柳州市",
            "district": "鱼峰区"
        }
    },
    {
        "id": "6780068145647655704",
        "title": "公共厕所",
        "address": "广西壮族自治区柳州市鱼峰区燎原路与蝴蝶山路交叉口正西方向210米左右",
        "tel": "",
        "category": "基础设施:公共设施:公共厕所",
        "type": 0,
        "location": {
            "lat": 24.291529,
            "lng": 109.437069
        },
        "ad_info": {
            "adcode": 450203,
            "province": "广西壮族自治区",
            "city": "柳州市",
            "district": "鱼峰区"
        }
    },
    {
        "id": "7187460199204604267",
        "title": "公共厕所",
        "address": "广西壮族自治区柳州市柳江区兴隆路与龙吉路交叉口东北方向83米左右",
        "tel": "",
        "category": "基础设施:公共设施:公共厕所",
        "type": 0,
        "location": {
            "lat": 24.262847,
            "lng": 109.376238
        },
        "ad_info": {
            "adcode": 450206,
            "province": "广西壮族自治区",
            "city": "柳州市",
            "district": "柳江区"
        }
    },
    {
        "id": "400907722182996601",
        "title": "公共厕所",
        "address": "广西壮族自治区柳州市鱼峰区燎原路与燎原路东三巷交叉口正西方向160米左右",
        "tel": "",
        "category": "基础设施:公共设施:公共厕所",
        "type": 0,
        "location": {
            "lat": 24.287368,
            "lng": 109.437289
        },
        "ad_info": {
            "adcode": 450203,
            "province": "广西壮族自治区",
            "city": "柳州市",
            "district": "鱼峰区"
        }
    },
    {
        "id": "10590276262563481008",
        "title": "公共厕所",
        "address": "广西壮族自治区柳州市鱼峰区蜜园路与雒柳路交叉口正西方向70米左右",
        "tel": "",
        "category": "基础设施:公共设施:公共厕所",
        "type": 0,
        "location": {
            "lat": 24.399524,
            "lng": 109.604844
        },
        "ad_info": {
            "adcode": 450203,
            "province": "广西壮族自治区",
            "city": "柳州市",
            "district": "鱼峰区"
        }
    },
    {
        "id": "15893922193170635505",
        "title": "公共厕所",
        "address": "广西壮族自治区柳州市柳南区天鹅路与红桥路交叉口东北方向195米左右",
        "tel": "",
        "category": "基础设施:公共设施:公共厕所",
        "type": 0,
        "location": {
            "lat": 24.31686,
            "lng": 109.39264
        },
        "ad_info": {
            "adcode": 450204,
            "province": "广西壮族自治区",
            "city": "柳州市",
            "district": "柳南区"
        }
    },
    {
        "id": "1444918291895408698",
        "title": "女洗手间",
        "address": "广西壮族自治区柳州市城中区中山中路与五星商业步行街交叉口东南方向56米左右",
        "tel": "",
        "category": "基础设施:公共设施:公共厕所",
        "type": 0,
        "location": {
            "lat": 24.311384,
            "lng": 109.411494
        },
        "ad_info": {
            "adcode": 450202,
            "province": "广西壮族自治区",
            "city": "柳州市",
            "district": "城中区"
        }
    },
    {
        "id": "11916706236160317177",
        "title": "公共厕所",
        "address": "广西壮族自治区柳州市城中区潭中东路22号",
        "tel": "",
        "category": "基础设施:公共设施:公共厕所",
        "type": 0,
        "location": {
            "lat": 24.334848,
            "lng": 109.430371
        },
        "ad_info": {
            "adcode": 450202,
            "province": "广西壮族自治区",
            "city": "柳州市",
            "district": "城中区"
        }
    },
    {
        "id": "12604089593584737197",
        "title": "公共厕所",
        "address": "广西壮族自治区柳州市鱼峰区和悦路与阳和北路交叉口正北方向58米左右",
        "tel": "",
        "category": "基础设施:公共设施:公共厕所",
        "type": 0,
        "location": {
            "lat": 24.293402,
            "lng": 109.478947
        },
        "ad_info": {
            "adcode": 450203,
            "province": "广西壮族自治区",
            "city": "柳州市",
            "district": "鱼峰区"
        }
    },
    {
        "id": "13266796424052996561",
        "title": "公共厕所",
        "address": "广西壮族自治区柳州市鱼峰区南环路辅路与柳石路交叉口东南方向73米左右",
        "tel": "",
        "category": "基础设施:公共设施:公共厕所",
        "type": 0,
        "location": {
            "lat": 24.264425,
            "lng": 109.436445
        },
        "ad_info": {
            "adcode": 450203,
            "province": "广西壮族自治区",
            "city": "柳州市",
            "district": "鱼峰区"
        }
    },
    {
        "id": "514169141118822269",
        "title": "公共厕所",
        "address": "广西壮族自治区柳州市鱼峰区白云路与白云路东一巷交叉口东北方向95米左右",
        "tel": "",
        "category": "基础设施:公共设施:公共厕所",
        "type": 0,
        "location": {
            "lat": 24.299989,
            "lng": 109.435286
        },
        "ad_info": {
            "adcode": 450203,
            "province": "广西壮族自治区",
            "city": "柳州市",
            "district": "鱼峰区"
        }
    },
    {
        "id": "15584119304042898228",
        "title": "公共厕所",
        "address": "广西壮族自治区柳州市柳南区新时代商业港西一区H135_136正西方向40米",
        "tel": "",
        "category": "基础设施:公共设施:公共厕所",
        "type": 0,
        "location": {
            "lat": 24.303288,
            "lng": 109.402877
        },
        "ad_info": {
            "adcode": 450204,
            "province": "广西壮族自治区",
            "city": "柳州市",
            "district": "柳南区"
        }
    },
    {
        "id": "13239307832457182801",
        "title": "公共厕所",
        "address": "广西壮族自治区柳州市三江侗族自治县广场北路与广场北路三街交叉口西140米",
        "tel": "",
        "category": "基础设施:公共设施:公共厕所",
        "type": 0,
        "location": {
            "lat": 25.781925,
            "lng": 109.612214
        },
        "ad_info": {
            "adcode": 450226,
            "province": "广西壮族自治区",
            "city": "柳州市",
            "district": "三江侗族自治县"
        }
    },
    {
        "id": "17603102986247975008",
        "title": "公共厕所",
        "address": "广西壮族自治区柳州市柳南区柳太路与河西路交叉口东南方向345米左右",
        "tel": "",
        "category": "基础设施:公共设施:公共厕所",
        "type": 0,
        "location": {
            "lat": 24.32473,
            "lng": 109.368063
        },
        "ad_info": {
            "adcode": 450204,
            "province": "广西壮族自治区",
            "city": "柳州市",
            "district": "柳南区"
        }
    },
    {
        "id": "13757801932653352400",
        "title": "公共厕所",
        "address": "广西壮族自治区柳州市柳江区新兴路与柳石路交叉口西北方向85米左右",
        "tel": "",
        "category": "基础设施:公共设施:公共厕所",
        "type": 0,
        "location": {
            "lat": 24.197728,
            "lng": 109.432578
        },
        "ad_info": {
            "adcode": 450206,
            "province": "广西壮族自治区",
            "city": "柳州市",
            "district": "柳江区"
        }
    },
    {
        "id": "7395251565445133201",
        "title": "公共厕所",
        "address": "广西壮族自治区柳州市柳南区柳邕路与航云路交叉口西南方向173米左右",
        "tel": "",
        "category": "基础设施:公共设施:公共厕所",
        "type": 0,
        "location": {
            "lat": 24.282168,
            "lng": 109.383007
        },
        "ad_info": {
            "adcode": 450204,
            "province": "广西壮族自治区",
            "city": "柳州市",
            "district": "柳南区"
        }
    },
    {
        "id": "14615520573726090717",
        "title": "公共厕所",
        "address": "广西壮族自治区柳州市柳南区和平路136号",
        "tel": "",
        "category": "基础设施:公共设施:公共厕所",
        "type": 0,
        "location": {
            "lat": 24.316335,
            "lng": 109.372603
        },
        "ad_info": {
            "adcode": 450204,
            "province": "广西壮族自治区",
            "city": "柳州市",
            "district": "柳南区"
        }
    },
    {
        "id": "16108928074778304281",
        "title": "公共厕所",
        "address": "广西壮族自治区柳州市柳南区柳工大道与石烂路交叉口正北方向711米左右",
        "tel": "",
        "category": "基础设施:公共设施:公共厕所",
        "type": 0,
        "location": {
            "lat": 24.300785,
            "lng": 109.362297
        },
        "ad_info": {
            "adcode": 450204,
            "province": "广西壮族自治区",
            "city": "柳州市",
            "district": "柳南区"
        }
    },
    {
        "id": "13410939070475204065",
        "title": "无障碍洗手间",
        "address": "广西壮族自治区柳州市城中区东环大道256号",
        "tel": "",
        "category": "基础设施:公共设施:公共厕所",
        "type": 0,
        "location": {
            "lat": 24.329541,
            "lng": 109.442022
        },
        "ad_info": {
            "adcode": 450202,
            "province": "广西壮族自治区",
            "city": "柳州市",
            "district": "城中区"
        }
    },
    {
        "id": "16982651762268818652",
        "title": "公共厕所",
        "address": "广西壮族自治区柳州市鱼峰区柳州长青公墓管理处西侧80米",
        "tel": "",
        "category": "基础设施:公共设施:公共厕所",
        "type": 0,
        "location": {
            "lat": 24.325009,
            "lng": 109.502036
        },
        "ad_info": {
            "adcode": 450203,
            "province": "广西壮族自治区",
            "city": "柳州市",
            "district": "鱼峰区"
        }
    },
    {
        "id": "6905052854063800867",
        "title": "公共厕所",
        "address": "广西壮族自治区柳州市柳南区站前路与飞鹅路交叉口东南方向137米左右",
        "tel": "",
        "category": "基础设施:公共设施:公共厕所",
        "type": 0,
        "location": {
            "lat": 24.305663,
            "lng": 109.391481
        },
        "ad_info": {
            "adcode": 450204,
            "province": "广西壮族自治区",
            "city": "柳州市",
            "district": "柳南区"
        }
    },
    {
        "id": "16784484170386011381",
        "title": "公共厕所",
        "address": "广西壮族自治区柳州市鱼峰区西江路与西江路北一巷交叉口正南方向204米左右",
        "tel": "",
        "category": "基础设施:公共设施:公共厕所",
        "type": 0,
        "location": {
            "lat": 24.303033,
            "lng": 109.447275
        },
        "ad_info": {
            "adcode": 450203,
            "province": "广西壮族自治区",
            "city": "柳州市",
            "district": "鱼峰区"
        }
    },
    {
        "id": "8628732965243721767",
        "title": "公共厕所",
        "address": "广西壮族自治区柳州市鱼峰区鸡喇路柳机生活区",
        "tel": "",
        "category": "基础设施:公共设施:公共厕所",
        "type": 0,
        "location": {
            "lat": 24.26994,
            "lng": 109.446426
        },
        "ad_info": {
            "adcode": 450203,
            "province": "广西壮族自治区",
            "city": "柳州市",
            "district": "鱼峰区"
        }
    },
    {
        "id": "5005916803909011440",
        "title": "公共厕所",
        "address": "广西壮族自治区柳州市柳南区大同巷与红东路交叉口西北方向93米左右",
        "tel": "",
        "category": "基础设施:公共设施:公共厕所",
        "type": 0,
        "location": {
            "lat": 24.302396,
            "lng": 109.401215
        },
        "ad_info": {
            "adcode": 450204,
            "province": "广西壮族自治区",
            "city": "柳州市",
            "district": "柳南区"
        }
    },
    {
        "id": "11546783249042195082",
        "title": "人民广场公共厕所",
        "address": "广西壮族自治区柳州市城中区广场东通道与广场路辅路交叉口南40米",
        "tel": "",
        "category": "基础设施:公共设施:公共厕所",
        "type": 0,
        "location": {
            "lat": 24.319491,
            "lng": 109.411872
        },
        "ad_info": {
            "adcode": 450202,
            "province": "广西壮族自治区",
            "city": "柳州市",
            "district": "城中区"
        }
    },
    {
        "id": "15548214126607641560",
        "title": "人民广场公共厕所",
        "address": "广西壮族自治区柳州市城中区八一路6-9号",
        "tel": "",
        "category": "基础设施:公共设施:公共厕所",
        "type": 0,
        "location": {
            "lat": 24.318126,
            "lng": 109.410382
        },
        "ad_info": {
            "adcode": 450202,
            "province": "广西壮族自治区",
            "city": "柳州市",
            "district": "城中区"
        }
    },
    {
        "id": "14587135829544406431",
        "title": "公共厕所",
        "address": "广西壮族自治区柳州市鱼峰区燎原路与燎原路东一巷交叉口正东方向233米左右",
        "tel": "",
        "category": "基础设施:公共设施:公共厕所",
        "type": 0,
        "location": {
            "lat": 24.292987,
            "lng": 109.441389
        },
        "ad_info": {
            "adcode": 450203,
            "province": "广西壮族自治区",
            "city": "柳州市",
            "district": "鱼峰区"
        }
    },
    {
        "id": "17540609127732084226",
        "title": "公共厕所",
        "address": "广西壮族自治区柳州市柳江区商贸街与柳堡路交叉口正东方向76米左右",
        "tel": "",
        "category": "基础设施:公共设施:公共厕所",
        "type": 0,
        "location": {
            "lat": 24.258331,
            "lng": 109.332876
        },
        "ad_info": {
            "adcode": 450206,
            "province": "广西壮族自治区",
            "city": "柳州市",
            "district": "柳江区"
        }
    },
    {
        "id": "10380585897017935985",
        "title": "公共厕所",
        "address": "广西壮族自治区柳州市鱼峰区洛江中路与雒柳路交叉口西北方向132米左右",
        "tel": "",
        "category": "基础设施:公共设施:公共厕所",
        "type": 0,
        "location": {
            "lat": 24.398381,
            "lng": 109.600134
        },
        "ad_info": {
            "adcode": 450203,
            "province": "广西壮族自治区",
            "city": "柳州市",
            "district": "鱼峰区"
        }
    },
    {
        "id": "18097299909620977331",
        "title": "肯德基(工贸餐厅)-洗手间",
        "address": "广西壮族自治区柳州市城中区龙城路2号工贸大厦1层",
        "tel": "",
        "category": "基础设施:公共设施:公共厕所",
        "type": 0,
        "location": {
            "lat": 24.312361,
            "lng": 109.411279
        },
        "ad_info": {
            "adcode": 450202,
            "province": "广西壮族自治区",
            "city": "柳州市",
            "district": "城中区"
        }
    },
    {
        "id": "1732183354933519509",
        "title": "公共厕所",
        "address": "广西壮族自治区柳州市柳南区红岩路与革新路交叉口东南方向42米左右",
        "tel": "",
        "category": "基础设施:公共设施:公共厕所",
        "type": 0,
        "location": {
            "lat": 24.303105,
            "lng": 109.377651
        },
        "ad_info": {
            "adcode": 450204,
            "province": "广西壮族自治区",
            "city": "柳州市",
            "district": "柳南区"
        }
    },
    {
        "id": "2487360849817244707",
        "title": "公共厕所",
        "address": "广西壮族自治区柳州市融水苗族自治县寿星中路与演讲亭路交叉口正南方向47米左右",
        "tel": "",
        "category": "基础设施:公共设施:公共厕所",
        "type": 0,
        "location": {
            "lat": 25.068746,
            "lng": 109.254803
        },
        "ad_info": {
            "adcode": 450225,
            "province": "广西壮族自治区",
            "city": "柳州市",
            "district": "融水苗族自治县"
        }
    },
    {
        "id": "669921313701427850",
        "title": "公共厕所",
        "address": "广西壮族自治区柳州市柳南区航一路与航鹰大道交叉口西南方向83米左右",
        "tel": "",
        "category": "基础设施:公共设施:公共厕所",
        "type": 0,
        "location": {
            "lat": 24.282725,
            "lng": 109.390344
        },
        "ad_info": {
            "adcode": 450204,
            "province": "广西壮族自治区",
            "city": "柳州市",
            "district": "柳南区"
        }
    },
    {
        "id": "13925582946655927484",
        "title": "公共厕所",
        "address": "广西壮族自治区柳州市柳南区航二路与航生路交叉口东南方向119米左右",
        "tel": "",
        "category": "基础设施:公共设施:公共厕所",
        "type": 0,
        "location": {
            "lat": 24.277952,
            "lng": 109.395454
        },
        "ad_info": {
            "adcode": 450204,
            "province": "广西壮族自治区",
            "city": "柳州市",
            "district": "柳南区"
        }
    },
    {
        "id": "14319228170183971989",
        "title": "公共厕所",
        "address": "广西壮族自治区柳州市鱼峰区柳石路与洛园路交叉口东北方向155米左右",
        "tel": "",
        "category": "基础设施:公共设施:公共厕所",
        "type": 0,
        "location": {
            "lat": 24.242284,
            "lng": 109.440356
        },
        "ad_info": {
            "adcode": 450203,
            "province": "广西壮族自治区",
            "city": "柳州市",
            "district": "鱼峰区"
        }
    },
    {
        "id": "10070671564889533409",
        "title": "丽笙酒店-洗手间",
        "address": "广西壮族自治区柳州市城中区文昌路与桂中大道交叉口东北方向165米左右",
        "tel": "",
        "category": "基础设施:公共设施:公共厕所",
        "type": 0,
        "location": {
            "lat": 24.323704,
            "lng": 109.432598
        },
        "ad_info": {
            "adcode": 450202,
            "province": "广西壮族自治区",
            "city": "柳州市",
            "district": "城中区"
        }
    },
    {
        "id": "10047408430515594888",
        "title": "公共厕所",
        "address": "广西壮族自治区柳州市融水苗族自治县寿星中路与朝阳东路交叉口西北方向132米左右",
        "tel": "",
        "category": "基础设施:公共设施:公共厕所",
        "type": 0,
        "location": {
            "lat": 25.067219,
            "lng": 109.252228
        },
        "ad_info": {
            "adcode": 450225,
            "province": "广西壮族自治区",
            "city": "柳州市",
            "district": "融水苗族自治县"
        }
    },
    {
        "id": "18154772235713907848",
        "title": "公共厕所",
        "address": "广西壮族自治区柳州市鱼峰区博园大道与彩虹大道交叉口东北方向169米左右",
        "tel": "",
        "category": "基础设施:公共设施:公共厕所",
        "type": 0,
        "location": {
            "lat": 24.385003,
            "lng": 109.556911
        },
        "ad_info": {
            "adcode": 450203,
            "province": "广西壮族自治区",
            "city": "柳州市",
            "district": "鱼峰区"
        }
    },
    {
        "id": "17492395826036722015",
        "title": "公共厕所",
        "address": "广西壮族自治区柳州市柳南区河西路与龙屯路交叉口东南方向199米左右",
        "tel": "",
        "category": "基础设施:公共设施:公共厕所",
        "type": 0,
        "location": {
            "lat": 24.324422,
            "lng": 109.37465
        },
        "ad_info": {
            "adcode": 450204,
            "province": "广西壮族自治区",
            "city": "柳州市",
            "district": "柳南区"
        }
    },
    {
        "id": "1241948803375467314",
        "title": "公共厕所",
        "address": "广西壮族自治区柳州市柳南区航四路与银海路交叉口正东方向143米左右",
        "tel": "",
        "category": "基础设施:公共设施:公共厕所",
        "type": 0,
        "location": {
            "lat": 24.269807,
            "lng": 109.392124
        },
        "ad_info": {
            "adcode": 450204,
            "province": "广西壮族自治区",
            "city": "柳州市",
            "district": "柳南区"
        }
    },
    {
        "id": "5150196488042398867",
        "title": "公共厕所",
        "address": "广西壮族自治区柳州市柳南区河西路与西环路交叉口东南方向150米左右",
        "tel": "",
        "category": "基础设施:公共设施:公共厕所",
        "type": 0,
        "location": {
            "lat": 24.324487,
            "lng": 109.378142
        },
        "ad_info": {
            "adcode": 450204,
            "province": "广西壮族自治区",
            "city": "柳州市",
            "district": "柳南区"
        }
    },
    {
        "id": "13067880159719583194",
        "title": "公共厕所",
        "address": "广西壮族自治区柳州市城中区五一路与广场东通道交叉口正北方向156米左右",
        "tel": "",
        "category": "基础设施:公共设施:公共厕所",
        "type": 0,
        "location": {
            "lat": 24.317639,
            "lng": 109.41233
        },
        "ad_info": {
            "adcode": 450202,
            "province": "广西壮族自治区",
            "city": "柳州市",
            "district": "城中区"
        }
    },
    {
        "id": "11181441748459726946",
        "title": "公共厕所",
        "address": "广西壮族自治区柳州市柳南区驾鹤路与鱼峰路交叉口西北方向102米左右",
        "tel": "",
        "category": "基础设施:公共设施:公共厕所",
        "type": 0,
        "location": {
            "lat": 24.306169,
            "lng": 109.410173
        },
        "ad_info": {
            "adcode": 450204,
            "province": "广西壮族自治区",
            "city": "柳州市",
            "district": "柳南区"
        }
    },
    {
        "id": "6890310683410308284",
        "title": "公共厕所",
        "address": "广西壮族自治区柳州市柳南区飞鹅立交桥与飞鹅路交叉口东南方向119米左右",
        "tel": "",
        "category": "基础设施:公共设施:公共厕所",
        "type": 0,
        "location": {
            "lat": 24.304688,
            "lng": 109.398133
        },
        "ad_info": {
            "adcode": 450204,
            "province": "广西壮族自治区",
            "city": "柳州市",
            "district": "柳南区"
        }
    },
    {
        "id": "17256810916913766468",
        "title": "公共厕所",
        "address": "广西壮族自治区柳州市柳南区柳邕路与金岭路交叉口正北方向138米左右",
        "tel": "",
        "category": "基础设施:公共设施:公共厕所",
        "type": 0,
        "location": {
            "lat": 24.271198,
            "lng": 109.37182
        },
        "ad_info": {
            "adcode": 450204,
            "province": "广西壮族自治区",
            "city": "柳州市",
            "district": "柳南区"
        }
    },
    {
        "id": "1658516863066182055",
        "title": "公共厕所",
        "address": "广西壮族自治区柳州市柳北区八一路与广场路交叉口东北方向180米左右",
        "tel": "",
        "category": "基础设施:公共设施:公共厕所",
        "type": 0,
        "location": {
            "lat": 24.321454,
            "lng": 109.409967
        },
        "ad_info": {
            "adcode": 450205,
            "province": "广西壮族自治区",
            "city": "柳州市",
            "district": "柳北区"
        }
    },
    {
        "id": "7351985541801484047",
        "title": "公共厕所",
        "address": "广西壮族自治区柳州市城中区柳江路与立新路交叉口正西方向90米左右",
        "tel": "",
        "category": "基础设施:公共设施:公共厕所",
        "type": 0,
        "location": {
            "lat": 24.309088,
            "lng": 109.413002
        },
        "ad_info": {
            "adcode": 450202,
            "province": "广西壮族自治区",
            "city": "柳州市",
            "district": "城中区"
        }
    },
    {
        "id": "8545908089892637850",
        "title": "公共厕所",
        "address": "广西壮族自治区柳州市鱼峰区柳石路与洛维路交叉口正北方向195米左右",
        "tel": "",
        "category": "基础设施:公共设施:公共厕所",
        "type": 0,
        "location": {
            "lat": 24.251853,
            "lng": 109.443274
        },
        "ad_info": {
            "adcode": 450203,
            "province": "广西壮族自治区",
            "city": "柳州市",
            "district": "鱼峰区"
        }
    },
    {
        "id": "13903687550454151196",
        "title": "公共厕所",
        "address": "广西壮族自治区柳州市柳南区柳邕路与柳邕路西一巷交叉口西北方向88米左右",
        "tel": "",
        "category": "基础设施:公共设施:公共厕所",
        "type": 0,
        "location": {
            "lat": 24.293596,
            "lng": 109.396009
        },
        "ad_info": {
            "adcode": 450204,
            "province": "广西壮族自治区",
            "city": "柳州市",
            "district": "柳南区"
        }
    },
    {
        "id": "642373545463192911",
        "title": "公共厕所",
        "address": "广西壮族自治区柳州市柳南区飞鹅二路与飞鹅路交叉口正北方向119米左右",
        "tel": "",
        "category": "基础设施:公共设施:公共厕所",
        "type": 0,
        "location": {
            "lat": 24.305399,
            "lng": 109.403734
        },
        "ad_info": {
            "adcode": 450204,
            "province": "广西壮族自治区",
            "city": "柳州市",
            "district": "柳南区"
        }
    },
    {
        "id": "5276085378111870683",
        "title": "红桥公共厕所",
        "address": "广西壮族自治区柳州市柳南区红桥路柳州市铁五中学",
        "tel": "",
        "category": "基础设施:公共设施:公共厕所",
        "type": 0,
        "location": {
            "lat": 24.313858,
            "lng": 109.389973
        },
        "ad_info": {
            "adcode": 450204,
            "province": "广西壮族自治区",
            "city": "柳州市",
            "district": "柳南区"
        }
    },
    {
        "id": "14632627954044021365",
        "title": "公共厕所",
        "address": "广西壮族自治区柳州市柳北区柳钢一中西南侧110米",
        "tel": "",
        "category": "基础设施:公共设施:公共厕所",
        "type": 0,
        "location": {
            "lat": 24.374696,
            "lng": 109.40104
        },
        "ad_info": {
            "adcode": 450205,
            "province": "广西壮族自治区",
            "city": "柳州市",
            "district": "柳北区"
        }
    },
    {
        "id": "8477331112016350338",
        "title": "公共厕所",
        "address": "广西壮族自治区柳州市柳南区红岩路鹅山公园内",
        "tel": "",
        "category": "基础设施:公共设施:公共厕所",
        "type": 0,
        "location": {
            "lat": 24.309262,
            "lng": 109.385271
        },
        "ad_info": {
            "adcode": 450204,
            "province": "广西壮族自治区",
            "city": "柳州市",
            "district": "柳南区"
        }
    },
    {
        "id": "110501114089938475",
        "title": "公共厕所",
        "address": "广西壮族自治区柳州市城中区滨江东路20号",
        "tel": "",
        "category": "基础设施:公共设施:公共厕所",
        "type": 0,
        "location": {
            "lat": 24.313455,
            "lng": 109.419732
        },
        "ad_info": {
            "adcode": 450202,
            "province": "广西壮族自治区",
            "city": "柳州市",
            "district": "城中区"
        }
    },
    {
        "id": "473870050087235683",
        "title": "公共厕所",
        "address": "广西壮族自治区柳州市鱼峰区万象路与桂柳路交叉口正北方向92米左右",
        "tel": "",
        "category": "基础设施:公共设施:公共厕所",
        "type": 0,
        "location": {
            "lat": 24.323212,
            "lng": 109.448508
        },
        "ad_info": {
            "adcode": 450203,
            "province": "广西壮族自治区",
            "city": "柳州市",
            "district": "鱼峰区"
        }
    },
    {
        "id": "11214008820447902880",
        "title": "公共厕所",
        "address": "广西壮族自治区柳州市融水苗族自治县朝阳西路与秀峰南路交叉口正东方向137米左右",
        "tel": "",
        "category": "基础设施:公共设施:公共厕所",
        "type": 0,
        "location": {
            "lat": 25.067742,
            "lng": 109.25159
        },
        "ad_info": {
            "adcode": 450225,
            "province": "广西壮族自治区",
            "city": "柳州市",
            "district": "融水苗族自治县"
        }
    },
    {
        "id": "2704755171891644091",
        "title": "公共厕所",
        "address": "广西壮族自治区柳州市鹿寨县南闸街与广场路交叉口东北方向78米左右",
        "tel": "",
        "category": "基础设施:公共设施:公共厕所",
        "type": 0,
        "location": {
            "lat": 24.482897,
            "lng": 109.740049
        },
        "ad_info": {
            "adcode": 450223,
            "province": "广西壮族自治区",
            "city": "柳州市",
            "district": "鹿寨县"
        }
    },
    {
        "id": "3315150370366699814",
        "title": "公共厕所",
        "address": "广西壮族自治区柳州市城中区文惠路与曙光东路交叉口东南方向46米左右",
        "tel": "",
        "category": "基础设施:公共设施:公共厕所",
        "type": 0,
        "location": {
            "lat": 24.311169,
            "lng": 109.417768
        },
        "ad_info": {
            "adcode": 450202,
            "province": "广西壮族自治区",
            "city": "柳州市",
            "district": "城中区"
        }
    },
    {
        "id": "17322607770587909970",
        "title": "公共厕所",
        "address": "广西壮族自治区柳州市城中区雅儒路1-22号",
        "tel": "",
        "category": "基础设施:公共设施:公共厕所",
        "type": 0,
        "location": {
            "lat": 24.314674,
            "lng": 109.408065
        },
        "ad_info": {
            "adcode": 450202,
            "province": "广西壮族自治区",
            "city": "柳州市",
            "district": "城中区"
        }
    },
    {
        "id": "16138270569957171299",
        "title": "公共厕所",
        "address": "广西壮族自治区柳州市鱼峰区九头山路与荣军路交叉口西北方向242米左右",
        "tel": "",
        "category": "基础设施:公共设施:公共厕所",
        "type": 0,
        "location": {
            "lat": 24.281819,
            "lng": 109.432714
        },
        "ad_info": {
            "adcode": 450203,
            "province": "广西壮族自治区",
            "city": "柳州市",
            "district": "鱼峰区"
        }
    },
    {
        "id": "7203263272571162762",
        "title": "公共厕所",
        "address": "广西壮族自治区柳州市柳北区新泰路与秀丰路交叉口正西方向121米左右",
        "tel": "",
        "category": "基础设施:公共设施:公共厕所",
        "type": 0,
        "location": {
            "lat": 24.437093,
            "lng": 109.380932
        },
        "ad_info": {
            "adcode": 450205,
            "province": "广西壮族自治区",
            "city": "柳州市",
            "district": "柳北区"
        }
    },
    {
        "id": "14884614798337947698",
        "title": "公共厕所",
        "address": "广西壮族自治区柳州市鱼峰区荣军路与蝴蝶山路交叉口正南方向302米左右",
        "tel": "",
        "category": "基础设施:公共设施:公共厕所",
        "type": 0,
        "location": {
            "lat": 24.285356,
            "lng": 109.431332
        },
        "ad_info": {
            "adcode": 450203,
            "province": "广西壮族自治区",
            "city": "柳州市",
            "district": "鱼峰区"
        }
    },
    {
        "id": "13916437636488107460",
        "title": "公共厕所",
        "address": "广西壮族自治区柳州市鹿寨县创业路鹿寨法治文化主题公园(北侧)",
        "tel": "",
        "category": "基础设施:公共设施:公共厕所",
        "type": 0,
        "location": {
            "lat": 24.467914,
            "lng": 109.747067
        },
        "ad_info": {
            "adcode": 450223,
            "province": "广西壮族自治区",
            "city": "柳州市",
            "district": "鹿寨县"
        }
    },
    {
        "id": "1288698713509719234",
        "title": "公共厕所",
        "address": "广西壮族自治区柳州市柳北区北雀路与雅儒路交叉口正南方向60米左右",
        "tel": "",
        "category": "基础设施:公共设施:公共厕所",
        "type": 0,
        "location": {
            "lat": 24.330261,
            "lng": 109.405448
        },
        "ad_info": {
            "adcode": 450205,
            "province": "广西壮族自治区",
            "city": "柳州市",
            "district": "柳北区"
        }
    },
    {
        "id": "7201160027466731929",
        "title": "公共厕所",
        "address": "广西壮族自治区柳州市柳北区胜利东路与跃进路交叉口东南方向26米左右",
        "tel": "",
        "category": "基础设施:公共设施:公共厕所",
        "type": 0,
        "location": {
            "lat": 24.361208,
            "lng": 109.413197
        },
        "ad_info": {
            "adcode": 450205,
            "province": "广西壮族自治区",
            "city": "柳州市",
            "district": "柳北区"
        }
    },
    {
        "id": "8756276311792705452",
        "title": "立鱼峰风景区公共厕所",
        "address": "广西壮族自治区柳州市鱼峰区鱼峰路鱼峰公园南门",
        "tel": "",
        "category": "基础设施:公共设施:公共厕所",
        "type": 0,
        "location": {
            "lat": 24.29927,
            "lng": 109.408737
        },
        "ad_info": {
            "adcode": 450203,
            "province": "广西壮族自治区",
            "city": "柳州市",
            "district": "鱼峰区"
        }
    },
    {
        "id": "2442468445997234527",
        "title": "公共厕所",
        "address": "广西壮族自治区柳州市鱼峰区屏山大道232-3号",
        "tel": "",
        "category": "基础设施:公共设施:公共厕所",
        "type": 0,
        "location": {
            "lat": 24.302877,
            "lng": 109.420641
        },
        "ad_info": {
            "adcode": 450203,
            "province": "广西壮族自治区",
            "city": "柳州市",
            "district": "鱼峰区"
        }
    },
    {
        "id": "11840932815533218227",
        "title": "公共厕所",
        "address": "广西壮族自治区柳州市柳北区滨江东路与锦绣路交叉口正北方向453米左右",
        "tel": "",
        "category": "基础设施:公共设施:公共厕所",
        "type": 0,
        "location": {
            "lat": 24.348,
            "lng": 109.418712
        },
        "ad_info": {
            "adcode": 450205,
            "province": "广西壮族自治区",
            "city": "柳州市",
            "district": "柳北区"
        }
    },
    {
        "id": "6491761371637577625",
        "title": "公共厕所",
        "address": "广西壮族自治区柳州市鱼峰区柳石路与银桐路交叉口东南方向140米左右",
        "tel": "",
        "category": "基础设施:公共设施:公共厕所",
        "type": 0,
        "location": {
            "lat": 24.29411,
            "lng": 109.41256
        },
        "ad_info": {
            "adcode": 450203,
            "province": "广西壮族自治区",
            "city": "柳州市",
            "district": "鱼峰区"
        }
    },
    {
        "id": "8402867777973175318",
        "title": "公共厕所",
        "address": "广西壮族自治区柳州市柳南区西堤路柳州市天雅大酒店(飞鹅二路店)",
        "tel": "",
        "category": "基础设施:公共设施:公共厕所",
        "type": 0,
        "location": {
            "lat": 24.305601,
            "lng": 109.407354
        },
        "ad_info": {
            "adcode": 450204,
            "province": "广西壮族自治区",
            "city": "柳州市",
            "district": "柳南区"
        }
    },
    {
        "id": "13812925949305212190",
        "title": "公共厕所",
        "address": "广西壮族自治区柳州市柳南区天鹅路与磨滩路交叉口正北方向191米左右",
        "tel": "",
        "category": "基础设施:公共设施:公共厕所",
        "type": 0,
        "location": {
            "lat": 24.32041,
            "lng": 109.386244
        },
        "ad_info": {
            "adcode": 450204,
            "province": "广西壮族自治区",
            "city": "柳州市",
            "district": "柳南区"
        }
    },
    {
        "id": "13620308943558504727",
        "title": "公共厕所",
        "address": "广西壮族自治区柳州市柳北区步步高北站小游园(北站路小学西)",
        "tel": "",
        "category": "基础设施:公共设施:公共厕所",
        "type": 0,
        "location": {
            "lat": 24.325949,
            "lng": 109.409188
        },
        "ad_info": {
            "adcode": 450205,
            "province": "广西壮族自治区",
            "city": "柳州市",
            "district": "柳北区"
        }
    },
    {
        "id": "7876398126430126611",
        "title": "公共厕所",
        "address": "广西壮族自治区柳州市柳北区三中路与三中路西一巷交叉口西南方向79米左右",
        "tel": "",
        "category": "基础设施:公共设施:公共厕所",
        "type": 0,
        "location": {
            "lat": 24.331354,
            "lng": 109.411889
        },
        "ad_info": {
            "adcode": 450205,
            "province": "广西壮族自治区",
            "city": "柳州市",
            "district": "柳北区"
        }
    },
    {
        "id": "550596723574198688",
        "title": "公共厕所",
        "address": "广西壮族自治区柳州市柳北区北雀路与桂景湾路交叉口正南方向259米左右",
        "tel": "",
        "category": "基础设施:公共设施:公共厕所",
        "type": 0,
        "location": {
            "lat": 24.348242,
            "lng": 109.402527
        },
        "ad_info": {
            "adcode": 450205,
            "province": "广西壮族自治区",
            "city": "柳州市",
            "district": "柳北区"
        }
    },
    {
        "id": "16836790157697471591",
        "title": "公共厕所",
        "address": "广西壮族自治区柳州市柳江区兴中路与顺业路交叉口东北方向186米左右",
        "tel": "",
        "category": "基础设施:公共设施:公共厕所",
        "type": 0,
        "location": {
            "lat": 24.19409,
            "lng": 109.432202
        },
        "ad_info": {
            "adcode": 450206,
            "province": "广西壮族自治区",
            "city": "柳州市",
            "district": "柳江区"
        }
    },
    {
        "id": "1297717984341741524",
        "title": "公共厕所",
        "address": "广西壮族自治区柳州市柳北区三中路与三中路东一巷交叉口西南方向283米左右",
        "tel": "",
        "category": "基础设施:公共设施:公共厕所",
        "type": 0,
        "location": {
            "lat": 24.326171,
            "lng": 109.413123
        },
        "ad_info": {
            "adcode": 450205,
            "province": "广西壮族自治区",
            "city": "柳州市",
            "district": "柳北区"
        }
    },
    {
        "id": "14373031183136920494",
        "title": "公共卫生间",
        "address": "广西壮族自治区柳州市柳北区白沙路与锦绣路交叉口正北方向83米左右",
        "tel": "",
        "category": "基础设施:公共设施:公共厕所",
        "type": 0,
        "location": {
            "lat": 24.344929,
            "lng": 109.413144
        },
        "ad_info": {
            "adcode": 450205,
            "province": "广西壮族自治区",
            "city": "柳州市",
            "district": "柳北区"
        }
    },
    {
        "id": "11532887944274667549",
        "title": "公共厕所",
        "address": "广西壮族自治区柳州市柳南区航鹰大道21-3号铺",
        "tel": "",
        "category": "基础设施:公共设施:公共厕所",
        "type": 0,
        "location": {
            "lat": 24.283408,
            "lng": 109.391419
        },
        "ad_info": {
            "adcode": 450204,
            "province": "广西壮族自治区",
            "city": "柳州市",
            "district": "柳南区"
        }
    },
    {
        "id": "267094676292752935",
        "title": "公共厕所",
        "address": "广西壮族自治区柳州市柳北区北雀路与雀儿山路交叉口西北方向121米左右",
        "tel": "",
        "category": "基础设施:公共设施:公共厕所",
        "type": 0,
        "location": {
            "lat": 24.371728,
            "lng": 109.396167
        },
        "ad_info": {
            "adcode": 450205,
            "province": "广西壮族自治区",
            "city": "柳州市",
            "district": "柳北区"
        }
    },
    {
        "id": "4996190460693795186",
        "title": "公共厕所",
        "address": "广西壮族自治区柳州市柳北区胜利西路与胜利高架路交叉口正南方向307米左右",
        "tel": "",
        "category": "基础设施:公共设施:公共厕所",
        "type": 0,
        "location": {
            "lat": 24.359255,
            "lng": 109.395287
        },
        "ad_info": {
            "adcode": 450205,
            "province": "广西壮族自治区",
            "city": "柳州市",
            "district": "柳北区"
        }
    },
    {
        "id": "16361406066376814829",
        "title": "公共厕所",
        "address": "广西壮族自治区柳州市柳北区广雅路北三巷与雅儒路东五巷交叉口正东方向49米左右",
        "tel": "",
        "category": "基础设施:公共设施:公共厕所",
        "type": 0,
        "location": {
            "lat": 24.326582,
            "lng": 109.406105
        },
        "ad_info": {
            "adcode": 450205,
            "province": "广西壮族自治区",
            "city": "柳州市",
            "district": "柳北区"
        }
    },
    {
        "id": "6909666559477117600",
        "title": "和平路公共厕所",
        "address": "广西壮族自治区柳州市柳南区和平路与鹅山西路交叉口正西方向258米左右",
        "tel": "",
        "category": "基础设施:公共设施:公共厕所",
        "type": 0,
        "location": {
            "lat": 24.316273,
            "lng": 109.380764
        },
        "ad_info": {
            "adcode": 450204,
            "province": "广西壮族自治区",
            "city": "柳州市",
            "district": "柳南区"
        }
    },
    {
        "id": "14817700192095225900",
        "title": "公共厕所",
        "address": "广西壮族自治区柳州市柳北区滨江东路与胜利东路交叉口正南方向78米左右",
        "tel": "",
        "category": "基础设施:公共设施:公共厕所",
        "type": 0,
        "location": {
            "lat": 24.360932,
            "lng": 109.420161
        },
        "ad_info": {
            "adcode": 450205,
            "province": "广西壮族自治区",
            "city": "柳州市",
            "district": "柳北区"
        }
    },
    {
        "id": "725618154553067597",
        "title": "公共厕所",
        "address": "广西壮族自治区柳州市鱼峰区荣军路与蝴蝶山路交叉口西南方向154米左右",
        "tel": "",
        "category": "基础设施:公共设施:公共厕所",
        "type": 0,
        "location": {
            "lat": 24.287306,
            "lng": 109.428834
        },
        "ad_info": {
            "adcode": 450203,
            "province": "广西壮族自治区",
            "city": "柳州市",
            "district": "鱼峰区"
        }
    },
    {
        "id": "15728333327356407866",
        "title": "公共厕所",
        "address": "广西壮族自治区柳州市柳北区公馆路与柳长路交叉口东北方向112米左右",
        "tel": "",
        "category": "基础设施:公共设施:公共厕所",
        "type": 0,
        "location": {
            "lat": 24.451392,
            "lng": 109.376161
        },
        "ad_info": {
            "adcode": 450205,
            "province": "广西壮族自治区",
            "city": "柳州市",
            "district": "柳北区"
        }
    },
    {
        "id": "1553858544961463863",
        "title": "公共厕所",
        "address": "广西壮族自治区柳州市柳南区智美路与潭中西路交叉口正东方向386米左右",
        "tel": "",
        "category": "基础设施:公共设施:公共厕所",
        "type": 0,
        "location": {
            "lat": 24.335377,
            "lng": 109.388724
        },
        "ad_info": {
            "adcode": 450204,
            "province": "广西壮族自治区",
            "city": "柳州市",
            "district": "柳南区"
        }
    },
    {
        "id": "10858224070259299442",
        "title": "公共厕所",
        "address": "广西壮族自治区柳州市柳北区三中路80号",
        "tel": "",
        "category": "基础设施:公共设施:公共厕所",
        "type": 0,
        "location": {
            "lat": 24.328509,
            "lng": 109.415264
        },
        "ad_info": {
            "adcode": 450205,
            "province": "广西壮族自治区",
            "city": "柳州市",
            "district": "柳北区"
        }
    },
    {
        "id": "338890468905090280",
        "title": "公共厕所",
        "address": "广西壮族自治区柳州市柳北区北雀路与雀儿山路交叉口东南方向92米左右",
        "tel": "",
        "category": "基础设施:公共设施:公共厕所",
        "type": 0,
        "location": {
            "lat": 24.370456,
            "lng": 109.397616
        },
        "ad_info": {
            "adcode": 450205,
            "province": "广西壮族自治区",
            "city": "柳州市",
            "district": "柳北区"
        }
    },
    {
        "id": "11554038455173152820",
        "title": "公共厕所",
        "address": "广西壮族自治区柳州市鱼峰区荣军路128-11号",
        "tel": "",
        "category": "基础设施:公共设施:公共厕所",
        "type": 0,
        "location": {
            "lat": 24.296928,
            "lng": 109.423265
        },
        "ad_info": {
            "adcode": 450203,
            "province": "广西壮族自治区",
            "city": "柳州市",
            "district": "鱼峰区"
        }
    },
    {
        "id": "9687682841322057803",
        "title": "公共厕所",
        "address": "广西壮族自治区柳州市柳南区城站路与革新路交叉口正东方向435米左右",
        "tel": "",
        "category": "基础设施:公共设施:公共厕所",
        "type": 0,
        "location": {
            "lat": 24.301342,
            "lng": 109.393359
        },
        "ad_info": {
            "adcode": 450204,
            "province": "广西壮族自治区",
            "city": "柳州市",
            "district": "柳南区"
        }
    },
    {
        "id": "2057295744799223622",
        "title": "地区医院公共厕所",
        "address": "广西壮族自治区柳州市柳北区健民路与跃进路交叉口正西方向40米左右",
        "tel": "",
        "category": "基础设施:公共设施:公共厕所",
        "type": 0,
        "location": {
            "lat": 24.365837,
            "lng": 109.411591
        },
        "ad_info": {
            "adcode": 450205,
            "province": "广西壮族自治区",
            "city": "柳州市",
            "district": "柳北区"
        }
    },
    {
        "id": "16210927852501560924",
        "title": "公共厕所",
        "address": "广西壮族自治区柳州市鹿寨县广源街与鹿寨步行街交叉口正北方向136米左右",
        "tel": "",
        "category": "基础设施:公共设施:公共厕所",
        "type": 0,
        "location": {
            "lat": 24.481964,
            "lng": 109.741574
        },
        "ad_info": {
            "adcode": 450223,
            "province": "广西壮族自治区",
            "city": "柳州市",
            "district": "鹿寨县"
        }
    },
    {
        "id": "15949715816471216994",
        "title": "公共厕所",
        "address": "广西壮族自治区柳州市鹿寨县交通街与水塔街交叉口东北方向78米左右",
        "tel": "",
        "category": "基础设施:公共设施:公共厕所",
        "type": 0,
        "location": {
            "lat": 24.485436,
            "lng": 109.741971
        },
        "ad_info": {
            "adcode": 450223,
            "province": "广西壮族自治区",
            "city": "柳州市",
            "district": "鹿寨县"
        }
    },
    {
        "id": "13020739872383652311",
        "title": "柳城服务区公共厕所",
        "address": "广西壮族自治区柳州市柳城县汕昆高速与马山互通分离立交中桥交叉口正西方向1255米左右",
        "tel": "",
        "category": "基础设施:公共设施:公共厕所",
        "type": 0,
        "location": {
            "lat": 24.523943,
            "lng": 109.075546
        },
        "ad_info": {
            "adcode": 450222,
            "province": "广西壮族自治区",
            "city": "柳州市",
            "district": "柳城县"
        }
    },
    {
        "id": "10816349029200343273",
        "title": "无障碍公共厕所",
        "address": "广西壮族自治区柳州市鱼峰区广庆路与新城路交叉口西北方向38米左右",
        "tel": "",
        "category": "基础设施:公共设施:公共厕所",
        "type": 0,
        "location": {
            "lat": 24.402315,
            "lng": 109.599476
        },
        "ad_info": {
            "adcode": 450203,
            "province": "广西壮族自治区",
            "city": "柳州市",
            "district": "鱼峰区"
        }
    },
    {
        "id": "8809486277206982444",
        "title": "烟草公司公共厕所",
        "address": "广西壮族自治区柳州市柳北区柳州图书馆东侧90米",
        "tel": "",
        "category": "基础设施:公共设施:公共厕所",
        "type": 0,
        "location": {
            "lat": 24.328359,
            "lng": 109.416762
        },
        "ad_info": {
            "adcode": 450205,
            "province": "广西壮族自治区",
            "city": "柳州市",
            "district": "柳北区"
        }
    },
    {
        "id": "6254010852898296003",
        "title": "公共",
        "address": "广西壮族自治区柳州市鱼峰区柳石路与银桐路交叉口西北方向150米左右",
        "tel": "",
        "category": "基础设施:公共设施:公共厕所",
        "type": 0,
        "location": {
            "lat": 24.296013,
            "lng": 109.410613
        },
        "ad_info": {
            "adcode": 450203,
            "province": "广西壮族自治区",
            "city": "柳州市",
            "district": "鱼峰区"
        }
    },
    {
        "id": "10730958154597852981",
        "title": "公共厕所",
        "address": "广西壮族自治区柳州市柳江区柳东路60号",
        "tel": "",
        "category": "基础设施:公共设施:公共厕所",
        "type": 0,
        "location": {
            "lat": 24.253675,
            "lng": 109.333367
        },
        "ad_info": {
            "adcode": 450206,
            "province": "广西壮族自治区",
            "city": "柳州市",
            "district": "柳江区"
        }
    },
    {
        "id": "598500879955237935",
        "title": "公共厕所",
        "address": "广西壮族自治区柳州市鱼峰区东环大道东一巷与西江路北二巷交叉口正南方向123米左右",
        "tel": "",
        "category": "基础设施:公共设施:公共厕所",
        "type": 0,
        "location": {
            "lat": 24.308702,
            "lng": 109.451204
        },
        "ad_info": {
            "adcode": 450203,
            "province": "广西壮族自治区",
            "city": "柳州市",
            "district": "鱼峰区"
        }
    },
    {
        "id": "13317759035784370187",
        "title": "公共厕所",
        "address": "广西壮族自治区柳州市鱼峰区荣军路与荣军路东三巷交叉口正东方向320米左右",
        "tel": "",
        "category": "基础设施:公共设施:公共厕所",
        "type": 0,
        "location": {
            "lat": 24.300525,
            "lng": 109.425055
        },
        "ad_info": {
            "adcode": 450203,
            "province": "广西壮族自治区",
            "city": "柳州市",
            "district": "鱼峰区"
        }
    },
    {
        "id": "9053539079705168442",
        "title": "公共厕所",
        "address": "广西壮族自治区柳州市鱼峰区文昌路21号",
        "tel": "",
        "category": "基础设施:公共设施:公共厕所",
        "type": 0,
        "location": {
            "lat": 24.322952,
            "lng": 109.448495
        },
        "ad_info": {
            "adcode": 450203,
            "province": "广西壮族自治区",
            "city": "柳州市",
            "district": "鱼峰区"
        }
    },
    {
        "id": "18074009141924243195",
        "title": "马鞍山公园-公共厕所",
        "address": "广西壮族自治区柳州市鱼峰区屏山大道与屏山大道北二巷交叉口西南方向88米左右",
        "tel": "",
        "category": "基础设施:公共设施:公共厕所",
        "type": 0,
        "location": {
            "lat": 24.302271,
            "lng": 109.415512
        },
        "ad_info": {
            "adcode": 450203,
            "province": "广西壮族自治区",
            "city": "柳州市",
            "district": "鱼峰区"
        }
    },
    {
        "id": "1274531683826302679",
        "title": "公共厕所",
        "address": "广西壮族自治区柳州市鱼峰区茅山路与荣新路交叉口东北方向136米左右",
        "tel": "",
        "category": "基础设施:公共设施:公共厕所",
        "type": 0,
        "location": {
            "lat": 24.294183,
            "lng": 109.435406
        },
        "ad_info": {
            "adcode": 450203,
            "province": "广西壮族自治区",
            "city": "柳州市",
            "district": "鱼峰区"
        }
    },
    {
        "id": "10146598537437338045",
        "title": "公共厕所",
        "address": "广西壮族自治区柳州市柳北区北雀路与雅儒路东六巷交叉口正北方向191米左右",
        "tel": "",
        "category": "基础设施:公共设施:公共厕所",
        "type": 0,
        "location": {
            "lat": 24.332676,
            "lng": 109.404974
        },
        "ad_info": {
            "adcode": 450205,
            "province": "广西壮族自治区",
            "city": "柳州市",
            "district": "柳北区"
        }
    },
    {
        "id": "4282928751574042315",
        "title": "公共厕所",
        "address": "广西壮族自治区柳州市城中区东台路与中山东路交叉口东北方向112米左右",
        "tel": "",
        "category": "基础设施:公共设施:公共厕所",
        "type": 0,
        "location": {
            "lat": 24.31306,
            "lng": 109.418204
        },
        "ad_info": {
            "adcode": 450202,
            "province": "广西壮族自治区",
            "city": "柳州市",
            "district": "城中区"
        }
    },
    {
        "id": "3765939167000719644",
        "title": "公共厕所",
        "address": "广西壮族自治区柳州市柳北区中国石化广西柳州柳北柳鹊加油站东南侧70米",
        "tel": "",
        "category": "基础设施:公共设施:公共厕所",
        "type": 0,
        "location": {
            "lat": 24.347456,
            "lng": 109.403276
        },
        "ad_info": {
            "adcode": 450205,
            "province": "广西壮族自治区",
            "city": "柳州市",
            "district": "柳北区"
        }
    },
    {
        "id": "17297714603373026102",
        "title": "公共厕所",
        "address": "广西壮族自治区柳州市柳北区八一路与北站路交叉口西北方向120米左右",
        "tel": "",
        "category": "基础设施:公共设施:公共厕所",
        "type": 0,
        "location": {
            "lat": 24.328468,
            "lng": 109.408472
        },
        "ad_info": {
            "adcode": 450205,
            "province": "广西壮族自治区",
            "city": "柳州市",
            "district": "柳北区"
        }
    },
    {
        "id": "2254203541453574439",
        "title": "公共厕所",
        "address": "广西壮族自治区柳州市柳北区北雀路与柳长路交叉口正北方向40米左右",
        "tel": "",
        "category": "基础设施:公共设施:公共厕所",
        "type": 0,
        "location": {
            "lat": 24.381868,
            "lng": 109.410616
        },
        "ad_info": {
            "adcode": 450205,
            "province": "广西壮族自治区",
            "city": "柳州市",
            "district": "柳北区"
        }
    },
    {
        "id": "1315354668093219497",
        "title": "公共厕所",
        "address": "广西壮族自治区柳州市鱼峰区惠龙路与柳兴路交叉口正西方向67米左右",
        "tel": "",
        "category": "基础设施:公共设施:公共厕所",
        "type": 0,
        "location": {
            "lat": 24.312756,
            "lng": 109.436297
        },
        "ad_info": {
            "adcode": 450203,
            "province": "广西壮族自治区",
            "city": "柳州市",
            "district": "鱼峰区"
        }
    },
    {
        "id": "578307378452878277",
        "title": "公共厕所",
        "address": "广西壮族自治区柳州市融水苗族自治县华强路与福星路交叉口西北方向66米左右",
        "tel": "",
        "category": "基础设施:公共设施:公共厕所",
        "type": 0,
        "location": {
            "lat": 25.08044,
            "lng": 109.260182
        },
        "ad_info": {
            "adcode": 450225,
            "province": "广西壮族自治区",
            "city": "柳州市",
            "district": "融水苗族自治县"
        }
    },
    {
        "id": "5845482427229675435",
        "title": "公共厕所",
        "address": "广西壮族自治区柳州市柳北区白沙路与长风路交叉口西南方向259米左右",
        "tel": "",
        "category": "基础设施:公共设施:公共厕所",
        "type": 0,
        "location": {
            "lat": 24.354689,
            "lng": 109.414499
        },
        "ad_info": {
            "adcode": 450205,
            "province": "广西壮族自治区",
            "city": "柳州市",
            "district": "柳北区"
        }
    },
    {
        "id": "5238114163522196784",
        "title": "东堤游园公共厕所",
        "address": "广西壮族自治区柳州市城中区东堤路与文兴路交叉口正北方向110米左右",
        "tel": "",
        "category": "基础设施:公共设施:公共厕所",
        "type": 0,
        "location": {
            "lat": 24.331426,
            "lng": 109.424282
        },
        "ad_info": {
            "adcode": 450202,
            "province": "广西壮族自治区",
            "city": "柳州市",
            "district": "城中区"
        }
    },
    {
        "id": "1391953324354862069",
        "title": "男洗手间(五星百货·乐和城)",
        "address": "广西壮族自治区柳州市城中区文昌路20号五星百货·乐和奥莱F4",
        "tel": "",
        "category": "基础设施:公共设施:男洗手间",
        "type": 0,
        "location": {
            "lat": 24.324065,
            "lng": 109.439442
        },
        "ad_info": {
            "adcode": 450202,
            "province": "广西壮族自治区",
            "city": "柳州市",
            "district": "城中区"
        }
    },
    {
        "id": "2306060973554551259",
        "title": "公共厕所",
        "address": "广西壮族自治区柳州市柳南区柳邕路与柳邕路东二巷交叉口西南方向135米左右",
        "tel": "",
        "category": "基础设施:公共设施:公共厕所",
        "type": 0,
        "location": {
            "lat": 24.295619,
            "lng": 109.405486
        },
        "ad_info": {
            "adcode": 450204,
            "province": "广西壮族自治区",
            "city": "柳州市",
            "district": "柳南区"
        }
    },
    {
        "id": "16290159198573702066",
        "title": "公共厕所",
        "address": "广西壮族自治区柳州市柳南区广汽路与柳工大道交叉口东南方向579米左右",
        "tel": "",
        "category": "基础设施:公共设施:公共厕所",
        "type": 0,
        "location": {
            "lat": 24.3036,
            "lng": 109.36818
        },
        "ad_info": {
            "adcode": 450204,
            "province": "广西壮族自治区",
            "city": "柳州市",
            "district": "柳南区"
        }
    },
    {
        "id": "14040608920473580870",
        "title": "公共厕所",
        "address": "广西壮族自治区柳州市柳南区城站路与革新路交叉口正东方向410米左右",
        "tel": "",
        "category": "基础设施:公共设施:公共厕所",
        "type": 0,
        "location": {
            "lat": 24.300597,
            "lng": 109.393151
        },
        "ad_info": {
            "adcode": 450204,
            "province": "广西壮族自治区",
            "city": "柳州市",
            "district": "柳南区"
        }
    },
    {
        "id": "16173559059999274735",
        "title": "公共厕所",
        "address": "广西壮族自治区柳州市城中区东环路与高新三路交叉口游泳馆旁",
        "tel": "",
        "category": "基础设施:公共设施:公共厕所",
        "type": 0,
        "location": {
            "lat": 24.347661,
            "lng": 109.437368
        },
        "ad_info": {
            "adcode": 450202,
            "province": "广西壮族自治区",
            "city": "柳州市",
            "district": "城中区"
        }
    },
    {
        "id": "4745963652700294572",
        "title": "公共厕所",
        "address": "广西壮族自治区柳州市城中区石雕艺术馆南侧220米",
        "tel": "",
        "category": "基础设施:公共设施:公共厕所",
        "type": 0,
        "location": {
            "lat": 24.372101,
            "lng": 109.497886
        },
        "ad_info": {
            "adcode": 450202,
            "province": "广西壮族自治区",
            "city": "柳州市",
            "district": "城中区"
        }
    },
    {
        "id": "8218087943212505044",
        "title": "公共厕所",
        "address": "广西壮族自治区柳州市柳南区城站路与城站路南七巷交叉口正南方向44米左右",
        "tel": "",
        "category": "基础设施:公共设施:公共厕所",
        "type": 0,
        "location": {
            "lat": 24.299476,
            "lng": 109.399344
        },
        "ad_info": {
            "adcode": 450204,
            "province": "广西壮族自治区",
            "city": "柳州市",
            "district": "柳南区"
        }
    },
    {
        "id": "6966939071341486432",
        "title": "华杰移动厕所",
        "address": "广西壮族自治区柳州市柳南区红岩路与红桥路交叉口正南方向296米左右",
        "tel": "",
        "category": "基础设施:公共设施:公共厕所",
        "type": 0,
        "location": {
            "lat": 24.3098,
            "lng": 109.387432
        },
        "ad_info": {
            "adcode": 450204,
            "province": "广西壮族自治区",
            "city": "柳州市",
            "district": "柳南区"
        }
    },
    {
        "id": "7672113696310475572",
        "title": "公共厕所",
        "address": "广西壮族自治区柳州市鱼峰区驾鹤路江滨公园(西侧)",
        "tel": "",
        "category": "基础设施:公共设施:公共厕所",
        "type": 0,
        "location": {
            "lat": 24.305625,
            "lng": 109.412992
        },
        "ad_info": {
            "adcode": 450203,
            "province": "广西壮族自治区",
            "city": "柳州市",
            "district": "鱼峰区"
        }
    },
    {
        "id": "3922513043705180965",
        "title": "公共厕所",
        "address": "广西壮族自治区柳州市柳北区北雀路与庆丰路交叉口正北方向408米左右",
        "tel": "",
        "category": "基础设施:公共设施:公共厕所",
        "type": 0,
        "location": {
            "lat": 24.346422,
            "lng": 109.402385
        },
        "ad_info": {
            "adcode": 450205,
            "province": "广西壮族自治区",
            "city": "柳州市",
            "district": "柳北区"
        }
    },
    {
        "id": "14127224646153789772",
        "title": "公共厕所",
        "address": "广西壮族自治区柳州市城中区万达东街8栋1-41正南方向51米",
        "tel": "",
        "category": "基础设施:公共设施:公共厕所",
        "type": 0,
        "location": {
            "lat": 24.328754,
            "lng": 109.44273
        },
        "ad_info": {
            "adcode": 450202,
            "province": "广西壮族自治区",
            "city": "柳州市",
            "district": "城中区"
        }
    },
    {
        "id": "17167449755501473111",
        "title": "公共厕所",
        "address": "广西壮族自治区柳州市鱼峰区东四巷与政和路交叉口正北方向226米左右",
        "tel": "",
        "category": "基础设施:公共设施:公共厕所",
        "type": 0,
        "location": {
            "lat": 24.31395,
            "lng": 109.48492
        },
        "ad_info": {
            "adcode": 450203,
            "province": "广西壮族自治区",
            "city": "柳州市",
            "district": "鱼峰区"
        }
    },
    {
        "id": "5791823205963994581",
        "title": "公共厕所",
        "address": "广西壮族自治区柳州市鱼峰区天山路广西机电技师学院东北侧约150米",
        "tel": "",
        "category": "基础设施:公共设施:公共厕所",
        "type": 0,
        "location": {
            "lat": 24.303809,
            "lng": 109.424547
        },
        "ad_info": {
            "adcode": 450203,
            "province": "广西壮族自治区",
            "city": "柳州市",
            "district": "鱼峰区"
        }
    },
    {
        "id": "15945363897994322401",
        "title": "公共厕所",
        "address": "广西壮族自治区柳州市城中区中南街道雅儒路西一巷西来古寺东北",
        "tel": "",
        "category": "基础设施:公共设施:公共厕所",
        "type": 0,
        "location": {
            "lat": 24.315521,
            "lng": 109.404374
        },
        "ad_info": {
            "adcode": 450202,
            "province": "广西壮族自治区",
            "city": "柳州市",
            "district": "城中区"
        }
    },
    {
        "id": "9603057819238222821",
        "title": "公共厕所",
        "address": "广西壮族自治区柳州市柳江区商贸街12栋",
        "tel": "",
        "category": "基础设施:公共设施:公共厕所",
        "type": 0,
        "location": {
            "lat": 24.25488,
            "lng": 109.331824
        },
        "ad_info": {
            "adcode": 450206,
            "province": "广西壮族自治区",
            "city": "柳州市",
            "district": "柳江区"
        }
    },
    {
        "id": "17528857972579180921",
        "title": "公共厕所",
        "address": "广西壮族自治区柳州市柳北区广雅路与广雅路北一巷交叉口西南方向136米左右",
        "tel": "",
        "category": "基础设施:公共设施:公共厕所",
        "type": 0,
        "location": {
            "lat": 24.320013,
            "lng": 109.405517
        },
        "ad_info": {
            "adcode": 450205,
            "province": "广西壮族自治区",
            "city": "柳州市",
            "district": "柳北区"
        }
    },
    {
        "id": "3413572298373223600",
        "title": "公共厕所",
        "address": "广西壮族自治区柳州市柳北区凯旋大道与白沙路交叉口正北方向86米左右",
        "tel": "",
        "category": "基础设施:公共设施:公共厕所",
        "type": 0,
        "location": {
            "lat": 24.339842,
            "lng": 109.414089
        },
        "ad_info": {
            "adcode": 450205,
            "province": "广西壮族自治区",
            "city": "柳州市",
            "district": "柳北区"
        }
    },
    {
        "id": "6546945254218078787",
        "title": "公共厕所",
        "address": "广西壮族自治区柳州市柳南区航银路中国石化(航银路店)",
        "tel": "",
        "category": "基础设施:公共设施:公共厕所",
        "type": 0,
        "location": {
            "lat": 24.283924,
            "lng": 109.399793
        },
        "ad_info": {
            "adcode": 450204,
            "province": "广西壮族自治区",
            "city": "柳州市",
            "district": "柳南区"
        }
    },
    {
        "id": "12092639205403833532",
        "title": "公共厕所",
        "address": "广西壮族自治区柳州市柳南区柳太路与河西路交叉口正东方向380米左右",
        "tel": "",
        "category": "基础设施:公共设施:公共厕所",
        "type": 0,
        "location": {
            "lat": 24.326285,
            "lng": 109.369432
        },
        "ad_info": {
            "adcode": 450204,
            "province": "广西壮族自治区",
            "city": "柳州市",
            "district": "柳南区"
        }
    },
    {
        "id": "8924951494788539917",
        "title": "公共厕所",
        "address": "广西壮族自治区柳州市柳北区雅儒路236号",
        "tel": "",
        "category": "基础设施:公共设施:公共厕所",
        "type": 0,
        "location": {
            "lat": 24.323407,
            "lng": 109.403295
        },
        "ad_info": {
            "adcode": 450205,
            "province": "广西壮族自治区",
            "city": "柳州市",
            "district": "柳北区"
        }
    },
    {
        "id": "8872755225271191305",
        "title": "公共厕所",
        "address": "广西壮族自治区柳州市柳南区红光路飞龙新城",
        "tel": "",
        "category": "基础设施:公共设施:公共厕所",
        "type": 0,
        "location": {
            "lat": 24.305794,
            "lng": 109.400268
        },
        "ad_info": {
            "adcode": 450204,
            "province": "广西壮族自治区",
            "city": "柳州市",
            "district": "柳南区"
        }
    },
    {
        "id": "9641784385834752852",
        "title": "黄村公共厕所",
        "address": "广西壮族自治区柳州市柳北区黄村北雀路半岛·中央花园旁",
        "tel": "",
        "category": "基础设施:公共设施:公共厕所",
        "type": 0,
        "location": {
            "lat": 24.338269,
            "lng": 109.405865
        },
        "ad_info": {
            "adcode": 450205,
            "province": "广西壮族自治区",
            "city": "柳州市",
            "district": "柳北区"
        }
    },
    {
        "id": "6349846910761618590",
        "title": "公共厕所",
        "address": "广西壮族自治区柳州市鱼峰区蟠龙路与龙静路交叉口正西方向343米左右",
        "tel": "",
        "category": "基础设施:公共设施:公共厕所",
        "type": 0,
        "location": {
            "lat": 24.3153,
            "lng": 109.4264
        },
        "ad_info": {
            "adcode": 450203,
            "province": "广西壮族自治区",
            "city": "柳州市",
            "district": "鱼峰区"
        }
    },
    {
        "id": "15105832774369413378",
        "title": "公共厕所",
        "address": "广西壮族自治区柳州市城中区中山西路109号",
        "tel": "",
        "category": "基础设施:公共设施:公共厕所",
        "type": 0,
        "location": {
            "lat": 24.312977,
            "lng": 109.40683
        },
        "ad_info": {
            "adcode": 450202,
            "province": "广西壮族自治区",
            "city": "柳州市",
            "district": "城中区"
        }
    },
    {
        "id": "14073836567958809040",
        "title": "公共厕所",
        "address": "广西壮族自治区柳州市城中区东环大道145-160号",
        "tel": "",
        "category": "基础设施:公共设施:公共厕所",
        "type": 0,
        "location": {
            "lat": 24.349741,
            "lng": 109.43393
        },
        "ad_info": {
            "adcode": 450202,
            "province": "广西壮族自治区",
            "city": "柳州市",
            "district": "城中区"
        }
    },
    {
        "id": "16675821663697137682",
        "title": "鼓山公园公共厕所",
        "address": "广西壮族自治区柳州市鱼峰区乐业园小区一巷与翠湖路交叉口东南方向48米左右",
        "tel": "",
        "category": "基础设施:公共设施:公共厕所",
        "type": 0,
        "location": {
            "lat": 24.30814,
            "lng": 109.488486
        },
        "ad_info": {
            "adcode": 450203,
            "province": "广西壮族自治区",
            "city": "柳州市",
            "district": "鱼峰区"
        }
    },
    {
        "id": "8711873719546989681",
        "title": "公共厕所",
        "address": "广西壮族自治区柳州市柳南区飞鹅路城市便捷酒店(柳州高铁火车站店)",
        "tel": "",
        "category": "基础设施:公共设施:公共厕所",
        "type": 0,
        "location": {
            "lat": 24.305544,
            "lng": 109.395458
        },
        "ad_info": {
            "adcode": 450204,
            "province": "广西壮族自治区",
            "city": "柳州市",
            "district": "柳南区"
        }
    },
    {
        "id": "18348584701814377667",
        "title": "公共厕所",
        "address": "广西壮族自治区柳州市城中区高新一路与高新一路北一巷交叉口东南方向179米左右",
        "tel": "",
        "category": "基础设施:公共设施:公共厕所",
        "type": 0,
        "location": {
            "lat": 24.340139,
            "lng": 109.426586
        },
        "ad_info": {
            "adcode": 450202,
            "province": "广西壮族自治区",
            "city": "柳州市",
            "district": "城中区"
        }
    },
    {
        "id": "13856203443089676490",
        "title": "公共厕所",
        "address": "广西壮族自治区柳州市柳南区南站路与革新路交叉口东北方向390米左右",
        "tel": "",
        "category": "基础设施:公共设施:公共厕所",
        "type": 0,
        "location": {
            "lat": 24.304454,
            "lng": 109.387174
        },
        "ad_info": {
            "adcode": 450204,
            "province": "广西壮族自治区",
            "city": "柳州市",
            "district": "柳南区"
        }
    },
    {
        "id": "5631058556079277562",
        "title": "男洗手间(梦之岛百货)",
        "address": "广西壮族自治区柳州市城中区阳光100城市广场26栋梦之岛百货F6层",
        "tel": "",
        "category": "基础设施:公共设施:公共厕所",
        "type": 0,
        "location": {
            "lat": 24.325499,
            "lng": 109.432311
        },
        "ad_info": {
            "adcode": 450202,
            "province": "广西壮族自治区",
            "city": "柳州市",
            "district": "城中区"
        }
    },
    {
        "id": "16743795132648012427",
        "title": "佳力路公共厕所",
        "address": "广西壮族自治区柳州市柳南区大同巷与飞鹅路交叉口正南方向115米左右",
        "tel": "",
        "category": "基础设施:公共设施:公共厕所",
        "type": 0,
        "location": {
            "lat": 24.302804,
            "lng": 109.404675
        },
        "ad_info": {
            "adcode": 450204,
            "province": "广西壮族自治区",
            "city": "柳州市",
            "district": "柳南区"
        }
    },
    {
        "id": "491676786596831289",
        "title": "容庆路四巷公共厕所",
        "address": "广西壮族自治区柳州市鱼峰区容庆路与洛江路交叉口东北方向55米左右",
        "tel": "",
        "category": "基础设施:公共设施:公共厕所",
        "type": 0,
        "location": {
            "lat": 24.400372,
            "lng": 109.601987
        },
        "ad_info": {
            "adcode": 450203,
            "province": "广西壮族自治区",
            "city": "柳州市",
            "district": "鱼峰区"
        }
    },
    {
        "id": "4982919917329726822",
        "title": "公共厕所",
        "address": "广西壮族自治区柳州市融安县G209与X630交叉口东南方向112米左右",
        "tel": "",
        "category": "基础设施:公共设施:公共厕所",
        "type": 0,
        "location": {
            "lat": 24.833899,
            "lng": 109.33911
        },
        "ad_info": {
            "adcode": 450224,
            "province": "广西壮族自治区",
            "city": "柳州市",
            "district": "融安县"
        }
    },
    {
        "id": "15247194529351895299",
        "title": "公共厕所",
        "address": "广西壮族自治区柳州市鱼峰区社湾路与西江路交叉口东南方向191米左右",
        "tel": "",
        "category": "基础设施:公共设施:公共厕所",
        "type": 0,
        "location": {
            "lat": 24.301316,
            "lng": 109.444119
        },
        "ad_info": {
            "adcode": 450203,
            "province": "广西壮族自治区",
            "city": "柳州市",
            "district": "鱼峰区"
        }
    },
    {
        "id": "12796176005626473431",
        "title": "公共卫生间",
        "address": "广西壮族自治区柳州市柳南区南站街道新风桥邮苑小区北门",
        "tel": "",
        "category": "基础设施:公共设施:公共厕所",
        "type": 0,
        "location": {
            "lat": 24.302367,
            "lng": 109.387038
        },
        "ad_info": {
            "adcode": 450204,
            "province": "广西壮族自治区",
            "city": "柳州市",
            "district": "柳南区"
        }
    },
    {
        "id": "17324832665859682174",
        "title": "公共厕所",
        "address": "广西壮族自治区柳州市鱼峰区柳邕路138号",
        "tel": "",
        "category": "基础设施:公共设施:公共厕所",
        "type": 0,
        "location": {
            "lat": 24.298495,
            "lng": 109.409185
        },
        "ad_info": {
            "adcode": 450203,
            "province": "广西壮族自治区",
            "city": "柳州市",
            "district": "鱼峰区"
        }
    },
    {
        "id": "16289280095050427052",
        "title": "公共厕所",
        "address": "广西壮族自治区柳州市柳北区北雀路与柳化大道交叉口东南方向369米左右",
        "tel": "",
        "category": "基础设施:公共设施:公共厕所",
        "type": 0,
        "location": {
            "lat": 24.357387,
            "lng": 109.401862
        },
        "ad_info": {
            "adcode": 450205,
            "province": "广西壮族自治区",
            "city": "柳州市",
            "district": "柳北区"
        }
    },
    {
        "id": "3967646605555947597",
        "title": "公共厕所",
        "address": "广西壮族自治区柳州市柳江区S210与Y426交叉口东北方向484米左右",
        "tel": "",
        "category": "基础设施:公共设施:公共厕所",
        "type": 0,
        "location": {
            "lat": 24.146379,
            "lng": 109.272081
        },
        "ad_info": {
            "adcode": 450206,
            "province": "广西壮族自治区",
            "city": "柳州市",
            "district": "柳江区"
        }
    },
    {
        "id": "2196190912837950871",
        "title": "公共厕所",
        "address": "广西壮族自治区柳州市柳城县X072与Y025交叉口正西方向283米左右",
        "tel": "",
        "category": "基础设施:公共设施:公共厕所",
        "type": 0,
        "location": {
            "lat": 24.55296,
            "lng": 109.4871
        },
        "ad_info": {
            "adcode": 450222,
            "province": "广西壮族自治区",
            "city": "柳州市",
            "district": "柳城县"
        }
    },
    {
        "id": "15999976409851519077",
        "title": "公共厕所",
        "address": "广西壮族自治区柳州市柳南区鹅岗路铁道集贸市场西南门西南侧约40米",
        "tel": "",
        "category": "基础设施:公共设施:公共厕所",
        "type": 0,
        "location": {
            "lat": 24.31111,
            "lng": 109.39078
        },
        "ad_info": {
            "adcode": 450204,
            "province": "广西壮族自治区",
            "city": "柳州市",
            "district": "柳南区"
        }
    },
    {
        "id": "11861195865009136460",
        "title": "公共厕所",
        "address": "广西壮族自治区柳州市城中区中山西路与樵家巷交叉口西南方向25米左右",
        "tel": "",
        "category": "基础设施:公共设施:公共厕所",
        "type": 0,
        "location": {
            "lat": 24.31258,
            "lng": 109.406753
        },
        "ad_info": {
            "adcode": 450202,
            "province": "广西壮族自治区",
            "city": "柳州市",
            "district": "城中区"
        }
    },
    {
        "id": "16867875939298246744",
        "title": "公共厕所",
        "address": "广西壮族自治区柳州市城中区广场路与广雅路交叉口西南方向60米左右",
        "tel": "",
        "category": "基础设施:公共设施:公共厕所",
        "type": 0,
        "location": {
            "lat": 24.319609,
            "lng": 109.40701
        },
        "ad_info": {
            "adcode": 450202,
            "province": "广西壮族自治区",
            "city": "柳州市",
            "district": "城中区"
        }
    },
    {
        "id": "5359390856896295879",
        "title": "公共厕所",
        "address": "广西壮族自治区柳州市柳南区城站路南二巷与柳邕路交叉口正北方向133米左右",
        "tel": "",
        "category": "基础设施:公共设施:公共厕所",
        "type": 0,
        "location": {
            "lat": 24.295149,
            "lng": 109.400031
        },
        "ad_info": {
            "adcode": 450204,
            "province": "广西壮族自治区",
            "city": "柳州市",
            "district": "柳南区"
        }
    },
    {
        "id": "2131139922251364642",
        "title": "公共厕所",
        "address": "广西壮族自治区柳州市柳南区柳邕路与航惠路交叉口正北方向90米左右",
        "tel": "",
        "category": "基础设施:公共设施:公共厕所",
        "type": 0,
        "location": {
            "lat": 24.292148,
            "lng": 109.394169
        },
        "ad_info": {
            "adcode": 450204,
            "province": "广西壮族自治区",
            "city": "柳州市",
            "district": "柳南区"
        }
    },
    {
        "id": "18075946656087070643",
        "title": "公共厕所",
        "address": "广西壮族自治区柳州市柳南区城站路与柳邕路交叉口正北方向88米左右",
        "tel": "",
        "category": "基础设施:公共设施:公共厕所",
        "type": 0,
        "location": {
            "lat": 24.295593,
            "lng": 109.4031
        },
        "ad_info": {
            "adcode": 450204,
            "province": "广西壮族自治区",
            "city": "柳州市",
            "district": "柳南区"
        }
    },
    {
        "id": "4564907045577916698",
        "title": "公共厕所",
        "address": "广西壮族自治区柳州市柳北区跃进路与锦绣路交叉口正北方向225米左右",
        "tel": "",
        "category": "基础设施:公共设施:公共厕所",
        "type": 0,
        "location": {
            "lat": 24.346412,
            "lng": 109.410222
        },
        "ad_info": {
            "adcode": 450205,
            "province": "广西壮族自治区",
            "city": "柳州市",
            "district": "柳北区"
        }
    },
    {
        "id": "9169191620057581790",
        "title": "公共厕所",
        "address": "广西壮族自治区柳州市融安县人民医院东侧130米",
        "tel": "",
        "category": "基础设施:公共设施:公共厕所",
        "type": 0,
        "location": {
            "lat": 25.21617,
            "lng": 109.397078
        },
        "ad_info": {
            "adcode": 450224,
            "province": "广西壮族自治区",
            "city": "柳州市",
            "district": "融安县"
        }
    },
    {
        "id": "11843406691452121498",
        "title": "公共厕所",
        "address": "广西壮族自治区柳州市鱼峰区箭盘路东一巷东华园",
        "tel": "",
        "category": "基础设施:公共设施:公共厕所",
        "type": 0,
        "location": {
            "lat": 24.308874,
            "lng": 109.438301
        },
        "ad_info": {
            "adcode": 450203,
            "province": "广西壮族自治区",
            "city": "柳州市",
            "district": "鱼峰区"
        }
    },
    {
        "id": "4936572959443489775",
        "title": "公共厕所",
        "address": "广西壮族自治区柳州市柳南区航银路与银桐路交叉口东北方向94米左右",
        "tel": "",
        "category": "基础设施:公共设施:公共厕所",
        "type": 0,
        "location": {
            "lat": 24.29366,
            "lng": 109.404486
        },
        "ad_info": {
            "adcode": 450204,
            "province": "广西壮族自治区",
            "city": "柳州市",
            "district": "柳南区"
        }
    },
    {
        "id": "15304635481342627041",
        "title": "公共厕所",
        "address": "广西壮族自治区柳州市鱼峰区天山路与水南路交叉口东南方向78米左右",
        "tel": "",
        "category": "基础设施:公共设施:公共厕所",
        "type": 0,
        "location": {
            "lat": 24.30588,
            "lng": 109.42747
        },
        "ad_info": {
            "adcode": 450203,
            "province": "广西壮族自治区",
            "city": "柳州市",
            "district": "鱼峰区"
        }
    },
    {
        "id": "8952080851541276094",
        "title": "公共厕所",
        "address": "广西壮族自治区柳州市鱼峰区九头山路泰安居",
        "tel": "",
        "category": "基础设施:公共设施:公共厕所",
        "type": 0,
        "location": {
            "lat": 24.281433,
            "lng": 109.436271
        },
        "ad_info": {
            "adcode": 450203,
            "province": "广西壮族自治区",
            "city": "柳州市",
            "district": "鱼峰区"
        }
    },
    {
        "id": "5762834576519573328",
        "title": "南二巷公共厕所",
        "address": "广西壮族自治区柳州市柳南区城站路南二巷与柳邕路交叉口正北方向198米左右",
        "tel": "",
        "category": "基础设施:公共设施:公共厕所",
        "type": 0,
        "location": {
            "lat": 24.295742,
            "lng": 109.400233
        },
        "ad_info": {
            "adcode": 450204,
            "province": "广西壮族自治区",
            "city": "柳州市",
            "district": "柳南区"
        }
    },
    {
        "id": "11189489590541575802",
        "title": "公共厕所",
        "address": "广西壮族自治区柳州市鱼峰区九头山路与燎原路交叉口东南方向39米左右",
        "tel": "",
        "category": "基础设施:公共设施:公共厕所",
        "type": 0,
        "location": {
            "lat": 24.283911,
            "lng": 109.438949
        },
        "ad_info": {
            "adcode": 450203,
            "province": "广西壮族自治区",
            "city": "柳州市",
            "district": "鱼峰区"
        }
    },
    {
        "id": "5243242287238053735",
        "title": "公共厕所",
        "address": "广西壮族自治区柳州市鱼峰区柳石路151号-24号",
        "tel": "",
        "category": "基础设施:公共设施:公共厕所",
        "type": 0,
        "location": {
            "lat": 24.281414,
            "lng": 109.429846
        },
        "ad_info": {
            "adcode": 450203,
            "province": "广西壮族自治区",
            "city": "柳州市",
            "district": "鱼峰区"
        }
    },
    {
        "id": "10398752707174728271",
        "title": "公共厕所",
        "address": "广西壮族自治区柳州市柳南区柳工大道广西汽车贸易园-二手车市场东区",
        "tel": "",
        "category": "基础设施:公共设施:公共厕所",
        "type": 0,
        "location": {
            "lat": 24.304552,
            "lng": 109.365971
        },
        "ad_info": {
            "adcode": 450204,
            "province": "广西壮族自治区",
            "city": "柳州市",
            "district": "柳南区"
        }
    },
    {
        "id": "1778789838482837561",
        "title": "恒企会计培训(五星校区)洗手间",
        "address": "广西壮族自治区柳州市城中区柳江大桥与龙城路交叉口西北方向69米左右",
        "tel": "",
        "category": "基础设施:公共设施:公共厕所",
        "type": 0,
        "location": {
            "lat": 24.310967,
            "lng": 109.410286
        },
        "ad_info": {
            "adcode": 450202,
            "province": "广西壮族自治区",
            "city": "柳州市",
            "district": "城中区"
        }
    },
    {
        "id": "13539372355072892817",
        "title": "公共厕所",
        "address": "广西壮族自治区柳州市融安县立新街118号",
        "tel": "",
        "category": "基础设施:公共设施:公共厕所",
        "type": 0,
        "location": {
            "lat": 25.223808,
            "lng": 109.398137
        },
        "ad_info": {
            "adcode": 450224,
            "province": "广西壮族自治区",
            "city": "柳州市",
            "district": "融安县"
        }
    },
    {
        "id": "1418707540915508852",
        "title": "公共厕所",
        "address": "广西壮族自治区柳州市鱼峰区柳石路与柳石路东四巷交叉口正东方向44米左右",
        "tel": "",
        "category": "基础设施:公共设施:公共厕所",
        "type": 0,
        "location": {
            "lat": 24.270035,
            "lng": 109.438858
        },
        "ad_info": {
            "adcode": 450203,
            "province": "广西壮族自治区",
            "city": "柳州市",
            "district": "鱼峰区"
        }
    },
    {
        "id": "1017372929073518573",
        "title": "公共厕所",
        "address": "广西壮族自治区柳州市鱼峰区南环路与鸡喇路交叉口正东方向194米左右",
        "tel": "",
        "category": "基础设施:公共设施:公共厕所",
        "type": 0,
        "location": {
            "lat": 24.266914,
            "lng": 109.445693
        },
        "ad_info": {
            "adcode": 450203,
            "province": "广西壮族自治区",
            "city": "柳州市",
            "district": "鱼峰区"
        }
    },
    {
        "id": "13691088862568994369",
        "title": "无障碍公共厕所",
        "address": "广西壮族自治区柳州市柳江区龙怀路36号",
        "tel": "",
        "category": "基础设施:公共设施:公共厕所",
        "type": 0,
        "location": {
            "lat": 24.259308,
            "lng": 109.378283
        },
        "ad_info": {
            "adcode": 450206,
            "province": "广西壮族自治区",
            "city": "柳州市",
            "district": "柳江区"
        }
    },
    {
        "id": "16192685400348745914",
        "title": "公共厕所",
        "address": "广西壮族自治区柳州市柳江区毅德城东南侧390米",
        "tel": "",
        "category": "基础设施:公共设施:公共厕所",
        "type": 0,
        "location": {
            "lat": 24.245514,
            "lng": 109.378869
        },
        "ad_info": {
            "adcode": 450206,
            "province": "广西壮族自治区",
            "city": "柳州市",
            "district": "柳江区"
        }
    },
    {
        "id": "9078351929304757040",
        "title": "男洗手间",
        "address": "广西壮族自治区柳州市城中区东环大道与文兴路交汇处万达广场B1",
        "tel": "",
        "category": "基础设施:公共设施:公共厕所",
        "type": 0,
        "location": {
            "lat": 24.329234,
            "lng": 109.443198
        },
        "ad_info": {
            "adcode": 450202,
            "province": "广西壮族自治区",
            "city": "柳州市",
            "district": "城中区"
        }
    },
    {
        "id": "15278145123884668676",
        "title": "荣和天誉沿江路旅游厕所",
        "address": "广西壮族自治区柳州市城中区沿江路与观光路交叉口正东方向122米左右",
        "tel": "",
        "category": "基础设施:公共设施:公共厕所",
        "type": 0,
        "location": {
            "lat": 24.353964,
            "lng": 109.427432
        },
        "ad_info": {
            "adcode": 450202,
            "province": "广西壮族自治区",
            "city": "柳州市",
            "district": "城中区"
        }
    },
    {
        "id": "9485886571979349799",
        "title": "公共厕所",
        "address": "广西壮族自治区柳州市城中区东环大道与清和路交叉口正东方向196米左右",
        "tel": "",
        "category": "基础设施:公共设施:公共厕所",
        "type": 0,
        "location": {
            "lat": 24.325643,
            "lng": 109.441792
        },
        "ad_info": {
            "adcode": 450202,
            "province": "广西壮族自治区",
            "city": "柳州市",
            "district": "城中区"
        }
    },
    {
        "id": "11352607007188000355",
        "title": "公共厕所",
        "address": "广西壮族自治区柳州市柳南区柳邕路中国石油(柳邕路店)",
        "tel": "",
        "category": "基础设施:公共设施:公共厕所",
        "type": 0,
        "location": {
            "lat": 24.273334,
            "lng": 109.376988
        },
        "ad_info": {
            "adcode": 450204,
            "province": "广西壮族自治区",
            "city": "柳州市",
            "district": "柳南区"
        }
    },
    {
        "id": "4840398237875565524",
        "title": "公共厕所",
        "address": "广西壮族自治区柳州市柳南区上游路与西堤路交叉口正南方向240米左右",
        "tel": "",
        "category": "基础设施:公共设施:公共厕所",
        "type": 0,
        "location": {
            "lat": 24.314899,
            "lng": 109.396621
        },
        "ad_info": {
            "adcode": 450204,
            "province": "广西壮族自治区",
            "city": "柳州市",
            "district": "柳南区"
        }
    },
    {
        "id": "10456848295538439790",
        "title": "公共厕所",
        "address": "广西壮族自治区柳州市城中区文源路与高新四路交叉口正北方向108米左右",
        "tel": "",
        "category": "基础设施:公共设施:公共厕所",
        "type": 0,
        "location": {
            "lat": 24.351459,
            "lng": 109.430873
        },
        "ad_info": {
            "adcode": 450202,
            "province": "广西壮族自治区",
            "city": "柳州市",
            "district": "城中区"
        }
    },
    {
        "id": "11843406691452121498",
        "title": "公共厕所",
        "address": "广西壮族自治区柳州市鱼峰区箭盘路东一巷东华园",
        "tel": "",
        "category": "基础设施:公共设施:公共厕所",
        "type": 0,
        "location": {
            "lat": 24.308874,
            "lng": 109.438301
        },
        "ad_info": {
            "adcode": 450203,
            "province": "广西壮族自治区",
            "city": "柳州市",
            "district": "鱼峰区"
        }
    },
    {
        "id": "4936572959443489775",
        "title": "公共厕所",
        "address": "广西壮族自治区柳州市柳南区航银路与银桐路交叉口东北方向94米左右",
        "tel": "",
        "category": "基础设施:公共设施:公共厕所",
        "type": 0,
        "location": {
            "lat": 24.29366,
            "lng": 109.404486
        },
        "ad_info": {
            "adcode": 450204,
            "province": "广西壮族自治区",
            "city": "柳州市",
            "district": "柳南区"
        }
    },
    {
        "id": "15304635481342627041",
        "title": "公共厕所",
        "address": "广西壮族自治区柳州市鱼峰区天山路与水南路交叉口东南方向78米左右",
        "tel": "",
        "category": "基础设施:公共设施:公共厕所",
        "type": 0,
        "location": {
            "lat": 24.30588,
            "lng": 109.42747
        },
        "ad_info": {
            "adcode": 450203,
            "province": "广西壮族自治区",
            "city": "柳州市",
            "district": "鱼峰区"
        }
    },
    {
        "id": "8952080851541276094",
        "title": "公共厕所",
        "address": "广西壮族自治区柳州市鱼峰区九头山路泰安居",
        "tel": "",
        "category": "基础设施:公共设施:公共厕所",
        "type": 0,
        "location": {
            "lat": 24.281433,
            "lng": 109.436271
        },
        "ad_info": {
            "adcode": 450203,
            "province": "广西壮族自治区",
            "city": "柳州市",
            "district": "鱼峰区"
        }
    },
    {
        "id": "5762834576519573328",
        "title": "南二巷公共厕所",
        "address": "广西壮族自治区柳州市柳南区城站路南二巷与柳邕路交叉口正北方向198米左右",
        "tel": "",
        "category": "基础设施:公共设施:公共厕所",
        "type": 0,
        "location": {
            "lat": 24.295742,
            "lng": 109.400233
        },
        "ad_info": {
            "adcode": 450204,
            "province": "广西壮族自治区",
            "city": "柳州市",
            "district": "柳南区"
        }
    },
    {
        "id": "11189489590541575802",
        "title": "公共厕所",
        "address": "广西壮族自治区柳州市鱼峰区九头山路与燎原路交叉口东南方向39米左右",
        "tel": "",
        "category": "基础设施:公共设施:公共厕所",
        "type": 0,
        "location": {
            "lat": 24.283911,
            "lng": 109.438949
        },
        "ad_info": {
            "adcode": 450203,
            "province": "广西壮族自治区",
            "city": "柳州市",
            "district": "鱼峰区"
        }
    },
    {
        "id": "5243242287238053735",
        "title": "公共厕所",
        "address": "广西壮族自治区柳州市鱼峰区柳石路151号-24号",
        "tel": "",
        "category": "基础设施:公共设施:公共厕所",
        "type": 0,
        "location": {
            "lat": 24.281414,
            "lng": 109.429846
        },
        "ad_info": {
            "adcode": 450203,
            "province": "广西壮族自治区",
            "city": "柳州市",
            "district": "鱼峰区"
        }
    },
    {
        "id": "10398752707174728271",
        "title": "公共厕所",
        "address": "广西壮族自治区柳州市柳南区柳工大道广西汽车贸易园-二手车市场东区",
        "tel": "",
        "category": "基础设施:公共设施:公共厕所",
        "type": 0,
        "location": {
            "lat": 24.304552,
            "lng": 109.365971
        },
        "ad_info": {
            "adcode": 450204,
            "province": "广西壮族自治区",
            "city": "柳州市",
            "district": "柳南区"
        }
    },
    {
        "id": "1778789838482837561",
        "title": "恒企会计培训(五星校区)洗手间",
        "address": "广西壮族自治区柳州市城中区柳江大桥与龙城路交叉口西北方向69米左右",
        "tel": "",
        "category": "基础设施:公共设施:公共厕所",
        "type": 0,
        "location": {
            "lat": 24.310967,
            "lng": 109.410286
        },
        "ad_info": {
            "adcode": 450202,
            "province": "广西壮族自治区",
            "city": "柳州市",
            "district": "城中区"
        }
    },
    {
        "id": "13539372355072892817",
        "title": "公共厕所",
        "address": "广西壮族自治区柳州市融安县立新街118号",
        "tel": "",
        "category": "基础设施:公共设施:公共厕所",
        "type": 0,
        "location": {
            "lat": 25.223808,
            "lng": 109.398137
        },
        "ad_info": {
            "adcode": 450224,
            "province": "广西壮族自治区",
            "city": "柳州市",
            "district": "融安县"
        }
    },
    {
        "id": "1418707540915508852",
        "title": "公共厕所",
        "address": "广西壮族自治区柳州市鱼峰区柳石路与柳石路东四巷交叉口正东方向44米左右",
        "tel": "",
        "category": "基础设施:公共设施:公共厕所",
        "type": 0,
        "location": {
            "lat": 24.270035,
            "lng": 109.438858
        },
        "ad_info": {
            "adcode": 450203,
            "province": "广西壮族自治区",
            "city": "柳州市",
            "district": "鱼峰区"
        }
    },
    {
        "id": "1017372929073518573",
        "title": "公共厕所",
        "address": "广西壮族自治区柳州市鱼峰区南环路与鸡喇路交叉口正东方向194米左右",
        "tel": "",
        "category": "基础设施:公共设施:公共厕所",
        "type": 0,
        "location": {
            "lat": 24.266914,
            "lng": 109.445693
        },
        "ad_info": {
            "adcode": 450203,
            "province": "广西壮族自治区",
            "city": "柳州市",
            "district": "鱼峰区"
        }
    },
    {
        "id": "13691088862568994369",
        "title": "无障碍公共厕所",
        "address": "广西壮族自治区柳州市柳江区龙怀路36号",
        "tel": "",
        "category": "基础设施:公共设施:公共厕所",
        "type": 0,
        "location": {
            "lat": 24.259308,
            "lng": 109.378283
        },
        "ad_info": {
            "adcode": 450206,
            "province": "广西壮族自治区",
            "city": "柳州市",
            "district": "柳江区"
        }
    },
    {
        "id": "16192685400348745914",
        "title": "公共厕所",
        "address": "广西壮族自治区柳州市柳江区毅德城东南侧390米",
        "tel": "",
        "category": "基础设施:公共设施:公共厕所",
        "type": 0,
        "location": {
            "lat": 24.245514,
            "lng": 109.378869
        },
        "ad_info": {
            "adcode": 450206,
            "province": "广西壮族自治区",
            "city": "柳州市",
            "district": "柳江区"
        }
    },
    {
        "id": "9078351929304757040",
        "title": "男洗手间",
        "address": "广西壮族自治区柳州市城中区东环大道与文兴路交汇处万达广场B1",
        "tel": "",
        "category": "基础设施:公共设施:公共厕所",
        "type": 0,
        "location": {
            "lat": 24.329234,
            "lng": 109.443198
        },
        "ad_info": {
            "adcode": 450202,
            "province": "广西壮族自治区",
            "city": "柳州市",
            "district": "城中区"
        }
    },
    {
        "id": "15278145123884668676",
        "title": "荣和天誉沿江路旅游厕所",
        "address": "广西壮族自治区柳州市城中区沿江路与观光路交叉口正东方向122米左右",
        "tel": "",
        "category": "基础设施:公共设施:公共厕所",
        "type": 0,
        "location": {
            "lat": 24.353964,
            "lng": 109.427432
        },
        "ad_info": {
            "adcode": 450202,
            "province": "广西壮族自治区",
            "city": "柳州市",
            "district": "城中区"
        }
    },
    {
        "id": "9485886571979349799",
        "title": "公共厕所",
        "address": "广西壮族自治区柳州市城中区东环大道与清和路交叉口正东方向196米左右",
        "tel": "",
        "category": "基础设施:公共设施:公共厕所",
        "type": 0,
        "location": {
            "lat": 24.325643,
            "lng": 109.441792
        },
        "ad_info": {
            "adcode": 450202,
            "province": "广西壮族自治区",
            "city": "柳州市",
            "district": "城中区"
        }
    },
    {
        "id": "11352607007188000355",
        "title": "公共厕所",
        "address": "广西壮族自治区柳州市柳南区柳邕路中国石油(柳邕路店)",
        "tel": "",
        "category": "基础设施:公共设施:公共厕所",
        "type": 0,
        "location": {
            "lat": 24.273334,
            "lng": 109.376988
        },
        "ad_info": {
            "adcode": 450204,
            "province": "广西壮族自治区",
            "city": "柳州市",
            "district": "柳南区"
        }
    },
    {
        "id": "4840398237875565524",
        "title": "公共厕所",
        "address": "广西壮族自治区柳州市柳南区上游路与西堤路交叉口正南方向240米左右",
        "tel": "",
        "category": "基础设施:公共设施:公共厕所",
        "type": 0,
        "location": {
            "lat": 24.314899,
            "lng": 109.396621
        },
        "ad_info": {
            "adcode": 450204,
            "province": "广西壮族自治区",
            "city": "柳州市",
            "district": "柳南区"
        }
    },
    {
        "id": "10456848295538439790",
        "title": "公共厕所",
        "address": "广西壮族自治区柳州市城中区文源路与高新四路交叉口正北方向108米左右",
        "tel": "",
        "category": "基础设施:公共设施:公共厕所",
        "type": 0,
        "location": {
            "lat": 24.351459,
            "lng": 109.430873
        },
        "ad_info": {
            "adcode": 450202,
            "province": "广西壮族自治区",
            "city": "柳州市",
            "district": "城中区"
        }
    },
    {
        "id": "11843406691452121498",
        "title": "公共厕所",
        "address": "广西壮族自治区柳州市鱼峰区箭盘路东一巷东华园",
        "tel": "",
        "category": "基础设施:公共设施:公共厕所",
        "type": 0,
        "location": {
            "lat": 24.308874,
            "lng": 109.438301
        },
        "ad_info": {
            "adcode": 450203,
            "province": "广西壮族自治区",
            "city": "柳州市",
            "district": "鱼峰区"
        }
    },