[
    {
        "id": "16224902992661490516",
        "title": "公共厕所",
        "address": "湖南省株洲市芦淞区人民南路与车站路交叉口正东方向72米左右",
        "tel": "",
        "category": "基础设施:公共设施:公共厕所",
        "type": 0,
        "location": {
            "lat": 27.835324,
            "lng": 113.156427
        },
        "ad_info": {
            "adcode": 430203,
            "province": "湖南省",
            "city": "株洲市",
            "district": "芦淞区"
        }
    },
    {
        "id": "15594861268182231492",
        "title": "公共厕所",
        "address": "湖南省株洲市芦淞区建设中路与纺织路交叉口西北方向143米左右",
        "tel": "",
        "category": "基础设施:公共设施:公共厕所",
        "type": 0,
        "location": {
            "lat": 27.850492,
            "lng": 113.136999
        },
        "ad_info": {
            "adcode": 430203,
            "province": "湖南省",
            "city": "株洲市",
            "district": "芦淞区"
        }
    },
    {
        "id": "4891265529761324445",
        "title": "公共厕所",
        "address": "湖南省株洲市芦淞区株董路南方集团公司职工宿舍",
        "tel": "",
        "category": "基础设施:公共设施:公共厕所",
        "type": 0,
        "location": {
            "lat": 27.797138,
            "lng": 113.18627
        },
        "ad_info": {
            "adcode": 430203,
            "province": "湖南省",
            "city": "株洲市",
            "district": "芦淞区"
        }
    },
    {
        "id": "13557029999200071342",
        "title": "公共厕所",
        "address": "湖南省株洲市芦淞区新华西路与株洲大桥南匝道交叉口东北方向89米左右",
        "tel": "",
        "category": "基础设施:公共设施:公共厕所",
        "type": 0,
        "location": {
            "lat": 27.837836,
            "lng": 113.151265
        },
        "ad_info": {
            "adcode": 430203,
            "province": "湖南省",
            "city": "株洲市",
            "district": "芦淞区"
        }
    },
    {
        "id": "8666439999080804024",
        "title": "公共厕所",
        "address": "湖南省株洲市芦淞区建宁大道庆云街道办事处南湖塘社区和谐小区",
        "tel": "",
        "category": "基础设施:公共设施:公共厕所",
        "type": 0,
        "location": {
            "lat": 27.821671,
            "lng": 113.152455
        },
        "ad_info": {
            "adcode": 430203,
            "province": "湖南省",
            "city": "株洲市",
            "district": "芦淞区"
        }
    },
    {
        "id": "1548060277806929777",
        "title": "公共厕所",
        "address": "湖南省株洲市茶陵县交通街与公园路交叉口正北方向124米左右",
        "tel": "",
        "category": "基础设施:公共设施:公共厕所",
        "type": 0,
        "location": {
            "lat": 26.790991,
            "lng": 113.547069
        },
        "ad_info": {
            "adcode": 430224,
            "province": "湖南省",
            "city": "株洲市",
            "district": "茶陵县"
        }
    },
    {
        "id": "5260943754964885899",
        "title": "公共厕所",
        "address": "湖南省株洲市芦淞区七一路与体育路交叉口正东方向59米左右",
        "tel": "",
        "category": "基础设施:公共设施:公共厕所",
        "type": 0,
        "location": {
            "lat": 27.843642,
            "lng": 113.150621
        },
        "ad_info": {
            "adcode": 430203,
            "province": "湖南省",
            "city": "株洲市",
            "district": "芦淞区"
        }
    },
    {
        "id": "15002140712197090152",
        "title": "公共厕所",
        "address": "湖南省株洲市醴陵市体育路与石岭巷交叉口正北方向232米左右",
        "tel": "",
        "category": "基础设施:公共设施:公共厕所",
        "type": 0,
        "location": {
            "lat": 27.650531,
            "lng": 113.502494
        },
        "ad_info": {
            "adcode": 430281,
            "province": "湖南省",
            "city": "株洲市",
            "district": "醴陵市"
        }
    },
    {
        "id": "15689128463378748030",
        "title": "公共厕所",
        "address": "湖南省株洲市攸县望云南路与滨江大道交叉口西北方向45米左右",
        "tel": "",
        "category": "基础设施:公共设施:公共厕所",
        "type": 0,
        "location": {
            "lat": 26.992096,
            "lng": 113.349305
        },
        "ad_info": {
            "adcode": 430223,
            "province": "湖南省",
            "city": "株洲市",
            "district": "攸县"
        }
    },
    {
        "id": "18264668851274395473",
        "title": "公共厕所",
        "address": "湖南省株洲市芦淞区庆云山路风林绿洲",
        "tel": "",
        "category": "基础设施:公共设施:公共厕所",
        "type": 0,
        "location": {
            "lat": 27.817433,
            "lng": 113.161965
        },
        "ad_info": {
            "adcode": 430203,
            "province": "湖南省",
            "city": "株洲市",
            "district": "芦淞区"
        }
    },
    {
        "id": "10737115372797046622",
        "title": "公共厕所",
        "address": "湖南省株洲市天元区新东路与黑龙江路交叉口东南方向48米左右",
        "tel": "",
        "category": "基础设施:公共设施:公共厕所",
        "type": 0,
        "location": {
            "lat": 27.843739,
            "lng": 113.072248
        },
        "ad_info": {
            "adcode": 430211,
            "province": "湖南省",
            "city": "株洲市",
            "district": "天元区"
        }
    },
    {
        "id": "17070897730544630227",
        "title": "公共厕所",
        "address": "湖南省株洲市醴陵市泉湖路与立三大道交叉口东北方向140米左右",
        "tel": "",
        "category": "基础设施:公共设施:公共厕所",
        "type": 0,
        "location": {
            "lat": 27.652702,
            "lng": 113.515042
        },
        "ad_info": {
            "adcode": 430281,
            "province": "湖南省",
            "city": "株洲市",
            "district": "醴陵市"
        }
    },
    {
        "id": "4613217391370356079",
        "title": "公共厕所",
        "address": "湖南省株洲市芦淞区服饰二路与枫溪大道交叉口东南方向55米左右",
        "tel": "",
        "category": "基础设施:公共设施:公共厕所",
        "type": 0,
        "location": {
            "lat": 27.775204,
            "lng": 113.152458
        },
        "ad_info": {
            "adcode": 430203,
            "province": "湖南省",
            "city": "株洲市",
            "district": "芦淞区"
        }
    },
    {
        "id": "15261186873239413035",
        "title": "公共厕所",
        "address": "湖南省株洲市芦淞区公园路与建设中路交叉口正南方向34米左右",
        "tel": "",
        "category": "基础设施:公共设施:公共厕所",
        "type": 0,
        "location": {
            "lat": 27.843876,
            "lng": 113.145918
        },
        "ad_info": {
            "adcode": 430203,
            "province": "湖南省",
            "city": "株洲市",
            "district": "芦淞区"
        }
    },
    {
        "id": "3248477673565363165",
        "title": "公共厕所",
        "address": "湖南省株洲市荷塘区合泰路与育才路交叉口正东方向44米左右",
        "tel": "",
        "category": "基础设施:公共设施:公共厕所",
        "type": 0,
        "location": {
            "lat": 27.8368,
            "lng": 113.166179
        },
        "ad_info": {
            "adcode": 430202,
            "province": "湖南省",
            "city": "株洲市",
            "district": "荷塘区"
        }
    },
    {
        "id": "12272589157293073928",
        "title": "公共厕所",
        "address": "湖南省株洲市荷塘区新塘路与桂花路交叉口西南方向368米左右",
        "tel": "",
        "category": "基础设施:公共设施:公共厕所",
        "type": 0,
        "location": {
            "lat": 27.863118,
            "lng": 113.165052
        },
        "ad_info": {
            "adcode": 430202,
            "province": "湖南省",
            "city": "株洲市",
            "district": "荷塘区"
        }
    },
    {
        "id": "15132225990292656574",
        "title": "公共厕所",
        "address": "湖南省株洲市醴陵市寨南路与瓷谷大道交叉口东南方向152米左右",
        "tel": "",
        "category": "基础设施:公共设施:公共厕所",
        "type": 0,
        "location": {
            "lat": 27.681912,
            "lng": 113.471887
        },
        "ad_info": {
            "adcode": 430281,
            "province": "湖南省",
            "city": "株洲市",
            "district": "醴陵市"
        }
    },
    {
        "id": "12936356174411372831",
        "title": "公共卫生间",
        "address": "湖南省株洲市茶陵县交通街与学门前路交叉口正东方向53米左右",
        "tel": "",
        "category": "基础设施:公共设施:公共厕所",
        "type": 0,
        "location": {
            "lat": 26.789003,
            "lng": 113.552506
        },
        "ad_info": {
            "adcode": 430224,
            "province": "湖南省",
            "city": "株洲市",
            "district": "茶陵县"
        }
    },
    {
        "id": "7455449053857035457",
        "title": "公共厕所",
        "address": "湖南省株洲市芦淞区建设中路银馨家园",
        "tel": "",
        "category": "基础设施:公共设施:公共厕所",
        "type": 0,
        "location": {
            "lat": 27.847707,
            "lng": 113.141382
        },
        "ad_info": {
            "adcode": 430203,
            "province": "湖南省",
            "city": "株洲市",
            "district": "芦淞区"
        }
    },
    {
        "id": "14341039393662831833",
        "title": "公共厕所",
        "address": "湖南省株洲市渌口区梅苑路与漉浦大道交叉口东南方向126米左右",
        "tel": "",
        "category": "基础设施:公共设施:公共厕所",
        "type": 0,
        "location": {
            "lat": 27.704861,
            "lng": 113.15379
        },
        "ad_info": {
            "adcode": 430212,
            "province": "湖南省",
            "city": "株洲市",
            "district": "渌口区"
        }
    },
    {
        "id": "232516332483985373",
        "title": "公共厕所",
        "address": "湖南省株洲市芦淞区人民路12栋(人民中路西)",
        "tel": "",
        "category": "基础设施:公共设施:公共厕所",
        "type": 0,
        "location": {
            "lat": 27.843244,
            "lng": 113.15232
        },
        "ad_info": {
            "adcode": 430203,
            "province": "湖南省",
            "city": "株洲市",
            "district": "芦淞区"
        }
    },
    {
        "id": "10912576628723737211",
        "title": "公共厕所",
        "address": "湖南省株洲市芦淞区火电科技大厦西南门(神农公园东北)",
        "tel": "",
        "category": "基础设施:公共设施:公共厕所",
        "type": 0,
        "location": {
            "lat": 27.845783,
            "lng": 113.143971
        },
        "ad_info": {
            "adcode": 430203,
            "province": "湖南省",
            "city": "株洲市",
            "district": "芦淞区"
        }
    },
    {
        "id": "6340013390320362257",
        "title": "公共厕所",
        "address": "湖南省株洲市醴陵市三刀石路与国瓷大道交叉口正北方向103米左右",
        "tel": "",
        "category": "基础设施:公共设施:公共厕所",
        "type": 0,
        "location": {
            "lat": 27.670392,
            "lng": 113.510436
        },
        "ad_info": {
            "adcode": 430281,
            "province": "湖南省",
            "city": "株洲市",
            "district": "醴陵市"
        }
    },
    {
        "id": "7940290778577016736",
        "title": "公共厕所",
        "address": "湖南省株洲市芦淞区创业一路与航空大道交叉口东南方向138米左右",
        "tel": "",
        "category": "基础设施:公共设施:公共厕所",
        "type": 0,
        "location": {
            "lat": 27.769882,
            "lng": 113.15093
        },
        "ad_info": {
            "adcode": 430203,
            "province": "湖南省",
            "city": "株洲市",
            "district": "芦淞区"
        }
    },
    {
        "id": "10927861941629808220",
        "title": "公共厕所",
        "address": "湖南省株洲市荷塘区新华东路与无线五厂路交叉口西南方向43米左右",
        "tel": "",
        "category": "基础设施:公共设施:公共厕所",
        "type": 0,
        "location": {
            "lat": 27.862317,
            "lng": 113.179739
        },
        "ad_info": {
            "adcode": 430202,
            "province": "湖南省",
            "city": "株洲市",
            "district": "荷塘区"
        }
    },
    {
        "id": "17013892448990543046",
        "title": "公共厕所",
        "address": "湖南省株洲市茶陵县东阳街与犀城大道交叉口正西方向505米左右",
        "tel": "",
        "category": "基础设施:公共设施:公共厕所",
        "type": 0,
        "location": {
            "lat": 26.784812,
            "lng": 113.522493
        },
        "ad_info": {
            "adcode": 430224,
            "province": "湖南省",
            "city": "株洲市",
            "district": "茶陵县"
        }
    },
    {
        "id": "1475275426377281650",
        "title": "公共厕所",
        "address": "湖南省株洲市攸县永佳路东攸县站",
        "tel": "",
        "category": "基础设施:公共设施:公共厕所",
        "type": 0,
        "location": {
            "lat": 27.011525,
            "lng": 113.354681
        },
        "ad_info": {
            "adcode": 430223,
            "province": "湖南省",
            "city": "株洲市",
            "district": "攸县"
        }
    },
    {
        "id": "8297435310800474011",
        "title": "公共厕所",
        "address": "湖南省株洲市天元区明珠路与长江北路交叉口正东方向46米左右",
        "tel": "",
        "category": "基础设施:公共设施:公共厕所",
        "type": 0,
        "location": {
            "lat": 27.836734,
            "lng": 113.127687
        },
        "ad_info": {
            "adcode": 430211,
            "province": "湖南省",
            "city": "株洲市",
            "district": "天元区"
        }
    },
    {
        "id": "17416577510968994267",
        "title": "公共厕所",
        "address": "湖南省株洲市炎陵县天杰巷与神农大道交叉口正西方向69米左右",
        "tel": "",
        "category": "基础设施:公共设施:公共厕所",
        "type": 0,
        "location": {
            "lat": 26.482237,
            "lng": 113.776674
        },
        "ad_info": {
            "adcode": 430225,
            "province": "湖南省",
            "city": "株洲市",
            "district": "炎陵县"
        }
    },
    {
        "id": "12304344735984462055",
        "title": "公共厕所",
        "address": "湖南省株洲市芦淞区华升路与红港西路交叉口西北方向170米左右",
        "tel": "",
        "category": "基础设施:公共设施:公共厕所",
        "type": 0,
        "location": {
            "lat": 27.852113,
            "lng": 113.130574
        },
        "ad_info": {
            "adcode": 430203,
            "province": "湖南省",
            "city": "株洲市",
            "district": "芦淞区"
        }
    },
    {
        "id": "2989438592393425487",
        "title": "公共厕所",
        "address": "湖南省株洲市荷塘区新华东路阳光大厦(湘运路)",
        "tel": "",
        "category": "基础设施:公共设施:公共厕所",
        "type": 0,
        "location": {
            "lat": 27.856179,
            "lng": 113.175008
        },
        "ad_info": {
            "adcode": 430202,
            "province": "湖南省",
            "city": "株洲市",
            "district": "荷塘区"
        }
    },
    {
        "id": "2713701179459724374",
        "title": "公共厕所",
        "address": "湖南省株洲市攸县文化路与龙形巷交叉口东北方向126米左右",
        "tel": "",
        "category": "基础设施:公共设施:公共厕所",
        "type": 0,
        "location": {
            "lat": 27.0133,
            "lng": 113.36506
        },
        "ad_info": {
            "adcode": 430223,
            "province": "湖南省",
            "city": "株洲市",
            "district": "攸县"
        }
    },
    {
        "id": "10234184209939328545",
        "title": "公共厕所",
        "address": "湖南省株洲市芦淞区建设中路与建设北路交叉口正东方向157米左右",
        "tel": "",
        "category": "基础设施:公共设施:公共厕所",
        "type": 0,
        "location": {
            "lat": 27.854539,
            "lng": 113.131817
        },
        "ad_info": {
            "adcode": 430203,
            "province": "湖南省",
            "city": "株洲市",
            "district": "芦淞区"
        }
    },
    {
        "id": "10096770155251916182",
        "title": "公共厕所",
        "address": "湖南省株洲市醴陵市先农坛路状元洲文化公园内",
        "tel": "",
        "category": "基础设施:公共设施:公共厕所",
        "type": 0,
        "location": {
            "lat": 27.652152,
            "lng": 113.503292
        },
        "ad_info": {
            "adcode": 430281,
            "province": "湖南省",
            "city": "株洲市",
            "district": "醴陵市"
        }
    },
    {
        "id": "8429584175934958337",
        "title": "公共厕所",
        "address": "湖南省株洲市荷塘区大坪路中国石化(大坪路加油站)",
        "tel": "",
        "category": "基础设施:公共设施:公共厕所",
        "type": 0,
        "location": {
            "lat": 27.855582,
            "lng": 113.16428
        },
        "ad_info": {
            "adcode": 430202,
            "province": "湖南省",
            "city": "株洲市",
            "district": "荷塘区"
        }
    },
    {
        "id": "6101881239332901616",
        "title": "公共厕所",
        "address": "湖南省株洲市炎陵县S205与河西大桥交叉口东北方向533米左右",
        "tel": "",
        "category": "基础设施:公共设施:公共厕所",
        "type": 0,
        "location": {
            "lat": 26.436768,
            "lng": 113.668458
        },
        "ad_info": {
            "adcode": 430225,
            "province": "湖南省",
            "city": "株洲市",
            "district": "炎陵县"
        }
    },
    {
        "id": "13218804986466082757",
        "title": "公共厕所",
        "address": "湖南省株洲市荷塘区红旗中路东方时代广场",
        "tel": "",
        "category": "基础设施:公共设施:公共厕所",
        "type": 0,
        "location": {
            "lat": 27.857418,
            "lng": 113.16713
        },
        "ad_info": {
            "adcode": 430202,
            "province": "湖南省",
            "city": "株洲市",
            "district": "荷塘区"
        }
    },
    {
        "id": "9477329516716280582",
        "title": "公共厕所",
        "address": "湖南省株洲市荷塘区合泰路湘湖大厦",
        "tel": "",
        "category": "基础设施:公共设施:公共厕所",
        "type": 0,
        "location": {
            "lat": 27.839374,
            "lng": 113.16862
        },
        "ad_info": {
            "adcode": 430202,
            "province": "湖南省",
            "city": "株洲市",
            "district": "荷塘区"
        }
    },
    {
        "id": "8043993560779663823",
        "title": "公共厕所",
        "address": "湖南省株洲市炎陵县井冈路与神农大道交叉口正北方向115米左右",
        "tel": "",
        "category": "基础设施:公共设施:公共厕所",
        "type": 0,
        "location": {
            "lat": 26.488878,
            "lng": 113.765706
        },
        "ad_info": {
            "adcode": 430225,
            "province": "湖南省",
            "city": "株洲市",
            "district": "炎陵县"
        }
    },
    {
        "id": "9593277524687906680",
        "title": "公共厕所",
        "address": "湖南省株洲市天元区新东路中国石化加油站",
        "tel": "",
        "category": "基础设施:公共设施:公共厕所",
        "type": 0,
        "location": {
            "lat": 27.8431,
            "lng": 113.083039
        },
        "ad_info": {
            "adcode": 430211,
            "province": "湖南省",
            "city": "株洲市",
            "district": "天元区"
        }
    },
    {
        "id": "16829146274637464038",
        "title": "公共厕所",
        "address": "湖南省株洲市攸县交通路与联盟巷交叉口正南方向123米左右",
        "tel": "",
        "category": "基础设施:公共设施:公共厕所",
        "type": 0,
        "location": {
            "lat": 27.002596,
            "lng": 113.347476
        },
        "ad_info": {
            "adcode": 430223,
            "province": "湖南省",
            "city": "株洲市",
            "district": "攸县"
        }
    },
    {
        "id": "5350302675511989182",
        "title": "公共厕所",
        "address": "湖南省株洲市荷塘区枫丹路与金山路交叉口东南方向254米左右",
        "tel": "",
        "category": "基础设施:公共设施:公共厕所",
        "type": 0,
        "location": {
            "lat": 27.858516,
            "lng": 113.198999
        },
        "ad_info": {
            "adcode": 430202,
            "province": "湖南省",
            "city": "株洲市",
            "district": "荷塘区"
        }
    },
    {
        "id": "3258095876678290217",
        "title": "公共厕所",
        "address": "湖南省株洲市石峰区铜塘湾街道清水路横塘农贸市场",
        "tel": "",
        "category": "基础设施:公共设施:公共厕所",
        "type": 0,
        "location": {
            "lat": 27.882165,
            "lng": 113.083216
        },
        "ad_info": {
            "adcode": 430204,
            "province": "湖南省",
            "city": "株洲市",
            "district": "石峰区"
        }
    },
    {
        "id": "124175932178419190",
        "title": "公共厕所(株洲西站)",
        "address": "湖南省株洲市天元区群丰镇响塘村炎帝大道株洲西站1F",
        "tel": "",
        "category": "基础设施:公共设施:公共厕所",
        "type": 0,
        "location": {
            "lat": 27.791432,
            "lng": 113.068551
        },
        "ad_info": {
            "adcode": 430211,
            "province": "湖南省",
            "city": "株洲市",
            "district": "天元区"
        }
    },
    {
        "id": "13273077697039682577",
        "title": "公共厕所",
        "address": "湖南省株洲市醴陵市建中巷与滨河路交叉口西北方向134米左右",
        "tel": "",
        "category": "基础设施:公共设施:公共厕所",
        "type": 0,
        "location": {
            "lat": 27.652444,
            "lng": 113.49552
        },
        "ad_info": {
            "adcode": 430281,
            "province": "湖南省",
            "city": "株洲市",
            "district": "醴陵市"
        }
    },
    {
        "id": "11283057827038296900",
        "title": "公共厕所",
        "address": "湖南省株洲市石峰区建设北路与石峰东路交叉口东北方向77米左右",
        "tel": "",
        "category": "基础设施:公共设施:公共厕所",
        "type": 0,
        "location": {
            "lat": 27.86867,
            "lng": 113.117553
        },
        "ad_info": {
            "adcode": 430204,
            "province": "湖南省",
            "city": "株洲市",
            "district": "石峰区"
        }
    },
    {
        "id": "56348192828739083",
        "title": "公共厕所",
        "address": "湖南省株洲市芦淞区大冲路与锻压后街交叉口正东方向115米左右",
        "tel": "",
        "category": "基础设施:公共设施:公共厕所",
        "type": 0,
        "location": {
            "lat": 27.820528,
            "lng": 113.164218
        },
        "ad_info": {
            "adcode": 430203,
            "province": "湖南省",
            "city": "株洲市",
            "district": "芦淞区"
        }
    },
    {
        "id": "191555706342627675",
        "title": "公共厕所",
        "address": "湖南省株洲市芦淞区合泰大街与市府路交叉口西北方向51米左右",
        "tel": "",
        "category": "基础设施:公共设施:公共厕所",
        "type": 0,
        "location": {
            "lat": 27.831769,
            "lng": 113.158303
        },
        "ad_info": {
            "adcode": 430203,
            "province": "湖南省",
            "city": "株洲市",
            "district": "芦淞区"
        }
    },
    {
        "id": "3675915480560135316",
        "title": "公共厕所",
        "address": "湖南省株洲市醴陵市醴陵大道与高铁中路交叉口东北方向111米左右",
        "tel": "",
        "category": "基础设施:公共设施:公共厕所",
        "type": 0,
        "location": {
            "lat": 27.705585,
            "lng": 113.572999
        },
        "ad_info": {
            "adcode": 430281,
            "province": "湖南省",
            "city": "株洲市",
            "district": "醴陵市"
        }
    },
    {
        "id": "2809202621902884332",
        "title": "公共厕所",
        "address": "湖南省株洲市天元区森林一路与神农街交叉口正北方向51米左右",
        "tel": "",
        "category": "基础设施:公共设施:公共厕所",
        "type": 0,
        "location": {
            "lat": 27.823178,
            "lng": 113.12035
        },
        "ad_info": {
            "adcode": 430211,
            "province": "湖南省",
            "city": "株洲市",
            "district": "天元区"
        }
    },
    {
        "id": "9662563899688447968",
        "title": "公共厕所",
        "address": "湖南省株洲市芦淞区建设中路与文艺路交叉口东北方向105米左右",
        "tel": "",
        "category": "基础设施:公共设施:公共厕所",
        "type": 0,
        "location": {
            "lat": 27.839687,
            "lng": 113.152604
        },
        "ad_info": {
            "adcode": 430203,
            "province": "湖南省",
            "city": "株洲市",
            "district": "芦淞区"
        }
    },
    {
        "id": "13719877052838825025",
        "title": "公共厕所",
        "address": "湖南省株洲市天元区滨江南路与蓝盾路交叉口正北方向175米左右",
        "tel": "",
        "category": "基础设施:公共设施:公共厕所",
        "type": 0,
        "location": {
            "lat": 27.821571,
            "lng": 113.145109
        },
        "ad_info": {
            "adcode": 430211,
            "province": "湖南省",
            "city": "株洲市",
            "district": "天元区"
        }
    },
    {
        "id": "4410970226325442246",
        "title": "肯德基(中鸿店)-洗手间",
        "address": "湖南省株洲市芦淞区建设南路平和堂(株洲店)",
        "tel": "",
        "category": "基础设施:公共设施:公共厕所",
        "type": 0,
        "location": {
            "lat": 27.833762,
            "lng": 113.153762
        },
        "ad_info": {
            "adcode": 430203,
            "province": "湖南省",
            "city": "株洲市",
            "district": "芦淞区"
        }
    },
    {
        "id": "8996257978665443013",
        "title": "公共厕所",
        "address": "湖南省株洲市天元区栗雨街道X008号(株雷路)",
        "tel": "",
        "category": "基础设施:公共设施:公共厕所",
        "type": 0,
        "location": {
            "lat": 27.798297,
            "lng": 113.097462
        },
        "ad_info": {
            "adcode": 430211,
            "province": "湖南省",
            "city": "株洲市",
            "district": "天元区"
        }
    },
    {
        "id": "12333749635183658382",
        "title": "公共厕所",
        "address": "湖南省株洲市天元区颐康路株洲市中心医院",
        "tel": "",
        "category": "基础设施:公共设施:公共厕所",
        "type": 0,
        "location": {
            "lat": 27.811185,
            "lng": 113.141576
        },
        "ad_info": {
            "adcode": 430211,
            "province": "湖南省",
            "city": "株洲市",
            "district": "天元区"
        }
    },
    {
        "id": "6641244109370899421",
        "title": "公共厕所",
        "address": "湖南省株洲市天元区毛湾路与王家坪路交叉口正东方向46米左右",
        "tel": "",
        "category": "基础设施:公共设施:公共厕所",
        "type": 0,
        "location": {
            "lat": 27.81001,
            "lng": 113.07518
        },
        "ad_info": {
            "adcode": 430211,
            "province": "湖南省",
            "city": "株洲市",
            "district": "天元区"
        }
    },
    {
        "id": "3350125608174919193",
        "title": "公共厕所",
        "address": "湖南省株洲市石峰区北站路与田东路交叉口西北方向107米左右",
        "tel": "",
        "category": "基础设施:公共设施:公共厕所",
        "type": 0,
        "location": {
            "lat": 27.876944,
            "lng": 113.137948
        },
        "ad_info": {
            "adcode": 430204,
            "province": "湖南省",
            "city": "株洲市",
            "district": "石峰区"
        }
    },
    {
        "id": "4256903691270535695",
        "title": "公共厕所",
        "address": "湖南省株洲市石峰区云峰大道与云龙大道交叉口西南方向114米左右",
        "tel": "",
        "category": "基础设施:公共设施:公共厕所",
        "type": 0,
        "location": {
            "lat": 27.994317,
            "lng": 113.19879
        },
        "ad_info": {
            "adcode": 430204,
            "province": "湖南省",
            "city": "株洲市",
            "district": "石峰区"
        }
    },
    {
        "id": "6333638164095704385",
        "title": "公共厕所",
        "address": "湖南省株洲市天元区天台路与新华西路交叉口东北方向126米左右",
        "tel": "",
        "category": "基础设施:公共设施:公共厕所",
        "type": 0,
        "location": {
            "lat": 27.831421,
            "lng": 113.140398
        },
        "ad_info": {
            "adcode": 430211,
            "province": "湖南省",
            "city": "株洲市",
            "district": "天元区"
        }
    },
    {
        "id": "548030375002883978",
        "title": "公共厕所",
        "address": "湖南省株洲市天元区云里路与黄河南路交叉口西北方向34米左右",
        "tel": "",
        "category": "基础设施:公共设施:公共厕所",
        "type": 0,
        "location": {
            "lat": 27.821823,
            "lng": 113.132166
        },
        "ad_info": {
            "adcode": 430211,
            "province": "湖南省",
            "city": "株洲市",
            "district": "天元区"
        }
    },
    {
        "id": "4537113169888822112",
        "title": "公共厕所",
        "address": "湖南省株洲市天元区嵩山路与湘春路交叉口正南方向111米左右",
        "tel": "",
        "category": "基础设施:公共设施:公共厕所",
        "type": 0,
        "location": {
            "lat": 27.830807,
            "lng": 113.12777
        },
        "ad_info": {
            "adcode": 430211,
            "province": "湖南省",
            "city": "株洲市",
            "district": "天元区"
        }
    },
    {
        "id": "4420477154499645542",
        "title": "公共厕所",
        "address": "湖南省株洲市天元区星子坳路与湘芸中路交叉口正西方向262米左右",
        "tel": "",
        "category": "基础设施:公共设施:公共厕所",
        "type": 0,
        "location": {
            "lat": 27.791893,
            "lng": 113.069556
        },
        "ad_info": {
            "adcode": 430211,
            "province": "湖南省",
            "city": "株洲市",
            "district": "天元区"
        }
    },
    {
        "id": "17694974261208526487",
        "title": "公共厕所",
        "address": "湖南省株洲市石峰区建设北路与石峰东路交叉口东南方向211米左右",
        "tel": "",
        "category": "基础设施:公共设施:公共厕所",
        "type": 0,
        "location": {
            "lat": 27.86661,
            "lng": 113.118583
        },
        "ad_info": {
            "adcode": 430204,
            "province": "湖南省",
            "city": "株洲市",
            "district": "石峰区"
        }
    },
    {
        "id": "2947307462909998266",
        "title": "公共厕所",
        "address": "湖南省株洲市天元区海天路与衡山东路交叉口东北方向53米左右",
        "tel": "",
        "category": "基础设施:公共设施:公共厕所",
        "type": 0,
        "location": {
            "lat": 27.804941,
            "lng": 113.131132
        },
        "ad_info": {
            "adcode": 430211,
            "province": "湖南省",
            "city": "株洲市",
            "district": "天元区"
        }
    },
    {
        "id": "12931519608431288281",
        "title": "公共厕所",
        "address": "湖南省株洲市芦淞区建设南路与枫溪大道交叉口西南方向55米左右",
        "tel": "",
        "category": "基础设施:公共设施:公共厕所",
        "type": 0,
        "location": {
            "lat": 27.825873,
            "lng": 113.153871
        },
        "ad_info": {
            "adcode": 430203,
            "province": "湖南省",
            "city": "株洲市",
            "district": "芦淞区"
        }
    },
    {
        "id": "10664054912672316410",
        "title": "公共厕所",
        "address": "湖南省株洲市石峰区林化路与红旗北路交叉口正北方向49米左右",
        "tel": "",
        "category": "基础设施:公共设施:公共厕所",
        "type": 0,
        "location": {
            "lat": 27.874452,
            "lng": 113.145382
        },
        "ad_info": {
            "adcode": 430204,
            "province": "湖南省",
            "city": "株洲市",
            "district": "石峰区"
        }
    },
    {
        "id": "15340559383494656131",
        "title": "公共厕所",
        "address": "湖南省株洲市天元区祥云路水陌华庭",
        "tel": "",
        "category": "基础设施:公共设施:公共厕所",
        "type": 0,
        "location": {
            "lat": 27.823254,
            "lng": 113.141308
        },
        "ad_info": {
            "adcode": 430211,
            "province": "湖南省",
            "city": "株洲市",
            "district": "天元区"
        }
    },
    {
        "id": "10875151898848097784",
        "title": "公共厕所",
        "address": "湖南省株洲市芦淞区建设南路与拥军路交叉口东南方向46米左右",
        "tel": "",
        "category": "基础设施:公共设施:公共厕所",
        "type": 0,
        "location": {
            "lat": 27.82959,
            "lng": 113.15514
        },
        "ad_info": {
            "adcode": 430203,
            "province": "湖南省",
            "city": "株洲市",
            "district": "芦淞区"
        }
    },
    {
        "id": "1745164329912674558",
        "title": "公共厕所",
        "address": "湖南省株洲市石峰区建设北路与李家冲路交叉口正北方向48米左右",
        "tel": "",
        "category": "基础设施:公共设施:公共厕所",
        "type": 0,
        "location": {
            "lat": 27.860216,
            "lng": 113.12733
        },
        "ad_info": {
            "adcode": 430204,
            "province": "湖南省",
            "city": "株洲市",
            "district": "石峰区"
        }
    },
    {
        "id": "11127510940675884797",
        "title": "公共厕所",
        "address": "湖南省株洲市天元区珠江南路236号",
        "tel": "",
        "category": "基础设施:公共设施:公共厕所",
        "type": 0,
        "location": {
            "lat": 27.810252,
            "lng": 113.126357
        },
        "ad_info": {
            "adcode": 430211,
            "province": "湖南省",
            "city": "株洲市",
            "district": "天元区"
        }
    },
    {
        "id": "10995329414980024678",
        "title": "公共厕所",
        "address": "湖南省株洲市石峰区智慧路与弘智路交叉口东南240米",
        "tel": "",
        "category": "基础设施:公共设施:公共厕所",
        "type": 0,
        "location": {
            "lat": 27.894224,
            "lng": 113.179076
        },
        "ad_info": {
            "adcode": 430204,
            "province": "湖南省",
            "city": "株洲市",
            "district": "石峰区"
        }
    },
    {
        "id": "1393473254142941612",
        "title": "公共厕所",
        "address": "湖南省株洲市天元区神农大道湖南工业大学新校区",
        "tel": "",
        "category": "基础设施:公共设施:公共厕所",
        "type": 0,
        "location": {
            "lat": 27.81515,
            "lng": 113.112333
        },
        "ad_info": {
            "adcode": 430211,
            "province": "湖南省",
            "city": "株洲市",
            "district": "天元区"
        }
    },
    {
        "id": "5831157521563719071",
        "title": "无障碍公共厕所",
        "address": "湖南省株洲市醴陵市创业路与瓷谷大道交叉口西北方向73米左右",
        "tel": "",
        "category": "基础设施:公共设施:公共厕所",
        "type": 0,
        "location": {
            "lat": 27.688103,
            "lng": 113.475286
        },
        "ad_info": {
            "adcode": 430281,
            "province": "湖南省",
            "city": "株洲市",
            "district": "醴陵市"
        }
    },
    {
        "id": "3872373270306421228",
        "title": "公共厕所",
        "address": "湖南省株洲市天元区江山路26号",
        "tel": "",
        "category": "基础设施:公共设施:公共厕所",
        "type": 0,
        "location": {
            "lat": 27.820477,
            "lng": 113.085878
        },
        "ad_info": {
            "adcode": 430211,
            "province": "湖南省",
            "city": "株洲市",
            "district": "天元区"
        }
    },
    {
        "id": "13989145312484890996",
        "title": "公共厕所",
        "address": "湖南省株洲市石峰区清水塘大道与铜霞路交叉口东北方向935米左右",
        "tel": "",
        "category": "基础设施:公共设施:公共厕所",
        "type": 0,
        "location": {
            "lat": 27.870312,
            "lng": 113.09448
        },
        "ad_info": {
            "adcode": 430204,
            "province": "湖南省",
            "city": "株洲市",
            "district": "石峰区"
        }
    },
    {
        "id": "5206704662017633486",
        "title": "公共厕所",
        "address": "湖南省株洲市石峰区株塑路与株泥路交叉口正北方向190米左右",
        "tel": "",
        "category": "基础设施:公共设施:公共厕所",
        "type": 0,
        "location": {
            "lat": 27.884326,
            "lng": 113.081566
        },
        "ad_info": {
            "adcode": 430204,
            "province": "湖南省",
            "city": "株洲市",
            "district": "石峰区"
        }
    },
    {
        "id": "17865239480927118226",
        "title": "公共厕所",
        "address": "湖南省株洲市荷塘区红旗中路与长寿路交叉口东南方向67米左右",
        "tel": "",
        "category": "基础设施:公共设施:公共厕所",
        "type": 0,
        "location": {
            "lat": 27.854709,
            "lng": 113.169991
        },
        "ad_info": {
            "adcode": 430202,
            "province": "湖南省",
            "city": "株洲市",
            "district": "荷塘区"
        }
    },
    {
        "id": "13275807549643629482",
        "title": "建宁驿站公共厕所",
        "address": "湖南省株洲市芦淞区人民北路中国石油加油站",
        "tel": "",
        "category": "基础设施:公共设施:公共厕所",
        "type": 0,
        "location": {
            "lat": 27.856216,
            "lng": 113.136092
        },
        "ad_info": {
            "adcode": 430203,
            "province": "湖南省",
            "city": "株洲市",
            "district": "芦淞区"
        }
    },
    {
        "id": "18316375043422117542",
        "title": "公共厕所",
        "address": "湖南省株洲市芦淞区株董路与福利工厂路交叉口西南方向204米左右",
        "tel": "",
        "category": "基础设施:公共设施:公共厕所",
        "type": 0,
        "location": {
            "lat": 27.812225,
            "lng": 113.175911
        },
        "ad_info": {
            "adcode": 430203,
            "province": "湖南省",
            "city": "株洲市",
            "district": "芦淞区"
        }
    },
    {
        "id": "4504804163500135205",
        "title": "公共厕所",
        "address": "湖南省株洲市芦淞区机场大道与道百路交叉口东南方向40米左右",
        "tel": "",
        "category": "基础设施:公共设施:公共厕所",
        "type": 0,
        "location": {
            "lat": 27.78393,
            "lng": 113.189895
        },
        "ad_info": {
            "adcode": 430203,
            "province": "湖南省",
            "city": "株洲市",
            "district": "芦淞区"
        }
    },
    {
        "id": "1347653143075623012",
        "title": "公共厕所",
        "address": "湖南省株洲市天元区森林路与黄河北路交叉口西北方向41米左右",
        "tel": "",
        "category": "基础设施:公共设施:公共厕所",
        "type": 0,
        "location": {
            "lat": 27.831361,
            "lng": 113.11623
        },
        "ad_info": {
            "adcode": 430211,
            "province": "湖南省",
            "city": "株洲市",
            "district": "天元区"
        }
    },
    {
        "id": "11104530087998846229",
        "title": "公共厕所",
        "address": "湖南省株洲市天元区珠江北路与高新一街交叉口正东方向214米左右",
        "tel": "",
        "category": "基础设施:公共设施:公共厕所",
        "type": 0,
        "location": {
            "lat": 27.825964,
            "lng": 113.095325
        },
        "ad_info": {
            "adcode": 430211,
            "province": "湖南省",
            "city": "株洲市",
            "district": "天元区"
        }
    },
    {
        "id": "16170893804600122324",
        "title": "公共厕所",
        "address": "湖南省株洲市荷塘区安德利路与映日路交叉口东南方向22米左右",
        "tel": "",
        "category": "基础设施:公共设施:公共厕所",
        "type": 0,
        "location": {
            "lat": 27.860473,
            "lng": 113.191272
        },
        "ad_info": {
            "adcode": 430202,
            "province": "湖南省",
            "city": "株洲市",
            "district": "荷塘区"
        }
    },
    {
        "id": "4962099354662927110",
        "title": "公共厕所",
        "address": "湖南省株洲市天元区泰西路与珠江南路交叉口正东方向47米左右",
        "tel": "",
        "category": "基础设施:公共设施:公共厕所",
        "type": 0,
        "location": {
            "lat": 27.806486,
            "lng": 113.126906
        },
        "ad_info": {
            "adcode": 430211,
            "province": "湖南省",
            "city": "株洲市",
            "district": "天元区"
        }
    },
    {
        "id": "7236216751155297175",
        "title": "公共厕所",
        "address": "湖南省株洲市芦淞区李汜路与江渌路交叉口正东方向18米左右",
        "tel": "",
        "category": "基础设施:公共设施:公共厕所",
        "type": 0,
        "location": {
            "lat": 27.792337,
            "lng": 113.185417
        },
        "ad_info": {
            "adcode": 430203,
            "province": "湖南省",
            "city": "株洲市",
            "district": "芦淞区"
        }
    },
    {
        "id": "6959296507035032031",
        "title": "公共厕所",
        "address": "湖南省株洲市醴陵市瓷城路与近家湖路交叉口东南方向55米左右",
        "tel": "",
        "category": "基础设施:公共设施:公共厕所",
        "type": 0,
        "location": {
            "lat": 27.658305,
            "lng": 113.500708
        },
        "ad_info": {
            "adcode": 430281,
            "province": "湖南省",
            "city": "株洲市",
            "district": "醴陵市"
        }
    },
    {
        "id": "10944542054753551801",
        "title": "建宁驿站公共厕所",
        "address": "湖南省株洲市天元区火炬四道与隆兴路交叉口西北方向21米左右",
        "tel": "",
        "category": "基础设施:公共设施:公共厕所",
        "type": 0,
        "location": {
            "lat": 27.827488,
            "lng": 113.078188
        },
        "ad_info": {
            "adcode": 430211,
            "province": "湖南省",
            "city": "株洲市",
            "district": "天元区"
        }
    },
    {
        "id": "4959462094075573195",
        "title": "公共厕所",
        "address": "湖南省株洲市天元区银海路银海学校",
        "tel": "",
        "category": "基础设施:公共设施:公共厕所",
        "type": 0,
        "location": {
            "lat": 27.838319,
            "lng": 113.130776
        },
        "ad_info": {
            "adcode": 430211,
            "province": "湖南省",
            "city": "株洲市",
            "district": "天元区"
        }
    },
    {
        "id": "12134918168157984445",
        "title": "公共厕所",
        "address": "湖南省株洲市天元区珠江南路与黄山路交叉口正东方向119米左右",
        "tel": "",
        "category": "基础设施:公共设施:公共厕所",
        "type": 0,
        "location": {
            "lat": 27.812188,
            "lng": 113.126293
        },
        "ad_info": {
            "adcode": 430211,
            "province": "湖南省",
            "city": "株洲市",
            "district": "天元区"
        }
    },
    {
        "id": "8382502774392875550",
        "title": "醴陵服务区公共厕所",
        "address": "湖南省株洲市醴陵市G60沪昆高速附近",
        "tel": "",
        "category": "基础设施:公共设施:公共厕所",
        "type": 0,
        "location": {
            "lat": 27.785422,
            "lng": 113.394208
        },
        "ad_info": {
            "adcode": 430281,
            "province": "湖南省",
            "city": "株洲市",
            "district": "醴陵市"
        }
    },
    {
        "id": "17467860595172400282",
        "title": "天鹅花园公共厕所",
        "address": "湖南省株洲市荷塘区红港路与艺校路交叉口正东方向319米左右",
        "tel": "",
        "category": "基础设施:公共设施:公共厕所",
        "type": 0,
        "location": {
            "lat": 27.858227,
            "lng": 113.143682
        },
        "ad_info": {
            "adcode": 430202,
            "province": "湖南省",
            "city": "株洲市",
            "district": "荷塘区"
        }
    },
    {
        "id": "16788749718815602866",
        "title": "公共厕所",
        "address": "湖南省株洲市天元区泰山东路与泰山路交叉口东南方向322米左右",
        "tel": "",
        "category": "基础设施:公共设施:公共厕所",
        "type": 0,
        "location": {
            "lat": 27.815728,
            "lng": 113.130337
        },
        "ad_info": {
            "adcode": 430211,
            "province": "湖南省",
            "city": "株洲市",
            "district": "天元区"
        }
    },
    {
        "id": "18146105876872412896",
        "title": "无障碍公共厕所",
        "address": "湖南省株洲市天元区湖南立方新能源科技有限责任公司西南侧330米",
        "tel": "",
        "category": "基础设施:公共设施:公共厕所",
        "type": 0,
        "location": {
            "lat": 27.776796,
            "lng": 113.081589
        },
        "ad_info": {
            "adcode": 430211,
            "province": "湖南省",
            "city": "株洲市",
            "district": "天元区"
        }
    },
    {
        "id": "17023302588950669261",
        "title": "建宁驿站公共厕所",
        "address": "湖南省株洲市芦淞区人民中路与人民南路交叉口正南方向107米左右",
        "tel": "",
        "category": "基础设施:公共设施:公共厕所",
        "type": 0,
        "location": {
            "lat": 27.838675,
            "lng": 113.154921
        },
        "ad_info": {
            "adcode": 430203,
            "province": "湖南省",
            "city": "株洲市",
            "district": "芦淞区"
        }
    },
    {
        "id": "16689713319155461592",
        "title": "茶陵服务区公共厕所",
        "address": "湖南省株洲市茶陵县G106与Y134交叉口正南方向1819米左右",
        "tel": "",
        "category": "基础设施:公共设施:公共厕所",
        "type": 0,
        "location": {
            "lat": 26.687783,
            "lng": 113.55478
        },
        "ad_info": {
            "adcode": 430224,
            "province": "湖南省",
            "city": "株洲市",
            "district": "茶陵县"
        }
    },
    {
        "id": "16878975395185005503",
        "title": "朱亭服务区公共厕所",
        "address": "湖南省株洲市渌口区中国石化朱亭服务区西加油站北侧130米",
        "tel": "",
        "category": "基础设施:公共设施:公共厕所",
        "type": 0,
        "location": {
            "lat": 27.401098,
            "lng": 113.032878
        },
        "ad_info": {
            "adcode": 430212,
            "province": "湖南省",
            "city": "株洲市",
            "district": "渌口区"
        }
    },
    {
        "id": "2858636285984207259",
        "title": "无障碍公共厕所",
        "address": "湖南省株洲市石峰区建设北路与石峰北路交叉口西南方向112米左右",
        "tel": "",
        "category": "基础设施:公共设施:公共厕所",
        "type": 0,
        "location": {
            "lat": 27.868774,
            "lng": 113.11455
        },
        "ad_info": {
            "adcode": 430204,
            "province": "湖南省",
            "city": "株洲市",
            "district": "石峰区"
        }
    },
    {
        "id": "8523555308082108517",
        "title": "炎陵服务区第二公共厕所",
        "address": "湖南省株洲市炎陵县中村互通与武深高速交叉口西北方向125米左右",
        "tel": "",
        "category": "基础设施:公共设施:公共厕所",
        "type": 0,
        "location": {
            "lat": 26.191394,
            "lng": 113.761879
        },
        "ad_info": {
            "adcode": 430225,
            "province": "湖南省",
            "city": "株洲市",
            "district": "炎陵县"
        }
    },
    {
        "id": "1639127134899882415",
        "title": "朱亭服务区公共厕所",
        "address": "湖南省株洲市渌口区京港澳高速朱亭服务区",
        "tel": "",
        "category": "基础设施:公共设施:公共厕所",
        "type": 0,
        "location": {
            "lat": 27.400702,
            "lng": 113.035088
        },
        "ad_info": {
            "adcode": 430212,
            "province": "湖南省",
            "city": "株洲市",
            "district": "渌口区"
        }
    },
    {
        "id": "643648884027303171",
        "title": "茶陵服务区公共厕所",
        "address": "湖南省株洲市茶陵县G106与Y134交叉口东南方向1773米左右",
        "tel": "",
        "category": "基础设施:公共设施:公共厕所",
        "type": 0,
        "location": {
            "lat": 26.689134,
            "lng": 113.556886
        },
        "ad_info": {
            "adcode": 430224,
            "province": "湖南省",
            "city": "株洲市",
            "district": "茶陵县"
        }
    },
    {
        "id": "15763536466497104511",
        "title": "朱亭服务区第一公共厕所",
        "address": "湖南省株洲市渌口区G4京港澳高速附近",
        "tel": "",
        "category": "基础设施:公共设施:公共厕所",
        "type": 0,
        "location": {
            "lat": 27.40134,
            "lng": 113.03277
        },
        "ad_info": {
            "adcode": 430212,
            "province": "湖南省",
            "city": "株洲市",
            "district": "渌口区"
        }
    },
    {
        "id": "4526116685379487658",
        "title": "炎陵东服务区公共厕所",
        "address": "湖南省株洲市炎陵县莆炎高速炎陵东服务区",
        "tel": "",
        "category": "基础设施:公共设施:公共厕所",
        "type": 0,
        "location": {
            "lat": 26.502158,
            "lng": 113.78621
        },
        "ad_info": {
            "adcode": 430225,
            "province": "湖南省",
            "city": "株洲市",
            "district": "炎陵县"
        }
    },
    {
        "id": "17671328544191856235",
        "title": "醴陵服务区公共厕所",
        "address": "湖南省株洲市醴陵市",
        "tel": "",
        "category": "基础设施:公共设施:公共厕所",
        "type": 0,
        "location": {
            "lat": 27.785315,
            "lng": 113.391604
        },
        "ad_info": {
            "adcode": 430281,
            "province": "湖南省",
            "city": "株洲市",
            "district": "醴陵市"
        }
    },
    {
        "id": "10297358139983708282",
        "title": "建宁驿站无障碍公共厕所",
        "address": "湖南省株洲市荷塘区新华东路与湘运路交叉口东北方向89米左右",
        "tel": "",
        "category": "基础设施:公共设施:公共厕所",
        "type": 0,
        "location": {
            "lat": 27.857631,
            "lng": 113.175852
        },
        "ad_info": {
            "adcode": 430202,
            "province": "湖南省",
            "city": "株洲市",
            "district": "荷塘区"
        }
    },
    {
        "id": "11493033649458840316",
        "title": "建宁驿站",
        "address": "湖南省株洲市天元区泰西路与珠江南路交叉口正东方向63米左右",
        "tel": "",
        "category": "基础设施:公共设施:公共厕所",
        "type": 0,
        "location": {
            "lat": 27.806503,
            "lng": 113.127078
        },
        "ad_info": {
            "adcode": 430211,
            "province": "湖南省",
            "city": "株洲市",
            "district": "天元区"
        }
    },
    {
        "id": "16311222043648457322",
        "title": "官庄服务区公共厕所",
        "address": "湖南省株洲市醴陵市互通与武深高速交叉口西北方向1676米左右",
        "tel": "",
        "category": "基础设施:公共设施:公共厕所",
        "type": 0,
        "location": {
            "lat": 27.857812,
            "lng": 113.423447
        },
        "ad_info": {
            "adcode": 430281,
            "province": "湖南省",
            "city": "株洲市",
            "district": "醴陵市"
        }
    },
    {
        "id": "10470456417453218582",
        "title": "攸县服务区公共厕所",
        "address": "湖南省株洲市攸县X051与XB51交叉口正东方向1575米左右",
        "tel": "",
        "category": "基础设施:公共设施:公共厕所",
        "type": 0,
        "location": {
            "lat": 26.985664,
            "lng": 113.411743
        },
        "ad_info": {
            "adcode": 430223,
            "province": "湖南省",
            "city": "株洲市",
            "district": "攸县"
        }
    },
    {
        "id": "10832062428570499287",
        "title": "炎陵东服务区公共厕所",
        "address": "湖南省株洲市炎陵县炎陵东服务区(炎睦高速公路北)",
        "tel": "",
        "category": "基础设施:公共设施:公共厕所",
        "type": 0,
        "location": {
            "lat": 26.503547,
            "lng": 113.78495
        },
        "ad_info": {
            "adcode": 430225,
            "province": "湖南省",
            "city": "株洲市",
            "district": "炎陵县"
        }
    },
    {
        "id": "3690218995827845248",
        "title": "建宁驿站公共厕所",
        "address": "湖南省株洲市芦淞区人民中路427号",
        "tel": "",
        "category": "基础设施:公共设施:公共厕所",
        "type": 0,
        "location": {
            "lat": 27.846223,
            "lng": 113.150106
        },
        "ad_info": {
            "adcode": 430203,
            "province": "湖南省",
            "city": "株洲市",
            "district": "芦淞区"
        }
    },
    {
        "id": "4404330602253987163",
        "title": "无障碍公共厕所",
        "address": "湖南省株洲市荷塘区新华西路与荷叶路交叉口东北方向44米左右",
        "tel": "",
        "category": "基础设施:公共设施:公共厕所",
        "type": 0,
        "location": {
            "lat": 27.846782,
            "lng": 113.167912
        },
        "ad_info": {
            "adcode": 430202,
            "province": "湖南省",
            "city": "株洲市",
            "district": "荷塘区"
        }
    },
    {
        "id": "8793520608857364603",
        "title": "向阳路公共厕所",
        "address": "湖南省株洲市渌口区向阳南路与津口东路交叉口正南方向105米左右",
        "tel": "",
        "category": "基础设施:公共设施:公共厕所",
        "type": 0,
        "location": {
            "lat": 27.703033,
            "lng": 113.146702
        },
        "ad_info": {
            "adcode": 430212,
            "province": "湖南省",
            "city": "株洲市",
            "district": "渌口区"
        }
    },
    {
        "id": "757220548961955238",
        "title": "建宁停车区公共厕所",
        "address": "湖南省株洲市天元区建宁停车区建宁停车区",
        "tel": "",
        "category": "基础设施:公共设施:公共厕所",
        "type": 0,
        "location": {
            "lat": 27.700385,
            "lng": 113.04258
        },
        "ad_info": {
            "adcode": 430211,
            "province": "湖南省",
            "city": "株洲市",
            "district": "天元区"
        }
    },
    {
        "id": "14854132731431777079",
        "title": "建宁停车区公共厕所",
        "address": "湖南省株洲市天元区",
        "tel": "",
        "category": "基础设施:公共设施:公共厕所",
        "type": 0,
        "location": {
            "lat": 27.701654,
            "lng": 113.040993
        },
        "ad_info": {
            "adcode": 430211,
            "province": "湖南省",
            "city": "株洲市",
            "district": "天元区"
        }
    },
    {
        "id": "2677961332608532145",
        "title": "建宁驿站公共厕所",
        "address": "湖南省株洲市芦淞区广电巷与建设中路交叉口西北方向116米左右",
        "tel": "",
        "category": "基础设施:公共设施:公共厕所",
        "type": 0,
        "location": {
            "lat": 27.84688,
            "lng": 113.141566
        },
        "ad_info": {
            "adcode": 430203,
            "province": "湖南省",
            "city": "株洲市",
            "district": "芦淞区"
        }
    },
    {
        "id": "6450004397347260958",
        "title": "迎宾路公共厕所",
        "address": "湖南省株洲市渌口区绿口品牌服饰步行街与甘塘坡路交叉口正北方向14米左右",
        "tel": "",
        "category": "基础设施:公共设施:公共厕所",
        "type": 0,
        "location": {
            "lat": 27.700682,
            "lng": 113.143354
        },
        "ad_info": {
            "adcode": 430212,
            "province": "湖南省",
            "city": "株洲市",
            "district": "渌口区"
        }
    },
    {
        "id": "17093401216550451691",
        "title": "公共场所",
        "address": "湖南省株洲市石峰区人民北路与白石港路交叉口正西方向230米左右",
        "tel": "",
        "category": "基础设施:公共设施:公共厕所",
        "type": 0,
        "location": {
            "lat": 27.858128,
            "lng": 113.132169
        },
        "ad_info": {
            "adcode": 430204,
            "province": "湖南省",
            "city": "株洲市",
            "district": "石峰区"
        }
    },
    {
        "id": "2514688059785264855",
        "title": "无障碍公共厕所",
        "address": "湖南省株洲市攸县建设路与胜利横巷交叉口西南方向33米左右",
        "tel": "",
        "category": "基础设施:公共设施:公共厕所",
        "type": 0,
        "location": {
            "lat": 27.001442,
            "lng": 113.349798
        },
        "ad_info": {
            "adcode": 430223,
            "province": "湖南省",
            "city": "株洲市",
            "district": "攸县"
        }
    },
    {
        "id": "17391424938909294766",
        "title": "家园垃圾站公共厕所",
        "address": "湖南省株洲市天元区家园路与规划107路交叉口正西方向13米左右",
        "tel": "",
        "category": "基础设施:公共设施:公共厕所",
        "type": 0,
        "location": {
            "lat": 27.818415,
            "lng": 113.13653
        },
        "ad_info": {
            "adcode": 430211,
            "province": "湖南省",
            "city": "株洲市",
            "district": "天元区"
        }
    },
    {
        "id": "13870705178566075453",
        "title": "建宁驿站公共厕所",
        "address": "湖南省株洲市石峰区清水路60号",
        "tel": "",
        "category": "基础设施:公共设施:公共厕所",
        "type": 0,
        "location": {
            "lat": 27.882459,
            "lng": 113.095398
        },
        "ad_info": {
            "adcode": 430204,
            "province": "湖南省",
            "city": "株洲市",
            "district": "石峰区"
        }
    },
    {
        "id": "4108865372104183188",
        "title": "公共厕所",
        "address": "湖南省株洲市攸县315省道西100米",
        "tel": "",
        "category": "基础设施:公共设施:公共厕所",
        "type": 0,
        "location": {
            "lat": 27.171467,
            "lng": 113.762416
        },
        "ad_info": {
            "adcode": 430223,
            "province": "湖南省",
            "city": "株洲市",
            "district": "攸县"
        }
    },
    {
        "id": "3232462291867935495",
        "title": "公共厕所",
        "address": "湖南省株洲市石峰区建设北路与杉塘路交叉口正南方向163米左右",
        "tel": "",
        "category": "基础设施:公共设施:公共厕所",
        "type": 0,
        "location": {
            "lat": 27.860053,
            "lng": 113.125641
        },
        "ad_info": {
            "adcode": 430204,
            "province": "湖南省",
            "city": "株洲市",
            "district": "石峰区"
        }
    },
    {
        "id": "2952994446303100152",
        "title": "公共厕所",
        "address": "湖南省株洲市荷塘区茨菇塘路与钻石路交叉口正北方向170米左右",
        "tel": "",
        "category": "基础设施:公共设施:公共厕所",
        "type": 0,
        "location": {
            "lat": 27.846943,
            "lng": 113.15878
        },
        "ad_info": {
            "adcode": 430202,
            "province": "湖南省",
            "city": "株洲市",
            "district": "荷塘区"
        }
    },
    {
        "id": "11876671422758811254",
        "title": "公共厕所",
        "address": "湖南省株洲市石峰区北环大道与崇文路交叉口正东方向260米左右",
        "tel": "",
        "category": "基础设施:公共设施:公共厕所",
        "type": 0,
        "location": {
            "lat": 27.89956,
            "lng": 113.159489
        },
        "ad_info": {
            "adcode": 430204,
            "province": "湖南省",
            "city": "株洲市",
            "district": "石峰区"
        }
    },
    {
        "id": "7834092568744557163",
        "title": "男洗手间(株洲西站)",
        "address": "湖南省株洲市天元区群丰镇响塘村炎帝大道株洲西站F1层",
        "tel": "",
        "category": "基础设施:公共设施:公共厕所",
        "type": 0,
        "location": {
            "lat": 27.791299,
            "lng": 113.06857
        },
        "ad_info": {
            "adcode": 430211,
            "province": "湖南省",
            "city": "株洲市",
            "district": "天元区"
        }
    },
    {
        "id": "13723429624396082260",
        "title": "公共厕所",
        "address": "湖南省株洲市醴陵市炉灰岭路与玉瓷路交叉口西南方向27米左右",
        "tel": "",
        "category": "基础设施:公共设施:公共厕所",
        "type": 0,
        "location": {
            "lat": 27.673819,
            "lng": 113.480613
        },
        "ad_info": {
            "adcode": 430281,
            "province": "湖南省",
            "city": "株洲市",
            "district": "醴陵市"
        }
    },
    {
        "id": "15808101169041650885",
        "title": "公共厕所",
        "address": "湖南省株洲市醴陵市横店一路与石宫路交叉口正北方向405米左右",
        "tel": "",
        "category": "基础设施:公共设施:公共厕所",
        "type": 0,
        "location": {
            "lat": 27.711371,
            "lng": 113.474685
        },
        "ad_info": {
            "adcode": 430281,
            "province": "湖南省",
            "city": "株洲市",
            "district": "醴陵市"
        }
    },
    {
        "id": "12653548748484908072",
        "title": "公共厕所",
        "address": "湖南省株洲市攸县交通路与望岳西路交叉口正西方向53米左右",
        "tel": "",
        "category": "基础设施:公共设施:公共厕所",
        "type": 0,
        "location": {
            "lat": 26.990533,
            "lng": 113.338158
        },
        "ad_info": {
            "adcode": 430223,
            "province": "湖南省",
            "city": "株洲市",
            "district": "攸县"
        }
    },
    {
        "id": "3593461495751101011",
        "title": "公共厕所",
        "address": "湖南省株洲市石峰区建设中路与建设北路交叉口西南方向87米左右",
        "tel": "",
        "category": "基础设施:公共设施:公共厕所",
        "type": 0,
        "location": {
            "lat": 27.854356,
            "lng": 113.129645
        },
        "ad_info": {
            "adcode": 430204,
            "province": "湖南省",
            "city": "株洲市",
            "district": "石峰区"
        }
    },
    {
        "id": "7570567957029458645",
        "title": "公共厕所",
        "address": "湖南省株洲市石峰区响石岭步行街与康复路交叉口正东方向79米左右",
        "tel": "",
        "category": "基础设施:公共设施:公共厕所",
        "type": 0,
        "location": {
            "lat": 27.87235,
            "lng": 113.113164
        },
        "ad_info": {
            "adcode": 430204,
            "province": "湖南省",
            "city": "株洲市",
            "district": "石峰区"
        }
    },
    {
        "id": "1307326876367590131",
        "title": "公共厕所",
        "address": "湖南省株洲市茶陵县洣茶路与炎帝大道交叉口正西方向100米左右",
        "tel": "",
        "category": "基础设施:公共设施:公共厕所",
        "type": 0,
        "location": {
            "lat": 26.781837,
            "lng": 113.54106
        },
        "ad_info": {
            "adcode": 430224,
            "province": "湖南省",
            "city": "株洲市",
            "district": "茶陵县"
        }
    },
    {
        "id": "2990900042969702615",
        "title": "公共厕所",
        "address": "湖南省株洲市攸县上下巷与滨江大道交叉口正东方向60米左右",
        "tel": "",
        "category": "基础设施:公共设施:公共厕所",
        "type": 0,
        "location": {
            "lat": 26.992222,
            "lng": 113.351228
        },
        "ad_info": {
            "adcode": 430223,
            "province": "湖南省",
            "city": "株洲市",
            "district": "攸县"
        }
    },
    {
        "id": "8077271288549821865",
        "title": "公共厕所",
        "address": "湖南省株洲市炎陵县城西路与炎陵路交叉口正北方向82米左右",
        "tel": "",
        "category": "基础设施:公共设施:公共厕所",
        "type": 0,
        "location": {
            "lat": 26.486962,
            "lng": 113.770296
        },
        "ad_info": {
            "adcode": 430225,
            "province": "湖南省",
            "city": "株洲市",
            "district": "炎陵县"
        }
    },
    {
        "id": "10979355174750171802",
        "title": "公共厕所",
        "address": "湖南省株洲市攸县S336中国石化加油站",
        "tel": "",
        "category": "基础设施:公共设施:公共厕所",
        "type": 0,
        "location": {
            "lat": 27.083094,
            "lng": 113.222505
        },
        "ad_info": {
            "adcode": 430223,
            "province": "湖南省",
            "city": "株洲市",
            "district": "攸县"
        }
    },
    {
        "id": "3624505897690696031",
        "title": "公共厕所",
        "address": "湖南省株洲市天元区新马南路与新马西路交叉口东北方向73米左右",
        "tel": "",
        "category": "基础设施:公共设施:公共厕所",
        "type": 0,
        "location": {
            "lat": 27.790036,
            "lng": 113.034783
        },
        "ad_info": {
            "adcode": 430211,
            "province": "湖南省",
            "city": "株洲市",
            "district": "天元区"
        }
    },
    {
        "id": "113170697352767057",
        "title": "公共厕所",
        "address": "湖南省株洲市石峰区柏杨路与茶马线交叉口东南方向983米左右",
        "tel": "",
        "category": "基础设施:公共设施:公共厕所",
        "type": 0,
        "location": {
            "lat": 27.973877,
            "lng": 113.236783
        },
        "ad_info": {
            "adcode": 430204,
            "province": "湖南省",
            "city": "株洲市",
            "district": "石峰区"
        }
    },
    {
        "id": "5938549717345799655",
        "title": "无障碍公共厕所",
        "address": "湖南省株洲市醴陵市S329与汤飞凡路交叉口东南方向61米左右",
        "tel": "",
        "category": "基础设施:公共设施:公共厕所",
        "type": 0,
        "location": {
            "lat": 27.65975,
            "lng": 113.48932
        },
        "ad_info": {
            "adcode": 430281,
            "province": "湖南省",
            "city": "株洲市",
            "district": "醴陵市"
        }
    },
    {
        "id": "16267866344370729772",
        "title": "公共厕所",
        "address": "湖南省株洲市炎陵县S205与九龙大道交叉口正东方向322米左右",
        "tel": "",
        "category": "基础设施:公共设施:公共厕所",
        "type": 0,
        "location": {
            "lat": 26.493345,
            "lng": 113.713331
        },
        "ad_info": {
            "adcode": 430225,
            "province": "湖南省",
            "city": "株洲市",
            "district": "炎陵县"
        }
    },
    {
        "id": "9532307335647012075",
        "title": "公共厕所",
        "address": "湖南省株洲市石峰区南峰路与田东路交叉口西南方向175米左右",
        "tel": "",
        "category": "基础设施:公共设施:公共厕所",
        "type": 0,
        "location": {
            "lat": 27.878737,
            "lng": 113.131132
        },
        "ad_info": {
            "adcode": 430204,
            "province": "湖南省",
            "city": "株洲市",
            "district": "石峰区"
        }
    },
    {
        "id": "12501793920550967635",
        "title": "公共厕所",
        "address": "湖南省株洲市芦淞区南华一路与建国路交叉口西南方向96米左右",
        "tel": "",
        "category": "基础设施:公共设施:公共厕所",
        "type": 0,
        "location": {
            "lat": 27.790793,
            "lng": 113.186096
        },
        "ad_info": {
            "adcode": 430203,
            "province": "湖南省",
            "city": "株洲市",
            "district": "芦淞区"
        }
    },
    {
        "id": "72223241033802590",
        "title": "公共厕所",
        "address": "湖南省株洲市攸县文化路与望岳西路交叉口正西方向13米左右",
        "tel": "",
        "category": "基础设施:公共设施:公共厕所",
        "type": 0,
        "location": {
            "lat": 26.993301,
            "lng": 113.344451
        },
        "ad_info": {
            "adcode": 430223,
            "province": "湖南省",
            "city": "株洲市",
            "district": "攸县"
        }
    },
    {
        "id": "17656975370746935845",
        "title": "公共厕所",
        "address": "湖南省株洲市醴陵市云盘山路与长庆大道交叉口正东方向344米左右",
        "tel": "",
        "category": "基础设施:公共设施:公共厕所",
        "type": 0,
        "location": {
            "lat": 27.682523,
            "lng": 113.537101
        },
        "ad_info": {
            "adcode": 430281,
            "province": "湖南省",
            "city": "株洲市",
            "district": "醴陵市"
        }
    },
    {
        "id": "17276308372445713292",
        "title": "公共厕所",
        "address": "湖南省株洲市石峰区天桥街与建设北路交叉口正西方向51米左右",
        "tel": "",
        "category": "基础设施:公共设施:公共厕所",
        "type": 0,
        "location": {
            "lat": 27.878893,
            "lng": 113.102437
        },
        "ad_info": {
            "adcode": 430204,
            "province": "湖南省",
            "city": "株洲市",
            "district": "石峰区"
        }
    },
    {
        "id": "5795051020815783819",
        "title": "公共厕所",
        "address": "湖南省株洲市荷塘区云龙大道与水竹湖路交叉口正南方向74米左右",
        "tel": "",
        "category": "基础设施:公共设施:公共厕所",
        "type": 0,
        "location": {
            "lat": 27.866787,
            "lng": 113.156985
        },
        "ad_info": {
            "adcode": 430202,
            "province": "湖南省",
            "city": "株洲市",
            "district": "荷塘区"
        }
    },
    {
        "id": "15549999482030745017",
        "title": "建宁驿站公共厕所",
        "address": "湖南省株洲市荷塘区文化路与新华西路交叉口正东方向43米左右",
        "tel": "",
        "category": "基础设施:公共设施:公共厕所",
        "type": 0,
        "location": {
            "lat": 27.845656,
            "lng": 113.166842
        },
        "ad_info": {
            "adcode": 430202,
            "province": "湖南省",
            "city": "株洲市",
            "district": "荷塘区"
        }
    },
    {
        "id": "16509322931806930618",
        "title": "公共厕所",
        "address": "湖南省株洲市石峰区智慧路与盘龙路交叉口正北方向48米左右",
        "tel": "",
        "category": "基础设施:公共设施:公共厕所",
        "type": 0,
        "location": {
            "lat": 27.902907,
            "lng": 113.166987
        },
        "ad_info": {
            "adcode": 430204,
            "province": "湖南省",
            "city": "株洲市",
            "district": "石峰区"
        }
    },
    {
        "id": "11729070469803807910",
        "title": "公共厕所",
        "address": "湖南省株洲市荷塘区同心东路与迎宾路交叉口西北方向139米左右",
        "tel": "",
        "category": "基础设施:公共设施:公共厕所",
        "type": 0,
        "location": {
            "lat": 27.87916,
            "lng": 113.204244
        },
        "ad_info": {
            "adcode": 430202,
            "province": "湖南省",
            "city": "株洲市",
            "district": "荷塘区"
        }
    },
    {
        "id": "2424769399813070436",
        "title": "公共厕所",
        "address": "湖南省株洲市攸县城东河街巷与望岳东路交叉口正西方向51米左右",
        "tel": "",
        "category": "基础设施:公共设施:公共厕所",
        "type": 0,
        "location": {
            "lat": 26.997156,
            "lng": 113.353699
        },
        "ad_info": {
            "adcode": 430223,
            "province": "湖南省",
            "city": "株洲市",
            "district": "攸县"
        }
    },
    {
        "id": "525623678586140411",
        "title": "公共厕所",
        "address": "湖南省株洲市醴陵市和平街与汤飞凡路交叉口东北方向41米左右",
        "tel": "",
        "category": "基础设施:公共设施:公共厕所",
        "type": 0,
        "location": {
            "lat": 27.658081,
            "lng": 113.491701
        },
        "ad_info": {
            "adcode": 430281,
            "province": "湖南省",
            "city": "株洲市",
            "district": "醴陵市"
        }
    },
    {
        "id": "3343266090177459638",
        "title": "公共厕所",
        "address": "湖南省株洲市天元区泰山路2号",
        "tel": "",
        "category": "基础设施:公共设施:公共厕所",
        "type": 0,
        "location": {
            "lat": 27.813647,
            "lng": 113.113566
        },
        "ad_info": {
            "adcode": 430211,
            "province": "湖南省",
            "city": "株洲市",
            "district": "天元区"
        }
    },
    {
        "id": "14395600049381006749",
        "title": "公共厕所",
        "address": "湖南省株洲市攸县万利巷与诚信巷交叉口东北方向29米左右",
        "tel": "",
        "category": "基础设施:公共设施:公共厕所",
        "type": 0,
        "location": {
            "lat": 27.001449,
            "lng": 113.343263
        },
        "ad_info": {
            "adcode": 430223,
            "province": "湖南省",
            "city": "株洲市",
            "district": "攸县"
        }
    },
    {
        "id": "13327677503097806211",
        "title": "公共厕所",
        "address": "湖南省株洲市石峰区白石港路与红旗北路交叉口正东方向62米左右",
        "tel": "",
        "category": "基础设施:公共设施:公共厕所",
        "type": 0,
        "location": {
            "lat": 27.868234,
            "lng": 113.153259
        },
        "ad_info": {
            "adcode": 430204,
            "province": "湖南省",
            "city": "株洲市",
            "district": "石峰区"
        }
    },
    {
        "id": "3581151991705933355",
        "title": "公共厕所",
        "address": "湖南省株洲市石峰区响石西路与铜霞路交叉口正北方向407米左右",
        "tel": "",
        "category": "基础设施:公共设施:公共厕所",
        "type": 0,
        "location": {
            "lat": 27.863749,
            "lng": 113.106112
        },
        "ad_info": {
            "adcode": 430204,
            "province": "湖南省",
            "city": "株洲市",
            "district": "石峰区"
        }
    },
    {
        "id": "15986442657263600951",
        "title": "公共厕所",
        "address": "湖南省株洲市荷塘区新桂路与桂花路交叉口正西方向22米左右",
        "tel": "",
        "category": "基础设施:公共设施:公共厕所",
        "type": 0,
        "location": {
            "lat": 27.867625,
            "lng": 113.165163
        },
        "ad_info": {
            "adcode": 430202,
            "province": "湖南省",
            "city": "株洲市",
            "district": "荷塘区"
        }
    },
    {
        "id": "4636408104413461716",
        "title": "女洗手间(七星潮流购物公园)",
        "address": "湖南省株洲市芦淞区钟鼓岭路118号七星潮流购物公园F2层",
        "tel": "",
        "category": "基础设施:公共设施:公共厕所",
        "type": 0,
        "location": {
            "lat": 27.837562,
            "lng": 113.154374
        },
        "ad_info": {
            "adcode": 430203,
            "province": "湖南省",
            "city": "株洲市",
            "district": "芦淞区"
        }
    },
    {
        "id": "12764670923351023738",
        "title": "公共厕所",
        "address": "湖南省株洲市荷塘区纺织东路与艺校路交叉口东北方向298米左右",
        "tel": "",
        "category": "基础设施:公共设施:公共厕所",
        "type": 0,
        "location": {
            "lat": 27.855771,
            "lng": 113.144588
        },
        "ad_info": {
            "adcode": 430202,
            "province": "湖南省",
            "city": "株洲市",
            "district": "荷塘区"
        }
    },
    {
        "id": "18362811073626971671",
        "title": "公共厕所",
        "address": "湖南省株洲市攸县攸州大道与长鸿西路交叉口东南方向37米左右",
        "tel": "",
        "category": "基础设施:公共设施:公共厕所",
        "type": 0,
        "location": {
            "lat": 27.009824,
            "lng": 113.34293
        },
        "ad_info": {
            "adcode": 430223,
            "province": "湖南省",
            "city": "株洲市",
            "district": "攸县"
        }
    },
    {
        "id": "3149678559797843997",
        "title": "公共厕所",
        "address": "湖南省株洲市醴陵市先农坛路与滨河路交叉口东南方向223米左右",
        "tel": "",
        "category": "基础设施:公共设施:公共厕所",
        "type": 0,
        "location": {
            "lat": 27.649762,
            "lng": 113.500944
        },
        "ad_info": {
            "adcode": 430281,
            "province": "湖南省",
            "city": "株洲市",
            "district": "醴陵市"
        }
    },
    {
        "id": "13402138598431366669",
        "title": "公共厕所",
        "address": "湖南省株洲市荷塘区水竹湖路与红旗中路交叉口东南方向118米左右",
        "tel": "",
        "category": "基础设施:公共设施:公共厕所",
        "type": 0,
        "location": {
            "lat": 27.864072,
            "lng": 113.158437
        },
        "ad_info": {
            "adcode": 430202,
            "province": "湖南省",
            "city": "株洲市",
            "district": "荷塘区"
        }
    },
    {
        "id": "10994973903534259037",
        "title": "公共厕所",
        "address": "湖南省株洲市天元区泰山路与长江南路交叉口正西方向119米左右",
        "tel": "",
        "category": "基础设施:公共设施:公共厕所",
        "type": 0,
        "location": {
            "lat": 27.821941,
            "lng": 113.138256
        },
        "ad_info": {
            "adcode": 430211,
            "province": "湖南省",
            "city": "株洲市",
            "district": "天元区"
        }
    },
    {
        "id": "3661575467023468269",
        "title": "公共厕所(建宁驿站)",
        "address": "湖南省株洲市天元区泰山路北侧工业大学校东门口绿化带",
        "tel": "",
        "category": "基础设施:公共设施:公共厕所",
        "type": 0,
        "location": {
            "lat": 27.81358,
            "lng": 113.108583
        },
        "ad_info": {
            "adcode": 430211,
            "province": "湖南省",
            "city": "株洲市",
            "district": "天元区"
        }
    },
    {
        "id": "4282134784841072948",
        "title": "公共厕所",
        "address": "湖南省株洲市天元区家家乐路与普兰特路交叉口正南方向84米左右",
        "tel": "",
        "category": "基础设施:公共设施:公共厕所",
        "type": 0,
        "location": {
            "lat": 27.809105,
            "lng": 113.132061
        },
        "ad_info": {
            "adcode": 430211,
            "province": "湖南省",
            "city": "株洲市",
            "district": "天元区"
        }
    },
    {
        "id": "7549227845280893553",
        "title": "官庄服务区公共厕所",
        "address": "湖南省株洲市醴陵市互通与武深高速交叉口正北方向1555米左右",
        "tel": "",
        "category": "基础设施:公共设施:公共厕所",
        "type": 0,
        "location": {
            "lat": 27.857539,
            "lng": 113.426363
        },
        "ad_info": {
            "adcode": 430281,
            "province": "湖南省",
            "city": "株洲市",
            "district": "醴陵市"
        }
    },
    {
        "id": "8187033686822586970",
        "title": "公共厕所",
        "address": "湖南省株洲市茶陵县茶陵大道中国石油加油站(人之初幼儿园东北)",
        "tel": "",
        "category": "基础设施:公共设施:公共厕所",
        "type": 0,
        "location": {
            "lat": 26.759978,
            "lng": 113.525309
        },
        "ad_info": {
            "adcode": 430224,
            "province": "湖南省",
            "city": "株洲市",
            "district": "茶陵县"
        }
    },
    {
        "id": "14720324546930400103",
        "title": "公共厕所",
        "address": "湖南省株洲市攸县交通北路118号",
        "tel": "",
        "category": "基础设施:公共设施:公共厕所",
        "type": 0,
        "location": {
            "lat": 27.006141,
            "lng": 113.348805
        },
        "ad_info": {
            "adcode": 430223,
            "province": "湖南省",
            "city": "株洲市",
            "district": "攸县"
        }
    },
    {
        "id": "10740180136170264051",
        "title": "公共厕所",
        "address": "湖南省株洲市茶陵县G322与Y124交叉口正北方向69米左右",
        "tel": "",
        "category": "基础设施:公共设施:公共厕所",
        "type": 0,
        "location": {
            "lat": 26.862403,
            "lng": 113.630683
        },
        "ad_info": {
            "adcode": 430224,
            "province": "湖南省",
            "city": "株洲市",
            "district": "茶陵县"
        }
    },
    {
        "id": "13846875648996524550",
        "title": "公共厕所",
        "address": "湖南省株洲市醴陵市姜湾下正街与滨河路交叉口正西方向29米左右",
        "tel": "",
        "category": "基础设施:公共设施:公共厕所",
        "type": 0,
        "location": {
            "lat": 27.664748,
            "lng": 113.492819
        },
        "ad_info": {
            "adcode": 430281,
            "province": "湖南省",
            "city": "株洲市",
            "district": "醴陵市"
        }
    },
    {
        "id": "1354366992554977368",
        "title": "公共厕所",
        "address": "湖南省株洲市攸县交通北路与永佳塘巷交叉口西南方向73米左右",
        "tel": "",
        "category": "基础设施:公共设施:公共厕所",
        "type": 0,
        "location": {
            "lat": 27.009265,
            "lng": 113.348582
        },
        "ad_info": {
            "adcode": 430223,
            "province": "湖南省",
            "city": "株洲市",
            "district": "攸县"
        }
    },
    {
        "id": "4248534737340224591",
        "title": "公共厕所",
        "address": "湖南省株洲市天元区群丰镇湘芸中路株洲西站F1停车场",
        "tel": "",
        "category": "基础设施:公共设施:公共厕所",
        "type": 0,
        "location": {
            "lat": 27.790107,
            "lng": 113.069411
        },
        "ad_info": {
            "adcode": 430211,
            "province": "湖南省",
            "city": "株洲市",
            "district": "天元区"
        }
    },
    {
        "id": "15610113093148695185",
        "title": "公共厕所",
        "address": "湖南省株洲市醴陵市中兴街与先农坛路交叉口正西方向50米左右",
        "tel": "",
        "category": "基础设施:公共设施:公共厕所",
        "type": 0,
        "location": {
            "lat": 27.653213,
            "lng": 113.501357
        },
        "ad_info": {
            "adcode": 430281,
            "province": "湖南省",
            "city": "株洲市",
            "district": "醴陵市"
        }
    },
    {
        "id": "15655169174438679394",
        "title": "公共厕所",
        "address": "湖南省株洲市攸县商业路与商汇路交叉口正西方向44米左右",
        "tel": "",
        "category": "基础设施:公共设施:公共厕所",
        "type": 0,
        "location": {
            "lat": 27.003489,
            "lng": 113.337061
        },
        "ad_info": {
            "adcode": 430223,
            "province": "湖南省",
            "city": "株洲市",
            "district": "攸县"
        }
    },
    {
        "id": "16579739727352110400",
        "title": "公共厕所",
        "address": "湖南省株洲市醴陵市汤飞凡路辅路与青云路交叉口北120米",
        "tel": "",
        "category": "基础设施:公共设施:公共厕所",
        "type": 0,
        "location": {
            "lat": 27.66771,
            "lng": 113.492836
        },
        "ad_info": {
            "adcode": 430281,
            "province": "湖南省",
            "city": "株洲市",
            "district": "醴陵市"
        }
    },
    {
        "id": "10052728469198460398",
        "title": "公共厕所",
        "address": "湖南省株洲市石峰区天桥街与建设北路交叉口西南方向42米左右",
        "tel": "",
        "category": "基础设施:公共设施:公共厕所",
        "type": 0,
        "location": {
            "lat": 27.889391,
            "lng": 113.09696
        },
        "ad_info": {
            "adcode": 430204,
            "province": "湖南省",
            "city": "株洲市",
            "district": "石峰区"
        }
    },
    {
        "id": "16365177661957415413",
        "title": "云阳山服务区第二公共厕所",
        "address": "湖南省株洲市茶陵县Y124与Y125交叉口东南方向1538米左右",
        "tel": "",
        "category": "基础设施:公共设施:公共厕所",
        "type": 0,
        "location": {
            "lat": 26.82939,
            "lng": 113.642078
        },
        "ad_info": {
            "adcode": 430224,
            "province": "湖南省",
            "city": "株洲市",
            "district": "茶陵县"
        }
    },
    {
        "id": "6455931078412268385",
        "title": "无障碍公共厕所",
        "address": "湖南省株洲市石峰区云峰大道与茶马线交叉口东北方向65米左右",
        "tel": "",
        "category": "基础设施:公共设施:公共厕所",
        "type": 0,
        "location": {
            "lat": 27.995512,
            "lng": 113.185101
        },
        "ad_info": {
            "adcode": 430204,
            "province": "湖南省",
            "city": "株洲市",
            "district": "石峰区"
        }
    },
    {
        "id": "9744286581788575636",
        "title": "公共厕所",
        "address": "湖南省株洲市攸县S336中国石化加油站(钟佳桥镇中学东)",
        "tel": "",
        "category": "基础设施:公共设施:公共厕所",
        "type": 0,
        "location": {
            "lat": 27.13172,
            "lng": 113.443324
        },
        "ad_info": {
            "adcode": 430223,
            "province": "湖南省",
            "city": "株洲市",
            "district": "攸县"
        }
    },
    {
        "id": "13581970239270992286",
        "title": "公共厕所",
        "address": "湖南省株洲市醴陵市武深高速与泗汾互通交叉口正东方向1050米左右",
        "tel": "",
        "category": "基础设施:公共设施:公共厕所",
        "type": 0,
        "location": {
            "lat": 27.494064,
            "lng": 113.493366
        },
        "ad_info": {
            "adcode": 430281,
            "province": "湖南省",
            "city": "株洲市",
            "district": "醴陵市"
        }
    },
    {
        "id": "4977653021185440011",
        "title": "公共厕所",
        "address": "湖南省株洲市茶陵县交通街与地王国际商业街交叉口正南方向49米左右",
        "tel": "",
        "category": "基础设施:公共设施:公共厕所",
        "type": 0,
        "location": {
            "lat": 26.789916,
            "lng": 113.545598
        },
        "ad_info": {
            "adcode": 430224,
            "province": "湖南省",
            "city": "株洲市",
            "district": "茶陵县"
        }
    },
    {
        "id": "1743261937086139741",
        "title": "公共厕所",
        "address": "湖南省株洲市芦淞区株董路与福利工厂路交叉口东南方向261米左右",
        "tel": "",
        "category": "基础设施:公共设施:公共厕所",
        "type": 0,
        "location": {
            "lat": 27.811899,
            "lng": 113.178286
        },
        "ad_info": {
            "adcode": 430203,
            "province": "湖南省",
            "city": "株洲市",
            "district": "芦淞区"
        }
    },
    {
        "id": "148044442752950827",
        "title": "公共厕所",
        "address": "湖南省株洲市天元区泰山路未来城",
        "tel": "",
        "category": "基础设施:公共设施:公共厕所",
        "type": 0,
        "location": {
            "lat": 27.812916,
            "lng": 113.110263
        },
        "ad_info": {
            "adcode": 430211,
            "province": "湖南省",
            "city": "株洲市",
            "district": "天元区"
        }
    },
    {
        "id": "11269058972457667392",
        "title": "公共厕所",
        "address": "湖南省株洲市炎陵县解放路与霞阳路交叉口正北方向171米左右",
        "tel": "",
        "category": "基础设施:公共设施:公共厕所",
        "type": 0,
        "location": {
            "lat": 26.481253,
            "lng": 113.785453
        },
        "ad_info": {
            "adcode": 430225,
            "province": "湖南省",
            "city": "株洲市",
            "district": "炎陵县"
        }
    },
    {
        "id": "9124771504283397914",
        "title": "公共厕所",
        "address": "湖南省株洲市醴陵市左权南路与泉湖路交叉口东南方向264米左右",
        "tel": "",
        "category": "基础设施:公共设施:公共厕所",
        "type": 0,
        "location": {
            "lat": 27.643614,
            "lng": 113.508689
        },
        "ad_info": {
            "adcode": 430281,
            "province": "湖南省",
            "city": "株洲市",
            "district": "醴陵市"
        }
    },
    {
        "id": "1932707342720960771",
        "title": "建宁驿站劳动局移动公共厕所",
        "address": "湖南省株洲市天元区株洲市劳动就业管理局旁",
        "tel": "",
        "category": "基础设施:公共设施:公共厕所",
        "type": 0,
        "location": {
            "lat": 27.832684,
            "lng": 113.1337
        },
        "ad_info": {
            "adcode": 430211,
            "province": "湖南省",
            "city": "株洲市",
            "district": "天元区"
        }
    },
    {
        "id": "18205131431269908767",
        "title": "公共厕所",
        "address": "湖南省株洲市醴陵市左权南路与柒家坝路交叉口正南方向260米左右",
        "tel": "",
        "category": "基础设施:公共设施:公共厕所",
        "type": 0,
        "location": {
            "lat": 27.638132,
            "lng": 113.511032
        },
        "ad_info": {
            "adcode": 430281,
            "province": "湖南省",
            "city": "株洲市",
            "district": "醴陵市"
        }
    },
    {
        "id": "6921988987472700371",
        "title": "公共厕所",
        "address": "湖南省株洲市石峰区响田路181号",
        "tel": "",
        "category": "基础设施:公共设施:公共厕所",
        "type": 0,
        "location": {
            "lat": 27.872836,
            "lng": 113.122178
        },
        "ad_info": {
            "adcode": 430204,
            "province": "湖南省",
            "city": "株洲市",
            "district": "石峰区"
        }
    },
    {
        "id": "5024009174979955902",
        "title": "公共厕所",
        "address": "湖南省株洲市芦淞区北沿路与幸福村路交叉口正南方向68米左右",
        "tel": "",
        "category": "基础设施:公共设施:公共厕所",
        "type": 0,
        "location": {
            "lat": 27.804933,
            "lng": 113.190586
        },
        "ad_info": {
            "adcode": 430203,
            "province": "湖南省",
            "city": "株洲市",
            "district": "芦淞区"
        }
    },
    {
        "id": "14028707735175599000",
        "title": "公共厕所",
        "address": "湖南省株洲市醴陵市站前路与醴陵大道交叉口西南方向78米左右",
        "tel": "",
        "category": "基础设施:公共设施:公共厕所",
        "type": 0,
        "location": {
            "lat": 27.712757,
            "lng": 113.577997
        },
        "ad_info": {
            "adcode": 430281,
            "province": "湖南省",
            "city": "株洲市",
            "district": "醴陵市"
        }
    },
    {
        "id": "9445852005409707666",
        "title": "公共厕所",
        "address": "湖南省株洲市攸县工业路与湘化一巷交叉口正东方向121米左右",
        "tel": "",
        "category": "基础设施:公共设施:公共厕所",
        "type": 0,
        "location": {
            "lat": 26.993959,
            "lng": 113.31645
        },
        "ad_info": {
            "adcode": 430223,
            "province": "湖南省",
            "city": "株洲市",
            "district": "攸县"
        }
    },
    {
        "id": "12370819770239420853",
        "title": "公共厕所",
        "address": "湖南省株洲市茶陵县昌盛街与财富街交叉口正西方向226米左右",
        "tel": "",
        "category": "基础设施:公共设施:公共厕所",
        "type": 0,
        "location": {
            "lat": 26.768498,
            "lng": 113.523907
        },
        "ad_info": {
            "adcode": 430224,
            "province": "湖南省",
            "city": "株洲市",
            "district": "茶陵县"
        }
    },
    {
        "id": "7904472259202257873",
        "title": "公共厕所",
        "address": "湖南省株洲市石峰区人民北路650号",
        "tel": "",
        "category": "基础设施:公共设施:公共厕所",
        "type": 0,
        "location": {
            "lat": 27.875717,
            "lng": 113.129391
        },
        "ad_info": {
            "adcode": 430204,
            "province": "湖南省",
            "city": "株洲市",
            "district": "石峰区"
        }
    },
    {
        "id": "6749249473459193514",
        "title": "公共厕所",
        "address": "湖南省株洲市芦淞区株醴路与芦淞路交叉口正西方向38米左右",
        "tel": "",
        "category": "基础设施:公共设施:公共厕所",
        "type": 0,
        "location": {
            "lat": 27.816196,
            "lng": 113.18235
        },
        "ad_info": {
            "adcode": 430203,
            "province": "湖南省",
            "city": "株洲市",
            "district": "芦淞区"
        }
    },
    {
        "id": "10530422369722160234",
        "title": "公共厕所",
        "address": "湖南省株洲市攸县工业路中天印象小区",
        "tel": "",
        "category": "基础设施:公共设施:公共厕所",
        "type": 0,
        "location": {
            "lat": 26.993642,
            "lng": 113.318533
        },
        "ad_info": {
            "adcode": 430223,
            "province": "湖南省",
            "city": "株洲市",
            "district": "攸县"
        }
    },
    {
        "id": "9632533398554862347",
        "title": "公共厕所",
        "address": "湖南省株洲市醴陵市凤凰街与财源塔路交叉口东北方向9米左右",
        "tel": "",
        "category": "基础设施:公共设施:公共厕所",
        "type": 0,
        "location": {
            "lat": 27.662214,
            "lng": 113.492816
        },
        "ad_info": {
            "adcode": 430281,
            "province": "湖南省",
            "city": "株洲市",
            "district": "醴陵市"
        }
    },
    {
        "id": "1263707231554166385",
        "title": "公共厕所",
        "address": "湖南省株洲市芦淞区樟树平巷与王塔冲路交叉口西南方向98米左右",
        "tel": "",
        "category": "基础设施:公共设施:公共厕所",
        "type": 0,
        "location": {
            "lat": 27.822752,
            "lng": 113.153748
        },
        "ad_info": {
            "adcode": 430203,
            "province": "湖南省",
            "city": "株洲市",
            "district": "芦淞区"
        }
    },
    {
        "id": "12294935716327181913",
        "title": "公共厕所",
        "address": "湖南省株洲市石峰区果园路与株易路交叉口正南方向219米左右",
        "tel": "",
        "category": "基础设施:公共设施:公共厕所",
        "type": 0,
        "location": {
            "lat": 27.892264,
            "lng": 113.08763
        },
        "ad_info": {
            "adcode": 430204,
            "province": "湖南省",
            "city": "株洲市",
            "district": "石峰区"
        }
    },
    {
        "id": "5121304990371226554",
        "title": "公共厕所",
        "address": "湖南省株洲市渌口区南江北路与漉浦大道交叉口正北方向78米左右",
        "tel": "",
        "category": "基础设施:公共设施:公共厕所",
        "type": 0,
        "location": {
            "lat": 27.707412,
            "lng": 113.143119
        },
        "ad_info": {
            "adcode": 430212,
            "province": "湖南省",
            "city": "株洲市",
            "district": "渌口区"
        }
    },
    {
        "id": "13080141274473999315",
        "title": "公共厕所",
        "address": "湖南省株洲市芦淞区人民中路与人民北路交叉口西北方向48米左右",
        "tel": "",
        "category": "基础设施:公共设施:公共厕所",
        "type": 0,
        "location": {
            "lat": 27.856009,
            "lng": 113.13583
        },
        "ad_info": {
            "adcode": 430203,
            "province": "湖南省",
            "city": "株洲市",
            "district": "芦淞区"
        }
    },
    {
        "id": "9452594586447912440",
        "title": "公共厕所",
        "address": "湖南省株洲市攸县G106与X118交叉口西南方向415米左右",
        "tel": "",
        "category": "基础设施:公共设施:公共厕所",
        "type": 0,
        "location": {
            "lat": 27.219334,
            "lng": 113.436412
        },
        "ad_info": {
            "adcode": 430223,
            "province": "湖南省",
            "city": "株洲市",
            "district": "攸县"
        }
    },
    {
        "id": "15166383534308604019",
        "title": "公共厕所",
        "address": "湖南省株洲市天元区神农大道建宁驿站体育中心斜对面",
        "tel": "",
        "category": "基础设施:公共设施:公共厕所",
        "type": 0,
        "location": {
            "lat": 27.837794,
            "lng": 113.11453
        },
        "ad_info": {
            "adcode": 430211,
            "province": "湖南省",
            "city": "株洲市",
            "district": "天元区"
        }
    },
    {
        "id": "5257845841777154894",
        "title": "公共厕所",
        "address": "湖南省株洲市天元区森林路与珠江北路交叉口正北方向55米左右",
        "tel": "",
        "category": "基础设施:公共设施:公共厕所",
        "type": 0,
        "location": {
            "lat": 27.826219,
            "lng": 113.11626
        },
        "ad_info": {
            "adcode": 430211,
            "province": "湖南省",
            "city": "株洲市",
            "district": "天元区"
        }
    },
    {
        "id": "4697900626036139619",
        "title": "公共厕所",
        "address": "湖南省株洲市芦淞区华升路伟业大厦附近(阳光新城南)",
        "tel": "",
        "category": "基础设施:公共设施:公共厕所",
        "type": 0,
        "location": {
            "lat": 27.849512,
            "lng": 113.132684
        },
        "ad_info": {
            "adcode": 430203,
            "province": "湖南省",
            "city": "株洲市",
            "district": "芦淞区"
        }
    },
    {
        "id": "9124771504283397914",
        "title": "公共厕所",
        "address": "湖南省株洲市醴陵市左权南路与泉湖路交叉口东南方向264米左右",
        "tel": "",
        "category": "基础设施:公共设施:公共厕所",
        "type": 0,
        "location": {
            "lat": 27.643614,
            "lng": 113.508689
        },
        "ad_info": {
            "adcode": 430281,
            "province": "湖南省",
            "city": "株洲市",
            "district": "醴陵市"
        }
    },
    {
        "id": "1932707342720960771",
        "title": "建宁驿站劳动局移动公共厕所",
        "address": "湖南省株洲市天元区株洲市劳动就业管理局旁",
        "tel": "",
        "category": "基础设施:公共设施:公共厕所",
        "type": 0,
        "location": {
            "lat": 27.832684,
            "lng": 113.1337
        },
        "ad_info": {
            "adcode": 430211,
            "province": "湖南省",
            "city": "株洲市",
            "district": "天元区"
        }
    },
    {
        "id": "18205131431269908767",
        "title": "公共厕所",
        "address": "湖南省株洲市醴陵市左权南路与柒家坝路交叉口正南方向260米左右",
        "tel": "",
        "category": "基础设施:公共设施:公共厕所",
        "type": 0,
        "location": {
            "lat": 27.638132,
            "lng": 113.511032
        },
        "ad_info": {
            "adcode": 430281,
            "province": "湖南省",
            "city": "株洲市",
            "district": "醴陵市"
        }
    },
    {
        "id": "6921988987472700371",
        "title": "公共厕所",
        "address": "湖南省株洲市石峰区响田路181号",
        "tel": "",
        "category": "基础设施:公共设施:公共厕所",
        "type": 0,
        "location": {
            "lat": 27.872836,
            "lng": 113.122178
        },
        "ad_info": {
            "adcode": 430204,
            "province": "湖南省",
            "city": "株洲市",
            "district": "石峰区"
        }
    },
    {
        "id": "5024009174979955902",
        "title": "公共厕所",
        "address": "湖南省株洲市芦淞区北沿路与幸福村路交叉口正南方向68米左右",
        "tel": "",
        "category": "基础设施:公共设施:公共厕所",
        "type": 0,
        "location": {
            "lat": 27.804933,
            "lng": 113.190586
        },
        "ad_info": {
            "adcode": 430203,
            "province": "湖南省",
            "city": "株洲市",
            "district": "芦淞区"
        }
    },
    {
        "id": "14028707735175599000",
        "title": "公共厕所",
        "address": "湖南省株洲市醴陵市站前路与醴陵大道交叉口西南方向78米左右",
        "tel": "",
        "category": "基础设施:公共设施:公共厕所",
        "type": 0,
        "location": {
            "lat": 27.712757,
            "lng": 113.577997
        },
        "ad_info": {
            "adcode": 430281,
            "province": "湖南省",
            "city": "株洲市",
            "district": "醴陵市"
        }
    },
    {
        "id": "9445852005409707666",
        "title": "公共厕所",
        "address": "湖南省株洲市攸县工业路与湘化一巷交叉口正东方向121米左右",
        "tel": "",
        "category": "基础设施:公共设施:公共厕所",
        "type": 0,
        "location": {
            "lat": 26.993959,
            "lng": 113.31645
        },
        "ad_info": {
            "adcode": 430223,
            "province": "湖南省",
            "city": "株洲市",
            "district": "攸县"
        }
    },
    {
        "id": "12370819770239420853",
        "title": "公共厕所",
        "address": "湖南省株洲市茶陵县昌盛街与财富街交叉口正西方向226米左右",
        "tel": "",
        "category": "基础设施:公共设施:公共厕所",
        "type": 0,
        "location": {
            "lat": 26.768498,
            "lng": 113.523907
        },
        "ad_info": {
            "adcode": 430224,
            "province": "湖南省",
            "city": "株洲市",
            "district": "茶陵县"
        }
    },
    {
        "id": "7904472259202257873",
        "title": "公共厕所",
        "address": "湖南省株洲市石峰区人民北路650号",
        "tel": "",
        "category": "基础设施:公共设施:公共厕所",
        "type": 0,
        "location": {
            "lat": 27.875717,
            "lng": 113.129391
        },
        "ad_info": {
            "adcode": 430204,
            "province": "湖南省",
            "city": "株洲市",
            "district": "石峰区"
        }
    },
    {
        "id": "6749249473459193514",
        "title": "公共厕所",
        "address": "湖南省株洲市芦淞区株醴路与芦淞路交叉口正西方向38米左右",
        "tel": "",
        "category": "基础设施:公共设施:公共厕所",
        "type": 0,
        "location": {
            "lat": 27.816196,
            "lng": 113.18235
        },
        "ad_info": {
            "adcode": 430203,
            "province": "湖南省",
            "city": "株洲市",
            "district": "芦淞区"
        }
    },
    {
        "id": "10530422369722160234",
        "title": "公共厕所",
        "address": "湖南省株洲市攸县工业路中天印象小区",
        "tel": "",
        "category": "基础设施:公共设施:公共厕所",
        "type": 0,
        "location": {
            "lat": 26.993642,
            "lng": 113.318533
        },
        "ad_info": {
            "adcode": 430223,
            "province": "湖南省",
            "city": "株洲市",
            "district": "攸县"
        }
    },
    {
        "id": "9632533398554862347",
        "title": "公共厕所",
        "address": "湖南省株洲市醴陵市凤凰街与财源塔路交叉口东北方向9米左右",
        "tel": "",
        "category": "基础设施:公共设施:公共厕所",
        "type": 0,
        "location": {
            "lat": 27.662214,
            "lng": 113.492816
        },
        "ad_info": {
            "adcode": 430281,
            "province": "湖南省",
            "city": "株洲市",
            "district": "醴陵市"
        }
    },
    {
        "id": "1263707231554166385",
        "title": "公共厕所",
        "address": "湖南省株洲市芦淞区樟树平巷与王塔冲路交叉口西南方向98米左右",
        "tel": "",
        "category": "基础设施:公共设施:公共厕所",
        "type": 0,
        "location": {
            "lat": 27.822752,
            "lng": 113.153748
        },
        "ad_info": {
            "adcode": 430203,
            "province": "湖南省",
            "city": "株洲市",
            "district": "芦淞区"
        }
    },
    {
        "id": "12294935716327181913",
        "title": "公共厕所",
        "address": "湖南省株洲市石峰区果园路与株易路交叉口正南方向219米左右",
        "tel": "",
        "category": "基础设施:公共设施:公共厕所",
        "type": 0,
        "location": {
            "lat": 27.892264,
            "lng": 113.08763
        },
        "ad_info": {
            "adcode": 430204,
            "province": "湖南省",
            "city": "株洲市",
            "district": "石峰区"
        }
    },
    {
        "id": "5121304990371226554",
        "title": "公共厕所",
        "address": "湖南省株洲市渌口区南江北路与漉浦大道交叉口正北方向78米左右",
        "tel": "",
        "category": "基础设施:公共设施:公共厕所",
        "type": 0,
        "location": {
            "lat": 27.707412,
            "lng": 113.143119
        },
        "ad_info": {
            "adcode": 430212,
            "province": "湖南省",
            "city": "株洲市",
            "district": "渌口区"
        }
    },
    {
        "id": "13080141274473999315",
        "title": "公共厕所",
        "address": "湖南省株洲市芦淞区人民中路与人民北路交叉口西北方向48米左右",
        "tel": "",
        "category": "基础设施:公共设施:公共厕所",
        "type": 0,
        "location": {
            "lat": 27.856009,
            "lng": 113.13583
        },
        "ad_info": {
            "adcode": 430203,
            "province": "湖南省",
            "city": "株洲市",
            "district": "芦淞区"
        }
    },
    {
        "id": "9452594586447912440",
        "title": "公共厕所",
        "address": "湖南省株洲市攸县G106与X118交叉口西南方向415米左右",
        "tel": "",
        "category": "基础设施:公共设施:公共厕所",
        "type": 0,
        "location": {
            "lat": 27.219334,
            "lng": 113.436412
        },
        "ad_info": {
            "adcode": 430223,
            "province": "湖南省",
            "city": "株洲市",
            "district": "攸县"
        }
    },
    {
        "id": "15166383534308604019",
        "title": "公共厕所",
        "address": "湖南省株洲市天元区神农大道建宁驿站体育中心斜对面",
        "tel": "",
        "category": "基础设施:公共设施:公共厕所",
        "type": 0,
        "location": {
            "lat": 27.837794,
            "lng": 113.11453
        },
        "ad_info": {
            "adcode": 430211,
            "province": "湖南省",
            "city": "株洲市",
            "district": "天元区"
        }
    },
    {
        "id": "5257845841777154894",
        "title": "公共厕所",
        "address": "湖南省株洲市天元区森林路与珠江北路交叉口正北方向55米左右",
        "tel": "",
        "category": "基础设施:公共设施:公共厕所",
        "type": 0,
        "location": {
            "lat": 27.826219,
            "lng": 113.11626
        },
        "ad_info": {
            "adcode": 430211,
            "province": "湖南省",
            "city": "株洲市",
            "district": "天元区"
        }
    },
    {
        "id": "4697900626036139619",
        "title": "公共厕所",
        "address": "湖南省株洲市芦淞区华升路伟业大厦附近(阳光新城南)",
        "tel": "",
        "category": "基础设施:公共设施:公共厕所",
        "type": 0,
        "location": {
            "lat": 27.849512,
            "lng": 113.132684
        },
        "ad_info": {
            "adcode": 430203,
            "province": "湖南省",
            "city": "株洲市",
            "district": "芦淞区"
        }
    },
    {
        "id": "9124771504283397914",
        "title": "公共厕所",
        "address": "湖南省株洲市醴陵市左权南路与泉湖路交叉口东南方向264米左右",
        "tel": "",
        "category": "基础设施:公共设施:公共厕所",
        "type": 0,
        "location": {
            "lat": 27.643614,
            "lng": 113.508689
        },
        "ad_info": {
            "adcode": 430281,
            "province": "湖南省",
            "city": "株洲市",
            "district": "醴陵市"
        }
    },
    {
        "id": "1932707342720960771",
        "title": "建宁驿站劳动局移动公共厕所",
        "address": "湖南省株洲市天元区株洲市劳动就业管理局旁",
        "tel": "",
        "category": "基础设施:公共设施:公共厕所",
        "type": 0,
        "location": {
            "lat": 27.832684,
            "lng": 113.1337
        },
        "ad_info": {
            "adcode": 430211,
            "province": "湖南省",
            "city": "株洲市",
            "district": "天元区"
        }
    },
    {
        "id": "18205131431269908767",
        "title": "公共厕所",
        "address": "湖南省株洲市醴陵市左权南路与柒家坝路交叉口正南方向260米左右",
        "tel": "",
        "category": "基础设施:公共设施:公共厕所",
        "type": 0,
        "location": {
            "lat": 27.638132,
            "lng": 113.511032
        },
        "ad_info": {
            "adcode": 430281,
            "province": "湖南省",
            "city": "株洲市",
            "district": "醴陵市"
        }
    },
    {
        "id": "6921988987472700371",
        "title": "公共厕所",
        "address": "湖南省株洲市石峰区响田路181号",
        "tel": "",
        "category": "基础设施:公共设施:公共厕所",
        "type": 0,
        "location": {
            "lat": 27.872836,
            "lng": 113.122178
        },
        "ad_info": {
            "adcode": 430204,
            "province": "湖南省",
            "city": "株洲市",
            "district": "石峰区"
        }
    },
    {
        "id": "5024009174979955902",
        "title": "公共厕所",
        "address": "湖南省株洲市芦淞区北沿路与幸福村路交叉口正南方向68米左右",
        "tel": "",
        "category": "基础设施:公共设施:公共厕所",
        "type": 0,
        "location": {
            "lat": 27.804933,
            "lng": 113.190586
        },
        "ad_info": {
            "adcode": 430203,
            "province": "湖南省",
            "city": "株洲市",
            "district": "芦淞区"
        }
    },